     2.10           OBSERVATION DATA    GPS(GPS)            RINEX VERSION / TYPE
cnvtToRINEX 3.07.0  convertToRINEX OPR  19-May-20 12:31 UTC PGM / RUN BY / DATE 
----------------------------------------------------------- COMMENT             
GBA0                                                        MARKER NAME         
GBA0                                                        MARKER NUMBER       
GNSS Observer       Trimble                                 OBSERVER / AGENCY   
0220324777          5700                2.32                REC # / TYPE / VERS 
                    TRM39105.00                             ANT # / TYPE        
 -3050437.1836  4927957.2499  2653973.6697                  APPROX POSITION XYZ 
       -0.0460        0.0000        0.0000                  ANTENNA: DELTA H/E/N
     1     1     0                                          WAVELENGTH FACT L1/2
     4    C1    L1    L2    P2                              # / TYPES OF OBSERV 
  2020     5    16     0     4   25.0000000     GPS         TIME OF FIRST OBS   
  2020     5    16     1    34    0.0000000     GPS         TIME OF LAST OBS    
     0                                                      RCV CLOCK OFFS APPL 
    18                                                      LEAP SECONDS        
    11                                                      # OF SATELLITES     
   G03   163   145   163   163                              PRN / # OF OBS      
   G04  4850  4805  4627  4627                              PRN / # OF OBS      
   G08  5349  5348  5348  5348                              PRN / # OF OBS      
   G11  1817  1817  1817  1817                              PRN / # OF OBS      
   G14  3088  3074  3032  3032                              PRN / # OF OBS      
   G16  5376  5375  5376  5376                              PRN / # OF OBS      
   G21  4337  4331  4319  4319                              PRN / # OF OBS      
   G26  5376  5375  5376  5376                              PRN / # OF OBS      
   G27  5376  5376  5376  5376                              PRN / # OF OBS      
   G31  5376  5375  5371  5371                              PRN / # OF OBS      
   G32   175   161    36    36                              PRN / # OF OBS      
CARRIER PHASE MEASUREMENTS: PHASE SHIFTS REMOVED            COMMENT             
                                                            END OF HEADER       
 20  5 16  0  4 25.0000000  0  4G16G26G27G31                        -0.000368387
  20526901.34417    -16573.78517     -9723.18858  20526897.59058
  20970402.24217     41933.46917     27518.89559  20970401.53959
  21343184.18816   -106535.93816    -55155.23459  21343183.07059
  21629987.93016     23442.35516     12343.61759  21629984.12559
 20  5 16  0  4 26.0000000  0  4G16G26G27G31                        -0.000368654
  20526827.500 6    -16962.609 6    -10026.16448  20526823.24248
  20970599.461 7     42971.430 7     28327.69949  20970598.90249
  21342552.672 6   -109854.434 6    -57741.07849  21342551.30149
  21630071.930 6     23882.902 6     12686.89849  21630068.41049
 20  5 16  0  4 27.0000000  0  4G16G26G27G31                        -0.000368923
  20526753.219 6    -17352.047 6    -10329.62148  20526748.77348
  20970796.836 7     44008.574 7     29135.86349  20970796.34449
  21341921.156 6   -113173.430 6    -60327.30949  21341919.86749
  21630155.672 6     24322.707 6     13029.60249  21630151.59449
 20  5 16  0  4 28.0000000  0  4G16G26G27G31                        -0.000369192
  20526679.383 6    -17742.063 6    -10633.53148  20526674.65648
  20970994.242 7     45044.867 7     29943.36349  20970993.55949
  21341289.734 6   -116492.980 6    -62913.97749  21341288.03949
  21630239.047 6     24761.715 6     13371.68049  21630235.29749
 20  5 16  0  4 29.0000000  0  4G16G26G27G31                        -0.000369461
  20526604.953 6    -18132.805 6    -10938.01248  20526600.68048
  20971191.484 7     46080.258 7     30750.15649  20971190.45749
  21340657.953 6   -119813.160 6    -65501.13349  21340656.50049
  21630322.813 6     25199.879 6     13713.10549  21630318.93049
 20  5 16  0  4 30.0000000  0  4G16G26G27G31                        -0.000369732
  20526530.508 6    -18524.082 6    -11242.90248  20526526.07848
  20971388.039 7     47114.887 7     31556.35949  20971387.18849
  21340025.570 6   -123133.820 6    -68088.66049  21340024.85549
  21630405.813 6     25637.340 6     14053.98449  21630402.05149
 20  5 16  0  4 31.0000000  0  4G16G26G27G31                        -0.000370003
  20526455.641 6    -18916.199 6    -11548.45348  20526451.99248
  20971584.805 7     48148.426 7     32361.71549  20971584.24649
  21339393.453 6   -126455.242 6    -70676.77749  21339392.33649
  21630488.781 6     26073.797 6     14394.08249  21630485.23049
 20  5 16  0  4 32.0000000  0  4G16G26G27G31                        -0.000370274
  20526380.867 6    -19308.938 6    -11854.48048  20526376.97748
  20971781.172 6     49181.164 6     33166.44549  20971780.56349
  21338761.406 6   -129777.211 6    -73265.33249  21338760.51649
  21630571.977 7     26509.484 7     14733.57449  21630567.96549
 20  5 16  0  4 33.0000000  0  4G16G26G27G31                        -0.000370546
  20526306.477 6    -19702.277 6    -12160.98448  20526301.93448
  20971977.953 6     50213.047 6     33970.50449  20971976.75849
  21338129.047 6   -133099.711 6    -75854.30149  21338127.88749
  21630654.539 6     26944.391 6     15072.45749  21630650.87949
 20  5 16  0  4 34.0000000  0  4G16G26G27G31                        -0.000370817
  20526230.859 6    -20096.094 6    -12467.85548  20526227.04748
  20972173.945 6     51244.242 6     34774.03149  20972173.02749
  21337497.016 6   -136422.617 6    -78443.57849  21337495.53149
  21630737.008 6     27378.672 6     15410.85549  21630733.66049
 20  5 16  0  4 35.0000000  0  4G16G26G27G31                        -0.000371092
  20526156.047 6    -20490.508 6    -12775.19148  20526151.66848
  20972370.172 6     52274.598 6     35576.90649  20972369.22349
  21336864.844 6   -139746.055 6    -81033.27349  21336863.38349
  21630819.781 6     27812.211 6     15748.68049  21630815.94149
 20  5 16  0  4 36.0000000  0  4G16G26G27G31                        -0.000371365
  20526081.219 6    -20885.344 6    -13082.85948  20526077.24648
  20972565.711 6     53304.355 6     36379.31649  20972565.11349
  21336232.195 6   -143069.820 6    -83623.22349  21336231.08249
  21630901.930 6     28245.188 6     16086.06349  21630898.35549
 20  5 16  0  4 37.0000000  0  4G16G26G27G31                        -0.000371639
  20526005.930 6    -21280.758 6    -13390.97348  20526001.43448
  20972761.805 6     54333.293 6     37181.09049  20972761.13749
  21335599.320 6   -146394.113 6    -86213.57449  21335598.29749
  21630984.211 6     28677.375 6     16422.83249  21630980.61749
 20  5 16  0  4 38.0000000  0  4G16G26G27G31                        -0.000371914
  20525930.789 7    -21676.641 7    -13699.44948  20525926.52748
  20972957.555 7     55361.504 7     37982.29349  20972956.99649
  21334966.367 6   -149718.793 6    -88804.23049  21334965.58249
  21631066.000 6     29108.934 6     16759.10549  21631062.30149
 20  5 16  0  4 39.0000000  0  4G16G26G27G31                        -0.000372189
  20525855.172 7    -22073.004 7    -14008.30948  20525851.02048
  20973153.164 7     56389.047 7     38782.97749  20973152.39849
  21334333.883 6   -153043.898 6    -91395.22349  21334332.83249
  21631148.188 6     29539.863 6     17094.90249  21631144.69949
 20  5 16  0  4 40.0000000  0  4G16G26G27G31                        -0.000372465
  20525779.156 6    -22470.234 6    -14317.84448  20525775.16448
  20973348.906 7     57415.500 7     39582.80549  20973347.60249
  21333701.516 6   -156369.801 6    -93986.84849  21333700.26249
  21631229.633 6     29969.797 6     17429.92649  21631226.44949
 20  5 16  0  4 41.0000000  0  4G16G26G27G31                        -0.000372742
  20525703.680 6    -22868.074 6    -14627.84848  20525699.89848
  20973543.547 7     58441.117 7     40381.98049  20973542.66849
  21333068.719 6   -159696.188 6    -96578.84449  21333067.13749
  21631311.734 6     30398.938 6     17764.31649  21631308.25849
 20  5 16  0  4 42.0000000  0  4G16G26G27G31                        -0.000373018
  20525628.289 6    -23266.391 6    -14938.21948  20525624.03948
  20973739.148 7     59466.023 7     41180.61349  20973737.81349
  21332435.375 6   -163023.043 6    -99171.20349  21332434.30949
  21631393.664 6     30827.426 6     18098.19949  21631390.05149
 20  5 16  0  4 43.0000000  0  4G16G26G27G31                        -0.000373297
  20525552.086 6    -23665.180 6    -15248.96948  20525547.64848
  20973933.539 7     60490.238 7     41978.70749  20973932.65649
  21331801.906 6   -166350.281 6   -101763.85549  21331800.85249
  21631475.320 6     31255.313 6     18431.61349  21631471.16449
 20  5 16  0  4 44.0000000  0  4G16G26G27G31                        -0.000373575
  20525476.047 6    -24064.242 6    -15559.93048  20525472.12548
  20974128.328 7     61513.977 7     42776.41449  20974127.29349
  21331168.703 6   -169677.691 6   -104356.64549  21331167.78949
  21631556.016 6     31682.754 6     18764.68449  21631552.46949
 20  5 16  0  4 45.0000000  0  4G16G26G27G31                        -0.000373854
  20525400.078 6    -24463.848 6    -15871.31348  20525396.05148
  20974323.031 7     62536.941 7     43573.53149  20974322.59449
  21330534.875 6   -173005.574 6   -106949.79749  21330534.39549
  21631637.430 6     32109.508 6     19097.21949  21631633.78949
 20  5 16  0  4 46.0000000  0  4G16G26G27G31                        -0.000374134
  20525324.008 6    -24863.918 6    -16183.05548  20525320.03548
  20974517.289 7     63559.184 7     44370.08649  20974516.89149
  21329902.422 6   -176333.863 6   -109543.27049  21329900.65649
  21631718.813 7     32535.609 7     19429.24649  21631714.44949
 20  5 16  0  4 47.0000000  0  4G16G26G27G31                        -0.000374414
  20525247.641 6    -25264.625 6    -16495.29348  20525243.92648
  20974711.797 6     64580.598 6     45165.98449  20974711.60249
  21329269.031 6   -179662.715 6   -112137.18449  21329267.82849
  21631799.555 6     32960.941 6     19760.67249  21631795.68449
 20  5 16  0  4 48.0000000  0  4G16G26G27G31                        -0.000374693
  20525171.273 6    -25665.781 6    -16807.87948  20525167.68848
  20974906.156 6     65601.355 6     45961.38749  20974905.62949
  21328635.656 6   -182991.984 6   -114731.42249  21328634.05549
  21631880.352 7     33385.688 7     20091.64149  21631875.98449
 20  5 16  0  4 49.0000000  0  5G16G26G27G31G32                     -0.000374975
  20525094.891 6    -26067.313 6    -17120.76248  20525091.35948
  20975100.273 6     66621.496 6     46756.29749  20975099.81349
  21328002.219 6   -186321.492 6   -117325.85249  21328000.42649
  21631961.203 6     33809.859 6     20422.16449  21631956.70749
  23827400.36712     76808.62912                
 20  5 16  0  4 50.0000000  0  7G08G14G16G26G27G31G32               -0.000375307
  23672825.50815   -116592.03915    -62266.98857  23672826.55557
  21776333.25016     67750.30116     45985.46157  21776329.69557
  20525018.422 6    -26469.359 6    -17434.05148  20525014.43048
  20975294.156 6     67640.883 6     47550.62149  20975293.55549
  21327368.313 6   -189651.496 6   -119920.65249  21327366.99649
  21632041.961 7     34233.363 7     20752.16449  21632037.68449
  23828012.148 2     80025.641 2                
 20  5 16  0  4 51.0000000  0  7G08G14G16G26G27G31G32               -0.000375589
  23672032.430 4   -120761.449 4    -65515.86347  23672033.11747
  21776792.617 6     70162.805 6     47865.34046  21776788.87146
  20524941.609 6    -26871.883 6    -17747.69948  20524938.00448
  20975488.250 7     68659.613 7     48344.43849  20975487.58649
  21326734.180 6   -192981.859 6   -122515.75049  21326733.09849
  21632122.031 6     34656.254 6     21081.68449  21632117.99649
  23828624.805 2     83241.938 2                
 20  5 16  0  4 52.0000000  0  7G08G14G16G26G27G31G32               -0.000375872
  23671239.664 4   -124931.836 4    -68765.50447  23671239.78147
  21777251.578 6     72574.609 6     49744.67246  21777247.84446
  20524865.023 6    -27275.094 6    -18061.89548  20524861.31648
  20975681.883 7     69677.414 7     49137.52049  20975680.76649
  21326100.555 6   -196312.859 6   -125111.33249  21326099.33249
  21632202.891 6     35078.293 6     21410.54349  21632198.57449
  23829236.438 1     86457.234 1                
 20  5 16  0  4 53.0000000  0  7G08G14G16G26G27G31G32               -0.000376156
  23670444.781 4   -129102.797 4    -72015.59447  23670446.12547
  21777710.469 6     74986.102 6     51623.75047  21777706.47747
  20524788.164 6    -27678.664 6    -18376.35948  20524784.25448
  20975875.398 7     70694.617 7     49930.14849  20975874.97749
  21325466.313 6   -199644.125 6   -127707.12149  21325465.28549
  21632282.469 7     35499.816 7     21738.99249  21632278.28949
  23829847.711 2     89671.965 2                
 20  5 16  0  4 54.0000000  0  7G08G14G16G26G27G31G32               -0.000376438
  23669651.289 4   -133274.617 4    -75266.36347  23669652.46147
  21778168.922 6     77396.980 6     53502.35947  21778165.46947
  20524711.484 6    -28082.867 6    -18691.32848  20524707.63348
  20976068.688 7     71710.988 7     50722.12549  20976068.05149
  21324832.344 6   -202975.969 6   -130303.36749  21324831.23449
  21632363.148 7     35920.551 7     22066.84049  21632358.69549
  23830459.984 2     92885.793 2                
 20  5 16  0  4 55.0000000  0  7G08G14G16G26G27G31G32               -0.000376724
  23668857.266 3   -137447.246 3    -78517.77347  23668857.93847
  21778627.156 6     79807.344 6     55380.55547  21778623.63347
  20524634.523 6    -28487.613 6    -19006.71948  20524630.32848
  20976261.578 6     72726.566 6     51513.48449  20976261.73049
  21324197.938 6   -206308.254 6   -132899.95349  21324197.28149
  21632442.695 6     36340.578 6     22394.13349  21632438.41449
  23831070.883 2     96098.777 2                
 20  5 16  0  4 56.0000000  0  7G08G14G16G26G27G31G32               -0.000377008
  23668063.508 4   -141620.504 4    -81769.67647  23668063.90247
  21779086.273 6     82217.398 6     57258.52347  21779082.73447
  20524557.539 6    -28892.684 6    -19322.35248  20524553.30148
  20976455.484 6     73741.590 6     52304.41449  20976454.59449
  21323564.320 6   -209640.863 6   -135496.79349  21323562.96949
  21632522.695 7     36760.090 7     22721.02749  21632518.41049
  23831682.609 2     99311.184 2                
 20  5 16  0  4 57.0000000  0  7G08G14G16G26G27G31G32               -0.000377295
  23667268.398 4   -145794.387 4    -85022.05547  23667269.01647
  21779545.375 6     84627.055 6     59136.17247  21779541.17247
  20524480.344 6    -29298.227 6    -19638.36348  20524476.31648
  20976648.234 6     74755.969 6     53094.84049  20976647.57849
  21322929.977 6   -212973.777 6   -138093.86749  21322929.41849
  21632601.992 7     37179.031 7     23047.46549  21632597.61749
  23832294.086 2    102522.910 2                
 20  5 16  0  4 58.0000000  0  7G08G14G16G26G27G31G32               -0.000377581
  23666474.117 4   -149969.211 4    -88275.16447  23666474.85547
  21780003.813 6     87036.023 6     61013.28147  21779999.41447
  20524402.875 6    -29704.426 6    -19954.87948  20524398.74648
  20976841.313 6     75769.434 6     53884.54749  20976840.34849
  21322295.594 6   -216307.320 6   -140691.43849  21322294.78949
  21632681.797 7     37597.133 7     23373.26249  21632677.57049
  23832904.992 2    105733.691 2                
 20  5 16  0  4 59.0000000  0  7G08G14G16G26G27G31G32               -0.000377867
  23665680.430 4   -154144.652 4    -91528.75047  23665680.48847
  21780461.680 6     89444.602 6     62890.09047  21780457.81347
  20524325.602 6    -30111.059 6    -20271.73848  20524321.76248
  20977033.586 6     76782.242 6     54673.75049  20977033.00449
  21321661.133 6   -219641.227 6   -143289.28549  21321660.17649
  21632760.695 7     38014.613 7     23698.57049  21632756.79349
  23833515.281 1    108943.836 1                
 20  5 16  0  5  0.0000000  0  7G08G14G16G26G27G31G32               -0.000378153
  23664885.977 4   -158320.891 4    -94782.95747  23664885.83247
  21780919.961 6     91852.680 6     64766.52747  21780915.85247
  20524248.133 6    -30518.176 6    -20588.97348  20524244.52748
  20977225.977 6     77794.336 6     55462.38749  20977225.55549
  21321026.711 6   -222975.543 6   -145887.45349  21321025.97349
  21632840.742 6     38431.480 6     24023.40249  21632836.27749
  23834124.516 1    112153.113 1                
 20  5 16  0  5  1.0000000  0  7G08G14G16G26G27G31G32               -0.000378443
  23664090.406 4   -162497.730 4    -98037.63747  23664090.57447
  21781378.320 6     94260.406 6     66642.68047  21781374.03947
  20524170.352 6    -30925.688 6    -20906.51648  20524166.67248
  20977418.969 7     78805.801 7     56250.54349  20977418.11749
  21320391.805 6   -226310.172 6   -148485.85949  21320391.41049
  21632919.359 6     38847.773 6     24347.78549  21632915.17249
  23834736.281 1    115361.781 1                
 20  5 16  0  5  2.0000000  0  7G08G14G16G26G27G31G32               -0.000378731
  23663295.477 4   -166675.176 4   -101292.78147  23663296.15247
  21781836.305 6     96667.770 6     68518.53947  21781832.13347
  20524092.539 6    -31333.578 6    -21224.35948  20524088.86748
  20977611.430 7     79816.711 7     57038.27049  20977610.61349
  21319756.906 6   -229645.105 6   -151084.50849  21319756.30549
  21632998.492 6     39263.551 6     24671.76649  21632994.50849
  23835347.070 2    118569.828 2                
 20  5 16  0  5  3.0000000  0  7G08G14G16G26G27G31G32               -0.000379019
  23662500.266 4   -170853.355 4   -104548.50047  23662500.53947
  21782294.055 6     99074.652 6     70394.03547  21782290.30147
  20524015.211 6    -31741.961 6    -21542.59048  20524011.19148
  20977803.148 6     80826.852 6     57825.39549  20977802.61749
  21319122.648 6   -232980.469 6   -153683.49649  21319121.67649
  21633077.492 6     39678.668 6     24995.22749  21633073.25849
  23835957.813 2    121777.086 2                
 20  5 16  0  5  4.0000000  0  7G08G14G16G26G27G31G32               -0.000379309
  23661704.992 4   -175032.164 4   -107804.73047  23661705.93447
  21782752.211 6    101481.191 6     72269.26247  21782748.43847
  20523937.594 6    -32150.734 6    -21861.11348  20523933.41848
  20977995.281 7     81836.414 7     58612.06349  20977994.89849
  21318487.516 6   -236316.141 6   -156282.72349  21318487.37149
  21633156.641 6     40093.234 6     25318.26249  21633152.33249
  23836566.805 1    124983.727 1                
 20  5 16  0  5  5.0000000  0  7G08G14G16G26G27G31G32               -0.000379599
  23660909.945 4   -179211.643 4   -111061.47747  23660910.20347
  21783209.906 6    103887.313 6     74144.15247  21783206.30147
  20523859.414 6    -32559.949 6    -22179.99248  20523855.43448
  20978187.398 7     82845.324 7     59398.23049  20978186.74249
  21317852.633 6   -239652.148 6   -158882.20349  21317852.35949
  21633235.086 6     40507.234 6     25640.85549  21633231.15649
  23837177.945 1    128189.613 1                
 20  5 16  0  5  6.0000000  0  7G08G14G16G26G27G31G32               -0.000379889
  23660114.672 4   -183391.789 4   -114318.72747  23660114.68847
  21783667.641 6    106293.074 6     76018.78547  21783664.27047
  20523781.906 6    -32969.555 6    -22499.16048  20523777.63748
  20978379.352 7     83853.602 7     60183.89549  20978378.77049
  21317217.789 6   -242988.488 6   -161481.94949  21317217.17649
  21633314.023 6     40920.664 6     25963.01249  21633309.82449
  23837788.164 1    131394.930 1                
 20  5 16  0  5  7.0000000  0  7G08G14G16G26G27G31G32               -0.000380178
  23659318.609 4   -187572.516 4   -117576.43047  23659319.28147
  21784125.219 6    108698.434 6     77893.08647  21784122.19947
  20523703.844 6    -33379.563 6    -22818.65248  20523699.54748
  20978570.914 7     84861.254 7     60969.07849  20978570.52049
  21316583.000 6   -246325.164 6   -164081.95349  21316582.56349
  21633392.820 6     41333.539 6     26284.73449  21633388.17249
  23838395.711 1    134599.453 1      1498.91856  23838399.60956
 20  5 16  0  5  8.0000000  0  7G08G14G16G26G27G31G32               -0.000380470
  23658523.250 4   -191753.867 4   -120834.62147  23658523.09047
  21784584.047 6    111103.453 6     79767.12147  21784579.76647
  20523625.336 6    -33789.930 6    -23138.41848  20523621.19548
  20978762.680 7     85868.328 7     61753.81349  20978761.88749
  21315947.750 6   -249662.129 6   -166682.19149  21315947.55549
  21633470.578 6     41745.871 6     26606.03549  21633467.22349
  23839005.781 1    137803.598 1      3995.58646  23839009.23446
 20  5 16  0  5  9.0000000  0  7G08G14G16G26G27G31G32               -0.000380770
  23657727.750 4   -195935.770 4   -124093.25047  23657727.36747
  21785040.352 6    113508.133 6     81640.88747  21785036.79347
  20523547.094 6    -34200.645 6    -23458.44948  20523543.18848
  20978953.734 7     86874.793 7     62538.07449  20978953.46149
  21315312.984 6   -252999.359 6   -169282.62549  21315312.77349
  21633549.570 6     42157.738 6     26926.96949  21633545.02349
  23839617.27312                      6491.59856  23839618.94156
 20  5 16  0  5 10.0000000  0  7G08G14G16G26G27G31G32               -0.000381060
  23656931.602 4   -200118.461 4   -127352.48047  23656931.69147
  21785498.156 6    115912.398 6     83514.35247  21785494.89847
  20523469.164 6    -34611.867 6    -23778.88748  20523464.80548
  20979145.375 6     87880.570 6     63321.79349  20979145.00049
  21314677.609 6   -256337.004 6   -171883.38749  21314677.34449
  21633627.445 6     42568.906 6     27247.35549  21633623.56349
  23840226.703 1    144209.523 1      8987.19945  23840228.25845
 20  5 16  0  5 11.0000000  0  7G08G14G16G26G27G31G32               -0.000381346
  23656134.969 4   -204301.859 4   -130612.27047  23656135.58647
  21785955.430 6    118316.109 6     85387.36747  21785951.71947
  20523390.664 6    -35023.570 6    -24099.69548  20523387.03148
  20979336.586 6     88885.621 6     64104.94549  20979335.87149
  21314041.891 6   -259675.090 6   -174484.48849  21314042.17649
  21633705.648 6     42979.434 6     27567.25049  21633701.99649
  23840836.125 1    147411.336 1     11482.11345  23840837.96145
 20  5 16  0  5 12.0000000  0  7G08G14G16G26G27G31G32               -0.000381639
  23655339.438 4   -208486.047 4   -133872.68447  23655338.87547
  21786413.031 6    120719.379 6     87260.04347  21786409.30947
  20523312.188 6    -35435.785 6    -24420.89848  20523308.16048
  20979527.969 6     89889.961 6     64887.54349  20979527.14849
  21313407.016 6   -263013.590 6   -177085.91849  21313406.96149
  21633783.828 6     43389.297 6     27886.61749  21633780.02749
  23841443.859 1    150612.441 1     13976.50045  23841447.40245
 20  5 16  0  5 13.0000000  0  8G03G08G14G16G26G27G31G32            -0.000381933
  24249395.35211     44359.79711     23093.49656  24249396.95356
  23654542.953 4   -212670.863 4   -137133.57847  23654542.78547
  21786869.875 6    123122.250 6     89132.40647  21786866.13747
  20523234.164 6    -35848.406 6    -24742.43048  20523229.84448
  20979718.625 6     90893.664 6     65669.64549  20979718.59849
  21312771.711 6   -266352.418 6   -179687.60249  21312771.76649
  21633861.633 6     43798.594 6     28205.55549  21633857.49649
  23842052.594 1    153812.855 1     16470.39845  23842055.88345
 20  5 16  0  5 14.0000000  0  8G03G08G14G16G26G27G31G32            -0.000382221
  24249599.477 1     45433.766 1     23930.36746  24249601.32046
  23653746.117 4   -216856.184 4   -140394.86747  23653746.20347
  21787327.430 6    125524.906 6     91004.60547  21787323.65247
  20523155.375 6    -36261.270 6    -25064.14148  20523151.52048
  20979910.055 6     91896.898 6     66451.39149  20979909.54349
  21312136.078 6   -269691.430 6   -182289.43849  21312136.16449
  21633938.945 6     44207.516 6     28524.19549  21633935.27049
  23842662.500 1    157012.758 1     18963.78945  23842665.59045
 20  5 16  0  5 15.0000000  0  8G03G08G14G16G26G27G31G32            -0.000382515
  24249804.414 1     46507.109 1     24766.73046  24249805.54346
  23652949.656 4   -221042.293 4   -143656.77747  23652949.77047
  21787784.414 6    127927.063 6     92876.42247  21787780.82047
  20523076.406 7    -36674.668 7    -25386.27048  20523072.40648
  20980100.586 6     92899.359 6     67232.52349  20980100.17649
  21311500.625 6   -273030.875 6   -184891.60549  21311500.77049
  21634017.211 6     44615.723 6     28842.27349  21634013.44949
  23843271.227 1    160211.934 1     21456.67245  23843274.01645
 20  5 16  0  5 16.0000000  0  8G03G08G14G16G26G27G31G32            -0.000382811
  24250008.219 1     47579.863 1     25602.66046  24250009.86346
  23652152.961 4   -225228.949 4   -146919.11347  23652153.20347
  21788241.570 6    130328.891 6     94747.96947  21788237.28147
  20522997.719 6    -37088.406 6    -25708.66448  20522993.63748
  20980291.430 6     93901.281 6     68013.23849  20980290.93449
  21310865.289 6   -276370.566 6   -187493.96949  21310865.41849
  21634094.633 6     45023.449 6     29159.98049  21634090.67249
  23843879.555 1    163410.457 1     23948.98845  23843882.39145
 20  5 16  0  5 17.0000000  0  8G03G08G14G16G26G27G31G32            -0.000383106
  24250211.781 1     48652.113 1     26438.20746  24250213.59446
  23651356.930 4   -229416.176 4   -150181.88347  23651356.73847
  21788698.828 6    132730.375 6     96619.24647  21788694.70347
  20522918.852 6    -37502.520 6    -26031.35248  20522915.14148
  20980481.727 6     94902.594 6     68793.48449  20980481.02049
  21310230.000 6   -279710.602 6   -190096.59049  21310229.84049
  21634172.125 6     45430.629 6     29477.27049  21634168.45749
  23844488.219 1    166608.301 1     26440.76245  23844491.14145
 20  5 16  0  5 18.0000000  0  8G03G08G14G16G26G27G31G32            -0.000383402
  24250415.438 1     49723.746 1     27273.23846  24250417.47746
  23650559.148 4   -233604.207 4   -153445.28547  23650559.71947
  21789155.766 6    135131.301 6     98490.09847  21789151.70747
  20522839.805 6    -37917.176 6    -26354.45348  20522836.07048
  20980671.805 7     95903.137 7     69573.12549  20980672.14149
  21309593.516 6   -283051.070 6   -192699.55549  21309594.13749
  21634249.234 6     45837.117 6     29794.00849  21634245.42249
  23845097.836 1    169805.340 1     28931.94945  23845099.72745
 20  5 16  0  5 19.0000000  0  8G03G08G14G16G26G27G31G32            -0.000383699
  24250618.953 1     50794.840 1     28107.82446  24250621.34046
  23649761.828 4   -237792.949 4   -156709.23447  23649762.57847
  21789612.695 6    137531.797 6    100360.61347  21789608.06347
  20522760.484 7    -38332.293 7    -26677.93048  20522756.94948
  20980862.344 6     96902.973 6     70352.21949  20980861.68449
  21308957.992 6   -286391.961 6   -195302.84849  21308958.61749
  21634326.617 6     46242.973 6     30110.25849  21634322.74249
  23845705.109 1    173001.664 1     31422.57445  23845707.53945
 20  5 16  0  5 20.0000000  0  8G03G08G14G16G26G27G31G32            -0.000383997
  24250823.008 1     51865.340 1     28941.98046  24250825.03146
  23648965.008 4   -241982.238 4   -159973.60547  23648965.21547
  21790069.641 6    139931.965 6    102230.87147  21790065.19947
  20522681.641 7    -38747.762 7    -27001.67648  20522677.73048
  20981052.539 6     97902.273 6     71130.89849  20981052.09049
  21308322.391 6   -289733.078 6   -197906.31349  21308322.63749
  21634403.789 6     46648.348 6     30426.13349  21634400.33249
  23846313.523 1    176197.449 1     33912.79345  23846316.35245
 20  5 16  0  5 21.0000000  0  8G03G08G14G16G26G27G31G32            -0.000384295
  24251027.01611                     29775.78556  24251028.93856
  23648167.641 4   -246171.973 4   -163238.32847  23648167.86747
  21790526.086 6    142331.984 6    104101.01647  21790521.72347
  20522602.359 7    -39163.426 7    -27325.56648  20522598.73448
  20981242.320 7     98901.156 7     71909.24649  20981242.19949
  21307686.500 6   -293074.324 6   -200509.88349  21307686.69149
  21634480.680 6     47053.371 6     30741.73849  21634476.84449
  23846921.078 1    179392.707 1     36402.65645  23846924.12945
 20  5 16  0  5 22.0000000  0  8G03G08G14G16G26G27G31G32            -0.000384600
  24251229.13311                     30609.25856  24251232.32456
  23647370.203 4   -250362.469 4   -166503.64147  23647370.61747
  21790983.039 6    144731.512 6    105970.77747  21790978.41047
  20522523.367 6    -39579.578 6    -27649.84848  20522519.61748
  20981432.766 6     99899.305 6     72687.02349  20981432.06649
  21307051.148 6   -296416.008 6   -203113.78949  21307050.76249
  21634557.875 6     47457.727 6     31056.81649  21634553.97349
  23847529.617 1    182587.258 1     38891.95345  23847531.55145
 20  5 16  0  5 23.0000000  0  8G03G08G14G16G26G27G31G32            -0.000384897
  24251433.719 1                     31442.26646  24251435.78146
  23646573.133 4   -254553.516 4   -169769.39547  23646572.98047
  21791439.461 6    147130.664 6    107840.24647  21791434.97347
  20522444.070 6    -39996.137 6    -27974.43448  20522440.38748
  20981622.328 6    100896.832 6     73464.31349  20981621.74249
  21306414.867 6   -299757.996 6   -205717.93849  21306415.07849
  21634634.695 6     47861.539 6     31371.47749  21634631.22749
  23848136.789 1    185781.148 1     41380.70745  23848139.92645
 20  5 16  0  5 24.0000000  0  8G03G08G14G16G26G27G31G32            -0.000385197
  24251636.234 1                     32274.82046  24251638.87146
  23645775.852 4   -258745.289 4   -173035.70747  23645775.69947
  21791895.836 6    149529.406 6    109709.39547  21791891.33647
  20522364.906 6    -40413.102 6    -28299.34048  20522360.69148
  20981811.953 6    101893.719 6     74241.10949  20981811.19549
  21305779.086 6   -303100.313 6   -208322.34449  21305779.03149
  21634711.555 6     48264.809 6     31685.71149  21634707.50849
  23848744.656 1    188974.270 1     43868.84845  23848747.35945
 20  5 16  0  5 25.0000000  0  8G03G08G14G16G26G27G31G32            -0.000385496
  24251840.250 1     57210.289 1     33106.94146  24251841.59046
  23644977.766 4   -262937.645 4   -176302.48847  23644977.83247
  21792352.359 6    151927.785 6    111578.27047  21792347.87947
  20522285.531 6    -40830.473 6    -28624.57048  20522281.61348
  20982001.766 6    102889.992 6     75017.42249  20982001.08649
  21305142.680 6   -306442.957 6   -210927.00849  21305143.19549
  21634787.984 6     48667.469 6     31999.46949  21634784.34849
  23849352.336 1    192166.832 1     46356.59045  23849355.35545
 20  5 16  0  5 26.0000000  0  8G03G08G14G16G26G27G31G32            -0.000385790
  24252043.445 1     58277.770 1     33938.75846  24252045.54346
  23644180.031 4   -267130.555 4   -179569.69147  23644179.86347
  21792808.578 6    154325.887 6    113446.91047  21792804.42247
  20522205.820 7    -41248.121 7    -28950.02048  20522201.65248
  20982191.430 6    103885.746 6     75793.34049  20982190.00849
  21304506.328 6   -309785.832 6   -213531.84049  21304506.75849
  21634864.672 6     49069.723 6     32312.91449  21634860.72749
  23849959.438 1    195358.766 1     48843.82045  23849962.64545
 20  5 16  0  5 27.0000000  0  8G03G08G14G16G26G27G31G32            -0.000386089
  24252246.531 1     59344.898 1     34770.28546  24252248.21546
  23643381.695 4   -271324.043 4   -182837.35247  23643382.31347
  21793264.695 6    156723.699 6    115315.34447  21793260.66447
  20522126.461 7    -41666.094 7    -29275.71548  20522122.41848
  20982380.297 6    104880.973 6     76568.83249  20982379.90249
  21303870.352 6   -313128.926 6   -216136.85249  21303871.03949
  21634940.758 6     49471.488 6     32625.98049  21634937.20749
  23850566.852 1    198550.141 1     51330.62945  23850569.74645
 20  5 16  0  5 28.0000000  0  8G03G08G14G16G26G27G31G32            -0.000386391
  24252449.258 1     60411.469 1     35601.37946  24252451.29346
  23642583.414 4   -275517.977 4   -186105.34848  23642584.00048
  21793720.828 6    159121.285 6    117183.59847  21793717.22747
  20522047.258 6    -42084.313 6    -29601.59848  20522042.89548
  20982569.570 6    105875.727 6     77343.96549  20982569.27049
  21303234.430 6   -316472.156 6   -218741.96949  21303234.30149
  21635017.609 6     49872.867 6     32938.74249  21635013.71549
  23851174.133 2    201741.066 2     53816.98845  23851176.75445
 20  5 16  0  5 29.0000000  0  8G03G08G14G16G26G27G31G32            -0.000386692
  24252652.383 1     61477.723 1     36432.21946  24252654.53146
  23641785.555 4   -279712.453 4   -189373.76247  23641786.05947
  21794177.422 6    161518.617 6    119051.64847  21794173.48047
  20521967.422 6    -42502.820 6    -29927.71148  20521963.05148
  20982759.125 6    106869.992 6     78118.72349  20982758.39149
  21302598.242 6   -319815.637 6   -221347.28149  21302598.29349
  21635093.320 6     50273.805 6     33251.16049  21635089.71549
  23851781.625 1    204931.344 1     56302.91445  23851784.17245
 20  5 16  0  5 30.0000000  0  8G03G08G14G16G26G27G31G32            -0.000386993
  24252854.180 1     62543.309 1     37262.54746  24252856.73846
  23640987.219 5   -283907.621 5   -192642.73048  23640987.80148
  21794633.086 6    163915.484 6    120919.33647  21794629.57047
  20521887.570 6    -42921.801 6    -30254.19148  20521883.76648
  20982948.539 6    107863.531 6     78892.91049  20982947.53549
  21301961.945 6   -323159.496 6   -223952.88349  21301961.62949
  21635169.859 6     50674.102 6     33563.08249  21635166.25049
  23852388.242 1    208120.969 1     58788.33644  23852391.21944
 20  5 16  0  5 31.0000000  0  8G03G08G14G16G26G27G31G32            -0.000387297
  24253057.063 1     63608.270 1     38092.38746  24253059.50446
  23640189.641 4   -288103.496 4   -195912.22748  23640189.36348
  21795089.180 6    166311.883 6    122786.65247  21795085.96947
  20521807.813 6    -43341.262 6    -30581.04748  20521803.45348
  20983136.930 6    108856.367 6     79666.54749  20983136.50849
  21301325.688 6   -326503.742 6   -226558.79349  21301325.25849
  21635245.461 6     51073.758 6     33874.50449  21635242.12549
  23852994.813 1    211309.809 1     61273.16044  23852998.27744
 20  5 16  0  5 32.0000000  0  8G03G08G14G16G26G27G31G32            -0.000387600
  24253259.539 1     64672.871 1     38921.94946  24253262.39146
  23639391.258 4   -292299.871 4   -199182.11748  23639390.83248
  21795545.117 6    168708.023 6    124653.77347  21795541.71547
  20521728.258 7    -43760.984 7    -30908.10248  20521723.70348
  20983325.867 6    109848.715 6     80439.79749  20983324.75849
  21300688.984 6   -329848.184 6   -229164.85249  21300689.26249
  21635321.680 6     51473.027 6     34185.61749  21635318.12949
  23853601.641 1    214498.145 1     63757.55145  23853604.74245
 20  5 16  0  5 33.0000000  0  8G03G08G14G16G26G27G31G32            -0.000387903
  24253462.828 1     65736.918 1     39751.07446  24253464.56646
  23638592.602 4   -296496.902 4   -202452.53948  23638592.15248
  21796000.398 6    171103.824 6    126520.63347  21795997.34047
  20521648.297 6    -44181.117 6    -31235.48048  20521643.96548
  20983514.523 6    110840.453 6     81212.58649  20983513.97349
  21300052.328 6   -333192.930 6   -231771.15249  21300052.70749
  21635397.758 6     51871.723 6     34496.29349  21635393.98849
  23854208.875 1    217685.844 1     66241.41445  23854211.30145
 20  5 16  0  5 34.0000000  0  8G03G08G14G16G26G27G31G32            -0.000388206
  24253665.797 1     66800.488 1     40579.82046  24253666.89146
  23637793.586 4   -300694.441 4   -205723.33248  23637793.38748
  21796457.109 6    173499.348 6    128387.27347  21796453.46547
  20521568.281 6    -44601.547 6    -31563.09448  20521563.80548
  20983703.461 6    111831.676 6     81984.96549  20983702.16449
  21299416.344 6   -336537.918 6   -234377.63749  21299416.08649
  21635473.656 6     52269.984 6     34806.61749  21635469.86749
  23854814.422 1    220872.965 1     68724.79745  23854817.78145
 20  5 16  0  5 35.0000000  0  8G03G08G14G16G26G27G31G32            -0.000388510
  24253868.922 1     67863.867 1     41408.42246  24253869.07446
  23636994.898 4   -304892.336 4   -208994.41848  23636994.70748
  21796912.805 6    175894.754 6    130253.81647  21796909.85947
  20521488.094 6    -45022.090 6    -31890.79348  20521483.57448
  20983892.141 7    112822.543 7     82757.06649  20983891.23849
  21298779.648 6   -339882.949 6   -236984.15649  21298779.77049
  21635549.195 6     52667.949 6     35116.71549  21635545.27749
  23855421.586 1    224059.652 1     71207.90245  23855424.44545
 20  5 16  0  5 36.0000000  0  8G03G08G14G16G26G27G31G32            -0.000388815
  24254070.883 1     68926.527 1     42236.46546  24254071.16446
  23636195.469 5   -309091.000 5   -212266.11348  23636195.66048
  21797368.359 6    178289.684 6    132119.99247  21797365.21547
  20521407.844 6    -45443.168 6    -32218.90248  20521403.80548
  20984080.047 7    113812.672 7     83528.59849  20984079.64149
  21298143.227 6   -343228.410 6   -239591.00449  21298142.94949
  21635624.727 6     53065.230 6     35426.28549  21635620.96149
  23856027.859 1    227245.574 1     73690.47345  23856031.13745
 20  5 16  0  5 37.0000000  0  8G03G08G14G16G26G27G31G32            -0.000389120
  24254271.688 1     69988.582 1     43064.03546  24254273.35946
  23635396.328 5   -313290.324 5   -215538.32848  23635396.45348
  21797823.992 6    180684.180 6    133985.83247  21797820.81647
  20521327.773 6    -45864.672 6    -32547.34848  20521323.20348
  20984268.508 7    114802.137 7     84299.60549  20984267.36349
  21297505.875 6   -346574.207 6   -242198.11749  21297506.32049
  21635700.203 6     53461.945 6     35735.41849  21635696.59849
  23856635.305 1    230430.840 1     76172.61745  23856636.91845
 20  5 16  0  5 38.0000000  0  8G03G08G14G16G26G27G31G32            -0.000389425
  24254474.805 1     71050.090 1     43891.17646  24254475.16046
  23634597.148 5   -317490.438 5   -218811.15248  23634596.89148
  21798279.703 6    183078.141 6    135851.25847  21798276.11347
  20521247.344 6    -46286.691 6    -32876.19548  20521243.12148
  20984456.500 7    115790.867 7     85070.04749  20984455.90649
  21296869.773 6   -349920.484 6   -244805.61349  21296869.62149
  21635775.547 6     53857.980 6     36044.01649  21635771.96149
  23857240.594 1    233615.297 1     78654.03945  23857243.32445
 20  5 16  0  5 39.0000000  0  8G03G08G14G16G26G27G31G32            -0.000389732
  24254675.820 1     72111.055 1     44717.88746  24254676.98846
  23633797.016 5   -321691.066 5   -222084.36748  23633797.82048
  21798735.352 6    185471.828 6    137716.47347  21798731.87147
  20521166.922 6    -46709.059 6    -33205.31348  20521162.59848
  20984644.492 6    116779.035 6     85840.03949  20984643.99649
  21296232.727 6   -353267.012 6   -247413.29749  21296232.65649
  21635850.578 6     54253.508 6     36352.22349  21635847.31649
  23857846.055 1    236799.180 1     81134.92645  23857848.98445
 20  5 16  0  5 40.0000000  0  8G03G08G14G16G26G27G31G32            -0.000390038
  24254878.313 1     73171.652 1     45544.33646  24254878.14146
  23632998.164 5   -325892.168 5   -225357.93848  23632998.64848
  21799191.156 6    187865.328 6    139581.53547  21799186.96547
  20521086.063 6    -47131.645 6    -33534.59448  20521082.31648
  20984832.352 6    117766.750 6     86609.69149  20984832.00449
  21295595.367 6   -356613.652 6   -250021.06649  21295596.16449
  21635926.016 6     54648.684 6     36660.15249  21635922.55149
  23858451.102 1    239982.531 1     83615.50444  23858454.75044
 20  5 16  0  5 41.0000000  0  8G03G08G14G16G26G27G31G32            -0.000390345
  24255080.844 1     74231.824 1     46370.45746  24255080.37546
  23632198.563 5   -330093.836 5   -228631.96548  23632198.93048
  21799646.531 6    190258.531 6    141446.36347  21799642.60547
  20521006.063 6    -47554.504 6    -33864.09848  20521001.47748
  20985020.102 6    118753.965 6     87378.94549  20985019.83649
  21294959.000 6   -359960.488 6   -252628.99649  21294959.26249
  21636001.469 6     55043.402 6     36967.72349  21635997.61749
  23859058.078 1    243165.320 1     86095.56645  23859059.95345
 20  5 16  0  5 42.0000000  0  8G03G08G14G16G26G27G31G32            -0.000390652
  24255282.141 1     75291.633 1     47196.25846  24255281.78146
  23631399.250 5   -334295.938 5   -231906.31348  23631399.56348
  21800101.875 6    192651.527 6    143311.03147  21800097.80147
  20520925.813 6    -47977.625 6    -34193.80148  20520921.24248
  20985208.141 6    119740.695 6     88147.83249  20985207.57049
  21294321.984 6   -363307.512 6   -255237.06649  21294322.12149
  21636076.070 6     55437.723 6     37274.98449  21636072.43449
  23859663.938 1    246347.676 1     88575.27745  23859665.98445
 20  5 16  0  5 43.0000000  0  8G03G08G14G16G26G27G31G32            -0.000390959
  24255483.531 1     76350.961 1     48021.69946  24255483.61746
  23630599.977 5   -338498.578 5   -235181.09848  23630599.63748
  21800556.586 6    195044.238 6    145175.47747  21800553.03147
  20520845.031 6    -48401.051 6    -34523.74648  20520840.89848
  20985395.820 6    120726.930 6     88916.32049  20985395.52049
  21293685.000 6   -366654.766 6   -257845.31349  21293685.12549
  21636150.711 6     55831.578 6     37581.87149  21636147.11749
  23860267.883 1    249529.410 1                
 20  5 16  0  5 44.0000000  0  8G03G08G14G16G26G27G31G32            -0.000391268
  24255684.453 1     77409.754 1     48846.73846  24255684.83646
  23629800.211 5   -342701.891 5   -238456.41448  23629800.11348
  21801012.539 6    197436.523 6    147039.59447  21801008.32447
  20520764.648 6    -48824.883 6    -34854.01648  20520759.85948
  20985583.453 6    121712.496 6     89684.29349  20985583.14849
  21293047.984 6   -370002.332 6   -260453.80949  21293047.82049
  21636225.719 6     56224.895 6     37888.34449  21636222.18049
  23860873.117 1    252710.438 1                
 20  5 16  0  5 45.0000000  0  8G03G08G14G16G26G27G31G32            -0.000391577
  24255886.023 1     78468.082 1     49671.43046  24255886.25446
  23629000.063 5   -346905.813 5   -241732.19948  23629000.06648
  21801467.461 6    199828.492 6    148903.46547  21801463.22347
  20520683.906 6    -49249.102 6    -35184.57848  20520679.37548
  20985770.484 6    122697.477 6     90451.81649  20985770.54749
  21292410.875 6   -373350.203 6   -263062.53149  21292411.13749
  21636300.570 6     56617.652 6     38194.39149  21636296.76249
  23861480.086 1    255890.867 1                
 20  5 16  0  5 46.0000000  0  8G03G08G14G16G26G27G31G32            -0.000391884
  24256087.078 1     79525.891 1     50495.68846  24256087.45746
  23628199.352 5   -351110.211 5   -245008.35548  23628199.70748
  21801921.820 6    202220.164 6    150767.10947  21801918.43447
  20520602.898 6    -49673.598 6    -35515.35548  20520598.71148
  20985957.867 6    123681.945 6     91218.92649  20985957.48049
  21291773.531 6   -376698.293 6   -265671.43049  21291773.93849
  21636375.742 6     57009.965 6     38500.09049  21636371.47349
  23862084.766 1    259070.750 1                
 20  5 16  0  5 47.0000000  0  8G03G08G14G16G26G27G31G32            -0.000392195
  24256289.125 1     80583.262 1     51319.61746  24256288.31646
  23627399.547 5   -355315.176 5   -248284.94948  23627399.41848
  21802377.086 6    204611.547 6    152630.52747  21802373.78947
  20520521.977 6    -50098.449 6    -35846.40648  20520517.49648
  20986145.063 6    124665.844 6     91985.60549  20986145.16049
  21291136.117 6   -380046.637 6   -268280.53549  21291136.77049
  21636450.117 6     57401.777 6     38805.39849  21636445.60549
  23862689.289 1    262250.016 1                
 20  5 16  0  5 48.0000000  0  8G03G08G14G16G26G27G31G32            -0.000392504
  24256490.023 1     81640.266 1     52143.23046  24256489.32046
  23626599.023 5   -359520.570 5   -251561.87948  23626599.18448
  21802832.328 6    207002.766 6    154493.80947  21802828.54747
  20520441.563 6    -50523.461 6    -36177.58648  20520436.66848
  20986332.438 6    125649.379 6     92751.99249  20986332.02349
  21290498.859 6   -383395.063 6   -270889.69149  21290499.48049
  21636524.922 6     57793.313 6     39110.49249  21636520.15249
  23863294.492 1    265428.895 1                
 20  5 16  0  5 49.0000000  0  8G03G08G14G16G26G27G31G32            -0.000392815
  24256690.766 1     82696.859 1     52966.55146  24256689.99646
  23625798.938 5   -363726.523 5   -254839.24248  23625799.00048
  21803286.953 6    209393.641 6    156356.83247  21803283.66847
  20520359.961 6    -50948.809 6    -36509.02748  20520355.73448
  20986519.453 6    126632.324 6     93517.91849  20986518.98049
  21289861.477 6   -386743.746 6   -273499.05149  21289862.03149
  21636599.008 6     58184.332 6     39415.18449  21636594.56349
  23863898.828 1    268607.105 1                
 20  5 16  0  5 50.0000000  0  8G03G08G14G16G26G27G31G32            -0.000393126
  24256893.414 1     83753.117 1     53789.60946  24256891.00046
  23624998.711 5   -367932.883 5   -258116.91848  23624998.51248
  21803742.438 6    211784.418 6    158219.76647  21803738.76647
  20520279.531 6    -51374.313 6    -36840.58648  20520275.04348
  20986706.898 6    127614.891 6     94283.55549  20986706.18449
  21289224.781 6   -390092.469 6   -276108.44549  21289225.16849
  21636672.953 6     58575.020 6     39719.62149  21636668.85949
  23864503.992 1    271784.902 1                
 20  5 16  0  5 51.0000000  0  8G03G08G14G16G26G27G31G32            -0.000393436
  24257094.359 1     84808.938 1     54612.29746  24257092.29346
  23624198.094 5   -372139.777 5   -261395.01648  23624197.68448
  21804196.445 6    214174.914 6    160082.49247  21804193.20747
  20520198.492 6    -51800.129 6    -37172.39548  20520194.11748
  20986893.328 7    128596.930 7     95048.78149  20986892.72749
  21288587.063 6   -393441.469 6   -278718.05949  21288587.58249
  21636747.352 6     58965.266 6     40023.70749  21636743.30949
  23865108.461 1    274962.129 1                
 20  5 16  0  5 52.0000000  0  8G03G08G14G16G26G27G31G32            -0.000393747
  24257294.375 1     85864.215 1     55434.58246  24257292.94946
  23623397.602 5   -376347.305 5   -264673.60948  23623397.51648
  21804651.742 6    216564.996 6    161944.89547  21804648.41847
  20520117.695 6    -52226.336 6    -37504.50448  20520113.25848
  20987080.141 7    129578.355 7     95813.52749  20987079.82449
  21287949.570 6   -396790.750 6   -281327.88349  21287950.06349
  21636821.742 6     59354.953 6     40327.36349  21636817.28149
  23865713.055 1    278138.781 1                
 20  5 16  0  5 53.0000000  0  8G03G08G14G16G26G27G31G32            -0.000394060
  24257495.281 1     86919.043 1     56256.53946  24257493.50446
  23622596.031 5   -380555.375 5   -267952.62548  23622596.06648
  21805106.563 6    218954.797 6    163807.07447  21805103.44547
  20520036.078 6    -52652.891 6    -37836.88348  20520031.95348
  20987266.867 7    130559.223 7     96577.83649  20987266.59049
  21287312.461 6   -400140.285 6   -283937.91449  21287313.02749
  21636895.773 6     59744.164 6     40630.64149  21636891.60949
  23866317.164 1    281314.777 1                
 20  5 16  0  5 54.0000000  0  8G03G08G14G16G26G27G31G32            -0.000394371
  24257696.664 1     87973.422 1     57078.15246  24257694.35946
  23621795.258 5   -384764.043 5   -271232.10248  23621795.53948
  21805561.516 6    221344.289 6    165669.01247  21805557.92647
  20519954.789 6    -53079.766 6    -38169.51648  20519950.56648
  20987453.039 6    131539.539 6     97341.72349  20987452.53949
  21286675.078 6   -403490.070 6   -286548.13749  21286675.57849
  21636969.461 6     60132.875 6     40933.52749  21636965.32849
  23866921.492 1    284490.129 1                
 20  5 16  0  5 55.0000000  0  8G03G08G14G16G26G27G31G32            -0.000394686
  24257897.648 1     89027.211 1     57899.29346  24257894.87146
  23620995.359 5   -388973.258 5   -274512.00848  23620994.66048
  21806016.375 6    223733.426 6    167530.67247  21806012.37147
  20519873.336 6    -53506.977 6    -38502.41048  20519869.12948
  20987639.781 6    132519.297 6     98105.16849  20987639.30149
  21286037.391 6   -406840.105 6   -289158.55549  21286037.68849
  21637042.711 6     60521.117 6     41236.04749  21637039.04749
  23867526.688 1    287664.949 1                
 20  5 16  0  5 56.0000000  0  8G03G08G14G16G26G27G31G32            -0.000394999
  24258097.430 1     90080.824 1     58720.31346  24258095.18046
  23620193.430 5   -393182.930 5   -277792.27048  23620193.69148
  21806470.828 6    226122.402 6    169392.20747  21806467.27047
  20519792.055 6    -53934.418 6    -38835.48448  20519787.84448
  20987826.016 6    133498.602 6     98868.26249  20987825.77749
  21285400.469 6   -410190.281 6   -291769.08249  21285400.26249
  21637116.953 6     60908.965 6     41538.26649  21637112.61749
  23868130.250 1    290839.258 1                
 20  5 16  0  5 57.0000000  0  8G03G08G14G16G26G27G31G32            -0.000395311
  24258296.742 1     91133.992 1     59540.94946  24258295.43046
  23619392.453 5   -397392.984 5   -281072.83248  23619392.87548
  21806925.070 6    228511.227 6    171253.63347  21806921.60947
  20519710.852 6    -54362.004 6    -39168.66848  20519706.69548
  20988012.547 7    134477.539 7     99631.06649  20988012.04349
  21284762.641 6   -413540.527 6   -294379.66049  21284762.89849
  21637190.750 6     61296.527 6     41840.27049  21637186.82849
  23868734.992 1    294013.109 1                
 20  5 16  0  5 58.0000000  0  8G03G08G14G16G26G27G31G32            -0.000395624
  24258496.26611                     60361.20356  24258496.00856
  23618590.789 5   -401603.512 5   -284353.76248  23618591.39148
  21807379.797 6    230899.809 6    173114.86747  21807376.68047
  20519629.234 6    -54789.875 6    -39502.07448  20519625.16848
  20988198.617 7    135455.949 7    100393.46949  20988197.73849
  21284124.828 6   -416890.973 6   -296990.39849  21284125.17649
  21637264.969 6     61683.637 6     42141.90249  21637260.56349
  23869337.688 1    297186.500 1                
 20  5 16  0  5 59.0000000  0  8G03G08G14G16G26G27G31G32            -0.000395945
  24258698.09411                     61181.35556  24258696.54756
  23617789.633 5   -405814.523 5   -287635.07448  23617789.84448
  21807834.164 6    233288.168 6    174975.92247  21807831.14847
  20519548.078 6    -55217.980 6    -39835.66048  20519543.87148
  20988384.656 6    136433.953 6    101155.54349  20988383.95749
  21283487.469 6   -420241.570 6   -299601.24649  21283487.25849
  21637338.391 6     62070.367 6     42443.25049  21637333.87549
  23869941.234 1    300359.324 1                
 20  5 16  0  6  0.0000000  0  8G03G08G14G16G26G27G31G32            -0.000396259
  24258898.578 1                     62000.94946  24258896.56346
  23616988.211 5   -410026.168 5   -290916.87548  23616987.94948
  21808289.188 6    235676.199 6    176836.71547  21808285.38347
  20519466.039 6    -55646.445 6    -40169.52348  20519462.08248
  20988570.695 7    137411.313 7    101917.11749  20988570.16449
  21282849.461 6   -423592.469 6   -302212.34049  21282849.98849
  21637411.633 6     62456.570 6     42744.19549  21637407.58649
  23870545.148 1    303531.586 1                
 20  5 16  0  6  1.0000000  0  8G03G08G14G16G26G27G31G32            -0.000396570
  24259097.875 1     95342.488 1     62820.25046  24259096.68046
  23616186.766 5   -414238.383 5   -294199.12148  23616187.29748
  21808742.898 6    238063.809 6    178697.18047  21808739.67647
  20519384.695 6    -56075.316 6    -40503.71548  20519380.51248
  20988756.320 7    138388.082 7    102678.23849  20988756.23849
  21282211.797 6   -426943.645 6   -304823.64549  21282212.13749
  21637485.031 6     62842.238 6     43044.71549  21637481.22749
  23871149.664 1    306703.113 1                
 20  5 16  0  6  2.0000000  0  8G03G08G14G16G26G27G31G32            -0.000396885
  24259297.742 1     96393.605 1     63639.27746  24259296.78146
  23615384.414 5   -418450.969 5   -297481.65248  23615385.00848
  21809197.297 6    240451.383 6    180557.63347  21809193.80547
  20519302.891 6    -56504.246 6    -40837.94148  20519299.00048
  20988942.602 6    139364.555 6    103439.12549  20988941.98049
  21281574.156 6   -430294.820 6   -307434.94949  21281574.34849
  21637558.313 6     63227.672 6     43345.04749  21637554.03949
  23871752.945 1    309874.336 1                
 20  5 16  0  6  3.0000000  0  8G03G08G14G16G26G27G31G32            -0.000397202
  24259498.031 1     97444.332 1     64458.02346  24259497.12946
  23614583.484 5   -422663.969 5   -300764.51248  23614583.44148
  21809651.680 6    242838.719 6    182417.88747  21809648.30947
  20519221.242 6    -56933.453 6    -41172.39148  20519217.40248
  20989128.125 6    140340.527 6    104199.62149  20989127.64849
  21280936.727 6   -433646.168 6   -310046.38749  21280936.69149
  21637631.672 6     63612.699 6     43645.06349  21637627.64849
  23872354.422 1    313044.988 1                
 20  5 16  0  6  4.0000000  0  8G03G08G14G16G26G27G31G32            -0.000397518
  24259698.867 1     98494.469 1     65276.32046  24259696.73446
  23613781.578 5   -426877.797 5   -304048.00448  23613781.92648
  21810106.250 6    245225.586 6    184277.79747  21810102.79347
  20519139.289 6    -57363.168 6    -41507.23848  20519135.61348
  20989313.813 6    141315.785 6    104959.55949  20989313.40649
  21280298.648 6   -436997.953 6   -312658.17249  21280298.69949
  21637704.750 6     63997.047 6     43944.55549  21637700.14849
  23872957.719 1    316214.914 1                
 20  5 16  0  6  5.0000000  0  8G03G08G14G16G26G27G31G32            -0.000397835
  24259898.445 1     99544.043 1     66094.16846  24259896.43046
  23612979.500 5   -431092.125 5   -307331.89148  23612979.73848
  21810560.109 6    247612.121 6    186137.43447  21810556.45747
  20519057.492 6    -57793.195 6    -41842.32048  20519053.70748
  20989499.383 6    142290.496 6    105719.07849  20989498.97749
  21279660.609 6   -440349.941 6   -315270.11749  21279661.33649
  21637778.047 6     64380.953 6     44243.70349  21637774.07049
  23873561.58611                                
 20  5 16  0  6  6.0000000  0  8G03G08G14G16G26G27G31G32            -0.000398155
  24260097.961 1    100593.227 1     66911.68846  24260096.53146
  23612177.211 5   -435307.008 5   -310616.21148  23612177.46948
  21811013.828 6    249998.387 6    187996.85947  21811010.47347
  20518975.633 6    -58223.566 6    -42177.67248  20518971.85548
  20989685.047 7    143264.645 7    106478.15649  20989683.80149
  21279022.789 6   -443702.230 6   -317882.28949  21279023.17249
  21637850.813 6     64764.367 6     44542.46549  21637847.00049
  23874164.094 1                                
 20  5 16  0  6  7.0000000  0  8G03G08G14G16G26G27G31G32            -0.000398470
  24260297.219 1    101642.039 1     67728.92646  24260296.08246
  23611375.406 5   -439522.336 5   -313900.88748  23611375.49648
  21811468.047 6    252384.434 6    189856.11347  21811464.91447
  20518894.039 6    -58654.117 6    -42513.17648  20518889.62948
  20989869.883 7    144238.367 7    107236.89149  20989869.58649
  21278385.164 6   -447054.609 6   -320494.52349  21278384.97749
  21637923.578 6     65147.406 6     44840.94149  21637919.51649
  23874766.727 1    325721.207 1                
 20  5 16  0  6  8.0000000  0  8G03G08G14G16G26G27G31G32            -0.000398792
  24260496.516 1    102690.270 1     68545.71946  24260495.43846
  23610572.883 5   -443738.352 5   -317186.09848  23610572.80548
  21811922.266 6    254770.086 6    191715.06347  21811918.59847
  20518811.758 6    -59085.117 6    -42849.02048  20518807.81648
  20990055.344 7    145211.441 7    107995.12949  20990054.77749
  21277746.438 6   -450407.313 6   -323107.02049  21277747.17649
  21637996.352 6     65529.891 6     45138.97749  21637992.72349
  23875369.24211                                
 20  5 16  0  6  9.0000000  0  8G03G08G14G16G26G27G31G32            -0.000399111
  24260696.719 1    103738.332 1     69362.39146  24260694.64546
  23609770.898 5   -447954.633 5   -320471.50448  23609770.96948
  21812376.164 6    257155.699 6    193573.98447  21812372.68447
  20518730.047 6    -59516.160 6    -43184.89848  20518726.04348
  20990240.211 7    146184.246 7    108753.15649  20990239.83249
  21277109.148 6   -453760.000 6   -325719.50849  21277109.41849
  21638068.797 6     65912.164 6     45436.84449  21638065.10949
  23875971.08611                                
 20  5 16  0  6 10.0000000  0  8G03G08G14G16G26G27G31G32            -0.000399429
  24260896.750 1    104786.023 1     70178.77046  24260894.85246
  23608967.969 5   -452171.352 5   -323757.26248  23608968.20348
  21812829.594 6    259541.160 6    195432.79347  21812826.58647
  20518647.875 6    -59947.406 6    -43520.93848  20518643.66848
  20990425.266 7    147156.621 7    109510.85249  20990424.69149
  21276470.766 6   -457112.785 6   -328332.06349  21276471.21149
  21638141.711 6     66294.082 6     45734.44149  21638137.71549
  23876575.41411    335222.91411                
 20  5 16  0  6 11.0000000  0  8G03G08G14G16G26G27G31G32            -0.000399750
  24261095.609 1    105833.332 1     70994.84046  24261093.82846
  23608165.977 5   -456388.563 5   -327043.39548  23608165.77048
  21813284.328 6    261926.332 6    197291.36347  21813280.62547
  20518565.938 6    -60378.910 6    -43857.17648  20518562.20348
  20990610.102 7    148128.512 7    110268.17249  20990609.67249
  21275832.719 6   -460465.785 6   -330944.78949  21275832.86749
  21638214.570 6     66675.559 6     46031.69949  21638210.54349
  23877178.32811    338389.13711                
 20  5 16  0  6 12.0000000  0  8G03G08G14G16G26G27G31G32            -0.000400068
  24261294.656 1    106880.336 1     71810.70346  24261293.04746
  23607363.055 5   -460606.270 5   -330329.92248  23607363.21548
  21813737.719 6    264311.301 6    199149.77747  21813734.26647
  20518483.930 6    -60810.672 6    -44193.61748  20518479.69148
  20990794.859 7    149099.945 7    111025.13349  20990794.98449
  21275195.203 6   -463818.895 6   -333557.60549  21275195.09849
  21638287.195 6     67056.676 6     46328.67249  21638283.36349
  23877779.46111    341554.99211                
 20  5 16  0  6 13.0000000  0  7G03G08G14G16G26G27G31               -0.000400389
  24261492.641 1    107926.746 1     72626.05946  24261492.59446
  23606560.336 5   -464824.516 5   -333616.87548  23606560.50848
  21814191.570 6    266695.977 6    201007.96547  21814187.59447
  20518401.500 6    -61242.750 6    -44530.28948  20518397.14548
  20990979.820 7    150070.809 7    111781.64849  20990979.78549
  21274556.992 6   -467172.305 6   -336170.64849  21274556.80149
  21638359.016 6     67437.305 6     46625.26649  21638355.93849
 20  5 16  0  6 14.0000000  0  7G03G08G14G16G26G27G31               -0.000400709
  24261693.156 1    108972.621 1     73441.01646  24261691.24646
  23605758.219 5   -469043.332 5   -336904.25848  23605757.99648
  21814645.813 6    269080.270 6    202865.85247  21814641.85247
  20518319.133 6    -61675.227 6    -44867.28548  20518314.46148
  20991164.477 7    151041.074 7    112537.69549  20991164.27749
  21273919.016 6   -470525.980 6   -338783.90249  21273919.02049
  21638432.148 6     67817.426 6     46921.46949  21638428.28949
 20  5 16  0  6 15.0000000  0  7G03G08G14G16G26G27G31               -0.000401031
  24261890.711 1    110018.285 1     74255.80946  24261890.77046
  23604953.969 5   -473262.516 5   -340191.93048  23604954.56348
  21815098.969 6    271464.520 6    204723.71147  21815095.43047
  20518236.930 6    -62107.781 6    -45204.34448  20518232.41048
  20991348.883 7    152011.027 7    113293.50449  20991348.68049
  21273280.797 6   -473879.641 6   -341397.14549  21273280.56649
  21638503.945 6     68197.270 6     47217.44949  21638500.15249
 20  5 16  0  6 16.0000000  0  7G03G08G14G16G26G27G31               -0.000401352
  24262089.414 1    111063.594 1     75070.34446  24262089.40246
  23604151.648 5   -477482.262 5   -343480.04348  23604151.79748
  21815552.367 6    273848.453 6    206581.31647  21815548.77047
  20518154.563 6    -62540.652 6    -45541.64148  20518150.44948
  20991533.430 7    152980.434 7    114048.88749  20991533.54349
  21272642.484 6   -477233.570 6   -344010.60249  21272642.16849
  21638575.992 6     68576.676 6     47513.09049  21638572.66049
 20  5 16  0  6 17.0000000  0  7G03G08G14G16G26G27G31               -0.000401674
  24262288.477 1    112108.332 1     75884.44946  24262288.79346
  23603348.344 5   -481702.453 5   -346768.50848  23603349.15648
  21816006.273 6    276232.059 6    208438.67647  21816002.30547
  20518072.016 6    -62973.906 6    -45879.25048  20518067.89548
  20991717.906 7    153949.301 7    114803.84849  20991717.89849
  21272004.211 6   -480587.719 6   -346624.22349  21272004.59449
  21638648.492 6     68955.594 6     47808.35249  21638644.83649
 20  5 16  0  6 18.0000000  0  7G03G08G14G16G26G27G31               -0.000401995
  24262486.813 1    113152.754 1     76698.30146  24262487.61746
  23602544.711 5   -485923.039 5   -350057.28148  23602545.81348
  21816460.016 6    278615.598 6    210295.98047  21816456.18447
  20517989.477 6    -63407.184 6    -46216.86748  20517985.59848
  20991902.070 7    154917.820 7    115558.53549  20991901.78549
  21271365.781 6   -483941.863 6   -349237.83649  21271366.15249
  21638720.031 6     69334.238 6     48103.39849  21638716.91049
 20  5 16  0  6 19.0000000  0  7G03G08G14G16G26G27G31               -0.000402319
  24262685.891 1    114197.047 1     77512.02746  24262686.66846
  23601742.258 5   -490143.977 5   -353346.32048  23601742.20348
  21816913.234 6    280999.047 6    212153.20747  21816909.69947
  20517906.836 6    -63840.594 6    -46554.58248  20517902.87148
  20992086.164 6    155886.031 6    116312.98849  20992085.78949
  21270727.375 6   -487296.063 6   -351851.50049  21270727.91049
  21638791.977 6     69712.660 6     48398.27349  21638788.96149
 20  5 16  0  6 20.0000000  0  7G03G08G14G16G26G27G31               -0.000402641
  24262883.563 1    115240.887 1     78325.41446  24262885.01246
  23600939.375 5   -494365.340 5   -356635.67248  23600938.87148
  21817366.930 6    283382.285 6    214010.28147  21817363.43447
  20517824.711 6    -64274.242 6    -46892.49248  20517820.10248
  20992270.547 6    156853.785 6    117067.08249  20992270.44949
  21270089.328 6   -490650.383 6   -354465.25449  21270089.48049
  21638864.008 6     70090.688 6     48692.84049  21638861.09049
 20  5 16  0  6 21.0000000  0  7G03G08G14G16G26G27G31               -0.000402966
  24263082.320 1    116284.125 1     79138.34846  24263083.98446
  23600135.023 5   -498587.410 5   -359925.57848  23600135.40248
  21817820.117 6    285765.137 6    215867.04747  21817816.91847
  20517741.945 6    -64708.363 6    -47230.76248  20517737.70348
  20992454.305 6    157820.863 6    117820.64849  20992454.48849
  21269450.945 6   -494005.098 6   -357079.31349  21269451.02049
  21638936.063 6     70468.109 6     48986.93049  21638932.99649
 20  5 16  0  6 22.0000000  0  7G03G08G14G16G26G27G31               -0.000403288
  24263280.172 1    117327.051 1     79951.01246  24263281.76246
  23599332.367 5   -502810.031 5   -363215.93848  23599332.07048
  21818273.609 6    288147.590 6    217723.50447  21818270.20347
  20517658.883 6    -65142.781 6    -47569.26648  20517655.05548
  20992638.180 6    158787.402 6    118573.79749  20992638.46549
  21268812.391 6   -497359.996 6   -359693.51649  21268812.95349
  21639008.125 6     70845.082 6     49280.67649  21639004.80549
 20  5 16  0  6 23.0000000  0  7G03G08G14G16G26G27G31               -0.000403612
  24263478.336 1    118369.535 1     80763.32046  24263480.20746
  23598528.477 5   -507033.031 5   -366506.59448  23598528.25048
  21818727.047 6    290529.953 6    219579.89547  21818723.48847
  20517576.578 6    -65577.375 6    -47907.91848  20517572.59048
  20992821.984 6    159753.520 6    119326.60949  20992822.38749
  21268173.992 6   -500715.012 6   -362307.81349  21268174.30949
  21639079.063 6     71221.688 6     49574.12949  21639076.52349
 20  5 16  0  6 24.0000000  0  7G03G08G14G16G26G27G31               -0.000403936
  24263677.203 1    119411.590 1     81575.28946  24263678.95346
  23597723.430 4   -511256.602 4   -369797.68448  23597725.21148
  21819180.172 6    292912.008 6    221436.03547  21819176.77047
  20517493.773 6    -66012.266 6    -48246.80548  20517490.12148
  20993005.953 6    160719.113 6    120079.02049  20993006.03949
  21267535.766 6   -504070.246 6   -364922.28949  21267535.57449
  21639151.367 6     71597.871 6     49867.25849  21639148.30949
 20  5 16  0  6 25.0000000  0  7G03G08G14G16G26G27G31               -0.000404263
  24263875.211 1    120453.559 1     82387.18446  24263876.84046
  23596920.289 4   -515480.379 4   -373088.94948  23596921.29348
  21819633.359 6    295294.086 6    223292.19947  21819629.98847
  20517410.719 6    -66447.188 6    -48585.70348  20517407.14848
  20993189.813 6    161684.480 6    120831.25449  20993190.09849
  21266897.359 6   -507425.414 6   -367536.70749  21266897.45749
  21639222.313 6     71973.863 6     50160.24249  21639219.37149
 20  5 16  0  6 26.0000000  0  7G03G08G14G16G26G27G31               -0.000404596
  24264073.19511                     83198.63356  24264075.17256
  23596116.484 5   -519704.715 5   -376380.62948  23596117.03948
  21820086.719 6    297675.840 6    225148.10947  21820083.44947
  20517328.102 6    -66882.426 6    -48924.84848  20517324.43048
  20993373.375 6    162649.324 6    121583.07449  20993373.49249
  21266259.086 6   -510780.809 6   -370151.30549  21266259.19149
  21639294.211 6     72349.383 6     50452.85249  21639290.71149
 20  5 16  0  6 27.0000000  0  7G03G08G14G16G26G27G31               -0.000404922
  24264272.023 1                     84009.85546  24264273.11746
  23595312.930 5   -523929.543 5   -379672.68848  23595313.18448
  21820539.305 6    300057.398 6    227003.87947  21820536.56647
  20517245.633 6    -67317.922 6    -49264.19148  20517241.52348
  20993556.930 7    163613.652 7    122334.49649  20993557.03549
  21265620.148 6   -514136.375 6   -372766.02749  21265620.43849
  21639365.438 6     72724.504 6     50745.15249  21639362.49249
 20  5 16  0  6 28.0000000  0  7G03G08G14G16G26G27G31               -0.000405247
  24264469.195 1                     84820.81346  24264471.77046
  23594509.031 5   -528154.855 5   -382965.13348  23594509.22748
  21820993.305 6    302438.664 6    228859.39847  21820989.72747
  20517162.430 6    -67753.660 6    -49603.73848  20517158.46948
  20993740.313 6    164577.531 6    123085.57049  20993740.54749
  21264981.750 6   -517492.063 6   -375380.84849  21264981.84449
  21639436.570 6     73099.238 6     51037.15649  21639433.80549
 20  5 16  0  6 29.0000000  0  7G03G08G14G16G26G27G31               -0.000405575
  24264666.406 1                     85631.32846  24264669.63746
  23593704.477 4   -532380.770 4   -386258.05948  23593705.41848
  21821446.313 6    304819.613 6    230714.68447  21821443.02347
  20517079.422 6    -68189.789 6    -49943.58648  20517075.70348
  20993923.430 6    165540.777 6    123836.15649  20993923.29349
  21264343.313 6   -520848.059 6   -377995.91049  21264343.18049
  21639507.898 6     73473.441 6     51328.74649  21639504.90249
 20  5 16  0  6 30.0000000  0  7G03G08G14G16G26G27G31               -0.000405901
  24264863.617 1                     86441.43446  24264867.32846
  23592900.555 5   -536607.141 5   -389551.34048  23592900.72348
  21821899.461 6    307200.316 6    232569.77347  21821895.94547
  20516996.273 6    -68626.180 6    -50283.62948  20516992.49648
  20994106.859 6    166503.586 6    124586.39849  20994106.39149
  21263704.328 6   -524204.273 6   -380611.14149  21263704.29349
  21639579.484 6     73847.211 6     51619.99249  21639576.05149
 20  5 16  0  6 31.0000000  0  7G03G08G14G16G26G27G31               -0.000406219
  24265062.000 1    126695.730 1     87251.24646  24265065.18846
  23592095.570 4   -540834.078 4   -392845.05948  23592096.26248
  21822351.844 6    309580.715 6    234424.63347  21822349.31347
  20516913.375 6    -69062.875 6    -50623.90648  20516909.08648
  20994289.938 6    167465.805 6    125336.18049  20994289.83249
  21263066.016 6   -527560.707 6   -383226.55149  21263065.76249
  21639650.242 6     74220.512 6     51910.87549  21639646.94149
 20  5 16  0  6 32.0000000  0  7G03G08G14G16G26G27G31               -0.000406548
  24265259.313 1    127734.824 1     88060.90246  24265262.97746
  23591290.805 4   -545061.266 4   -396138.97748  23591291.91848
  21822805.211 6    311961.121 6    236279.48047  21822801.86747
  20516830.430 6    -69499.602 6    -50964.21548  20516826.19948
  20994473.203 7    168427.816 7    126085.79749  20994472.89149
  21262427.305 6   -530917.023 6   -385841.86349  21262427.21949
  21639721.078 6     74593.684 6     52201.65649  21639717.90249
 20  5 16  0  6 33.0000000  0  7G03G08G14G16G26G27G31               -0.000406876
  24265458.352 1    128773.629 1     88870.35246  24265460.43446
  23590486.836 4   -549288.840 4   -399433.18048  23590487.26248
  21823257.703 6    314341.324 6    238134.18447  21823255.00847
  20516747.102 6    -69936.559 6    -51304.69948  20516743.08248
  20994656.297 7    169389.387 7    126835.07049  20994656.11749
  21261788.375 6   -534273.492 6   -388457.29349  21261788.39849
  21639792.078 6     74966.500 6     52492.16049  21639789.10549
 20  5 16  0  6 34.0000000  0  7G03G08G14G16G26G27G31               -0.000407204
  24265657.367 1    129812.176 1     89679.61746  24265658.28146
  23589682.641 4   -553516.742 4   -402727.64548  23589682.91848
  21823711.063 6    316721.492 6    239988.85947  21823707.90647
  20516664.125 6    -70373.535 6    -51645.19948  20516660.30148
  20994838.727 7    170350.664 7    127584.12149  20994838.64549
  21261149.688 6   -537629.930 6   -391072.70349  21261149.95749
  21639863.328 6     75339.102 6     52782.50049  21639859.90249
 20  5 16  0  6 35.0000000  0  7G03G08G14G16G26G27G31               -0.000407532
  24265855.938 1    130850.359 1     90488.60946  24265856.03146
  23588877.727 4   -557745.027 4   -406022.40248  23588878.32048
  21824163.836 6    319101.523 6    241843.42647  21824160.59447
  20516580.508 6    -70810.688 6    -51985.84448  20516576.93448
  20995021.938 7    171311.566 7    128332.87549  20995022.00049
  21260511.094 6   -540986.430 6   -393688.15249  21260510.71549
  21639933.883 6     75711.406 6     53072.60949  21639931.03949
 20  5 16  0  6 36.0000000  0  7G03G08G14G16G26G27G31               -0.000407862
  24266053.289 1    131888.137 1     91297.27346  24266053.61746
  23588072.461 4   -561973.789 4   -409317.54348  23588073.57848
  21824617.063 6    321481.297 6    243697.78947  21824613.48047
  20516497.656 6    -71248.125 6    -52326.69948  20516493.59848
  20995204.680 6    172271.965 6    129081.23849  20995204.53949
  21259872.250 6   -544343.113 6   -396303.75049  21259872.50849
  21640004.797 6     76083.273 6     53362.37149  21640001.89149
 20  5 16  0  6 37.0000000  0  7G03G08G14G16G26G27G31               -0.000408192
  24266250.469 1    132925.648 1     92105.71946  24266251.09046
  23587267.734 4   -566203.031 4   -412613.05948  23587268.68448
  21825069.711 6    323860.883 6    245552.01647  21825066.04347
  20516414.281 6    -71685.746 6    -52667.70748  20516410.13748
  20995387.211 6    173231.957 6    129829.28149  20995387.37949
  21259233.508 6   -547699.922 6   -398919.44949  21259233.62149
  21640075.453 6     76454.777 6     53651.85949  21640072.57449
 20  5 16  0  6 38.0000000  0  7G03G08G14G16G26G27G31               -0.000408520
  24266447.484 1    133962.656 1     92913.76646  24266448.34046
  23586462.906 5   -570432.797 5   -415908.97748  23586463.70748
  21825523.016 6    326240.160 6    247405.99647  21825519.22747
  20516330.969 6    -72123.691 6    -53008.96148  20516326.73448
  20995569.688 6    174191.383 6    130576.87949  20995569.53549
  21258594.977 6   -551056.953 6   -401535.31349  21258594.43049
  21640145.711 6     76825.816 6     53940.98049  21640143.02349
 20  5 16  0  6 39.0000000  0  7G03G08G14G16G26G27G31               -0.000408852
  24266644.055 1    134999.324 1     93721.57446  24266645.67646
  23585657.922 4   -574663.051 4   -419205.27748  23585658.84848
  21825975.859 6    328619.219 6    249259.79347  21825972.16847
  20516247.477 6    -72561.898 6    -53350.42248  20516243.06348
  20995751.969 6    175150.352 6    131324.12949  20995752.19549
  21257955.914 6   -554414.141 6   -404151.30149  21257955.99249
  21640216.148 6     77196.445 6     54229.78149  21640213.55549
 20  5 16  0  6 40.0000000  0  7G03G08G14G16G26G27G31               -0.000409182
  24266841.609 1    136035.613 1     94529.07446  24266842.99646
  23584852.789 4   -578893.652 4   -422501.84848  23584853.92248
  21826427.766 6    330998.148 6    251113.50847  21826424.72747
  20516164.125 6    -73000.227 6    -53691.98048  20516160.12948
  20995934.492 6    176108.941 6    132071.08649  20995934.72349
  21257316.766 6   -557771.375 6   -406767.32849  21257316.75849
  21640286.875 6     77566.813 6     54518.37949  21640283.98449
 20  5 16  0  6 41.0000000  0  7G03G08G14G16G26G27G31               -0.000409512
  24267038.609 1    137071.648 1     95336.37946  24267040.34846
  23584047.422 4   -583124.629 4   -425798.71548  23584048.84448
  21826880.875 6    333376.945 6    252967.10947  21826877.53947
  20516080.539 6    -73438.727 6    -54033.66848  20516076.67648
  20996117.102 6    177067.176 6    132817.75849  20996117.04749
  21256678.344 6   -561128.680 6   -409383.41449  21256677.89549
  21640357.570 6     77936.832 6     54806.70749  21640353.93849
 20  5 16  0  6 42.0000000  0  7G03G08G14G16G26G27G31               -0.000409843
  24267234.039 1    138107.195 1     96143.29346  24267237.59446
  23583242.109 4   -587356.223 4   -429096.05548  23583243.45748
  21827333.281 6    335755.383 6    254820.43847  21827330.23047
  20515997.141 6    -73877.574 6    -54375.62948  20515993.46548
  20996299.195 7    178024.789 7    133563.94949  20996299.05149
  21256039.141 6   -564486.262 6   -411999.70749  21256039.17649
  21640427.969 6     78306.367 6     55094.64849  21640424.79349
 20  5 16  0  6 43.0000000  0  7G03G08G14G16G26G27G31               -0.000410175
  24267430.984 1    139142.270 1     96949.84446  24267433.83646
  23582436.953 4   -591588.359 4   -432393.82448  23582438.02048
  21827786.031 6    338133.520 6    256673.53547  21827782.66047
  20515913.469 6    -74316.773 6    -54717.86348  20515909.52348
  20996481.422 6    178981.883 6    134309.73449  20996481.57449
  21255400.469 6   -567844.086 6   -414616.19949  21255400.02349
  21640498.195 6     78675.406 6     55382.21949  21640494.87549
 20  5 16  0  6 44.0000000  0  7G03G08G14G16G26G27G31               -0.000410507
  24267628.172 1    140176.977 1     97756.10946  24267631.02346
  23581631.609 4   -595820.781 4   -435691.81348  23581632.75848
  21828238.633 6    340511.586 6    258526.57047  21828235.08647
  20515829.867 6    -74756.063 6    -55060.16048  20515826.27348
  20996663.586 6    179938.625 6    135055.24649  20996663.07049
  21254761.211 6   -571201.910 6   -417232.68049  21254761.18049
  21640568.148 6     79044.195 6     55669.57849  21640565.22349
 20  5 16  0  6 45.0000000  0  7G03G08G14G16G26G27G31               -0.000410841
  24267825.383 1    141211.285 1     98562.08646  24267828.29346
  23580825.969 4   -600053.770 4   -438990.23848  23580827.10948
  21828690.805 6    342889.332 6    260379.36347  21828688.10247
  20515746.359 6    -75195.691 6    -55402.73448  20515742.68448
  20996845.563 7    180894.824 7    135800.34049  20996845.34849
  21254122.500 6   -574559.977 6   -419849.35249  21254122.34049
  21640638.273 6     79412.523 6     55956.58649  21640635.19149
 20  5 16  0  6 46.0000000  0  7G03G08G14G16G26G27G31               -0.000411173
  24268021.609 1    142245.277 1     99367.81346  24268025.04746
  23580020.773 4   -604287.258 4   -442289.06648  23580022.03148
  21829143.195 6    345266.820 6    262231.94147  21829140.48847
  20515662.406 6    -75635.582 6    -55745.50448  20515658.47748
  20997027.242 7    181850.547 7    136545.06349  20997026.85249
  21253483.555 6   -577918.215 6   -422466.16449  21253483.19149
  21640708.297 6     79780.426 6     56243.26249  21640704.77749
 20  5 16  0  6 47.0000000  0  7G03G08G14G16G26G27G31               -0.000411507
  24268219.234 1    143278.762 1    100173.12946  24268220.79746
  23579215.180 4   -608521.250 4   -445588.28148  23579215.80948
  21829594.656 6    347644.047 6    264084.32047  21829592.42247
  20515578.828 6    -76075.781 6    -56088.51648  20515574.80148
  20997208.906 7    182805.730 7    137289.35949  20997208.87949
  21252843.922 6   -581276.684 6   -425083.15649  21252844.16449
  21640777.992 6     80147.887 6     56529.59449  21640774.85249
 20  5 16  0  6 48.0000000  0  7G03G08G14G16G26G27G31               -0.000411850
  24268416.03911                    100978.01656  24268417.89556
  23578409.281 4   -612755.816 4   -448887.93448  23578410.19148
  21830047.570 6    350020.957 6    265936.46147  21830045.02347
  20515494.914 6    -76516.320 6    -56431.79748  20515490.91048
  20997390.914 7    183760.359 7    138033.22349  20997390.53949
  21252204.898 6   -584635.363 6   -427700.30949  21252205.07049
  21640848.273 6     80514.836 6     56815.52349  21640844.73849
 20  5 16  0  6 49.0000000  0  7G03G08G14G16G26G27G31               -0.000412184
  24268611.563 1    145344.645 1    101782.88346  24268614.47346
  23577603.773 4   -616990.551 4   -452187.72348  23577604.33648
  21830500.273 6    352397.898 6    267788.61747  21830497.37947
  20515410.945 6    -76956.809 6    -56775.03148  20515407.09448
  20997572.250 7    184714.805 7    138776.94949  20997571.92649
  21251566.117 6   -587993.914 6   -430317.36349  21251565.62949
  21640917.945 6     80881.715 6     57101.40649  21640914.25449
 20  5 16  0  6 50.0000000  0  7G03G08G14G16G26G27G31               -0.000412508
  24268807.266 1    146377.191 1    102587.45746  24268811.11346
  23576797.320 4   -621225.738 4   -455487.87548  23576798.06648
  21830952.523 6    354774.664 6    269640.64147  21830949.40247
  20515327.508 6    -77397.535 6    -57118.46148  20515323.16848
  20997754.273 7    185668.801 7    139520.32049  20997753.83249
  21250926.820 6   -591352.617 6   -432934.53149  21250926.52349
  21640987.484 6     81248.219 6     57386.98849  21640984.19549
 20  5 16  0  6 51.0000000  0  7G03G08G14G16G26G27G31               -0.000412844
  24269004.055 1    147409.184 1    103391.60946  24269007.37546
  23575991.500 4   -625461.504 4   -458788.46948  23575992.39848
  21831404.953 6    357151.070 6    271492.38347  21831401.82847
  20515243.414 6    -77838.594 6    -57462.14148  20515239.32448
  20997935.297 6    186622.234 6    140263.25449  20997935.44549
  21250287.750 6   -594711.586 6   -435551.91449  21250287.34849
  21641057.438 6     81614.195 6     57672.16449  21641054.05149
 20  5 16  0  6 52.0000000  0  7G03G08G14G16G26G27G31               -0.000413179
  24269199.578 1    148441.000 1    104195.63746  24269203.13346
  23575184.852 4   -629697.574 4   -462089.30948  23575185.97348
  21831856.914 6    359527.434 6    273344.09447  21831853.91047
  20515159.516 6    -78279.738 6    -57805.89148  20515155.69948
  20998116.508 6    187575.332 6    141005.92649  20998116.58649
  21249648.750 6   -598070.508 6   -438169.26249  21249648.21149
  21641126.867 6     81979.957 6     57957.17249  21641123.72749
 20  5 16  0  6 53.0000000  0  7G03G08G14G16G26G27G31               -0.000413515
  24269396.484 1    149472.285 1    104999.24246  24269399.10246
  23574378.898 3   -633934.223 3   -465390.59048  23574380.23448
  21832308.930 6    361903.484 6    275195.56347  21832306.43047
  20515075.367 6    -78721.230 6    -58149.90648  20515071.67248
  20998298.117 6    188527.902 6    141748.19149  20998297.66449
  21249009.164 6   -601429.695 6   -440786.80549  21249008.91049
  21641196.516 6     82345.215 6     58241.78549  21641192.97349
 20  5 16  0  6 54.0000000  0  7G03G08G14G16G26G27G31               -0.000413851
  24269592.469 1    150503.203 1    105802.55146  24269595.37946
  23573572.883 4   -638171.320 4   -468692.22748  23573573.86748
  21832760.984 6    364279.258 6    277046.80947  21832758.25447
  20514991.281 6    -79162.996 6    -58494.14848  20514987.36348
  20998478.773 7    189479.953 7    142490.04349  20998478.89849
  21248370.133 6   -604789.074 6   -443404.50449  21248369.75849
  21641265.953 6     82710.055 6     58526.07049  21641262.16049
 20  5 16  0  6 55.0000000  0  7G03G08G14G16G26G27G31               -0.000414186
  24269788.680 1    151533.746 1    106605.56646  24269791.88346
  23572766.211 4   -642408.863 4   -471994.21948  23572767.63348
  21833212.961 6    366654.820 6    278897.89547  21833210.26647
  20514907.000 6    -79604.973 6    -58838.54748  20514903.28148
  20998659.953 7    190431.598 7    143231.58249  20998660.02349
  21247730.680 6   -608148.551 6   -446022.28149  21247729.94949
  21641335.313 6     83074.551 6     58810.09049  21641331.74649
 20  5 16  0  6 56.0000000  0  7G03G08G14G16G26G27G31               -0.000414524
  24269985.250 1    152563.969 1    107408.33246  24269987.69146
  23571959.977 3   -646646.828 3   -475296.52048  23571960.87548
  21833664.727 6    369030.250 6    280748.87947  21833662.15247
  20514823.094 6    -80047.121 6    -59183.08648  20514819.23048
  20998841.086 6    191382.813 6    143972.78949  20998841.09449
  21247091.164 6   -611508.129 6   -448640.13349  21247090.89849
  21641404.922 6     83438.691 6     59093.84049  21641401.16849
 20  5 16  0  6 57.0000000  0  7G03G08G14G16G26G27G31               -0.000414862
  24270181.234 1    153593.750 1    108210.75046  24270183.55946
  23571153.516 4   -650885.281 4   -478599.20748  23571154.37948
  21834116.992 6    371405.426 6    282599.66847  21834113.93047
  20514738.953 6    -80489.582 6    -59527.86348  20514735.37148
  20999022.039 7    192333.504 7    144713.59049  20999022.23449
  21246452.055 6   -614867.891 6   -451258.12549  21246451.55949
  21641473.680 6     83802.426 6     59377.26649  21641470.01649
 20  5 16  0  6 58.0000000  0  7G03G08G14G16G26G27G31               -0.000415199
  24270378.625 1    154623.242 1    109012.94546  24270379.36346
  23570347.188 4   -655124.156 4   -481902.22748  23570347.59448
  21834568.664 6    373780.422 6    284450.30947  21834566.13747
  20514654.898 6    -80932.215 6    -59872.76648  20514650.53548
  20999203.141 7    193283.832 7    145454.10249  20999202.72749
  21245813.063 6   -618227.746 6   -453876.20349  21245812.12949
  21641543.211 6     84165.820 6     59660.43049  21641539.12549
 20  5 16  0  6 59.0000000  0  7G03G08G14G16G26G27G31               -0.000415537
  24270573.016 1    155652.480 1    109814.95746  24270574.93046
  23569540.539 4   -659363.285 4   -485205.45348  23569540.80148
  21835020.938 6    376155.387 6    286300.93047  21835018.19547
  20514570.891 6    -81374.902 6    -60217.71548  20514566.30548
  20999383.672 7    194233.848 7    146194.37549  20999383.71149
  21245173.414 6   -621587.563 6   -456494.23849  21245172.91849
  21641612.102 6     84529.008 6     59943.43049  21641608.54349
 20  5 16  0  7  0.0000000  0  7G03G08G14G16G26G27G31               -0.000415874
  24270769.305 1    156681.289 1    110616.62146  24270770.75046
  23568733.820 4   -663602.953 4   -488509.09048  23568734.04348
  21835472.539 6    378530.102 6    288151.35247  21835470.16047
  20514486.063 6    -81817.863 6    -60562.87948  20514481.94948
  20999564.461 7    195183.371 7    146934.26249  20999563.88349
  21244534.273 6   -624947.582 6   -459112.44149  21244533.52749
  21641680.750 6     84891.773 6     60226.10249  21641677.46149
 20  5 16  0  7  1.0000000  0  8G03G08G14G16G26G27G31G32            -0.000416212
  24270965.742 1    157709.926 1    111418.16846  24270966.48046
  23567926.859 4   -667842.934 4   -491812.97348  23567927.12548
  21835924.781 6    380904.719 6    290001.71147  21835921.65647
  20514401.719 6    -82260.914 6    -60908.11748  20514397.80948
  20999745.281 7    196132.625 7    147673.94149  20999744.99649
  21243894.625 6   -628307.559 6   -461730.60249  21243894.24249
  21641749.727 6     85254.309 6     60508.59449  21641746.27349
  23907215.16411     16345.56311                
 20  5 16  0  7  2.0000000  0  8G03G08G14G16G26G27G31G32            -0.000416546
  24271159.984 1    158738.102 1    112219.33646  24271162.19146
  23567120.383 4   -672083.406 4   -495117.23848  23567120.25448
  21836376.320 6    383279.078 6    291851.86347  21836373.76247
  20514317.602 6    -82704.277 6    -61253.59848  20514313.23448
  20999925.563 7    197081.301 7    148413.16449  20999925.56349
  21243255.367 6   -631667.777 6   -464348.95749  21243254.42649
  21641819.289 6     85616.375 6     60790.72349  21641815.59849
  23907811.648 1     19486.461 1                
 20  5 16  0  7  3.0000000  0  8G03G08G14G16G26G27G31G32            -0.000416843
  24271354.883 1    159765.879 1    113020.19146  24271357.73446
  23566312.688 4   -676324.266 4   -498421.80148  23566313.27748
  21836828.398 6    385653.238 6    293701.86347  21836825.61347
  20514232.883 6    -83147.828 6    -61599.22348  20514228.81348
  21000106.156 7    198029.570 7    149152.08249  21000105.95749
  21242615.820 6   -635028.086 6   -466967.37549  21242615.31649
  21641887.414 6     85978.109 6     61072.59849  21641884.25449
  23908408.047 1     22626.984 1                
 20  5 16  0  7  4.0000000  0  8G03G08G14G16G26G27G31G32            -0.000417181
  24271548.820 1    160793.516 1    113820.94946  24271552.78546
  23565505.047 4   -680565.461 4   -501726.62948  23565506.10248
  21837280.023 6    388027.355 6    295551.82447  21837277.33647
  20514148.813 7    -83591.461 7    -61944.91048  20514144.75848
  21000286.273 7    198977.535 7    149890.75449  21000286.51649
  21241976.203 6   -638388.371 6   -469585.78149  21241975.66449
  21641956.570 6     86339.629 6     61354.29349  21641953.10549
  23909004.906 1     25767.016 1                
 20  5 16  0  7  5.0000000  0  8G03G08G14G16G26G27G31G32            -0.000417519
  24271744.883 1    161820.945 1    114621.53946  24271748.43846
  23564698.570 4   -684806.930 4   -505031.67248  23564698.91448
  21837732.078 6    390401.453 6    297401.76647  21837729.38747
  20514064.352 7    -84035.098 7    -62290.59448  20514060.30548
  21000467.117 7    199925.242 7    150629.22349  21000466.75849
  21241336.719 6   -641748.621 6   -472204.15649  21241336.02749
  21642025.039 6     86700.930 6     61635.82049  21642021.72349
  23909603.211 1     28906.855 1                
 20  5 16  0  7  6.0000000  0  8G03G08G14G16G26G27G31G32            -0.000417856
  24271941.188 1    162848.031 1    115421.84446  24271943.10246
  23563891.508 4   -689048.742 4   -508336.98048  23563891.64148
  21838183.578 6    392775.406 6    299251.60247  21838181.23047
  20513979.617 7    -84478.918 7    -62636.43048  20513975.50048
  21000646.875 7    200872.598 7    151367.41849  21000647.34849
  21240697.570 6   -645108.895 6   -474822.55149  21240696.62949
  21642093.766 6     87061.965 6     61917.15649  21642090.48849
  23910200.047 1     32046.262 1                
 20  5 16  0  7  7.0000000  0  8G03G08G14G16G26G27G31G32            -0.000418196
  24272136.336 1    163874.707 1    116221.83646  24272138.83646
  23563083.844 4   -693291.023 4   -511642.65248  23563084.44148
  21838635.711 6    395149.121 6    301101.24647  21838632.85547
  20513895.711 7    -84922.988 7    -62982.45748  20513891.20348
  21000827.273 7    201819.445 7    152105.22749  21000827.43049
  21240057.945 6   -648469.359 6   -477441.09849  21240057.35949
  21642162.492 6     87422.582 6     62198.14549  21642159.42649
  23910797.852 1     35185.117 1                
 20  5 16  0  7  8.0000000  0  8G03G08G14G16G26G27G31G32            -0.000418537
  24272332.625 1    164901.289 1    117021.78946  24272334.36346
  23562276.758 4   -697533.648 4   -514948.59448  23562277.46148
  21839087.117 6    397522.777 6    302950.85247  21839083.94547
  20513810.781 7    -85367.125 7    -63328.53948  20513806.51248
  21001006.969 7    202765.980 7    152842.78949  21001007.64849
  21239418.719 6   -651829.805 6   -480059.62949  21239417.77749
  21642230.781 6     87782.973 6     62478.97349  21642227.36749
  23911395.875 1     38323.613 1                
 20  5 16  0  7  9.0000000  0  8G03G08G14G16G26G27G31G32            -0.000418877
  24272528.867 1    165927.227 1    117821.22346  24272529.02046
  23561469.688 4   -701776.730 4   -518254.89148  23561469.88348
  21839538.109 6    399896.168 6    304800.25047  21839535.81647
  20513726.289 7    -85811.555 7    -63674.85248  20513722.32448
  21001187.445 7    203712.047 7    153579.97749  21001187.78549
  21238778.859 6   -655190.414 6   -482678.28549  21238778.62549
  21642299.648 6     88142.961 6     62759.47749  21642296.17249
  23911993.000 1     41461.609 1                
 20  5 16  0  7 10.0000000  0  8G03G08G14G16G26G27G31G32            -0.000419216
  24272723.750 1    166953.156 1    118620.65246  24272724.02046
  23560661.977 4   -706020.129 4   -521561.43848  23560662.26248
  21839989.953 6    402269.508 6    306649.60547  21839987.78947
  20513641.648 7    -86256.059 7    -64021.22348  20513637.41448
  21001367.250 7    204657.797 7    154316.92649  21001367.37549
  21238139.656 6   -658551.023 6   -485296.94149  21238139.11749
  21642368.391 6     88502.711 6     63039.80549  21642364.89849
  23912591.672 1     44599.258 1                
 20  5 16  0  7 11.0000000  0  8G03G08G14G16G26G27G31G32            -0.000419556
  24272918.906 1    167978.684 1    119419.77046  24272919.46946
  23559853.883 4   -710263.973 4   -524868.33248  23559854.72748
  21840441.773 6    404642.645 6    308498.80547  21840439.12147
  20513556.914 7    -86700.801 7    -64367.77348  20513552.67248
  21001547.109 7    205603.105 7    155053.52749  21001547.10249
  21237499.820 6   -661911.766 6   -487915.70349  21237499.05949
  21642436.461 6     88862.098 6     63319.84449  21642433.38749
  23913188.445 1     47736.305 1                
 20  5 16  0  7 12.0000000  0  8G03G08G14G16G26G27G31G32            -0.000419899
  24273114.391 1    169003.504 1    120218.30946  24273114.30946
  23559046.125 4   -714508.453 4   -528175.72348  23559047.43048
  21840893.164 6    407015.348 6    310347.65647  21840890.66447
  20513472.250 6    -87145.984 6    -64714.67648  20513468.10948
  21001726.805 7    206547.738 7    155789.60549  21001727.17249
  21236860.359 6   -665272.840 6   -490534.72349  21236859.68049
  21642504.867 6     89220.867 6     63599.40249  21642501.76249
  23913784.844 1     50872.734 1                
 20  5 16  0  7 13.0000000  0  8G03G08G14G16G26G27G31G32            -0.000420240
  24273308.695 1    170028.145 1    121016.72346  24273308.90646
  23558238.734 4   -718753.328 4   -531483.41448  23558239.47348
  21841345.008 6    409387.910 6    312196.39847  21841342.06347
  20513387.539 6    -87591.328 6    -65061.69548  20513383.41448
  21001906.734 7    207491.988 7    156525.37949  21001906.87949
  21236220.945 6   -668633.973 6   -493153.78149  21236220.18449
  21642573.195 6     89579.363 6     63878.75449  21642569.75049
  23914383.125 1     54008.738 1                
 20  5 16  0  7 14.0000000  0  8G03G08G14G16G26G27G31G32            -0.000420582
  24273503.898 1    171052.426 1    121814.86346  24273503.81646
  23557431.078 4   -722998.535 4   -534791.37148  23557431.57448
  21841795.852 6    411760.375 6    314045.07447  21841793.69547
  20513302.633 6    -88036.809 6    -65408.82048  20513298.87148
  21002086.063 6    208435.871 6    157260.87149  21002086.84449
  21235581.266 6   -671995.160 6   -495772.89549  21235580.23849
  21642640.672 6     89937.559 6     64157.86749  21642637.92249
  23914980.633 1     57144.348 1                
 20  5 16  0  7 15.0000000  0  8G03G08G14G16G26G27G31G32            -0.000420923
  24273699.477 1    172076.512 1    122612.83646  24273698.98446
  23556622.711 4   -727244.043 4   -538099.55948  23556623.28948
  21842247.898 6    414132.785 6    315893.69547  21842245.22347
  20513217.648 6    -88482.355 6    -65755.99648  20513214.03548
  21002265.383 6    209379.500 6    157996.16849  21002266.28549
  21234941.547 6   -675356.320 6   -498391.97749  21234940.77349
  21642709.258 6     90295.551 6     64436.82449  21642706.11349
  23915578.617 2     60279.625 2                
 20  5 16  0  7 16.0000000  0  8G03G08G14G16G26G27G31G32            -0.000421268
  24273894.133 1    173100.090 1    123410.41846  24273893.40646
  23555814.703 4   -731490.109 4   -541408.19148  23555815.74648
  21842699.250 6    416504.844 6    317742.05147  21842696.79747
  20513133.148 6    -88928.230 6    -66103.43048  20513129.34048
  21002445.484 6    210322.520 6    158730.98849  21002445.15249
  21234302.102 6   -678717.727 6   -501011.25849  21234301.09449
  21642776.992 6     90653.027 6     64715.37949  21642774.17649
  23916175.719 1     63414.289 1                
 20  5 16  0  7 17.0000000  0  8G03G08G14G16G26G27G31G32            -0.000421610
  24274090.500 1    174123.352 1    124207.77746  24274088.07446
  23555007.227 5   -735736.586 5   -544717.13748  23555007.16448
  21843150.539 6    418876.719 6    319590.25847  21843148.28147
  20513047.930 6    -89374.340 6    -66451.05548  20513044.02048
  21002624.328 6    211265.121 6    159465.48049  21002624.81349
  21233662.086 6   -682079.242 6   -503630.62549  21233661.30949
  21642844.883 6     91010.184 6     64993.68049  21642842.05149
  23916772.055 2     66548.398 2                
 20  5 16  0  7 18.0000000  0  8G03G08G14G16G26G27G31G32            -0.000421955
  24274285.406 1    175146.297 1    125004.86346  24274282.67646
  23554199.383 5   -739983.492 5   -548026.42248  23554199.17648
  21843602.273 6    421248.438 6    321438.35547  21843599.36347
  20512963.188 6    -89820.617 6    -66798.80548  20512958.82048
  21002803.602 6    212207.320 6    160199.65249  21002803.99249
  21233022.531 6   -685440.852 6   -506250.05549  21233021.69949
  21642912.875 6     91366.996 6     65271.71149  21642909.82849
  23917368.227 2     69682.156 2                
 20  5 16  0  7 19.0000000  0  8G03G08G14G16G26G27G31G32            -0.000422298
  24274479.891 1    176168.867 1    125801.65646  24274477.32846
  23553390.969 5   -744230.824 5   -551336.03548  23553391.02048
  21844053.344 6    423619.910 6    323286.26247  21844050.23447
  20512878.117 6    -90267.141 6    -67146.75048  20512874.14148
  21002982.938 6    213149.051 6    160933.46549  21002983.28549
  21232382.727 6   -688802.582 6   -508869.59049  21232382.06649
  21642980.797 6     91723.445 6     65549.46149  21642977.59049
  23917964.648 2     72815.387 2                
 20  5 16  0  7 20.0000000  0  8G03G08G14G16G26G27G31G32            -0.000422642
  24274673.969 1    177191.273 1    126598.35546  24274672.00446
  23552582.289 5   -748478.395 5   -554645.83648  23552582.72748
  21844504.398 6    425991.461 6    325134.22747  21844501.59447
  20512793.305 6    -90713.648 6    -67494.67648  20512789.08648
  21003162.352 6    214090.602 6    161667.14549  21003162.57849
  21231742.867 6   -692164.215 6   -511489.04749  21231742.08649
  21643048.805 6     92079.746 6     65827.09849  21643046.24249
  23918563.016 2     75948.352 2                
 20  5 16  0  7 21.0000000  0  8G03G08G14G16G26G27G31G32            -0.000422987
  24274867.188 1    178213.289 1    127394.71546  24274866.32846
  23551774.164 5   -752726.402 5   -557955.97348  23551774.15248
  21844955.891 6    428362.777 6    326982.00847  21844952.53547
  20512708.078 6    -91160.359 6    -67842.76248  20512704.34048
  21003341.406 6    215031.684 6    162400.45349  21003341.68449
  21231103.430 6   -695525.969 6   -514108.60549  21231102.72349
  21643116.445 6     92435.695 6     66104.46949  21643113.50049
  23919158.641 2     79080.809 2                
 20  5 16  0  7 22.0000000  0  8G03G08G14G16G26G27G31G32            -0.000423332
  24275061.414 1    179235.145 1    128190.94946  24275060.98046
  23550966.023 5   -756974.684 5   -561266.31648  23550965.98848
  21845407.094 6    430734.078 6    328829.77747  21845404.35247
  20512623.523 6    -91607.141 6    -68190.89848  20512619.18448
  21003520.445 6    215972.504 6    163133.55949  21003520.62949
  21230463.617 6   -698887.680 6   -516728.12549  21230462.66449
  21643184.508 6     92791.473 6     66381.69549  21643181.42249
  23919755.203 2     82213.016 2                
 20  5 16  0  7 23.0000000  0  8G03G08G14G16G26G27G31G32            -0.000423677
  24275256.438 1    180256.703 1    128986.96146  24275254.88346
  23550157.477 5   -761223.320 5   -564576.94148  23550157.48448
  21845858.648 6    433105.215 6    330677.40647  21845855.15647
  20512538.164 6    -92054.074 6    -68539.15648  20512533.88348
  21003699.211 6    216912.906 6    163866.34449  21003699.45349
  21229824.203 6   -702249.457 6   -519347.69149  21229823.18449
  21643252.000 6     93146.867 6     66658.62549  21643248.53949
  23920351.992 2     85344.734 2                
 20  5 16  0  7 24.0000000  0  8G03G08G14G16G26G27G31G32            -0.000424025
  24275450.313 1    181277.797 1    129782.59846  24275449.92246
  23549348.938 5   -765472.469 5   -567887.96948  23549349.11348
  21846309.742 6    435476.109 6    332524.85547  21846306.52747
  20512452.805 6    -92501.281 6    -68887.62948  20512448.88748
  21003877.930 6    217852.832 6    164598.75049  21003878.31649
  21229184.008 6   -705611.414 6   -521967.39849  21229183.31349
  21643319.656 6     93501.906 6     66935.27749  21643316.35549
  23920947.711 2     88475.836 2                
 20  5 16  0  7 25.0000000  0  8G03G08G14G16G26G27G31G32            -0.000424370
  24275643.523 1    182298.680 1    130578.10246  24275644.10946
  23548540.578 5   -769721.969 5   -571199.26648  23548540.27048
  21846760.938 6    437846.879 6    334372.21147  21846757.74647
  20512367.961 6    -92948.633 6    -69236.21548  20512363.81648
  21004057.133 6    218792.410 6    165330.88749  21004057.27349
  21228544.508 6   -708973.402 6   -524587.12949  21228543.40649
  21643387.008 6     93856.637 6     67211.69549  21643384.19549
  23921544.750 2     91606.715 2                
 20  5 16  0  7 26.0000000  0  8G03G08G14G16G26G27G31G32            -0.000424717
  24275838.508 1    183319.074 1    131373.23446  24275838.15646
  23547731.898 5   -773971.922 5   -574510.92248  23547731.60948
  21847211.703 6    440217.418 6    336219.38747  21847208.94947
  20512282.688 6    -93396.203 6    -69584.97748  20512278.08648
  21004235.945 6    219731.516 6    166062.66049  21004235.91049
  21227904.617 6   -712335.531 6   -527206.96549  21227903.62149
  21643454.641 6     94210.988 6     67487.80949  21643451.25049
  23922140.422 1     94736.969 1                
 20  5 16  0  7 27.0000000  0  8G03G08G14G16G26G27G31G32            -0.000425064
  24276033.039 1    184339.363 1    132168.27046  24276032.46146
  23546922.570 5   -778222.090 5   -577822.74248  23546922.85548
  21847662.250 6    442587.977 6    338066.57447  21847659.64147
  20512197.398 6    -93843.828 6    -69933.77048  20512193.38348
  21004414.383 6    220670.371 6    166794.23049  21004414.45349
  21227265.016 6   -715697.590 6   -529826.75449  21227264.02749
  21643521.805 6     94565.191 6     67763.81349  21643518.90249
  23922736.898 2     97866.961 2                
 20  5 16  0  7 28.0000000  0  8G03G08G14G16G26G27G31G32            -0.000425411
  24276227.203 1    185359.176 1    132962.93046  24276226.37946
  23546114.000 5   -782472.805 5   -581134.98848  23546113.98448
  21848113.688 6    444958.230 6    339913.52747  21848110.59447
  20512112.289 6    -94291.770 6    -70282.82448  20512108.17648
  21004592.750 7    221608.703 7    167525.39849  21004593.05549
  21226624.945 6   -719059.875 6   -532446.71149  21226623.92249
  21643589.063 6     94918.918 6     68039.43849  21643586.37949
  23923331.297 2    100996.352 2                
 20  5 16  0  7 29.0000000  0  8G03G08G14G16G26G27G31G32            -0.000425758
  24276421.758 1    186378.664 1    133757.34846  24276420.93446
  23545304.359 5   -786723.941 5   -584447.55948  23545305.07048
  21848565.250 6    447328.305 6    341760.33647  21848561.69147
  20512027.195 6    -94739.898 6    -70632.02048  20512022.85248
  21004771.602 6    222546.594 6    168256.22749  21004771.94149
  21225985.250 6   -722422.250 6   -535066.75049  21225984.17249
  21643656.273 6     95272.297 6     68314.79749  21643653.37549
  23923926.203 2    104125.270 2                
 20  5 16  0  7 30.0000000  0  8G03G08G14G16G26G27G31G32            -0.000426107
  24276613.813 1    187397.707 1    134551.42246  24276615.04746
  23544495.672 5   -790975.488 5   -587760.44948  23544495.60948
  21849015.633 6    449698.191 6    343607.00047  21849012.77347
  20511941.914 6    -95188.227 6    -70981.36348  20511937.32048
  21004949.906 7    223484.063 7    168986.71949  21004949.89149
  21225345.180 6   -725784.719 6   -537686.85949  21225344.41449
  21643723.242 6     95625.328 6     68589.88749  21643720.49249
  23924522.047 2    107253.766 2                
 20  5 16  0  7 31.0000000  0  8G03G08G14G16G26G27G31G32            -0.000426456
  24276808.086 1    188416.816 1    135345.52046  24276808.54346
  23543686.938 5   -795227.137 5   -591073.42248  23543686.80548
  21849466.992 6    452068.176 6    345453.73847  21849463.73447
  20511856.570 6    -95636.484 6    -71330.65648  20511852.08248
  21005128.070 6    224421.402 6    169717.10949  21005128.14549
  21224705.531 6   -729147.020 6   -540306.83649  21224704.44149
  21643790.906 6     95978.320 6     68864.94549  21643787.48849
  23925117.211 2    110382.082 2                
 20  5 16  0  7 32.0000000  0  8G03G08G14G16G26G27G31G32            -0.000426805
  24277002.133 1    189435.410 1    136139.22346  24277002.68046
  23542877.570 5   -799479.375 5   -594386.85948  23542877.39548
  21849917.563 6    454437.848 6    347300.23047  21849914.63747
  20511770.992 6    -96085.086 6    -71680.21548  20511766.49248
  21005306.813 6    225358.180 6    170447.06649  21005306.40649
  21224065.750 7   -732509.535 7   -542926.97349  21224064.96149
  21643858.250 6     96330.820 6     69139.62149  21643854.69949
  23925713.219 2    113509.723 2                
 20  5 16  0  7 33.0000000  0  8G03G08G14G16G26G27G31G32            -0.000427155
  24277195.805 1    190453.707 1    136932.69546  24277196.52346
  23542068.391 5   -803731.973 5   -597700.57048  23542068.33648
  21850368.250 6    456807.328 6    349146.58647  21850365.99247
  20511685.313 6    -96533.852 6    -72029.89548  20511681.30948
  21005484.672 6    226294.543 6    171176.69949  21005484.93049
  21223425.836 7   -735872.164 7   -545547.20349  21223424.86749
  21643925.156 6     96682.988 6     69414.03949  21643922.08649
  23926308.039 2    116636.980 2                
 20  5 16  0  7 34.0000000  0  8G03G08G14G16G26G27G31G32            -0.000427504
  24277388.516 1    191471.520 1    137725.79346  24277390.54746
  23541258.898 5   -807985.059 5   -601014.66048  23541258.90648
  21850819.242 6    459176.613 6    350992.78147  21850816.37947
  20511600.016 6    -96982.879 6    -72379.79348  20511596.05948
  21005662.484 6    227230.449 6    171905.97749  21005663.23849
  21222785.992 6   -739234.926 6   -548167.54349  21222784.81349
  21643992.109 6     97034.773 6     69688.15649  21643988.67649
  23926904.125 2    119763.711 2                
 20  5 16  0  7 35.0000000  0  8G03G08G14G16G26G27G31G32            -0.000427853
  24277583.289 1    192488.934 1    138518.57446  24277583.85546
  23540449.688 5   -812238.703 5   -604329.19148  23540449.57848
  21851270.172 6    461545.578 6    352838.71947  21851267.19547
  20511514.781 7    -97432.230 7    -72729.93448  20511510.66848
  21005840.625 6    228165.801 6    172634.82049  21005840.86749
  21222146.109 6   -742597.910 6   -550788.04749  21222145.15249
  21644058.578 6     97386.074 6     69961.89849  21644055.78549
  23927498.281 2    122889.836 2                
 20  5 16  0  7 36.0000000  0  8G03G08G14G16G26G27G31G32            -0.000428204
  24277776.945 1    193505.988 1    139311.09046  24277777.43446
  23539639.883 5   -816492.746 5   -607644.03148  23539639.89148
  21851720.727 6    463914.383 6    354684.53947  21851717.91847
  20511429.172 6    -97881.734 6    -73080.19548  20511424.77748
  21006018.664 6    229100.750 6    173363.35249  21006018.55149
  21221506.031 6   -745960.977 6   -553408.61749  21221505.21949
  21644125.305 6     97737.070 6     70235.40249  21644122.81649
  23928090.648 2    126015.563 2                
 20  5 16  0  7 37.0000000  0  8G03G08G14G16G26G27G31G32            -0.000428555
  24277969.609 1    194522.680 1    140103.32446  24277971.25846
  23538830.664 5   -820747.156 5   -610959.16048  23538830.18048
  21852171.641 6    466283.004 6    356530.20747  21852168.58647
  20511343.523 6    -98331.453 6    -73430.62548  20511339.44548
  21006196.148 6    230035.273 6    174091.54749  21006196.77749
  21220865.789 6   -749324.133 6   -556029.25849  21220865.11749
  21644192.125 6     98087.730 6     70508.64549  21644189.36749
  23928684.977 2    129140.762 2                
 20  5 16  0  7 38.0000000  0  8G03G08G14G16G26G27G31G32            -0.000428905
  24278163.992 1    195539.000 1    140895.25446  24278164.09046
  23538020.438 5   -825002.191 5   -614274.77348  23538020.43448
  21852622.047 6    468651.270 6    358375.60947  21852619.35947
  20511257.898 6    -98781.523 6    -73781.32848  20511253.64148
  21006374.258 6    230969.246 6    174819.32049  21006374.20349
  21220225.922 6   -752687.566 6   -558650.12149  21220225.20749
  21644259.133 6     98437.887 6     70781.49249  21644255.89549
  23929278.297 2    132265.340 2                
 20  5 16  0  7 39.0000000  0  8G03G08G14G16G26G27G31G32            -0.000429258
  24278358.258 1    196554.809 1    141686.79346  24278358.06346
  23537211.352 5   -829257.711 5   -617590.76248  23537210.64148
  21853072.789 6    471019.289 6    360220.82847  21853070.43447
  20511172.164 6    -99231.859 6    -74132.24248  20511167.55148
  21006551.906 6    231902.723 6    175546.70349  21006551.97749
  21219585.672 7   -756051.141 7   -561271.08649  21219585.03949
  21644325.242 6     98787.613 6     71054.01249  21644322.30549
  23929872.094 2    135389.422 2                
 20  5 16  0  7 40.0000000  0  8G03G08G14G16G26G27G31G32            -0.000429609
  24278551.898 1    197570.617 1    142478.32446  24278550.90246
  23536400.938 5   -833513.250 5   -620906.76248  23536400.84048
  21853523.086 5    473387.496 5    362066.18847  21853520.86347
  20511086.258 6    -99682.070 6    -74483.05548  20511082.23048
  21006729.273 6    232836.113 6    176274.02349  21006729.27749
  21218945.984 7   -759414.480 7   -563891.86749  21218945.24249
  21644392.063 6     99137.375 6     71326.55149  21644389.00449
  23930467.047 2    138513.379 2                
 20  5 16  0  7 41.0000000  0  8G03G08G14G16G26G27G31G32            -0.000429962
  24278744.398 1    198586.031 1    143269.55946  24278744.54746
  23535591.508 5   -837769.246 5   -624223.12548  23535591.34848
  21853973.898 5    475755.488 5    363911.37147  21853971.73847
  20511000.414 6   -100132.488 6    -74834.03948  20510997.03948
  21006906.852 6    233769.031 6    177000.96549  21006907.19949
  21218306.172 7   -762777.953 7   -566512.76249  21218304.96549
  21644458.180 6     99486.746 6     71598.78949  21644454.79349
  23931061.922 2    141636.770 2                
 20  5 16  0  7 42.0000000  0  8G03G08G14G16G26G27G31G32            -0.000430285
  24278936.68811                    144060.59456  24278937.34456
  23534781.227 5   -842025.711 5   -627539.84848  23534780.93848
  21854424.500 5    478123.246 5    365756.36747  21854422.21547
  20510914.836 6   -100583.148 6    -75185.20348  20510910.82448
  21007084.703 6    234701.520 6    177727.59049  21007084.65649
  21217665.859 7   -766141.570 7   -569133.75849  21217664.99249
  21644525.047 6     99835.754 6     71870.73449  21644521.66049
  23931658.203 2    144759.730 2                
 20  5 16  0  7 43.0000000  0  8G03G08G14G16G26G27G31G32            -0.000430668
  24279130.797 1    200615.832 1    144851.25846  24279130.73846
  23533971.195 5   -846282.582 5   -630856.89148  23533971.16048
  21854875.336 5    480490.836 5    367601.24647  21854872.64147
  20510828.734 6   -101034.012 6    -75536.52048  20510825.17248
  21007261.586 6    235633.570 6    178453.85549  21007261.77049
  21217025.734 6   -769505.262 6   -571754.82049  21217024.73849
  21644591.078 6    100184.414 6     72142.41849  21644588.06649
  23932253.313 2    147882.238 2                
 20  5 16  0  7 44.0000000  0  8G03G08G14G16G26G27G31G32            -0.000431021
  24279324.195 1    201630.391 1    145641.82046  24279324.18846
  23533161.203 5   -850539.637 5   -634174.07048  23533161.27748
  21855325.664 5    482858.488 5    369446.16447  21855322.80147
  20510743.227 6   -101484.828 6    -75887.80948  20510739.07048
  21007439.180 6    236565.453 6    179179.99649  21007439.21949
  21216386.008 6   -772868.816 6   -574375.77049  21216384.25449
  21644657.375 6    100532.965 6     72414.02049  21644654.35949
  23932847.297 2    151004.449 2                
 20  5 16  0  7 45.0000000  0  8G03G08G14G16G26G27G31G32            -0.000431374
  24279516.766 1    202644.734 1    146432.21546  24279517.22346
  23532350.289 5   -854797.027 5   -637491.51648  23532350.48848
  21855776.258 5    485226.031 5    371290.99647  21855773.80947
  20510657.367 6   -101935.754 6    -76239.18048  20510653.38748
  21007616.281 6    237496.984 6    179905.86749  21007616.52749
  21215746.133 6   -776232.387 6   -576996.73849  21215744.62949
  21644724.086 6    100881.246 6     72685.39849  21644720.62149
  23933441.602 2    154126.309 2                
 20  5 16  0  7 46.0000000  0  8G03G08G14G16G26G27G31G32            -0.000431698
  24279710.41411    203658.60911    147222.23856  24279710.63356
  23531540.406 5   -859054.938 5   -640809.37148  23531540.75048
  21856226.602 5    487593.285 5    373135.61747  21856224.48847
  20510572.039 6   -102387.023 6    -76590.82048  20510567.51248
  21007793.648 6    238428.000 6    180631.33249  21007794.06349
  21215105.445 6   -779596.184 6   -579617.87549  21215104.52749
  21644789.836 6    101229.105 6     72956.45749  21644786.80149
  23934035.875 2    157247.629 2                
 20  5 16  0  7 47.0000000  0  8G03G08G14G16G26G27G31G32            -0.000432083
  24279903.563 1    204672.305 1    148012.12546  24279903.72346
  23530730.234 5   -863313.102 5   -644127.42648  23530730.22348
  21856677.125 5    489960.520 5    374980.22347  21856674.96147
  20510486.000 6   -102838.297 6    -76942.45748  20510481.37948
  21007970.359 6    239358.723 6    181356.57049  21007970.56649
  21214465.195 6   -782959.898 6   -582238.95349  21214464.11349
  21644856.000 6    101576.762 6     73227.36349  21644853.13349
  23934630.359 2    160368.566 2                
 20  5 16  0  7 48.0000000  0  8G03G08G14G16G26G27G31G32            -0.000432407
  24280094.95311                    148801.79355  24280096.69155
  23529920.242 5   -867571.598 5   -647445.73448  23529919.51248
  21857127.414 6    492327.656 6    376824.74647  21857125.07047
  20510400.500 6   -103289.707 6    -77294.20348  20510395.78148
  21008147.203 6    240289.137 6    182081.56349  21008147.89549
  21213825.203 6   -786323.652 6   -584860.06349  21213824.33649
  21644922.352 6    101924.176 6     73498.07049  21644919.19149
  23935225.445 2    163489.188 2                
 20  5 16  0  7 49.0000000  0  8G03G08G14G16G26G27G31G32            -0.000432760
  24280289.594 1    206698.973 1    149591.35545  24280288.69545
  23529109.227 5   -871830.406 5   -650764.29348  23529109.27748
  21857577.680 5    494694.715 5    378669.20347  21857575.75447
  20510314.289 6   -103741.207 6    -77646.02048  20510309.86748
  21008324.617 6    241219.219 6    182806.30149  21008325.10949
  21213185.273 7   -789687.383 7   -587481.14849  21213184.31649
  21644988.406 6    102271.332 6     73768.58249  21644985.16449
  23935820.117 2    166609.379 2                
 20  5 16  0  7 50.0000000  0  8G03G08G14G16G26G27G31G32            -0.000433146
  24280482.000 1    207711.957 1    150380.71146  24280482.21546
  23528298.953 5   -876089.492 5   -654083.05548  23528298.90648
  21858028.773 6    497061.730 6    380513.62547  21858026.19947
  20510228.148 6   -104192.766 6    -77997.89148  20510223.93848
  21008501.430 6    242149.035 6    183530.83249  21008502.04349
  21212545.445 7   -793051.063 7   -590102.19949  21212544.25449
  21645054.578 6    102618.313 6     74038.96549  21645050.99649
  23936413.961 2    169729.355 2                
 20  5 16  0  7 51.0000000  0  8G03G08G14G16G26G27G31G32            -0.000433502
  24280673.938 1    208724.660 1    151169.82445  24280674.68045
  23527488.305 5   -880348.891 5   -657402.05948  23527488.35548
  21858478.945 5    499428.660 5    382357.97747  21858476.29747
  20510142.500 6   -104644.453 6    -78349.84848  20510138.07048
  21008678.250 6    243078.480 6    184255.07049  21008678.81349
  21211904.813 7   -796414.777 7   -592723.27749  21211903.76649
  21645120.648 6    102965.012 6     74309.11349  21645117.33649
  23937008.055 1    172848.828 1                
 20  5 16  0  7 52.0000000  0  8G03G08G14G16G26G27G31G32            -0.000433826
  24280865.81311                    151958.67255  24280867.72755
  23526677.828 5   -884608.703 5   -660721.39148  23526677.71948
  21858928.953 5    501795.379 5    384202.17247  21858926.71947
  20510056.008 6   -105096.324 6    -78701.96548  20510051.78148
  21008854.992 6    244007.527 6    184978.99649  21008855.55949
  21211264.703 7   -799778.566 7   -595344.40649  21211263.29749
  21645186.594 6    103311.379 6     74579.01249  21645183.23849
  23937602.070 2    175967.883 2                
 20  5 16  0  7 53.0000000  0  8G03G08G14G16G26G27G31G32            -0.000434181
  24281058.48411                    152747.35255  24281060.34055
  23525866.602 5   -888868.773 5   -664040.92248  23525867.22748
  21859379.656 5    504162.082 5    386046.35547  21859377.06647
  20509970.383 6   -105548.266 6    -79054.12548  20509965.96148
  21009031.938 6    244936.293 6    185702.70749  21009032.39549
  21210624.797 7   -803142.320 7   -597965.51649  21210623.17649
  21645252.375 6    103657.547 6     74848.74249  21645248.96949
  23938195.680 2    179086.609 2                
 20  5 16  0  7 54.0000000  0  8G03G08G14G16G26G27G31G32            -0.000434538
  24281252.039 1                    153535.86345  24281253.13345
  23525056.055 5   -893129.098 5   -667360.65248  23525056.45348
  21859830.203 5    506528.738 5    387890.50847  21859827.49647
  20509884.289 6   -106000.227 6    -79406.30148  20509880.05948
  21009208.703 6    245864.777 6    186426.20349  21009209.01649
  21209984.500 6   -806506.020 6   -600586.57849  21209983.42249
  21645318.352 6    104003.527 6     75118.34449  21645314.48449
  23938788.977 2    182204.992 2                
 20  5 16  0  7 55.0000000  0  8G03G08G14G16G26G27G31G32            -0.000434895
  24281444.69511    212772.74611    154324.10955  24281445.02355
  23524245.445 5   -897389.973 5   -670680.81348  23524245.68848
  21860281.055 6    508895.094 6    389734.41447  21860277.59847
  20509798.125 6   -106452.539 6    -79758.75448  20509794.22348
  21009385.359 6    246792.707 6    187149.27349  21009385.71949
  21209344.570 7   -809869.953 7   -603207.82849  21209343.21149
  21645384.023 6    104349.035 6     75387.56349  21645380.53549
  23939383.383 1    185322.836 1                
 20  5 16  0  7 56.0000000  0  7G08G14G16G26G27G31G32               -0.000435251
  23523434.422 5   -901651.257 5   -674001.29548  23523434.72348
  21860730.695 5    511261.293 5    391578.20747  21860728.00847
  20509711.953 6   -106905.027 6    -80111.34848  20509707.72348
  21009561.516 6    247720.258 6    187872.03949  21009562.18849
  21208704.383 7   -813233.949 7   -605829.12149  21208702.77749
  21645449.656 6    104694.215 6     75656.53549  21645445.98449
  23939975.523 1    188440.199 1                
 20  5 16  0  7 57.0000000  0  7G08G14G16G26G27G31G32               -0.000435608
  23522623.578 5   -905912.789 5   -677321.96948  23522623.73048
  21861181.117 5    513627.395 5    393421.91847  21861178.36347
  20509625.805 6   -107357.613 6    -80464.01248  20509621.71948
  21009738.031 6    248647.480 6    188594.55149  21009738.60549
  21208064.305 6   -816597.941 6   -608450.41849  21208062.95749
  21645515.453 6    105039.184 6     75925.34849  21645511.75449
  23940568.641 1    191557.195 1                
 20  5 16  0  7 58.0000000  0  7G08G14G16G26G27G31G32               -0.000435966
  23521812.344 5   -910174.797 5   -680643.00848  23521813.02748
  21861631.477 5    515993.289 5    395265.46947  21861628.41047
  20509540.016 6   -107810.426 6    -80816.85248  20509535.28948
  21009914.672 6    249574.258 6    189316.71149  21009914.76649
  21207424.359 6   -819962.051 6   -611071.80149  21207423.10949
  21645581.023 6    105383.758 6     76193.84449  21645577.70749
  23941161.680 1    194673.715 1                
 20  5 16  0  7 59.0000000  0  7G08G14G16G26G27G31G32               -0.000436323
  23521001.406 5   -914437.336 5   -683964.46948  23521001.91048
  21862081.023 6    518358.875 6    397108.78947  21862078.30947
  20509453.625 6   -108263.574 6    -81169.95748  20509449.23048
  21010090.742 6    250500.469 6    190038.43449  21010091.40249
  21206783.719 7   -823326.422 7   -613693.38749  21206782.18849
  21645646.414 6    105727.875 6     76461.98849  21645643.17249
  23941754.555 1    197789.652 1                
 20  5 16  0  8  0.0000000  0  7G08G14G16G26G27G31G32               -0.000436682
  23520190.016 5   -918700.223 5   -687286.19148  23520190.83248
  21862531.555 6    520724.363 6    398952.02747  21862528.72747
  20509367.070 6   -108716.852 6    -81523.16448  20509362.94548
  21010267.016 6    251426.352 6    190759.89549  21010267.56349
  21206143.789 7   -826690.773 7   -616314.95749  21206142.29749
  21645712.313 6    106071.738 6     76729.93449  21645708.05949
  23942348.117 1    200905.137 1                
 20  5 16  0  8  1.0000000  0  7G08G14G16G26G27G31G32               -0.000437040
  23519379.055 5   -922963.293 5   -690608.06648  23519379.64848
  21862981.430 6    523089.852 6    400795.26247  21862978.67247
  20509280.617 6   -109170.117 6    -81876.35948  20509276.52348
  21010442.984 6    252352.012 6    191481.18449  21010443.91849
  21205503.773 7   -830055.023 7   -618936.45749  21205502.14849
  21645777.266 6    106415.461 6     76997.76649  21645773.90649
  23942940.125 1    204020.395 1                
 20  5 16  0  8  2.0000000  0  7G08G14G16G26G27G31G32               -0.000437399
  23518567.977 5   -927226.848 5   -693930.31348  23518568.62948
  21863431.563 5    525455.074 5    402638.29347  21863428.61747
  20509194.633 6   -109623.660 6    -82229.76648  20509190.44548
  21010619.156 6    253277.141 6    192202.06349  21010619.68449
  21204863.266 6   -833419.453 6   -621558.09049  21204861.79749
  21645842.555 6    106758.734 6     77265.24649  21645839.11349
  23943533.578 1    207135.105 1                
 20  5 16  0  8  3.0000000  0  7G08G14G16G26G27G31G32               -0.000437759
  23517756.445 5   -931490.906 5   -697252.95748  23517756.98448
  21863881.719 5    527820.063 5    404481.12947  21863878.67647
  20509108.133 6   -110077.484 6    -82583.39848  20509103.74248
  21010795.125 6    254201.785 6    192922.56349  21010795.96149
  21204223.234 6   -836784.055 6   -624179.85949  21204221.46149
  21645907.945 6    107101.594 6     77532.40649  21645904.38349
  23944125.742 1    210249.246 1                
 20  5 16  0  8  4.0000000  0  7G08G14G16G26G27G31G32               -0.000438118
  23516944.945 5   -935755.414 5   -700575.95348  23516945.38348
  21864332.102 5    530184.805 5    406323.78547  21864329.04347
  20509022.266 6   -110531.563 6    -82937.23048  20509017.73448
  21010971.156 6    255125.969 6    193642.70749  21010971.81349
  21203582.703 6   -840148.793 6   -626801.73049  21203581.38349
  21645972.820 6    107444.090 6     77799.28549  21645969.57049
  23944719.406 1    213362.922 1                
 20  5 16  0  8  5.0000000  0  7G08G14G16G26G27G31G32               -0.000438478
  23516132.867 5   -940020.180 5   -703899.14548  23516133.84848
  21864781.836 6    532549.566 6    408166.46147  21864778.69547
  20508935.563 6   -110985.625 6    -83291.04348  20508931.37548
  21011146.883 6    256049.922 6    194362.66849  21011147.41849
  21202941.797 6   -843513.438 6   -629423.53549  21202940.68049
  21646038.164 6    107786.426 6     78066.03949  21646034.90249
  23945311.805 1    216476.227 1                
 20  5 16  0  8  6.0000000  0  7G08G14G16G26G27G31G32               -0.000438839
  23515321.055 5   -944285.086 5   -707222.44948  23515322.04748
  21865232.039 5    534914.414 5    410009.21147  21865228.73847
  20508849.383 6   -111439.633 6    -83644.81348  20508845.10248
  21011322.781 6    256973.711 6    195082.49649  21011323.29349
  21202301.508 6   -846877.938 6   -632045.21949  21202300.61349
  21646103.328 6    108128.688 6     78332.73849  21646099.74249
  23945904.383 1    219589.461 1                
 20  5 16  0  8  7.0000000  0  7G08G14G16G26G27G31G32               -0.000439199
  23514509.539 5   -948550.496 5   -710546.13348  23514510.43448
  21865681.477 5    537278.988 5    411851.73847  21865678.79347
  20508762.797 6   -111893.922 6    -83998.80948  20508758.06648
  21011498.391 6    257897.016 6    195801.95349  21011499.03549
  21201661.852 6   -850242.582 6   -634667.02749  21201660.29749
  21646168.602 6    108470.531 6     78599.10949  21646164.94149
  23946497.563 1    222702.078 1                
 20  5 16  0  8  8.0000000  0  7G08G14G16G26G27G31G32               -0.000439560
  23513697.688 5   -952816.324 5   -713870.15648  23513698.41048
  21866131.766 5    539643.348 5    413694.09447  21866128.73447
  20508676.047 6   -112348.461 6    -84352.99648  20508671.83648
  21011674.281 6    258819.840 6    196521.04749  21011674.30949
  21201021.328 6   -853607.355 6   -637288.92649  21201019.60949
  21646233.672 6    108811.988 6     78865.17649  21646229.57449
  23947091.039 1    225814.203 1                
 20  5 16  0  8  9.0000000  0  7G08G14G16G26G27G31G32               -0.000439920
  23512885.883 5   -957082.406 5   -717194.37548  23512886.66048
  21866581.766 5    542007.707 5    415536.46147  21866578.35247
  20508589.508 6   -112803.016 6    -84707.19148  20508585.26248
  21011849.609 6    259742.422 6    197239.94549  21011849.91449
  21200381.188 6   -856972.086 6   -639910.79349  21200379.56349
  21646298.164 6    109153.270 6     79131.11349  21646294.85249
  23947682.805 1    228926.043 1                
 20  5 16  0  8 10.0000000  0  7G08G14G16G26G27G31G32               -0.000440283
  23512074.102 5   -961348.875 5   -720518.89848  23512074.79348
  21867031.930 5    544371.891 5    417378.67247  21867028.02347
  20508503.055 6   -113257.746 6    -85061.53548  20508498.98848
  21012024.727 6    260664.609 6    197958.52749  21012025.77349
  21199740.633 6   -860336.879 6   -642532.71549  21199739.52749
  21646363.055 6    109494.223 6     79396.78949  21646359.52349
  23948275.000 1    232037.398 1                
 20  5 16  0  8 11.0000000  0  7G08G14G16G26G27G31G32               -0.000440645
  23511261.844 5   -965615.535 5   -723843.57048  23511262.83248
  21867481.508 6    546736.043 6    419220.86347  21867477.76247
  20508416.508 6   -113712.516 6    -85415.89848  20508412.56348
  21012200.781 6    261586.535 6    198676.90649  21012200.87549
  21199099.953 6   -863701.586 6   -645154.55949  21199099.14549
  21646428.094 6    109835.047 6     79662.36349  21646424.13349
  23948866.992 1    235148.402 1                
 20  5 16  0  8 12.0000000  0  7G08G14G16G26G27G31G32               -0.000441008
  23510450.375 5   -969882.539 5   -727168.50448  23510450.95348
  21867931.195 6    549100.117 6    421063.00447  21867927.66447
  20508329.977 6   -114167.387 6    -85770.34848  20508326.30148
  21012376.078 6    262508.129 6    199395.02749  21012376.23849
  21198459.758 6   -867066.277 6   -647776.39849  21198458.59849
  21646492.750 6    110175.605 6     79927.73049  21646489.25449
  23949457.266 1    238259.129 1                
 20  5 16  0  8 13.0000000  0  7G08G14G16G26G27G31G32               -0.000441368
  23509637.766 5   -974149.977 5   -730493.77748  23509638.73448
  21868380.898 5    551463.977 5    422904.97747  21868377.66847
  20508243.250 6   -114622.520 6    -86124.99648  20508238.97748
  21012550.734 6    263429.262 6    200112.79349  21012551.40249
  21197819.633 6   -870431.125 6   -650398.35549  21197817.95349
  21646557.781 6    110515.773 6     80192.79749  21646554.03549
  23950049.805 1    241369.262 1                
 20  5 16  0  8 14.0000000  0  7G08G14G16G26G27G31G32               -0.000441732
  23508825.938 5   -978417.961 5   -733819.48048  23508826.38348
  21868830.922 5    553827.535 5    424746.70747  21868827.30547
  20508156.695 6   -115077.930 6    -86479.86348  20508152.78548
  21012726.289 6    264349.879 6    200830.15649  21012727.27349
  21197179.742 6   -873796.188 6   -653020.48449  21197178.12549
  21646622.133 6    110855.500 6     80457.52049  21646618.57849
  23950640.594 1    244478.902 1                
 20  5 16  0  8 15.0000000  0  7G08G14G16G26G27G31G32               -0.000442095
  23508013.883 5   -982686.340 5   -737145.49248  23508014.45348
  21869280.750 6    556190.918 6    426588.30147  21869277.15247
  20508070.094 6   -115533.574 6    -86834.90648  20508065.87548
  21012901.367 6    265270.031 6    201547.16049  21012902.14149
  21196539.211 6   -877161.336 6   -655642.68049  21196537.34849
  21646686.938 6    111194.879 6     80721.96949  21646683.32449
  23951231.156 1    247588.070 1                
 20  5 16  0  8 16.0000000  0  7G08G14G16G26G27G31G32               -0.000442459
  23507201.445 5   -986955.371 5   -740472.01248  23507201.74648
  21869730.297 6    558553.883 6    428429.57847  21869726.56347
  20507983.320 6   -115989.648 6    -87190.29348  20507979.37548
  21013076.383 6    266189.559 6    202263.67649  21013076.77349
  21195898.508 6   -880526.824 6   -658265.13749  21195897.01649
  21646751.469 6    111533.711 6     80985.99649  21646748.22349
  23951821.195 1    250696.438 1                
 20  5 16  0  8 17.0000000  0  7G08G14G16G26G27G31G32               -0.000442823
  23506388.859 5   -991224.707 5   -743798.76248  23506389.49648
  21870180.047 5    560916.758 5    430270.77747  21870176.84047
  20507896.508 6   -116445.805 6    -87545.73848  20507892.52048
  21013251.602 6    267108.734 6    202979.91449  21013251.96149
  21195258.570 6   -883892.289 6   -660887.58649  21195256.79749
  21646815.625 6    111872.270 6     81249.80549  21646812.20749
  23952414.914 1    253804.555 1                
 20  5 16  0  8 18.0000000  0  7G08G14G16G26G27G31G32               -0.000443188
  23505576.508 5   -995494.297 5   -747125.71948  23505577.00048
  21870629.539 5    563279.605 5    432111.95747  21870626.46547
  20507809.805 6   -116902.012 6    -87901.23048  20507805.58648
  21013426.172 6    268027.664 6    203695.95749  21013426.45749
  21194618.055 6   -887257.727 6   -663510.00049  21194616.12949
  21646880.172 6    112210.645 6     81513.47349  21646876.33649
  23953005.828 1    256912.242 1                
 20  5 16  0  8 19.0000000  0  7G08G14G16G26G27G31G32               -0.000443552
  23504764.016 5   -999764.406 5   -750453.08248  23504764.49648
  21871079.422 6    565642.160 6    433952.90647  21871075.95747
  20507722.883 6   -117358.543 6    -88256.96948  20507718.79748
  21013600.766 6    268946.074 6    204411.60249  21013601.08649
  21193977.766 6   -890623.320 6   -666132.53949  21193975.75049
  21646944.516 6    112548.594 6     81776.80549  21646941.28949
  23953595.359 1    260019.500 1                
 20  5 16  0  8 20.0000000  0  7G08G14G16G26G27G31G32               -0.000443916
  23503951.516 5  -1004034.754 5   -753780.62548  23503951.86348
  21871528.477 5    568004.723 5    435793.86347  21871525.56647
  20507635.797 6   -117815.086 6    -88612.71948  20507631.93848
  21013775.313 6    269864.215 6    205127.03549  21013775.96149
  21193336.984 6   -893988.828 6   -668755.01649  21193335.38349
  21647008.570 6    112886.383 6     82040.02049  21647005.23049
  23954185.352 1    263126.320 1                
 20  5 16  0  8 21.0000000  0  7G08G14G16G26G27G31G32               -0.000444283
  23503138.055 5  -1008305.559 5   -757108.52348  23503139.24648
  21871978.086 5    570367.086 5    437634.66847  21871975.11347
  20507548.961 6   -118271.828 6    -88968.62148  20507545.45348
  21013950.039 6    270781.941 6    205842.14849  21013950.41049
  21192696.555 6   -897354.461 6   -671377.58649  21192694.94549
  21647073.188 6    113223.816 6     82302.94949  21647069.50849
  23954776.203 1    266232.813 1                
 20  5 16  0  8 22.0000000  0  7G08G14G16G26G27G31G32               -0.000444773
  23502325.516 5  -1012576.813 5   -760436.77048  23502326.19948
  21872427.445 5    572729.145 5    439475.23447  21872424.87147
  20507461.805 6   -118728.902 6    -89324.78148  20507458.28148
  21014124.633 6    271699.129 6    206556.83649  21014125.05149
  21192056.078 6   -900720.289 6   -674000.30949  21192054.09049
  21647137.117 6    113560.801 6     82565.53549  21647134.16049
  23955365.43011                                
 20  5 16  0  8 23.0000000  0  7G08G14G16G26G27G31G32               -0.000445139
  23501513.102 5  -1016848.277 5   -763765.18048  23501513.39548
  21872877.164 5    575091.277 5    441315.86347  21872874.14547
  20507375.242 6   -119185.930 6    -89680.91448  20507371.17248
  21014299.203 6    272616.113 6    207271.36749  21014299.73049
  21191415.977 6   -904085.988 6   -676622.93049  21191413.75849
  21647200.898 6    113897.652 6     82828.02049  21647197.71149
  23955956.83611                                
 20  5 16  0  8 24.0000000  0  7G08G14G16G26G27G31G32               -0.000445505
  23500699.273 5  -1021119.848 5   -767093.67648  23500700.77048
  21873326.469 5    577453.496 5    443156.54747  21873323.53147
  20507288.211 6   -119642.867 6    -90036.96948  20507284.14848
  21014473.555 6    273532.996 6    207985.81649  21014474.20749
  21190775.578 6   -907451.477 6   -679245.39549  21190773.67649
  21647264.961 6    114234.523 6     83090.51649  21647262.10249
  23956546.570 1                                
 20  5 16  0  8 25.0000000  0  7G08G14G16G26G27G31G32               -0.000445873
  23499886.672 5  -1025391.836 5   -770422.50048  23499887.74648
  21873775.625 6    579815.555 6    444997.11747  21873773.05147
  20507201.211 6   -120099.984 6    -90393.16448  20507197.25448
  21014648.258 6    274449.461 6    208699.95349  21014647.97349
  21190134.492 6   -910817.055 6   -681867.92649  21190133.00449
  21647329.148 6    114571.027 6     83352.73049  21647325.99649
  23957139.063 1                                
 20  5 16  0  8 26.0000000  0  7G08G14G16G26G27G31G32               -0.000446239
  23499073.445 5  -1029664.227 5   -773751.62948  23499074.59848
  21874225.602 6    582177.379 6    446837.49247  21874222.53547
  20507114.023 6   -120557.336 6    -90749.53948  20507110.67648
  21014822.688 6    275365.469 6    209413.72749  21014822.89849
  21189494.422 6   -914182.715 6   -684490.51649  21189492.53949
  21647393.156 6    114907.180 6     83614.66849  21647389.90649
  23957730.78911                                
 20  5 16  0  8 27.0000000  0  7G08G14G16G26G27G31G32               -0.000446608
  23498260.594 5  -1033936.996 5   -777081.05148  23498261.48848
  21874674.945 5    584539.113 5    448677.79747  21874672.25047
  20507026.547 6   -121014.848 6    -91106.05148  20507023.15648
  21014996.336 6    276281.078 6    210127.19149  21014997.15649
  21188853.805 6   -917548.488 6   -687113.19949  21188851.87949
  21647457.180 6    115243.008 6     83876.34849  21647453.78149
  23958322.64811                                
 20  5 16  0  8 28.0000000  0  7G08G14G16G26G27G31G32               -0.000446976
  23497447.227 4  -1038210.117 4   -780410.75048  23497448.23048
  21875124.719 5    586900.613 5    450517.92647  21875121.67647
  20506939.492 6   -121472.555 6    -91462.70748  20506935.82048
  21015170.680 6    277196.305 6    210840.35249  21015171.44949
  21188213.609 6   -920914.313 6   -689735.91449  21188211.41049
  21647520.992 6    115578.523 6     84137.78949  21647517.64849
  23958911.48411                                
 20  5 16  0  8 29.0000000  0  7G08G14G16G26G27G31G32               -0.000447344
  23496634.070 4  -1042483.645 4   -783740.77748  23496634.76648
  21875573.852 6    589262.000 6    452357.96147  21875570.96547
  20506852.953 6   -121930.414 6    -91819.48448  20506848.88748
  21015344.953 6    278111.148 6    211553.20749  21015345.12949
  21187573.211 6   -924280.164 6   -692358.66449  21187570.87949
  21647584.914 6    115913.746 6     84399.00049  21647581.60549
  23959502.44511                                
 20  5 16  0  8 30.0000000  0  7G08G14G16G26G27G31G32               -0.000447712
  23495821.375 4  -1046757.586 4   -787071.12548  23495822.13348
  21876023.305 5    591623.188 5    454197.84447  21876020.03147
  20506765.445 6   -122388.492 6    -92176.43048  20506761.85248
  21015518.742 6    279025.531 6    212265.71549  21015519.18449
  21186932.422 6   -927646.168 6   -694981.52049  21186930.38749
  21647648.523 6    116248.602 6     84659.92649  21647645.05949
  23960093.07011                                
 20  5 16  0  8 31.0000000  0  7G08G14G16G26G27G31G32               -0.000448080
  23495007.891 4  -1051031.773 4   -790401.66048  23495008.46948
  21876472.570 6    593984.352 6    456037.71947  21876469.67247
  20506678.258 6   -122846.648 6    -92533.42648  20506674.66848
  21015693.086 6    279939.637 6    212978.00449  21015693.30149
  21186292.172 6   -931012.094 6   -697604.32049  21186289.86749
  21647712.180 6    116583.281 6     84920.71549  21647708.50049
  23960681.398 1    297274.695 1                
 20  5 16  0  8 32.0000000  0  6G08G14G16G26G27G31                  -0.000448450
  23494194.234 4  -1055306.426 4   -793732.55548  23494194.96148
  21876921.555 6    596345.270 6    457877.39147  21876919.14847
  20506590.938 6   -123304.992 6    -92890.57848  20506587.40648
  21015867.195 6    280853.328 6    213689.96549  21015866.96149
  21185651.328 6   -934378.133 6   -700227.21149  21185649.20349
  21647775.742 6    116917.574 6     85181.20349  21647772.90249
 20  5 16  0  8 33.0000000  0  6G08G14G16G26G27G31                  -0.000448818
  23493380.867 4  -1059581.305 4   -797063.62148  23493381.92248
  21877370.953 5    598706.188 5    459717.06647  21877368.28147
  20506503.969 6   -123763.375 6    -93247.77048  20506500.65648
  21016041.164 6    281766.715 6    214401.69549  21016041.07449
  21185010.953 6   -937744.121 6   -702850.06349  21185009.07849
  21647839.500 6    117251.703 6     85441.56349  21647836.07449
 20  5 16  0  8 34.0000000  0  6G08G14G16G26G27G31                  -0.000449188
  23492567.695 4  -1063856.492 4   -800394.93448  23492567.93848
  21877820.703 5    601067.012 5    461556.66447  21877817.04347
  20506416.922 6   -124221.887 6    -93605.04748  20506413.30948
  21016214.492 6    282679.805 6    215113.18849  21016214.87149
  21184370.297 6   -941110.082 6   -705472.88349  21184368.06349
  21647903.078 6    117585.598 6     85701.74249  21647899.81349
 20  5 16  0  8 35.0000000  0  6G08G14G16G26G27G31                  -0.000449558
  23491753.969 5  -1068131.953 5   -803726.46548  23491754.38748
  21878269.516 5    603427.734 5    463396.19547  21878266.19147
  20506328.758 6   -124680.504 6    -93962.41048  20506325.93048
  21016388.180 6    283592.543 6    215824.41849  21016388.52749
  21183729.625 6   -944476.070 6   -708095.73449  21183727.93449
  21647966.750 6    117919.219 6     85961.70749  21647963.16449
 20  5 16  0  8 36.0000000  0  6G08G14G16G26G27G31                  -0.000449928
  23490940.305 5  -1072407.906 5   -807058.38348  23490940.54748
  21878718.719 5    605788.266 5    465235.56647  21878715.67247
  20506241.680 6   -125139.324 6    -94319.92648  20506238.49648
  21016561.656 6    284504.867 6    216535.32049  21016562.03549
  21183089.266 6   -947842.133 6   -710718.64149  21183087.55549
  21648030.336 6    118252.527 6     86221.42649  21648026.59049
 20  5 16  0  8 37.0000000  0  6G08G14G16G26G27G31                  -0.000450300
  23490126.547 5  -1076684.082 5   -810390.47348  23490126.93048
  21879167.875 5    608148.742 5    467074.89147  21879164.77047
  20506154.375 6   -125598.215 6    -94677.50448  20506151.16848
  21016735.195 6    285416.871 6    217245.97349  21016735.35549
  21182448.320 6   -951208.172 6   -713341.52749  21182446.34449
  21648093.305 6    118585.590 6     86480.95349  21648089.99249
 20  5 16  0  8 38.0000000  0  6G08G14G16G26G27G31                  -0.000450670
  23489312.727 5  -1080960.777 5   -813722.96548  23489313.24248
  21879616.836 5    610508.965 5    468914.02747  21879613.68847
  20506067.039 6   -126057.406 6    -95035.32048  20506063.48048
  21016908.820 6    286328.371 6    217956.22749  21016908.92249
  21181808.477 6   -954574.383 6   -715964.55149  21181806.20349
  21648156.633 6    118918.242 6     86740.16449  21648153.20749
 20  5 16  0  8 39.0000000  0  6G08G14G16G26G27G31                  -0.000451042
  23488499.031 5  -1085237.816 5   -817055.72348  23488499.23848
  21880065.969 6    612869.020 6    470753.03147  21880063.00047
  20505979.961 6   -126516.750 6    -95393.24648  20505976.38748
  21017081.914 6    287239.520 6    218666.20749  21017082.28949
  21181167.219 6   -957940.621 6   -718587.59849  21181166.03149
  21648219.953 6    119250.582 6     86999.13349  21648216.91449
 20  5 16  0  8 40.0000000  0  6G08G14G16G26G27G31                  -0.000451414
  23487685.313 5  -1089515.172 5   -820388.72748  23487685.30548
  21880515.570 6    615228.984 6    472591.96547  21880512.05947
  20505892.078 6   -126976.215 6    -95751.27748  20505888.96548
  21017254.836 6    288150.297 6    219375.91049  21017255.53549
  21180527.172 6   -961306.910 6   -721210.68049  21180524.92249
  21648283.188 6    119582.699 6     87257.92649  21648279.85549
 20  5 16  0  8 41.0000000  0  6G08G14G16G26G27G31                  -0.000451786
  23486871.125 5  -1093792.699 5   -823721.86748  23486871.16048
  21880964.734 6    617588.992 6    474430.94147  21880961.17247
  20505804.898 6   -127435.621 6    -96109.25048  20505801.70748
  21017428.781 6    289060.934 6    220085.49649  21017428.89149
  21179886.320 7   -964673.016 7   -723833.62149  21179884.78149
  21648346.453 6    119914.719 6     87516.63749  21648342.79349
 20  5 16  0  8 42.0000000  0  6G08G14G16G26G27G31                  -0.000452158
  23486057.367 5  -1098070.656 5   -827055.35248  23486057.12148
  21881412.828 6    619948.805 6    476269.75447  21881410.11347
  20505717.539 6   -127895.238 6    -96467.40248  20505714.57048
  21017601.859 6    289971.090 6    220794.69949  21017601.96949
  21179245.664 6   -968039.242 6   -726456.65249  21179243.43849
  21648409.188 6    120246.387 6     87775.07449  21648406.41449
 20  5 16  0  8 43.0000000  0  6G08G14G16G26G27G31                  -0.000452530
  23485243.000 5  -1102349.070 5   -830389.18848  23485243.10248
  21881862.703 6    622308.414 6    478108.41047  21881859.04747
  20505629.898 6   -128355.137 6    -96825.76248  20505626.41448
  21017774.586 6    290880.789 6    221503.55549  21017775.03549
  21178605.297 6   -971405.602 6   -729079.79349  21178603.56349
  21648472.086 6    120577.617 6     88033.17249  21648468.99249
 20  5 16  0  8 44.0000000  0  6G08G14G16G26G27G31                  -0.000452904
  23484428.742 5  -1106627.680 5   -833723.16848  23484428.87548
  21882311.406 5    624668.023 5    479947.06647  21882308.18447
  20505542.313 6   -128815.023 6    -97184.12148  20505539.17648
  21017948.242 6    291790.266 6    222212.23849  21017948.12549
  21177964.578 7   -974771.859 7   -731702.85549  21177962.71149
  21648535.234 6    120908.742 6     88291.19149  21648532.29749
 20  5 16  0  8 45.0000000  0  6G08G14G16G26G27G31                  -0.000453276
  23483614.281 5  -1110906.602 5   -837057.38748  23483614.42648
  21882760.656 6    627027.527 6    481785.63747  21882757.43847
  20505455.109 6   -129275.020 6    -97542.55548  20505451.52048
  21018121.156 6    292699.438 6    222920.68449  21018121.17249
  21177324.086 6   -978138.098 6   -734325.89849  21177321.94949
  21648598.320 6    121239.660 6     88549.05549  21648595.21949
 20  5 16  0  8 46.0000000  0  6G08G14G16G26G27G31                  -0.000453650
  23482799.844 5  -1115185.793 5   -840391.81648  23482799.95348
  21883209.438 6    629386.995 6    483624.18147  21883206.08247
  20505367.281 6   -129735.094 6    -97901.06348  20505363.83648
  21018293.914 6    293608.250 6    223628.84449  21018294.11749
  21176683.039 6   -981504.320 6   -736948.92249  21176681.25449
  21648661.500 6    121570.305 6     88806.70349  21648657.99249
 20  5 16  0  8 47.0000000  0  6G08G14G16G26G27G31                  -0.000454023
  23481985.523 5  -1119465.332 5   -843726.52048  23481985.71548
  21883658.680 6    631746.332 6    485462.62547  21883655.53147
  20505279.391 6   -130195.250 6    -98259.62548  20505276.21948
  21018466.938 6    294516.770 6    224336.78949  21018467.34449
  21176042.719 6   -984870.539 6   -739571.94549  21176040.97749
  21648724.320 6    121900.746 6     89064.19149  21648720.75049
 20  5 16  0  8 48.0000000  0  6G08G14G16G26G27G31                  -0.000454397
  23481171.266 4  -1123745.141 4   -847061.42648  23481171.15248
  21884106.922 6    634105.609 6    487301.01247  21884104.47747
  20505191.789 6   -130655.527 6    -98618.28148  20505188.36748
  21018639.641 6    295424.973 6    225044.47349  21018640.06649
  21175402.328 7   -988236.719 7   -742194.95349  21175399.95749
  21648786.758 6    122230.910 6     89321.46149  21648783.96549
 20  5 16  0  8 49.0000000  0  6G08G14G16G26G27G31                  -0.000454773
  23480356.609 5  -1128025.223 5   -850396.54748  23480356.89848
  21884556.125 5    636464.789 5    489139.32847  21884553.44547
  20505104.328 6   -131115.914 6    -98977.02048  20505101.39548
  21018812.633 6    296332.832 6    225751.89149  21018812.92649
  21174761.891 7   -991602.945 7   -744817.99249  21174759.87549
  21648849.523 6    122560.844 6     89578.55549  21648846.14549
 20  5 16  0  8 50.0000000  0  7G08G14G16G21G26G27G31               -0.000455137
  23479542.203 4  -1132305.723 4   -853732.00048  23479541.95748
  21885004.875 6    638823.848 6    490977.56647  21885001.99247
  20505016.992 6   -131576.438 6    -99335.87948  20505013.47348
  24249282.94513    -35815.57013    -20137.26655  24249278.59855
  21018985.313 6    297240.320 6    226459.01649  21018985.50849
  21174121.141 6   -994969.188 6   -747441.03149  21174118.89849
  21648912.469 6    122890.508 6     89835.43049  21648909.09849
 20  5 16  0  8 51.0000000  0  7G08G14G16G21G26G27G31               -0.000455513
  23478727.883 5  -1136586.371 5   -857067.57448  23478727.88348
  21885454.344 6    641182.898 6    492815.78147  21885451.29747
  20504928.789 6   -132037.004 6    -99694.76248  20504925.69948
  24249096.406 2    -36788.664 2    -20895.53145  24249093.65645
  21019157.758 6    298147.574 6    227165.96549  21019158.35549
  21173480.555 6   -998335.324 6   -750063.98449  21173478.34049
  21648974.813 6    123219.973 6     90092.15649  21648972.00049
 20  5 16  0  8 52.0000000  0  7G08G14G16G21G26G27G31               -0.000455887
  23477913.203 5  -1140867.461 5   -860403.49648  23477912.65648
  21885902.820 6    643541.758 6    494653.84447  21885899.80947
  20504841.422 6   -132497.758 6   -100053.79348  20504837.89548
  24248911.703 3    -37762.086 3    -21654.05545  24248908.35945
  21019330.461 6    299054.398 6    227872.58249  21019330.52049
  21172839.797 6  -1001701.559 6   -752687.02349  21172837.85249
  21649037.273 6    123549.137 6     90348.64849  21649034.07849
 20  5 16  0  8 53.0000000  0  7G08G14G16G21G26G27G31               -0.000456263
  23477099.102 5  -1145148.832 5   -863739.64148  23477098.03948
  21886351.484 6    645900.563 6    496491.87947  21886348.77047
  20504753.984 6   -132958.563 6   -100412.86748  20504750.43448
  24248726.289 4    -38735.488 4    -22412.55145  24248723.40645
  21019502.547 6    299960.945 6    228578.98049  21019503.29749
  21172199.828 6  -1005067.730 6   -755310.01649  21172197.54749
  21649100.453 6    123878.117 6     90604.99249  21649096.85249
 20  5 16  0  8 54.0000000  0  7G08G14G16G21G26G27G31               -0.000456638
  23476284.352 5  -1149430.449 5   -867075.96148  23476283.03148
  21886800.852 5    648259.309 5    498329.86747  21886797.48447
  20504665.953 6   -133419.441 6   -100772.00048  20504662.62948
  24248541.938 3    -39708.961 3    -23171.07445  24248537.91045
  21019675.734 6    300867.168 6    229285.12149  21019675.65649
  21171559.305 7  -1008433.898 7   -757933.01249  21171556.84049
  21649162.875 6    124206.859 6     90861.14849  21649159.43449
 20  5 16  0  8 55.0000000  0  7G08G14G16G21G26G27G31               -0.000457014
  23475469.148 4  -1153712.524 4   -870412.64448  23475468.40648
  21887249.555 6    650617.844 6    500167.68847  21887246.18047
  20504578.211 6   -133880.547 6   -101131.29748  20504575.05548
  24248357.750 4    -40682.613 4    -23929.76845  24248353.00445
  21019847.828 6    301773.000 6    229990.97349  21019848.09449
  21170918.563 7  -1011800.117 7   -760556.03949  21170916.30549
  21649225.398 6    124535.258 6     91117.04749  21649221.97349
 20  5 16  0  8 56.0000000  0  7G08G14G16G21G26G27G31               -0.000457392
  23474654.133 5  -1157994.820 5   -873749.49648  23474653.94948
  21887698.703 5    652976.500 5    502005.60547  21887695.05147
  20504490.484 6   -134341.641 6   -101490.59048  20504487.37948
  24248171.195 4    -41656.313 4    -24688.50845  24248167.59045
  21020019.828 6    302678.602 6    230696.64149  21020020.40649
  21170277.961 6  -1015166.246 6   -763179.00449  21170275.74249
  21649287.953 6    124863.547 6     91372.85549  21649284.26649
 20  5 16  0  8 57.0000000  0  7G08G14G16G21G26G27G31               -0.000457777
  23473838.891 5  -1162277.449 5   -877086.60948  23473838.94148
  21888146.859 2    655334.984 2    503843.37946  21888143.77346
  20504402.992 6   -134802.863 6   -101849.98448  20504399.71148
  24247986.89111                                
  21020191.945 6    303583.793 6    231401.98449  21020192.05549
  21169637.250 6  -1018532.383 6   -765801.97349  21169634.87149
  21649350.195 6    125191.523 6     91628.43849  21649346.94949
 20  5 16  0  8 58.0000000  0  7G08G14G16G21G26G27G31               -0.000458155
  23473024.250 5  -1166560.188 5   -880423.81348  23473023.85248
  21888595.703 5    657693.410 5    505681.12146  21888592.78146
  20504315.336 6   -135264.059 6   -102209.35948  20504311.96548
  24247801.445 4                                
  21020364.453 6    304488.895 6    232107.25449  21020364.79749
  21168996.969 7  -1021898.379 7   -768424.83649  21168994.46949
  21649412.633 6    125519.430 6     91883.95349  21649408.97349
 20  5 16  0  8 59.0000000  0  7G08G14G16G21G26G27G31               -0.000458532
  23472208.727 5  -1170843.512 5   -883761.45748  23472208.18048
  21889044.508 6    660051.605 6    507518.67247  21889041.37147
  20504227.211 6   -135725.617 6   -102569.01648  20504224.06348
  24247615.563 5                                
  21020536.422 6    305393.363 6    232812.03549  21020537.05949
  21168356.297 6  -1025264.625 6   -771047.87949  21168353.70349
  21649474.875 6    125846.852 6     92139.08249  21649471.88349
 20  5 16  0  9  0.0000000  0  7G08G14G16G21G26G27G31               -0.000458908
  23471394.359 5  -1175127.156 5   -887099.35948  23471393.22348
  21889493.289 6    662409.656 6    509356.11747  21889490.57047
  20504139.336 6   -136187.277 6   -102928.75048  20504136.38348
  24247429.352 4                                
  21020708.555 6    306297.477 6    233516.53549  21020709.04749
  21167715.500 7  -1028630.859 7   -773670.90249  21167713.10949
  21649537.398 6    126173.992 6     92393.98849  21649533.37949
 20  5 16  0  9  1.0000000  0  7G08G14G16G21G26G27G31               -0.000459288
  23470579.492 5  -1179411.121 5   -890437.51648  23470578.32448
  21889941.805 6    664767.598 6    511193.47347  21889939.11347
  20504051.664 6   -136649.066 6   -103288.58648  20504048.12148
  24247245.227 4    -46526.707 4                
  21020880.891 6    307201.262 6    234220.78149  21020880.93849
  21167074.742 7  -1031997.125 7   -776293.96549  21167072.87549
  21649599.414 6    126500.887 6     92648.70349  21649595.53549
 20  5 16  0  9  2.0000000  0  7G08G14G16G21G26G27G31               -0.000459656
  23469763.586 5  -1183695.453 5   -893775.96548  23469763.02348
  21890390.227 6    667125.418 6    513030.73447  21890387.72347
  20503963.477 6   -137111.020 6   -103648.54748  20503960.17648
  24247059.578 4    -47501.266 4                
  21021052.672 6    308104.672 6    234924.73049  21021052.97749
  21166434.000 7  -1035363.434 7   -778917.06349  21166432.05549
  21649661.742 6    126827.488 6     92903.19549  21649657.97349
 20  5 16  0  9  3.0000000  0  7G08G14G16G21G26G27G31               -0.000460035
  23468948.422 5  -1187980.266 5   -897114.77748  23468947.41048
  21890838.813 6    669482.965 6    514867.77747  21890836.15247
  20503875.688 6   -137573.258 6   -104008.74248  20503872.44148
  24246873.688 4    -48476.102 4    -26055.65256  24246868.63756
  21021224.523 6    309007.555 6    235628.27349  21021224.76249
  21165793.703 7  -1038729.902 7   -781540.28549  21165791.93049
  21649723.781 6    127153.688 6     93157.37949  21649719.95749
 20  5 16  0  9  4.0000000  0  7G08G14G16G21G26G27G31               -0.000460413
  23468133.031 5  -1192265.324 5   -900453.77048  23468132.14548
  21891287.789 6    671840.516 6    516704.83247  21891284.69147
  20503787.922 6   -138035.500 6   -104368.92648  20503784.36348
  24246688.039 4    -49450.980 4    -26815.28546  24246682.99646
  21021395.945 6    309910.211 6    236331.64549  21021396.62549
  21165153.180 6  -1042096.277 6   -784163.43449  21165150.95749
  21649786.008 6    127479.703 6     93411.42249  21649782.02049
 20  5 16  0  9  5.0000000  0  7G08G14G16G21G26G27G31               -0.000460793
  23467317.359 5  -1196550.867 5   -903793.15248  23467316.44948
  21891736.148 6    674197.766 6    518541.64547  21891733.34847
  20503699.531 6   -138498.055 6   -104729.35548  20503696.41048
  24246503.445 4    -50426.121 4    -27575.11346  24246497.59046
  21021567.719 6    310812.344 6    237034.60549  21021567.92649
  21164512.500 6  -1045462.848 6   -786786.73449  21164510.31649
  21649847.758 6    127805.285 6     93665.12149  21649843.94949
 20  5 16  0  9  6.0000000  0  7G08G14G16G21G26G27G31               -0.000461172
  23466501.945 5  -1200836.840 5   -907132.87548  23466501.00048
  21892184.727 6    676554.852 6    520378.33647  21892181.83647
  20503611.266 6   -138960.805 6   -105089.93848  20503608.31648
  24246317.539 4    -51401.480 4    -28335.14146  24246312.42246
  21021739.289 6    311714.047 6    237737.23049  21021739.53949
  21163871.914 6  -1048829.500 6   -789410.09849  21163869.49249
  21649909.594 6    128130.535 6     93918.55949  21649905.61749
 20  5 16  0  9  7.0000000  0  7G08G14G16G21G26G27G31               -0.000461554
  23465685.906 5  -1205123.016 5   -910472.77048  23465684.94148
  21892633.461 6    678911.855 6    522214.96947  21892630.31647
  20503523.242 6   -139423.652 6   -105450.59848  20503520.52748
  24246131.406 4    -52376.934 4    -29095.22345  24246126.23445
  21021910.875 6    312615.453 6    238439.62549  21021911.63749
  21163231.289 6  -1052196.121 6   -792033.44149  21163229.01249
  21649971.328 6    128455.586 6     94171.84849  21649967.64149
 20  5 16  0  9  8.0000000  0  7G08G14G16G21G26G27G31               -0.000461933
  23464870.625 5  -1209409.664 5   -913813.02348  23464869.47748
  21893081.570 5    681268.633 5    524051.41047  21893079.03147
  20503435.164 6   -139886.707 6   -105811.42248  20503432.35948
  24245945.219 3    -53352.629 3    -29855.52746  24245940.93446
  21022082.688 6    313516.406 6    239141.67249  21022082.50049
  21162590.758 6  -1055562.859 6   -794656.87549  21162588.22349
  21650033.281 6    128780.266 6     94424.84049  21650029.67649
 20  5 16  0  9  9.0000000  0  7G08G14G16G21G26G27G31               -0.000462315
  23464054.938 5  -1213696.590 5   -917153.48848  23464053.46548
  21893530.234 6    683625.367 6    525887.83647  21893527.43847
  20503346.914 6   -140349.852 6   -106172.31648  20503343.94948
  24245759.570 4    -54328.402 4    -30615.89546  24245755.29346
  21022253.828 6    314417.047 6    239843.46149  21022254.21549
  21161949.586 6  -1058929.563 6   -797280.27749  21161947.66449
  21650094.688 6    129104.723 6     94677.66849  21650091.25849
 20  5 16  0  9 10.0000000  0  7G08G14G16G21G26G27G31               -0.000462694
  23463239.305 5  -1217983.719 5   -920494.11348  23463237.83648
  21893978.953 6    685982.121 6    527724.26247  21893975.77047
  20503259.008 6   -140813.004 6   -106533.21548  20503256.06348
  24245574.094 3    -55304.125 3    -31376.19546  24245569.65646
  21022425.266 6    315317.473 6    240545.08249  21022425.16849
  21161309.086 6  -1062296.148 6   -799903.59449  21161307.11349
  21650156.641 6    129429.059 6     94930.39849  21650152.79749
 20  5 16  0  9 11.0000000  0  7G08G14G16G21G26G27G31               -0.000463076
  23462422.625 5  -1222271.219 5   -923835.02348  23462421.60248
  21894427.070 6    688338.707 6    529560.56347  21894424.03947
  20503171.063 6   -141276.328 6   -106894.25048  20503167.88348
  24245388.031 4    -56280.105 4    -32136.68846  24245383.76646
  21022596.641 6    316217.484 6    241246.39149  21022596.98449
  21160668.656 6  -1065662.805 6   -802526.95749  21160666.27049
  21650218.297 6    129753.070 6     95182.87549  21650214.44949
 20  5 16  0  9 12.0000000  0  7G08G14G16G21G26G27G31               -0.000463457
  23461607.250 5  -1226559.160 5   -927176.27348  23461605.94548
  21894875.781 6    690695.047 6    531396.66447  21894872.32847
  20503082.563 6   -141739.906 6   -107255.48848  20503079.41848
  24245202.852 4    -57256.281 4    -32897.30946  24245198.30146
  21022767.445 6    317117.059 6    241947.36349  21022767.74649
  21160027.836 6  -1069029.590 6   -805150.43049  21160025.71149
  21650280.008 6    130076.699 6     95435.04749  21650275.85249
 20  5 16  0  9 13.0000000  0  7G08G14G16G21G26G27G31               -0.000463839
  23460791.125 5  -1230847.230 5   -930517.59848  23460790.03148
  21895324.391 6    693051.484 6    533232.85247  21895320.69147
  20502994.617 6   -142203.395 6   -107616.64848  20502991.10248
  24245016.039 4    -58232.363 4    -33657.87945  24245012.89545
  21022938.961 6    318016.477 6    242648.20749  21022939.04349
  21159387.047 6  -1072396.184 6   -807773.75049  21159385.02349
  21650341.273 6    130400.285 6     95687.18849  21650337.52049
 20  5 16  0  9 14.0000000  0  7G08G14G16G21G26G27G31               -0.000464220
  23459975.320 5  -1235135.598 5   -933859.16448  23459973.92648
  21895772.273 6    695407.895 6    535069.01647  21895769.34047
  20502906.469 6   -142666.977 6   -107977.87548  20502903.57848
  24244829.992 3    -59208.582 3    -34418.57445  24244826.85945
  21023110.055 6    318915.566 6    243348.79349  21023109.68849
  21158746.609 7  -1075762.750 7   -810397.04749  21158744.34049
  21650402.875 6    130723.648 6     95939.15249  21650399.10549
 20  5 16  0  9 15.0000000  0  7G08G14G16G21G26G27G31               -0.000464603
  23459158.508 5  -1239424.250 5   -937200.96948  23459157.85248
  21896220.781 6    697764.223 6    536905.12147  21896217.68447
  20502818.133 6   -143130.637 6   -108339.17248  20502814.78548
  24244644.688 3    -60184.879 3    -35179.34046  24244641.39846
  21023280.898 6    319814.379 6    244049.16849  21023280.78549
  21158106.297 7  -1079129.277 7   -813020.31649  21158103.77749
  21650464.414 6    131046.797 6     96190.95749  21650460.94149
 20  5 16  0  9 16.0000000  0  7G08G14G16G21G26G27G31               -0.000464987
  23458342.414 5  -1243713.230 5   -940543.03548  23458341.57448
  21896669.414 6    700120.414 6    538741.11347  21896666.04347
  20502730.219 6   -143594.430 6   -108700.57047  20502726.62547
  24244458.656 3    -61161.230 3    -35940.12545  24244455.16445
  21023451.734 6    320712.801 6    244749.23849  21023451.79749
  21157465.211 7  -1082495.805 7   -815643.59449  21157463.17649
  21650525.891 6    131369.676 6     96442.54749  21650522.38349
 20  5 16  0  9 17.0000000  0  7G08G14G16G21G26G27G31               -0.000465370
  23457526.172 5  -1248002.617 5   -943885.42248  23457525.10548
  21897117.391 6    702476.434 6    540576.97347  21897114.29347
  20502641.930 6   -144058.402 6   -109062.10948  20502638.06348
  24244273.727 3    -62137.895 3    -36701.18445  24244269.78545
  21023622.578 6    321610.832 6    245449.00049  21023622.53549
  21156824.648 7  -1085862.441 7   -818266.94549  21156822.60949
  21650587.000 6    131692.234 6     96693.89149  21650583.34849
 20  5 16  0  9 18.0000000  0  7G08G14G16G21G26G27G31               -0.000465754
  23456709.961 5  -1252292.301 5   -947228.04748  23456708.84448
  21897566.313 6    704832.344 6    542412.73447  21897562.86347
  20502553.586 6   -144522.543 6   -109423.77748  20502549.90648
  24244087.570 3    -63114.602 3    -37462.23845  24244084.00845
  21023793.758 6    322508.469 6    246148.46149  21023793.60549
  21156183.953 6  -1089229.094 6   -820890.30949  21156181.80949
  21650648.641 6    132014.523 6     96945.02049  21650644.62149
 20  5 16  0  9 19.0000000  0  7G08G14G16G21G26G27G31               -0.000466137
  23455893.930 5  -1256582.324 5   -950570.93048  23455892.96948
  21898014.250 6    707188.141 6    544248.42247  21898011.29347
  20502465.258 6   -144986.777 6   -109785.52748  20502461.95348
  24243900.477 3    -64091.496 3    -38223.44945  24243897.77045
  21023964.352 6    323405.809 6    246847.68449  21023964.13349
  21155543.383 6  -1092595.738 6   -823513.66049  21155541.50449
  21650710.102 6    132336.535 6     97195.93849  21650706.69149
 20  5 16  0  9 20.0000000  0  7G08G14G16G21G26G27G31               -0.000466520
  23455077.047 5  -1260872.527 5   -953913.94548  23455076.39848
  21898463.172 6    709543.949 6    546084.11347  21898459.74647
  20502377.047 6   -145451.004 6   -110147.26248  20502373.14148
  24243714.789 4    -65068.281 4    -38984.58246  24243712.50846
  21024134.844 6    324302.918 6    247546.73049  21024134.99649
  21154902.805 6  -1095962.246 6   -826136.91449  21154900.55149
  21650770.719 6    132658.445 6     97446.77749  21650767.40249
 20  5 16  0  9 21.0000000  0  7G08G14G16G21G26G27G31               -0.000466906
  23454260.438 5  -1265163.188 5   -957257.31348  23454259.66848
  21898911.188 6    711899.543 6    547919.64847  21898907.69547
  20502288.383 6   -145915.473 6   -110509.18448  20502285.02048
  24243529.414 3    -66045.391 3    -39745.94546  24243526.06646
  21024305.344 6    325199.578 6    248245.42249  21024305.45349
  21154262.141 6  -1099328.906 6   -828760.28949  21154260.12549
  21650832.297 6    132979.957 6     97697.30149  21650828.62549
 20  5 16  0  9 22.0000000  0  7G08G14G16G21G26G27G31               -0.000467289
  23453444.016 5  -1269454.281 5   -960601.02048  23453442.91848
  21899359.008 6    714254.934 6    549755.02047  21899355.84847
  20502199.969 6   -146380.176 6   -110871.29347  20502196.75447
  24243343.648 3    -67022.715 3    -40507.51245  24243339.91845
  21024475.883 6    326095.801 6    248943.77349  21024476.09049
  21153621.828 7  -1102695.652 7   -831383.72749  21153619.41849
  21650892.969 6    133301.145 6     97947.58249  21650889.48449
 20  5 16  0  9 23.0000000  0  7G08G14G16G21G26G27G31               -0.000467674
  23452627.500 5  -1273745.648 5   -963944.93848  23452626.77748
  21899807.188 6    716610.223 6    551590.30947  21899804.30947
  20502111.500 6   -146844.980 6   -111233.48048  20502108.09848
  24243157.781 3    -68000.117 3    -41269.09045  24243154.35245
  21024646.992 6    326991.672 6    249641.85549  21024646.53949
  21152980.914 7  -1106062.395 7   -834007.16049  21152978.82849
  21650954.375 6    133622.086 6     98197.66049  21650950.95749
 20  5 16  0  9 24.0000000  0  7G08G14G16G21G26G27G31               -0.000468060
  23451810.672 5  -1278037.133 5   -967288.95348  23451810.16848
  21900255.672 6    718965.602 6    553425.67247  21900252.42647
  20502022.883 6   -147309.707 6   -111595.59448  20502019.84448
  24242971.516 3    -68977.477 3    -42030.66845  24242968.55145
  21024817.438 6    327887.379 6    250339.80149  21024816.95349
  21152340.148 7  -1109428.934 7   -836630.43849  21152337.99249
  21651015.477 6    133942.965 6     98447.69149  21651012.07449
 20  5 16  0  9 25.0000000  0  7G08G14G16G21G26G27G31               -0.000468445
  23450993.820 5  -1282329.176 5   -970633.39848  23450993.21548
  21900703.719 6    721320.605 6    555260.73447  21900700.27747
  20501934.516 6   -147774.805 6   -111958.00847  20501931.25847
  24242785.453 3    -69955.129 3    -42792.49245  24242782.28145
  21024988.008 6    328782.543 6    251037.32849  21024987.33649
  21151699.445 7  -1112795.719 7   -839253.90649  21151697.19149
  21651076.695 6    134263.328 6     98697.32449  21651073.00049
 20  5 16  0  9 26.0000000  0  7G08G14G16G21G26G27G31               -0.000468830
  23450177.141 5  -1286621.426 5   -973978.01248  23450176.50048
  21901152.117 6    723675.688 6    557095.85547  21901148.30947
  20501845.867 6   -148239.879 6   -112320.40648  20501842.50048
  24242598.953 2    -70932.805 2    -43554.34445  24242596.24245
  21025157.898 6    329677.473 6    251734.67249  21025157.80149
  21151059.164 6  -1116162.391 6   -841877.28949  21151056.84049
  21651137.289 6    134583.586 6     98946.87149  21651133.77049
 20  5 16  0  9 27.0000000  0  7G08G14G16G21G26G27G31               -0.000469217
  23449360.719 5  -1290913.930 5   -977322.82048  23449359.59848
  21901600.023 6    726030.691 6    558930.92247  21901596.77347
  20501757.836 6   -148705.012 6   -112682.84848  20501753.99648
  24242412.531 3    -71910.512 3    -44316.20345  24242410.17245
  21025328.094 6    330572.125 6    252431.80149  21025327.88749
  21150418.758 6  -1119528.988 6   -844500.60949  21150416.25449
  21651198.391 6    134903.648 6     99196.27349  21651194.50049
 20  5 16  0  9 28.0000000  0  7G08G14G16G21G26G27G31               -0.000469603
  23448544.156 5  -1295206.805 5   -980667.91448  23448542.93448
  21902047.750 6    728385.547 6    560765.86747  21902044.94147
  20501668.906 6   -149170.332 6   -113045.43448  20501665.62148
  24242226.633 2    -72888.422 2    -45078.21545  24242223.95745
  21025498.273 6    331466.395 6    253128.63749  21025497.86749
  21149777.461 6  -1122895.664 6   -847123.99249  21149775.60549
  21651259.328 6    135223.418 6     99445.44149  21651255.40249
 20  5 16  0  9 29.0000000  0  7G08G14G16G21G26G27G31               -0.000469990
  23447727.461 5  -1299499.926 5   -984013.20748  23447725.74248
  21902496.203 6    730740.359 6    562600.78947  21902492.85247
  20501580.375 6   -149635.719 6   -113408.07448  20501576.67248
  24242040.711 2    -73866.352 2    -45840.25845  24242038.19545
  21025668.563 6    332360.402 6    253825.27349  21025668.21549
  21149137.133 7  -1126262.254 7   -849747.31349  21149134.92249
  21651320.359 6    135542.992 6     99694.46149  21651316.74649
 20  5 16  0  9 30.0000000  0  7G08G14G16G21G26G27G31               -0.000470377
  23446909.734 5  -1303793.258 5   -987358.66448  23446908.53948
  21902944.742 6    733095.195 6    564435.73047  21902940.77347
  20501491.477 6   -150101.070 6   -113770.68448  20501488.45748
  24241853.773 3    -74844.305 3    -46602.28945  24241851.87145
  21025838.594 6    333254.141 6    254521.69149  21025838.31649
  21148496.586 7  -1129628.727 7   -852370.53549  21148494.23449
  21651381.445 6    135862.422 6     99943.36749  21651377.46949
 20  5 16  0  9 31.0000000  0  7G08G14G16G21G26G27G31               -0.000470764
  23446092.914 5  -1308086.984 5   -990704.41848  23446091.57448
  21903392.133 6    735449.840 6    566270.52347  21903389.14847
  20501403.070 6   -150566.629 6   -114133.45348  20501399.63748
  24241668.156 3    -75822.422 3    -47364.42645  24241666.06645
  21026008.438 6    334147.496 6    255217.81349  21026008.26249
  21147855.313 7  -1132995.297 7   -854993.83649  21147853.52749
  21651441.586 6    136181.551 6    100192.03949  21651438.07449
 20  5 16  0  9 32.0000000  0  7G08G14G16G21G26G27G31               -0.000471151
  23445275.703 5  -1312380.945 5   -994050.35548  23445274.45748
  21903840.008 6    737804.414 6    568105.26647  21903837.12547
  20501314.156 6   -151032.270 6   -114496.29748  20501310.82048
  24241482.461 3    -76800.645 3    -48126.67645  24241479.79345
  21026177.906 6    335040.535 6    255913.68849  21026178.11749
  21147214.742 7  -1136361.797 7   -857617.08249  21147213.15249
  21651502.117 6    136500.445 6    100440.53149  21651498.96949
 20  5 16  0  9 33.0000000  0  7G08G14G16G21G26G27G31               -0.000471539
  23444458.305 5  -1316675.207 5   -997396.53148  23444457.38748
  21904288.297 6    740158.934 6    569939.96147  21904285.27047
  20501226.016 6   -151497.984 6   -114859.19548  20501222.63348
  24241296.406 3    -77778.930 3    -48888.98045  24241293.23045
  21026348.109 6    335933.250 6    256609.31349  21026348.00449
  21146573.891 6  -1139728.293 6   -860240.32849  21146572.29749
  21651562.992 6    136819.121 6    100688.85249  21651559.41449
 20  5 16  0  9 34.0000000  0  7G08G14G16G21G26G27G31               -0.000471928
  23443640.906 5  -1320969.879 5  -1000743.03548  23443639.87948
  21904736.828 6    742513.207 6    571774.45747  21904733.22747
  20501137.219 6   -151963.930 6   -115222.27048  20501133.69148
  24241110.195 3    -78757.477 3    -49651.46945  24241107.00445
  21026518.281 6    336825.578 6    257304.63749  21026518.01649
  21145933.836 7  -1143094.859 7   -862863.62549  21145931.90249
  21651623.328 6    137137.445 6    100936.89549  21651620.08249
 20  5 16  0  9 35.0000000  0  7G08G14G16G21G26G27G31               -0.000472317
  23442824.328 5  -1325264.973 5  -1004089.85948  23442823.00048
  21905184.570 6    744867.309 6    573608.80947  21905181.11747
  20501048.414 6   -152430.129 6   -115585.53948  20501045.18448
  24240924.836 3    -79736.227 3    -50414.14845  24240921.02745
  21026687.766 6    337717.398 6    257999.55949  21026687.51249
  21145293.086 7  -1146461.563 7   -865487.03149  21145291.49649
  21651683.516 6    137455.418 6    101184.66849  21651680.36749
 20  5 16  0  9 36.0000000  0  7G08G14G16G21G26G27G31               -0.000472704
  23442006.195 5  -1329560.223 5  -1007436.80548  23442005.66448
  21905632.734 6    747221.438 6    575443.18047  21905629.06347
  20500960.133 6   -152896.270 6   -115948.76648  20500956.27048
  24240738.461 3    -80714.844 3    -51176.71545  24240734.74245
  21026857.211 6    338609.051 6    258694.35249  21026857.23849
  21144652.125 6  -1149828.117 6   -868110.32049  21144650.34449
  21651744.156 6    137773.285 6    101432.35549  21651740.89849
 20  5 16  0  9 37.0000000  0  7G08G14G16G21G26G27G31               -0.000473093
  23441189.008 5  -1333855.766 5  -1010783.98448  23441187.73048
  21906080.242 6    749575.512 6    577277.52347  21906077.02047
  20500871.141 6   -153362.508 6   -116312.07047  20500867.78547
  24240550.945 3    -81693.703 3    -51939.44545  24240548.21145
  21027027.086 6    339500.402 6    259388.90249  21027026.89549
  21144011.883 6  -1153194.629 6   -870733.56649  21144010.18449
  21651804.859 6    138090.945 6    101679.88749  21651801.70349
 20  5 16  0  9 38.0000000  0  7G08G14G16G21G26G27G31               -0.000473482
  23440371.219 5  -1338151.648 5  -1014131.43048  23440370.56648
  21906528.336 6    751929.438 6    579111.76247  21906524.89147
  20500782.438 6   -153828.895 6   -116675.48847  20500778.83247
  24240365.828 3    -82672.617 3    -52702.21945  24240361.78545
  21027196.625 6    340391.383 6    260083.17649  21027196.18049
  21143370.969 6  -1156561.137 6   -873356.82449  21143369.30549
  21651865.133 6    138408.332 6    101927.19949  21651862.21949
 20  5 16  0  9 39.0000000  0  7G08G14G16G21G26G27G31               -0.000473873
  23439554.352 5  -1342447.641 5  -1017478.95348  23439553.38348
  21906976.414 6    754283.488 6    580946.07047  21906973.02047
  20500693.703 6   -154295.176 6   -117038.82447  20500690.34447
  24240180.156 4    -83651.488 4    -53465.00445  24240175.71145
  21027366.117 6    341282.242 6    260777.35249  21027365.45349
  21142730.070 6  -1159927.453 6   -875979.92649  21142728.80149
  21651925.516 6    138725.648 6    102174.46149  21651922.56349
 20  5 16  0  9 40.0000000  0  7G08G14G16G21G26G27G31               -0.000474262
  23438736.656 5  -1346744.000 5  -1020826.76648  23438735.43448
  21907424.141 6    756637.344 6    582780.23847  21907421.12147
  20500604.688 6   -154761.621 6   -117402.28948  20500601.44948
  24239993.305 3    -84630.469 3    -54227.85245  24239989.30545
  21027535.617 6    342172.688 6    261471.21149  21027535.41849
  21142090.039 6  -1163293.844 6   -878603.08649  21142088.05149
  21651985.969 6    139042.680 6    102421.49649  21651982.47349
 20  5 16  0  9 41.0000000  0  7G08G14G16G21G26G27G31               -0.000474653
  23437919.211 5  -1351040.660 5  -1024174.81648  23437917.91048
  21907872.266 6    758991.141 6    584614.37147  21907869.33647
  20500516.352 6   -155228.199 6   -117765.86347  20500512.56347
  24239806.758 4    -85609.539 4    -54990.78145  24239803.09845
  21027705.031 6    343062.793 6    262164.79749  21027704.91049
  21141448.859 6  -1166660.219 6   -881226.23449  21141447.84449
  21652046.523 6    139359.461 6    102668.34449  21652043.01249
 20  5 16  0  9 42.0000000  0  7G08G14G16G21G26G27G31               -0.000475042
  23437101.430 5  -1355337.727 5  -1027523.18448  23437100.03948
  21908320.734 6    761344.703 6    586448.31647  21908316.91447
  20500427.172 6   -155694.980 6   -118129.59048  20500423.87548
  24239621.516 4    -86588.875 4    -55753.89845  24239616.59045
  21027874.484 6    343952.480 6    262858.05949  21027873.75049
  21140808.227 6  -1170026.668 6   -883849.44549  21140806.80149
  21652105.883 6    139675.938 6    102914.94949  21652102.78949
 20  5 16  0  9 43.0000000  0  7G08G14G16G21G26G27G31               -0.000475433
  23436283.234 5  -1359635.078 5  -1030871.76648  23436282.38348
  21908767.945 6    763698.227 6    588282.22747  21908764.69547
  20500338.758 6   -156161.867 6   -118493.40247  20500334.84847
  24239435.414 4    -87568.320 4    -56517.09845  24239430.68445
  21028043.289 6    344841.871 6    263551.09049  21028043.24649
  21140167.594 6  -1173393.094 6   -886472.62949  21140166.37549
  21652166.438 6    139992.141 6    103161.34049  21652163.38749
 20  5 16  0  9 44.0000000  0  7G08G14G16G21G26G27G31               -0.000475824
  23435465.406 5  -1363932.770 5  -1034220.61348  23435464.20348
  21909216.086 6    766051.578 6    590116.00447  21909213.01247
  20500250.141 6   -156628.883 6   -118857.31348  20500245.86748
  24239248.320 4    -88547.887 4    -57280.38345  24239244.23845
  21028212.711 6    345730.863 6    264243.80549  21028212.32849
  21139527.297 6  -1176759.566 6   -889095.85549  21139525.66049
  21652226.758 6    140308.090 6    103407.52749  21652223.47349
 20  5 16  0  9 45.0000000  0  7G08G14G16G21G26G27G31               -0.000476215
  23434647.914 5  -1368230.852 5  -1037569.76648  23434646.68448
  21909663.578 6    768404.781 6    591949.66447  21909660.24247
  20500160.672 6   -157096.074 6   -119221.35548  20500157.19548
  24239061.805 4    -89527.602 4    -58043.80145  24239057.40645
  21028381.648 6    346619.480 6    264936.23049  21028381.64849
  21138886.688 6  -1180126.090 6   -891719.12549  21138885.12949
  21652286.469 6    140623.699 6    103653.46149  21652283.21149
 20  5 16  0  9 46.0000000  0  7G08G14G16G21G26G27G31               -0.000476608
  23433830.023 5  -1372529.008 5  -1040918.98448  23433829.11748
  21910111.555 6    770758.113 6    593783.43047  21910108.19547
  20500071.914 6   -157563.176 6   -119585.32448  20500067.85548
  24238875.742 4    -90507.238 4    -58807.16045  24238871.13745
  21028550.930 6    347507.953 6    265628.55149  21028550.44949
  21138246.375 6  -1183492.371 6   -894342.19949  21138244.19949
  21652346.945 6    140939.305 6    103899.39149  21652343.51649
 20  5 16  0  9 47.0000000  0  7G08G14G16G21G26G27G31               -0.000476999
  23433011.469 5  -1376827.473 5  -1044268.43848  23433010.43048
  21910559.406 6    773111.359 6    595617.12547  21910556.05947
  20499982.391 6   -158030.367 6   -119949.37947  20499978.72347
  24238689.156 4    -91486.945 4    -59570.56645  24238684.98045
  21028719.719 6    348396.105 6    266320.61349  21028719.60549
  21137605.305 6  -1186858.664 6   -896965.28949  21137603.80949
  21652406.922 6    141254.676 6    104145.12949  21652403.37149
 20  5 16  0  9 48.0000000  0  7G08G14G16G21G26G27G31               -0.000477392
  23432193.297 5  -1381126.121 5  -1047618.03948  23432192.92648
  21911007.102 6    775464.602 6    597450.82447  21911003.83247
  20499893.703 6   -158497.566 6   -120313.43048  20499890.07048
  24238502.984 4    -92466.668 4    -60333.98045  24238498.20745
  21028888.914 6    349284.039 6    267012.50849  21028888.70749
  21136964.789 6  -1190224.832 6   -899588.26649  21136963.55949
  21652467.422 6    141569.914 6    104390.77049  21652463.63749
 20  5 16  0  9 49.0000000  0  7G08G14G16G21G26G27G31               -0.000477783
  23431376.320 5  -1385425.188 5  -1050967.96148  23431374.62948
  21911455.141 6    777817.641 6    599284.35247  21911451.82847
  20499805.477 6   -158965.000 6   -120677.66848  20499801.32048
  24238315.656 4    -93446.629 4    -61097.58245  24238311.86745
  21029057.727 6    350171.516 6    267704.05149  21029057.74649
  21136324.328 6  -1193591.086 6   -902211.32849  21136322.97749
  21652527.117 6    141884.785 6    104636.12549  21652523.52749
 20  5 16  0  9 50.0000000  0  7G08G14G16G21G26G27G31               -0.000478176
  23430557.680 5  -1389724.570 5  -1054318.12548  23430556.80148
  21911902.570 6    780170.547 6    601117.77747  21911899.48047
  20499715.844 6   -159432.535 6   -121041.98048  20499712.38748
  24238129.727 4    -94426.668 4    -61861.25845  24238125.11745
  21029226.563 6    351058.660 6    268395.32849  21029226.32049
  21135683.523 6  -1196957.328 6   -904834.37149  21135681.88749
  21652586.930 6    142199.422 6    104881.29349  21652582.97349
 20  5 16  0  9 51.0000000  0  7G08G14G16G21G26G27G31               -0.000478569
  23429739.336 5  -1394024.266 5  -1057668.53948  23429738.56348
  21912350.430 6    782523.371 6    602951.14547  21912347.15247
  20499627.023 6   -159900.215 6   -121406.40647  20499623.73847
  24237943.234 4    -95406.828 4    -62625.02745  24237938.83245
  21029395.047 6    351945.457 6    269086.34049  21029395.37149
  21135043.281 6  -1200323.613 6   -907457.44949  21135041.34049
  21652646.289 6    142513.773 6    105126.24249  21652642.91849
 20  5 16  0  9 52.0000000  0  7G08G14G16G21G26G27G31               -0.000478962
  23428921.258 5  -1398324.223 5  -1061019.15648  23428920.43048
  21912798.195 6    784876.148 6    604784.48447  21912795.20747
  20499537.844 6   -160367.945 6   -121770.86747  20499534.32847
  24237755.891 4    -96387.090 4    -63388.87945  24237752.21945
  21029563.594 6    352831.980 6    269777.14149  21029563.83249
  21134402.648 6  -1203689.801 6   -910080.45749  21134400.96549
  21652706.305 6    142827.977 6    105371.07449  21652702.92649
 20  5 16  0  9 53.0000000  0  7G08G14G16G21G26G27G31               -0.000479357
  23428102.219 5  -1402624.523 5  -1064370.03548  23428101.71948
  21913245.578 6    787228.828 6    606617.73847  21913242.76247
  20499449.078 6   -160835.781 6   -122135.41847  20499445.20347
  24237570.188 4    -97367.414 4    -64152.78145  24237565.57845
  21029732.750 6    353718.172 6    270467.67249  21029732.30149
  21133762.102 6  -1207055.992 6   -912703.45749  21133760.22349
  21652765.984 6    143141.914 6    105615.70749  21652762.56349
 20  5 16  0  9 54.0000000  0  7G08G14G16G21G26G27G31               -0.000479752
  23427283.695 5  -1406925.195 5  -1067721.21548  23427283.69148
  21913693.594 6    789581.262 6    608450.81347  21913690.71947
  20499360.109 6   -161303.859 6   -122500.15647  20499356.09047
  24237383.938 4    -98347.961 4    -64916.85245  24237379.35245
  21029901.258 6    354603.895 6    271157.84849  21029901.14549
  21133121.602 6  -1210422.293 6   -915326.54749  21133119.85549
  21652826.078 6    143455.484 6    105860.04749  21652822.21149
 20  5 16  0  9 55.0000000  0  7G08G14G16G21G26G27G31               -0.000480145
  23426465.586 5  -1411226.273 5  -1071072.70748  23426465.22748
  21914140.992 6    791933.535 6    610283.74647  21914137.80547
  20499271.086 6   -161772.117 6   -122865.03547  20499266.88347
  24237197.125 5    -99328.695 5    -65681.03945  24237192.70745
  21030069.547 6    355489.219 6    271847.70349  21030069.35949
  21132481.164 6  -1213788.668 6   -917949.69549  21132479.11749
  21652885.156 6    143768.762 6    106104.15649  21652881.84849
 20  5 16  0  9 56.0000000  0  7G08G14G16G21G26G27G31               -0.000480539
  23425647.102 5  -1415527.676 5  -1074424.44948  23425646.66048
  21914588.484 6    794285.684 6    612116.58647  21914585.43447
  20499181.930 6   -162240.520 6   -123230.02348  20499177.86348
  24237010.367 4   -100309.598 4    -66445.37945  24237006.05945
  21030238.016 6    356374.160 6    272537.27049  21030238.12149
  21131840.359 6  -1217155.035 6   -920572.84049  21131838.88349
  21652944.750 6    144081.738 6    106348.03149  21652941.48849
 20  5 16  0  9 57.0000000  0  7G08G14G16G21G26G27G31               -0.000480934
  23424828.242 5  -1419829.297 5  -1077776.36748  23424828.25448
  21915035.516 6    796637.828 6    613949.41847  21915033.01647
  20499092.633 6   -162708.957 6   -123595.03548  20499088.94148
  24236824.086 4   -101290.512 4    -67209.74645  24236819.34845
  21030406.047 6    357258.875 6    273226.66449  21030406.23049
  21131200.055 6  -1220521.344 6   -923195.93849  21131198.23049
  21653004.266 6    144394.570 6    106591.79749  21653000.62949
 20  5 16  0  9 58.0000000  0  7G08G14G16G21G26G27G31               -0.000481329
  23424009.961 5  -1424131.340 5  -1081128.59848  23424009.28148
  21915483.297 6    798989.715 6    615782.05947  21915480.60947
  20499003.313 6   -163177.656 6   -123960.25848  20498999.77348
  24236637.227 3   -102271.648 3    -67974.27345  24236632.48045
  21030574.648 6    358143.086 6    273915.65249  21030574.91849
  21130558.961 6  -1223887.770 6   -925819.13349  21130557.03149
  21653063.555 6    144706.996 6    106835.24649  21653060.68849
 20  5 16  0  9 59.0000000  0  7G08G14G16G21G26G27G31               -0.000481726
  23423190.750 5  -1428433.438 5  -1084480.87948  23423190.60548
  21915931.273 6    801341.801 6    617614.84447  21915928.16047
  20498914.680 6   -163646.160 6   -124325.32448  20498910.68848
  24236450.281 4   -103252.660 4    -68738.70345  24236445.99645
  21030743.203 6    359027.262 6    274604.62549  21030743.06649
  21129918.398 6  -1227253.910 6   -928442.09849  21129916.79749
  21653123.430 6    145019.488 6    107078.74249  21653119.48849
 20  5 16  0 10  0.0000000  0  7G08G14G16G21G26G27G31               -0.000482121
  23422372.844 5  -1432735.957 5  -1087833.48048  23422372.06348
  21916378.953 6    803693.645 6    619447.44947  21916375.84047
  20498825.203 6   -164114.906 6   -124690.58248  20498821.51248
  24236262.781 4   -104233.871 4    -69503.25045  24236259.31645
  21030911.094 6    359910.973 6    275293.22749  21030910.88349
  21129277.867 6  -1230620.172 6   -931065.15649  21129275.97749
  21653182.742 6    145331.598 6    107321.94549  21653178.82449
 20  5 16  0 10  1.0000000  0  7G08G14G16G21G26G27G31               -0.000482517
  23421553.047 5  -1437038.742 5  -1091186.30548  23421552.91048
  21916826.383 6    806045.449 6    621280.02347  21916823.05147
  20498735.750 6   -164583.738 6   -125055.90648  20498732.52748
  24236077.172 4   -105215.098 4    -70267.84845  24236073.00445
  21031079.328 6    360794.395 6    275981.60549  21031079.15249
  21128637.250 6  -1233986.352 6   -933688.15649  21128635.66449
  21653242.313 6    145643.531 6    107565.00449  21653238.42649
 20  5 16  0 10  2.0000000  0  7G08G14G16G21G26G27G31               -0.000482914
  23420735.031 5  -1441341.918 5  -1094539.42248  23420734.05548
  21917273.484 6    808397.039 6    623112.42647  21917270.81647
  20498646.461 6   -165052.762 6   -125421.37548  20498642.87548
  24235891.297 4   -106196.570 4    -71032.61345  24235885.74245
  21031247.539 6    361677.406 6    276669.66849  21031247.28949
  21127996.563 6  -1237352.637 6   -936311.23049  21127994.94149
  21653301.656 6    145955.113 6    107807.79349  21653297.69149
 20  5 16  0 10  3.0000000  0  7G08G14G16G21G26G27G31               -0.000483311
  23419916.125 5  -1445645.414 5  -1097892.80148  23419915.77348
  21917721.078 6    810748.566 6    624944.78547  21917717.65247
  20498557.273 6   -165521.895 6   -125786.94148  20498553.64848
  24235704.117 4   -107178.121 4    -71797.46945  24235699.10945
  21031415.242 6    362560.039 6    277357.43049  21031415.22749
  21127356.320 6  -1240718.910 6   -938934.30549  21127354.47349
  21653360.547 6    146266.426 6    108050.37549  21653356.69149
 20  5 16  0 10  4.0000000  0  7G08G14G16G21G26G27G31               -0.000483707
  23419097.352 5  -1449949.035 5  -1101246.27048  23419096.53548
  21918168.641 5    813100.109 5    626777.16447  21918165.45747
  20498468.000 6   -165990.992 6   -126152.46548  20498464.61348
  24235517.195 4   -108159.633 4    -72562.28945  24235512.09445
  21031583.195 6    363442.512 6    278045.07049  21031583.16849
  21126715.781 6  -1244085.008 6   -941557.24249  21126713.75849
  21653420.125 6    146577.688 6    108292.91449  21653416.02049
 20  5 16  0 10  5.0000000  0  7G08G14G16G21G26G27G31               -0.000484104
  23418278.336 5  -1454252.773 5  -1104599.84048  23418276.99648
  21918615.773 5    815451.793 5    628609.64847  21918612.80947
  20498379.086 6   -166460.000 6   -126517.92648  20498374.99648
  24235330.906 5   -109141.035 5    -73327.03145  24235325.60245
  21031751.156 7    364324.859 7    278732.61749  21031751.19549
  21126075.180 6  -1247450.906 6   -944180.02049  21126073.43849
  21653478.766 6    146888.902 6    108535.42249  21653475.19949
 20  5 16  0 10  6.0000000  0  7G08G14G16G21G26G27G31               -0.000484501
  23417458.656 5  -1458556.891 5  -1107953.69548  23417458.26248
  21919062.938 6    817803.250 6    630441.95347  21919060.19947
  20498289.719 6   -166929.219 6   -126883.55948  20498285.88348
  24235143.953 5   -110122.641 5    -74091.93845  24235138.90245
  21031918.891 7    365206.777 7    279419.82849  21031919.08249
  21125434.367 6  -1250816.879 6   -946802.85549  21125432.64549
  21653537.852 6    147199.762 6    108777.64849  21653534.50049
 20  5 16  0 10  7.0000000  0  7G08G14G16G21G26G27G31               -0.000484900
  23416639.813 5  -1462861.227 5  -1111307.72348  23416639.32848
  21919510.914 5    820154.715 5    632274.26247  21919508.14547
  20498200.594 6   -167398.457 6   -127249.20347  20498196.54747
  24234957.063 5   -111104.270 5    -74856.84845  24234951.86345
  21032086.492 7    366088.453 7    280106.84449  21032086.77749
  21124793.625 6  -1254182.734 6   -949425.59449  21124792.25049
  21653597.266 6    147510.496 6    109019.77349  21653593.68849
 20  5 16  0 10  8.0000000  0  7G08G14G16G21G26G27G31               -0.000485296
  23415820.750 5  -1467165.758 5  -1114661.90248  23415820.09048
  21919957.992 5    822506.199 5    634106.59447  21919955.80947
  20498111.523 6   -167867.691 6   -127614.84448  20498107.40248
  24234770.453 5   -112085.895 5    -75621.72745  24234765.13745
  21032254.063 7    366969.902 7    280793.69149  21032254.62949
  21124153.617 6  -1257548.492 6   -952048.27049  21124152.04749
  21653656.125 6    147821.078 6    109261.78149  21653653.07449
 20  5 16  0 10  9.0000000  0  7G08G14G16G21G26G27G31               -0.000485695
  23415001.797 5  -1471470.555 5  -1118016.28948  23415001.05948
  21920405.219 5    824857.617 5    635938.86747  21920403.00047
  20498021.609 6   -168337.012 6   -127980.54347  20498017.98847
  24234583.875 5   -113067.574 5    -76386.66045  24234578.80545
  21032421.984 7    367851.051 7    281480.29749  21032422.25849
  21123513.094 6  -1260914.203 6   -954670.89849  21123510.93449
  21653715.273 6    148131.461 6    109503.64549  21653711.72749
 20  5 16  0 10 10.0000000  0  7G08G14G16G21G26G27G31               -0.000486094
  23414182.133 5  -1475775.586 5  -1121370.86348  23414181.90648
  21920852.898 6    827209.031 6    637771.13347  21920850.35947
  20497932.711 6   -168806.355 6   -128346.27047  20497928.65247
  24234396.297 5   -114049.320 5    -77151.64145  24234391.75045
  21032589.336 6    368731.969 6    282166.72749  21032589.30949
  21122872.258 6  -1264279.797 6   -957293.43449  21122870.93449
  21653773.898 6    148441.695 6    109745.38349  21653770.78949
 20  5 16  0 10 11.0000000  0  7G08G14G16G21G26G27G31               -0.000486492
  23413363.133 4  -1480080.898 4  -1124725.64848  23413362.38748
  21921300.547 6    829560.289 6    639603.28147  21921297.67247
  20497843.328 6   -169275.816 6   -128712.08648  20497839.00048
  24234208.711 5   -115031.177 5    -77916.73245  24234204.88345
  21032757.094 6    369612.508 6    282852.85549  21032757.57049
  21122232.547 6  -1267645.422 6   -959916.00449  21122230.69149
  21653832.758 6    148751.684 6    109986.93049  21653829.89149
 20  5 16  0 10 12.0000000  0  7G08G14G16G21G26G27G31               -0.000486891
  23412543.680 4  -1484386.605 4  -1128080.74248  23412543.66848
  21921747.977 5    831911.449 5    641435.35247  21921745.12147
  20497754.063 6   -169745.461 6   -129078.03948  20497750.14548
  24234022.469 5   -116013.129 5    -78681.88745  24234018.12545
  21032924.609 6    370492.672 6    283538.69549  21032924.92249
  21121591.875 6  -1271011.066 6   -962538.57849  21121590.05949
  21653892.328 6    149061.359 6    110228.23049  21653888.38349
 20  5 16  0 10 13.0000000  0  7G08G14G16G21G26G27G31               -0.000487291
  23411724.664 5  -1488692.621 5  -1131436.07848  23411723.50048
  21922195.609 6    834262.477 6    643267.30547  21922192.21147
  20497664.641 6   -170215.191 6   -129444.06648  20497660.18048
  24233835.039 5   -116995.211 5    -79447.14545  24233831.20745
  21033092.156 6    371372.504 6    284224.28149  21033092.46949
  21120951.086 6  -1274376.672 6   -965161.13349  21120949.67649
  21653951.086 6    149370.816 6    110469.36349  21653947.69549
 20  5 16  0 10 14.0000000  0  7G08G14G16G21G26G27G31               -0.000487690
  23410904.883 5  -1492998.867 5  -1134791.59448  23410904.18048
  21922642.305 5    836613.477 5    645099.25047  21922640.17647
  20497574.930 6   -170685.004 6   -129810.15248  20497571.03148
  24233648.227 4   -117977.367 4    -80212.47745  24233644.21145
  21033259.203 6    372252.059 6    284909.64549  21033259.49649
  21120311.156 6  -1277742.250 6   -967783.65649  21120309.26249
  21654009.414 6    149680.070 6    110710.33649  21654006.37549
 20  5 16  0 10 15.0000000  0  7G08G14G16G21G26G27G31               -0.000488091
  23410085.594 5  -1497305.444 5  -1138147.36848  23410084.77048
  21923090.242 6    838964.379 6    646931.12547  21923087.49647
  20497485.602 6   -171154.922 6   -130176.31648  20497481.70348
  24233460.117 4   -118959.617 4    -80977.87145  24233457.36345
  21033426.617 6    373131.277 6    285594.75449  21033427.48849
  21119670.492 6  -1281107.809 6   -970406.16849  21119669.16049
  21654068.289 6    149989.078 6    110951.12949  21654065.48049
 20  5 16  0 10 16.0000000  0  7G08G14G16G21G26G27G31               -0.000488489
  23409266.375 5  -1501612.113 5  -1141503.21948  23409265.37148
  21923537.805 6    841315.340 6    648763.04347  21923534.60547
  20497396.273 6   -171624.793 6   -130542.44948  20497392.53948
  24233274.586 4   -119941.875 4    -81743.25445  24233270.44945
  21033594.109 6    374010.297 6    286279.69949  21033594.19149
  21119030.000 6  -1284473.230 6   -973028.57049  21119028.44149
  21654127.828 6    150297.980 6    111191.82849  21654123.88349
 20  5 16  0 10 17.0000000  0  7G08G14G16G21G26G27G31               -0.000488890
  23408446.406 5  -1505919.055 5  -1144859.28548  23408445.90248
  21923984.813 6    843666.250 6    650594.91047  21923982.24247
  20497306.570 6   -172094.727 6   -130908.63348  20497302.91448
  24233087.922 4   -120924.102 4    -82508.62145  24233083.66445
  21033761.375 6    374889.043 6    286964.43849  21033761.54749
  21118389.578 6  -1287838.531 6   -975650.88749  21118388.14149
  21654186.289 6    150606.723 6    111432.40249  21654182.94149
 20  5 16  0 10 18.0000000  0  7G08G14G16G21G26G27G31               -0.000489292
  23407626.797 5  -1510226.309 5  -1148215.59048  23407626.42248
  21924432.781 6    846017.031 6    652426.68047  21924429.79347
  20497217.516 6   -172564.801 6   -131274.91848  20497213.53148
  24232900.945 4   -121906.461 4    -83274.09045  24232896.77045
  21033928.766 6    375767.457 6    287648.91849  21033929.00449
  21117749.250 6  -1291203.863 6   -978273.22349  21117747.86749
  21654245.109 6    150915.203 6    111672.77349  21654241.18049
 20  5 16  0 10 19.0000000  0  7G08G14G16G21G26G27G31               -0.000489693
  23406807.539 5  -1514533.668 5  -1151571.96948  23406806.62548
  21924880.250 6    848367.961 6    654258.58647  21924876.96147
  20497128.188 6   -173034.734 6   -131641.10248  20497123.90648
  24232713.930 4   -122888.738 4    -84039.50445  24232710.02345
  21034095.539 6    376645.746 6    288333.29749  21034095.68049
  21117108.852 6  -1294568.973 6   -980895.38349  21117107.32849
  21654303.734 6    151223.660 6    111913.12549  21654299.90249
 20  5 16  0 10 20.0000000  0  7G08G14G16G21G26G27G31               -0.000490093
  23405987.414 5  -1518841.477 5  -1154928.69948  23405987.18448
  21925327.617 6    850718.590 6    656090.23847  21925324.36347
  20497038.500 6   -173504.973 6   -132007.52348  20497034.52748
  24232526.570 5   -123871.277 5    -84805.12945  24232522.76245
  21034262.422 6    377523.527 6    289017.28549  21034262.68449
  21116467.977 6  -1297934.207 6   -983517.64549  21116467.13349
  21654362.484 6    151531.695 6    112153.14849  21654358.85549
 20  5 16  0 10 21.0000000  0  7G08G14G16G21G26G27G31               -0.000490496
  23405167.797 4  -1523149.895 4  -1158285.90248  23405167.14148
  21925774.406 6    853068.867 6    657921.62547  21925771.64547
  20496948.898 6   -173975.598 6   -132374.24248  20496945.18848
  24232339.547 4   -124854.176 4    -85571.02745  24232335.55545
  21034429.492 6    378400.691 6    289700.78549  21034429.88749
  21115827.578 6  -1301299.742 6   -986140.14149  21115826.56349
  21654420.602 6    151839.223 6    112392.78149  21654417.72349
 20  5 16  0 10 22.0000000  0  7G08G14G16G21G26G27G31               -0.000490896
  23404347.469 5  -1527458.465 5  -1161643.23448  23404347.23848
  21926221.797 5    855419.125 5    659752.99247  21926219.28947
  20496859.500 6   -174446.227 6   -132740.96948  20496855.78548
  24232151.734 4   -125837.090 4    -86336.93045  24232148.59045
  21034596.172 6    379277.637 6    290384.12149  21034596.57449
  21115187.688 6  -1304665.133 6   -988762.51649  21115186.02749
  21654479.336 6    152146.617 6    112632.31649  21654475.73849
 20  5 16  0 10 23.0000000  0  7G08G14G16G21G26G27G31               -0.000491299
  23403527.359 5  -1531767.375 5  -1165000.82048  23403527.22348
  21926668.977 6    857769.297 6    661584.29347  21926666.09047
  20496769.961 6   -174917.004 6   -133107.80548  20496766.46548
  24231965.242 4   -126820.148 4    -87102.95745  24231961.68845
  21034763.273 6    380154.211 6    291067.16849  21034763.64149
  21114547.180 6  -1308030.547 6   -991384.91849  21114545.98449
  21654537.875 6    152453.770 6    112871.65249  21654534.24249
 20  5 16  0 10 24.0000000  0  7G08G14G16G21G26G27G31               -0.000491701
  23402708.188 5  -1536076.547 5  -1168358.61748  23402707.44148
  21927116.359 5    860119.344 5    663415.49647  21927113.43447
  20496680.102 6   -175387.891 6   -133474.72748  20496676.65248
  24231777.578 4   -127803.277 4    -87869.02046  24231774.48446
  21034929.836 6    381030.488 6    291749.98049  21034930.15649
  21113906.930 6  -1311395.922 6   -994007.28949  21113905.75449
  21654595.898 6    152760.680 6    113110.80549  21654592.60949
 20  5 16  0 10 25.0000000  0  7G08G14G16G21G26G27G31               -0.000492105
  23401887.461 5  -1540386.133 5  -1171716.73848  23401887.12148
  21927563.023 6    862469.219 6    665246.57047  21927560.28947
  20496590.281 6   -175858.945 6   -133841.78948  20496587.16448
  24231590.969 4   -128786.566 4    -88635.23246  24231587.43046
  21035096.391 6    381906.348 6    292432.46949  21035096.64549
  21113266.336 6  -1314761.359 6   -996629.69949  21113264.96949
  21654653.891 6    153067.285 6    113349.72349  21654651.14549
 20  5 16  0 10 26.0000000  0  7G08G14G16G21G26G27G31               -0.000492508
  23401067.633 5  -1544695.941 5  -1175075.02348  23401067.12948
  21928010.102 5    864819.051 5    667077.60247  21928007.41047
  20496500.906 6   -176330.102 6   -134208.92648  20496497.23448
  24231403.375 4   -129769.969 4    -89401.50446  24231399.97746
  21035262.898 6    382781.887 6    293114.70349  21035263.25449
  21112625.711 6  -1318126.750 6   -999252.09049  21112624.34849
  21654712.844 6    153373.684 6    113588.47749  21654709.41049
 20  5 16  0 10 27.0000000  0  7G08G14G16G21G26G27G31               -0.000492910
  23400246.641 5  -1549005.852 5  -1178433.39548  23400247.14848
  21928457.461 6    867168.980 6    668908.71547  21928454.73847
  20496411.227 6   -176801.141 6   -134575.97348  20496407.83248
  24231216.977 4   -130753.246 4    -90167.71146  24231212.99246
  21035429.695 6    383657.313 6    293796.85249  21035430.18049
  21111985.719 6  -1321491.922 6  -1001874.30149  21111984.65649
  21654770.773 6    153680.027 6    113827.18449  21654767.59049
 20  5 16  0 10 28.0000000  0  7G08G14G16G21G26G27G31               -0.000493315
  23399427.273 5  -1553316.207 5  -1181792.10948  23399426.56348
  21928904.469 5    869518.664 5    670739.63747  21928901.98447
  20496321.477 6   -177272.445 6   -134943.21948  20496318.02348
  24231029.445 4   -131736.754 4    -90934.09046  24231026.06646
  21035596.367 6    384532.270 6    294478.64149  21035596.73049
  21111345.023 6  -1324857.207 6  -1004496.60249  21111344.09849
  21654829.328 6    153985.996 6    114065.60249  21654825.91849
 20  5 16  0 10 29.0000000  0  7G08G14G16G21G26G27G31               -0.000493719
  23398607.320 5  -1557626.926 5  -1185151.11748  23398606.50448
  21929351.859 5    871868.223 5    672570.46147  21929349.32847
  20496231.680 6   -177743.898 6   -135310.58648  20496228.30148
  24230841.609 3   -132720.426 3    -91700.56646  24230838.87946
  21035762.648 6    385406.848 6    295160.12949  21035762.78549
  21110704.688 6  -1328222.523 6  -1007118.93049  21110703.71949
  21654887.430 6    154291.699 6    114303.80549  21654884.02349
 20  5 16  0 10 30.0000000  0  7G08G14G16G21G26G27G31               -0.000494123
  23397786.438 5  -1561937.863 5  -1188510.28948  23397786.18448
  21929798.352 5    874217.746 5    674401.27047  21929796.09447
  20496141.938 6   -178215.402 6   -135677.99248  20496138.43448
  24230655.242 4   -133704.121 4    -92467.08646  24230651.62946
  21035928.734 6    386281.145 6    295841.39549  21035929.18849
  21110064.680 6  -1331587.770 6  -1009741.19549  21110063.31649
  21654945.867 6    154597.211 6    114541.87149  21654942.02749
 20  5 16  0 10 31.0000000  0  7G08G14G16G21G26G27G31               -0.000494528
  23396966.133 5  -1566248.793 5  -1191869.44948  23396965.78148
  21930245.477 5    876567.488 5    676232.23047  21930243.10947
  20496052.688 6   -178686.684 6   -136045.22748  20496049.15648
  24230467.703 4   -134687.594 4    -93233.40646  24230464.70346
  21036094.953 6    387155.438 6    296522.66449  21036095.36749
  21109424.258 6  -1334952.684 6  -1012363.20349  21109422.72749
  21655003.891 6    154902.824 6    114780.00449  21655000.29749
 20  5 16  0 10 32.0000000  0  7G08G14G16G21G26G27G31               -0.000494932
  23396145.852 5  -1570560.105 5  -1195228.91848  23396145.36348
  21930692.953 5    878917.035 5    678063.04347  21930690.20747
  20495963.047 6   -179158.156 6   -136412.60548  20495959.68048
  24230281.000 4   -135671.242 4    -93999.91445  24230277.55145
  21036261.727 6    388029.336 6    297203.62549  21036261.96949
  21108783.766 6  -1338317.629 6  -1014985.24249  21108782.60549
  21655061.961 6    155208.109 6    115017.89149  21655058.27049
 20  5 16  0 10 33.0000000  0  7G08G14G16G21G26G27G31               -0.000495337
  23395324.828 5  -1574871.738 5  -1198588.62948  23395324.75448
  21931139.813 5    881266.469 5    679893.76647  21931137.37147
  20495873.258 6   -179629.766 6   -136780.09448  20495869.83248
  24230093.805 4   -136655.027 4    -94766.50445  24230089.76245
  21036428.047 6    388902.855 6    297884.29349  21036428.17649
  21108143.289 6  -1341682.602 6  -1017607.29749  21108142.27749
  21655119.891 6    155513.121 6    115255.56649  21655116.53949
 20  5 16  0 10 34.0000000  0  7G08G14G16G21G26G27G31               -0.000495743
  23394504.734 5  -1579183.648 5  -1201948.55948  23394504.25848
  21931586.852 5    883615.809 5    681724.42647  21931584.73447
  20495783.344 6   -180101.457 6   -137147.65648  20495779.69948
  24229906.898 4   -137638.918 4    -95533.18846  24229902.93446
  21036593.844 6    389776.078 6    298564.72349  21036594.56649
  21107503.398 6  -1345047.539 6  -1020229.33249  21107501.91849
  21655178.047 6    155817.941 6    115493.08249  21655174.52049
 20  5 16  0 10 35.0000000  0  7G08G14G16G21G26G27G31               -0.000496149
  23393684.305 5  -1583495.754 5  -1205308.63748  23393683.98048
  21932033.859 5    885965.261 5    683555.16647  21932031.85547
  20495692.969 6   -180573.164 6   -137515.22348  20495690.00048
  24229720.258 4   -138622.727 4    -96299.76246  24229716.01646
  21036760.016 6    390649.090 6    299244.99249  21036760.25049
  21106862.797 6  -1348412.320 6  -1022851.23449  21106861.33249
  21655236.094 6    156122.637 6    115730.51649  21655232.70749
 20  5 16  0 10 36.0000000  0  7G08G14G16G21G26G27G31               -0.000496553
  23392864.164 5  -1587807.934 5  -1208668.77748  23392863.73448
  21932481.031 5    888314.680 5    685385.87547  21932478.92247
  20495603.805 6   -181044.777 6   -137882.71948  20495600.53948
  24229532.109 4   -139606.465 4    -97066.31346  24229528.67246
  21036925.867 6    391521.945 6    299925.13749  21036926.44149
  21106222.453 6  -1351776.910 6  -1025472.99249  21106221.46149
  21655294.359 6    156427.281 6    115967.89849  21655290.86349
 20  5 16  0 10 37.0000000  0  7G08G14G16G21G26G27G31               -0.000496960
  23392042.563 5  -1592120.363 5  -1212029.10948  23392042.75848
  21932928.148 5    890664.148 5    687216.63347  21932925.80947
  20495513.961 6   -181516.410 6   -138250.21948  20495510.54748
  24229345.547 4   -140590.242 4    -97832.90246  24229341.46146
  21037092.203 6    392394.559 6    300605.09849  21037092.81649
  21105582.445 6  -1355141.383 6  -1028094.66849  21105581.19549
  21655352.180 6    156731.770 6    116205.16049  21655348.65249
 20  5 16  0 10 38.0000000  0  7G08G14G16G21G26G27G31               -0.000497366
  23391222.305 5  -1596433.133 5  -1215389.70748  23391222.10948
  21933375.094 5    893013.434 5    689047.23847  21933372.78547
  20495424.422 6   -181988.207 6   -138617.84848  20495420.75848
  24229157.555 4   -141574.156 4    -98599.60246  24229154.35246
  21037258.211 6    393266.809 6    301284.77749  21037258.64549
  21104942.391 6  -1358505.895 6  -1030716.36349  21104940.93449
  21655410.180 6    157035.953 6    116442.19149  21655406.52349
 20  5 16  0 10 39.0000000  0  7G08G14G16G21G26G27G31               -0.000497772
  23390401.430 5  -1600746.066 5  -1218750.43448  23390401.33648
  21933822.453 5    895362.789 5    690877.90247  21933820.23847
  20495334.492 6   -182459.992 6   -138985.47748  20495330.93448
  24228971.102 4   -142558.059 4    -99366.26646  24228967.01646
  21037424.203 6    394138.832 6    301964.27749  21037424.40649
  21104301.805 6  -1361870.262 6  -1033337.94949  21104300.61349
  21655467.539 6    157340.055 6    116679.14849  21655463.96949
 20  5 16  0 10 40.0000000  0  7G08G14G16G21G26G27G31               -0.000498180
  23389580.695 5  -1605059.246 5  -1222111.34848  23389580.73448
  21934269.141 5    897712.082 5    692708.52047  21934266.77047
  20495244.688 6   -182931.848 6   -139353.15648  20495241.87148
  24228782.922 4   -143542.000 4   -100132.98445  24228779.75845
  21037589.703 6    395010.586 6    302643.55949  21037590.19549
  21103661.727 6  -1365234.543 6  -1035959.46949  21103660.57849
  21655525.547 6    157643.965 6    116915.96549  21655521.79349
 20  5 16  0 10 41.0000000  0  7G08G14G16G21G26G27G31               -0.000498587
  23388759.656 5  -1609372.602 5  -1225472.40248  23388759.82048
  21934716.094 5    900061.410 5    694539.15647  21934713.76247
  20495154.523 6   -183403.695 6   -139720.82848  20495151.89548
  24228595.883 4   -144525.969 4   -100899.71546  24228592.25046
  21037755.992 6    395882.094 6    303322.65649  21037756.30949
  21103021.719 6  -1368598.734 6  -1038580.91849  21103020.41049
  21655583.555 6    157947.730 6    117152.66049  21655579.60549
 20  5 16  0 10 42.0000000  0  7G08G14G16G21G26G27G31               -0.000498995
  23387939.055 5  -1613686.203 5  -1228833.64848  23387939.17648
  21935163.250 5    902410.625 5    696369.71147  21935160.85247
  20495064.938 6   -183875.625 6   -140088.56648  20495061.80148
  24228408.242 4   -145509.965 4   -101666.46146  24228405.19946
  21037921.414 6    396753.297 6    304001.51649  21037921.87549
  21102381.250 6  -1371962.867 6  -1041202.32449  21102380.25849
  21655641.188 6    158251.309 6    117389.21549  21655637.57449
 20  5 16  0 10 43.0000000  0  7G08G14G16G21G26G27G31               -0.000499401
  23387118.414 5  -1618000.031 5  -1232195.07448  23387117.72748
  21935610.680 5    904759.863 5    698200.28547  21935607.92647
  20494974.875 6   -184347.566 6   -140456.31348  20494972.09848
  24228220.867 4   -146493.969 4   -102433.21146  24228217.72346
  21038087.188 6    397624.297 6    304680.21349  21038088.11749
  21101740.641 6  -1375326.887 6  -1043823.63749  21101740.02749
  21655698.875 6    158554.738 6    117625.66049  21655695.35949
 20  5 16  0 10 44.0000000  0  7G08G14G16G21G26G27G31               -0.000499809
  23386296.984 5  -1622314.371 5  -1235556.89848  23386297.19148
  21936057.297 5    907108.781 5    700030.60947  21936055.00047
  20494884.813 6   -184819.855 6   -140824.33248  20494881.89848
  24228033.875 4   -147478.320 4   -103200.21946  24228030.20746
  21038252.969 6    398494.695 6    305358.44949  21038253.43849
  21101101.406 6  -1378691.117 6  -1046445.10949  21101100.09049
  21655756.875 6    158857.695 6    117861.73049  21655752.90249
 20  5 16  0 10 44.9990000  0  7G08G14G16G21G26G27G31                0.000499783
  23385476.651 5  -1626624.490 5  -1238915.43548  23385477.35848
  21936503.730 5    909455.460 5    701859.18547  21936501.44047
  20494795.417 6   -185291.571 6   -141191.90948  20494792.51948
  24227847.105 4   -148461.527 4   -103966.35445  24227843.18745
  21038418.440 6    399364.134 6    306035.92749  21038418.90549
  21100461.675 6  -1382051.738 6  -1049063.77349  21100460.17549
  21655814.323 6    159160.318 6    118097.53449  21655810.47649
 20  5 16  0 10 45.9990000  0  7G08G14G16G21G26G27G31                0.000499374
  23384655.644 5  -1630939.246 5  -1242277.57048  23384655.85548
  21936950.940 5    911804.320 5    703689.46947  21936948.19047
  20494705.386 6   -185763.934 6   -141559.98448  20494702.49948
  24227659.815 4   -149445.926 4   -104733.43045  24227656.00745
  21038583.964 6    400234.027 6    306713.76249  21038584.07349
  21099821.355 6  -1385415.797 6  -1051685.12149  21099820.30849
  21655871.839 6    159462.941 6    118333.34449  21655868.00349
 20  5 16  0 10 46.9990000  0  7G08G14G16G21G26G27G31                0.000498966
  23383834.542 5  -1635254.305 5  -1245639.95748  23383834.80048
  21937398.151 5    914153.082 5    705519.67647  21937395.26947
  20494615.800 6   -186236.367 6   -141928.11348  20494612.68348
  24227471.964 4   -150430.350 4   -105500.52345  24227468.70245
  21038749.425 6    401103.617 6    307391.36749  21038750.01149
  21099181.292 6  -1388779.770 6  -1054306.40249  21099180.04249
  21655929.058 6    159765.406 6    118569.03549  21655925.33549
 20  5 16  0 10 47.9990000  0  7G08G14G16G21G26G27G31                0.000498556
  23383013.378 5  -1639569.785 5  -1249002.66848  23383013.52248
  21937844.948 5    916501.637 5    707349.72747  21937841.97647
  20494526.089 6   -186709.078 6   -142296.46548  20494522.90148
  24227284.925 4   -151415.113 4   -106267.91045  24227281.23745
  21038914.894 6    401972.723 6    308068.58649  21038915.17149
  21098541.261 6  -1392143.895 6  -1056927.80149  21098539.83549
  21655986.511 6    160067.422 6    118804.37149  21655983.00349
 20  5 16  0 10 48.9990000  0  7G08G14G16G21G26G27G31                0.000498148
  23382191.972 5  -1643885.504 5  -1252365.55948  23382192.24148
  21938291.839 5    918850.125 5    709179.71547  21938288.53447
  20494435.698 6   -187181.852 6   -142664.85248  20494432.85548
  24227098.183 4   -152399.883 4   -107035.25845  24227094.04245
  21039080.151 6    402841.555 6    308745.59849  21039080.79649
  21097901.042 6  -1395507.969 6  -1059549.15649  21097899.61649
  21656044.425 6    160369.273 6    119039.57449  21656040.10549
 20  5 16  0 10 49.9990000  0  7G08G14G16G21G26G27G31                0.000497738
  23381370.612 5  -1648201.426 5  -1255728.61348  23381371.25348
  21938738.870 5    921198.605 5    711009.69947  21938735.80847
  20494346.331 6   -187654.629 6   -143033.25448  20494342.94048
  24226910.722 4   -153384.645 4   -107802.60945  24226906.51545
  21039245.495 6    403710.141 6    309422.42249  21039246.06549
  21097260.940 6  -1398871.902 6  -1062170.39849  21097259.89449
  21656101.745 6    160670.992 6    119274.68049  21656098.11649
 20  5 16  0 10 50.9990000  0  7G08G14G16G21G26G27G31                0.000497328
  23380549.144 5  -1652517.516 5  -1259091.80148  23380549.81548
  21939185.284 5    923547.084 5    712839.68247  21939182.75347
  20494256.300 6   -188127.422 6   -143401.66448  20494252.89748
  24226723.862 4   -154369.418 4   -108569.96945  24226718.86645
  21039410.683 6    404578.504 6    310099.06649  21039411.31949
  21096621.011 6  -1402235.727 6  -1064791.56349  21096619.53049
  21656159.167 6    160972.602 6    119509.69149  21656155.14449
 20  5 16  0 10 51.9990000  0  7G08G14G16G21G26G27G31                0.000496918
  23379728.019 5  -1656833.785 5  -1262455.12948  23379728.12448
  21939632.987 5    925895.664 5    714669.74247  21939629.93747
  20494166.378 6   -188600.164 6   -143770.03948  20494163.37048
  24226535.956 4   -155354.105 4   -109337.27045  24226531.48745
  21039576.237 6    405446.668 6    310775.55949  21039576.83549
  21095980.995 6  -1405599.363 6  -1067412.57449  21095979.54649
  21656216.409 6    161274.094 6    119744.62149  21656212.71049
 20  5 16  0 10 52.9990000  0  7G08G14G16G21G26G27G31                0.000496508
  23378906.730 5  -1661150.406 5  -1265818.72348  23378907.36648
  21940080.230 5    928244.043 5    716499.64147  21940076.77247
  20494076.472 6   -189073.113 6   -144138.56648  20494072.81248
  24226348.542 4   -156339.000 4   -110104.70745  24226344.08145
  21039741.550 6    406314.449 6    311451.75849  21039741.35549
  21095340.722 6  -1408963.070 6  -1070033.64849  21095339.30849
  21656273.761 6    161575.273 6    119979.30949  21656269.95249
 20  5 16  0 10 53.9990000  0  7G08G14G16G21G26G27G31                0.000496098
  23378084.534 5  -1665467.367 5  -1269182.59448  23378084.96848
  21940526.386 5    930592.340 5    718329.48447  21940523.56247
  20493986.448 6   -189546.145 6   -144507.16448  20493983.31248
  24226160.792 4   -157323.965 4   -110872.21145  24226156.30445
  21039906.526 6    407181.891 6    312127.68849  21039906.18349
  21094700.495 6  -1412326.750 6  -1072654.69549  21094699.28049
  21656331.151 6    161876.242 6    120213.82849  21656327.16349
 20  5 16  0 10 54.9990000  0  7G08G14G16G21G26G27G31                0.000495686
  23377263.558 5  -1669784.555 5  -1272546.64148  23377264.14048
  21940973.503 5    932940.508 5    720159.22347  21940970.50747
  20493895.761 6   -190019.266 6   -144875.82848  20493893.14748
  24225973.331 4   -158309.020 4   -111639.78145  24225968.71445
  21040071.659 6    408049.023 6    312803.37149  21040071.48749
  21094060.972 6  -1415690.367 6  -1075275.69949  21094059.39749
  21656388.026 6    162176.988 6    120448.17249  21656384.60549
 20  5 16  0 10 55.9990000  0  7G08G14G16G21G26G27G31                0.000495275
  23376442.394 5  -1674102.059 5  -1275910.92648  23376442.41348
  21941420.401 5    935288.633 5    721988.94147  21941417.06947
  20493806.105 6   -190492.500 6   -145244.58248  20493802.83548
  24225786.050 4   -159294.152 4   -112407.42645  24225781.40545
  21040236.175 6    408915.863 6    313478.82449  21040236.23749
  21093420.300 6  -1419053.977 6  -1077896.69549  21093418.93349
  21656445.245 6    162477.512 6    120682.34049  21656441.42549
 20  5 16  0 10 56.9990000  0  7G08G14G16G21G26G27G31                0.000494864
  23375620.183 5  -1678419.797 5  -1279275.39148  23375620.66748
  21941867.730 5    937636.719 5    723818.60547  21941863.67147
  20493715.597 6   -190965.777 6   -145613.37148  20493712.85848
  24225599.253 4   -160279.332 4   -113175.10545  24225593.91745
  21040401.300 6    409782.395 6    314154.04749  21040400.82749
  21092780.300 6  -1422417.492 6  -1080517.61349  21092778.67949
  21656502.105 6    162777.848 6    120916.37149  21656498.55449
 20  5 16  0 10 57.9990000  0  7G08G14G16G21G26G27G31                0.000494452
  23374798.972 5  -1682737.766 5  -1282640.04348  23374799.25748
  21942314.065 5    939984.773 5    725648.26647  21942310.62447
  20493625.917 6   -191439.105 6   -145982.19948  20493622.30048
  24225411.620 4   -161264.531 4   -113942.79745  24225406.80445
  21040566.276 6    410648.664 6    314829.06349  21040565.86249
  21092140.386 6  -1425780.918 6  -1083138.46149  21092139.10149
  21656559.815 6    163078.016 6    121150.26649  21656555.92149
 20  5 16  0 10 58.9990000  0  7G08G14G16G21G26G27G31                0.000494040
  23373976.987 5  -1687055.797 5  -1286004.73448  23373977.53848
  21942760.480 5    942332.902 5    727477.97347  21942757.39047
  20493535.940 6   -191912.340 6   -146350.95348  20493532.56948
  24225223.917 4   -162249.598 4   -114710.35245  24225219.05845
  21040730.886 6    411514.805 6    315503.97749  21040730.97249
  21091500.308 6  -1429144.141 6  -1085759.15649  21091499.00349
  21656616.964 6    163378.188 6    121384.16849  21656613.26949
 20  5 16  0 10 59.9990000  0  7G08G14G16G21G26G27G31                0.000493628
  23373155.167 5  -1691374.152 5  -1289369.68848  23373155.82348
  21943207.448 5    944680.984 5    729307.65247  21943204.80047
  20493445.862 6   -192385.676 6   -146719.78548  20493442.61648
  24225036.933 4   -163234.801 4   -115478.02745  24225031.75745
  21040895.769 6    412380.621 6    316178.63749  21040895.41749
  21090860.230 6  -1432507.313 6  -1088379.80549  21090858.96449
  21656673.745 6    163678.082 6    121617.84849  21656670.08949
 20  5 16  0 11  0.9990000  0  7G08G14G16G21G26G27G31                0.000493216
  23372333.190 5  -1695692.637 5  -1292734.74248  23372333.87048
  21943654.620 6    947029.102 6    731137.35247  21943651.26947
  20493355.605 6   -192858.969 6   -147088.59448  20493352.69448
  24224849.253 5   -164219.898 5   -116245.63745  24224843.36245
  21041060.128 6    413246.266 6    316853.16449  21041060.00349
  21090220.276 6  -1435870.336 6  -1091000.34849  21090219.24949
  21656730.972 6    163977.902 6    121851.47349  21656727.14449
 20  5 16  0 11  1.9990000  0  7G08G14G16G21G26G27G31                0.000492802
  23371511.003 4  -1700011.266 4  -1296099.91048  23371512.31548
  21944101.636 6    949377.180 6    732967.02047  21944098.64747
  20493265.589 6   -193332.281 6   -147457.40648  20493262.01548
  24224662.019 5   -165205.051 5   -117013.29745  24224656.69045
  21041225.284 6    414111.652 6    317527.48849  21041224.58549
  21089580.308 6  -1439233.211 6  -1093620.76249  21089579.15949
  21656788.183 6    164277.590 6    122084.99649  21656784.19849
 20  5 16  0 11  2.9990000  0  7G08G14G16G21G26G27G31                0.000492390
  23370689.933 5  -1704330.305 5  -1299465.39548  23370690.24548
  21944547.472 6    951725.121 6    734796.58247  21944545.48747
  20493175.440 6   -193805.777 6   -147826.35948  20493172.19048
  24224474.355 5   -166190.352 5   -117781.07045  24224469.02245
  21041389.425 6    414976.648 6    318201.51649  21041389.65949
  21088941.144 6  -1442596.164 6  -1096241.24649  21088939.06249
  21656844.823 6    164576.977 6    122318.28149  21656841.17949
 20  5 16  0 11  3.9990000  0  7G08G14G16G21G26G27G31                0.000491976
  23369867.933 5  -1708649.535 5  -1302831.03148  23369867.90148
  21944994.714 6    954073.039 6    736626.12547  21944991.84747
  20493085.417 6   -194279.293 6   -148195.33648  20493081.87848
  24224285.925 4   -167175.660 4   -118548.84045  24224281.34345
  21041553.933 6    415841.383 6    318875.33249  21041553.86249
  21088300.620 6  -1445958.996 6  -1098861.63749  21088299.30449
  21656901.308 6    164876.211 6    122551.45349  21656897.85549
 20  5 16  0 11  4.9990000  0  7G08G14G16G21G26G27G31                0.000491562
  23369045.800 5  -1712968.938 5  -1306196.80148  23369046.43348
  21945441.753 6    956421.008 6    738455.71147  21945438.93347
  20492995.159 6   -194752.777 6   -148564.28148  20492992.02248
  24224099.073 5   -168160.941 5   -119316.60245  24224093.67145
  21041718.831 6    416705.961 6    319549.02749  21041718.64449
  21087660.933 6  -1449321.668 6  -1101481.89549  21087659.54649
  21656958.433 6    165175.344 6    122784.54349  21656955.29249
 20  5 16  0 11  5.9990000  0  7G08G14G16G21G26G27G31                0.000491148
  23368223.862 5  -1717288.581 5  -1309562.75648  23368224.49148
  21945888.886 6    958768.875 6    740285.21547  21945885.39747
  20492905.183 6   -195226.355 6   -148933.30548  20492901.85848
  24223911.925 5   -169146.270 5   -120084.38345  24223906.41745
  21041883.089 6    417570.184 6    320222.44949  21041882.91349
  21087021.073 6  -1452684.309 6  -1104102.14149  21087019.39049
  21657015.683 6    165474.250 6    123017.44949  21657012.12849
 20  5 16  0 11  6.9990000  0  7G08G14G16G21G26G27G31                0.000490734
  23367401.855 5  -1721608.512 5  -1312928.93848  23367402.12048
  21946334.737 6    961116.719 6    742114.69947  21946332.13247
  20492815.089 6   -195699.988 6   -149302.37148  20492811.96448
  24223724.011 5   -170131.664 5   -120852.22345  24223719.24145
  21042047.534 6    418434.152 6    320895.66449  21042047.35549
  21086381.120 6  -1456046.848 6  -1106722.29749  21086379.37049
  21657072.331 6    165773.000 6    123250.24249  21657069.03849
 20  5 16  0 11  7.9990000  0  7G08G14G16G21G26G27G31                0.000490320
  23366580.151 5  -1725928.555 5  -1316295.19948  23366580.10848
  21946781.925 6    963464.617 6    743944.22747  21946779.48047
  20492725.003 6   -196173.574 6   -149671.39148  20492721.78448
  24223536.784 5   -171116.988 5   -121620.00845  24223531.14745
  21042211.933 6    419297.965 6    321568.76649  21042211.64749
  21085741.097 6  -1459409.195 6  -1109342.30949  21085739.52249
  21657129.409 6    166071.676 6    123482.97349  21657125.86249
 20  5 16  0 11  8.9990000  0  7G08G14G16G21G26G27G31                0.000489906
  23365757.636 5  -1730248.625 5  -1319661.48448  23365757.68748
  21947228.565 6    965812.652 6    745773.87147  21947225.88647
  20492634.800 6   -196647.043 6   -150040.33248  20492631.23048
  24223349.128 5   -172102.188 5   -122387.69145  24223343.85845
  21042376.597 6    420161.633 6    322241.75449  21042376.07349
  21085101.190 6  -1462771.328 6  -1111962.15249  21085099.98049
  21657186.284 6    166370.332 6    123715.68849  21657182.93349
 20  5 16  0 11  9.9990000  0  7G08G14G16G21G26G27G31                0.000489492
  23364935.198 5  -1734569.203 5  -1323028.17248  23364935.76948
  21947675.831 6    968160.363 6    747603.27347  21947673.20247
  20492544.323 6   -197120.813 6   -150409.50048  20492541.07748
  24223162.472 5   -173087.668 5   -123155.57045  24223156.72245
  21042540.776 6    421024.789 6    322914.34449  21042540.35149
  21084461.058 6  -1466133.637 6  -1114582.12549  21084460.07749
  21657243.073 6    166668.539 6    123948.05949  21657239.54249
 20  5 16  0 11 10.9990000  0  7G08G14G16G21G26G27G31                0.000489077
  23364113.347 5  -1738890.004 5  -1326395.02748  23364113.55448
  21948122.722 6    970508.078 6    749432.66447  21948119.66747
  20492454.198 6   -197594.633 6   -150778.71548  20492451.19848
  24222974.714 5   -174073.156 5   -123923.48445  24222969.13645
  21042704.784 6    421887.672 6    323586.71549  21042704.59349
  21083821.722 6  -1469495.832 6  -1117202.01649  21083819.94049
  21657299.792 6    166966.609 6    124180.32449  21657296.01149
 20  5 16  0 11 11.9990000  0  7G08G14G16G21G26G27G31                0.000488661
  23363290.972 5  -1743210.991 5  -1329762.02448  23363291.56548
  21948568.745 6    972855.832 6    751262.07047  21948566.56947
  20492364.440 6   -198068.402 6   -151147.88748  20492361.01548
  24222786.776 5   -175058.574 5   -124691.32445  24222780.88645
  21042868.753 6    422750.410 6    324258.98049  21042868.73349
  21083181.776 6  -1472857.855 6  -1119821.77349  21083180.42949
  21657356.323 6    167264.594 6    124412.52049  21657352.83549
 20  5 16  0 11 12.9990000  0  7G08G14G16G21G26G27G31                0.000488247
  23362468.464 4  -1747532.395 4  -1333129.35548  23362468.98748
  21949015.745 6    975203.305 6    753091.26247  21949012.94447
  20492274.034 6   -198542.477 6   -151517.30148  20492270.68348
  24222598.901 5   -176044.309 5   -125459.43845  24222593.59745
  21043033.026 6    423612.590 6    324930.80549  21043032.71449
  21082542.206 6  -1476220.027 6  -1122441.65249  21082540.41349
  21657412.800 6    167562.160 6    124644.39149  21657409.59349
 20  5 16  0 11 13.9990000  0  7G08G14G16G21G26G27G31                0.000487829
  23361646.237 5  -1751854.152 5  -1336496.96148  23361646.85548
  21949462.784 6    977550.602 6    754920.32847  21949459.63647
  20492183.511 6   -199016.730 6   -151886.84448  20492180.23348
  24222412.019 5   -177030.191 5   -126227.67245  24222406.76145
  21043196.823 6    424474.391 6    325602.34049  21043196.56249
  21081902.300 6  -1479582.277 6  -1125061.58249  21081900.96049
  21657469.034 6    167859.406 6    124876.00849  21657466.09749
 20  5 16  0 11 14.9990000  0  7G08G14G16G21G26G27G31                0.000487413
  23360823.987 5  -1756176.125 5  -1339864.72748  23360823.87048
  21949909.480 6    979897.883 6    756749.37947  21949906.40547
  20492093.659 6   -199491.000 6   -152256.40248  20492090.44848
  24222224.206 5   -178016.074 5   -126995.88345  24222218.25745
  21043360.933 6    425335.965 6    326273.69549  21043360.97249
  21081262.230 6  -1482944.375 6  -1127681.40249  21081260.87849
  21657525.659 6    168156.551 6    125107.55149  21657522.90949
 20  5 16  0 11 15.9990000  0  7G08G14G16G21G26G27G31                0.000486998
  23360001.542 5  -1760498.137 5  -1343232.53948  23360001.90548
  21950355.503 6    982245.281 6    758578.52047  21950353.21447
  20492003.378 6   -199965.195 6   -152625.90248  20492000.27648
  24222036.620 5   -179001.863 5   -127764.02745  24222031.01545
  21043524.925 6    426197.348 6    326944.90249  21043524.80449
  21080623.011 6  -1486306.258 6  -1130301.05149  21080621.01149
  21657582.198 6    168453.613 6    125339.02749  21657579.21449
 20  5 16  0 11 16.9990000  0  7G08G14G16G21G26G27G31                0.000486582
  23359178.331 4  -1764820.559 4  -1346600.65648  23359179.33548
  21950802.565 6    984592.457 6    760407.48847  21950799.80847
  20491913.081 6   -200439.547 6   -152995.52748  20491910.24148
  24221849.128 5   -179987.863 5   -128532.36345  24221843.18345
  21043688.706 6    427058.367 6    327615.82449  21043688.63649
  21079983.175 6  -1489668.211 6  -1132920.75849  21079981.37049
  21657638.378 6    168750.383 6    125570.27749  21657635.12849
 20  5 16  0 11 17.9990000  0  7G08G14G16G21G26G27G31                0.000486164
  23358355.792 4  -1769143.152 4  -1349968.91048  23358356.71848
  21951249.276 6    986939.707 6    762236.50447  21951246.73747
  20491822.823 6   -200913.953 6   -153365.20348  20491819.72248
  24221660.526 5   -180973.820 5   -129300.64545  24221655.46845
  21043852.644 6    427919.145 6    328286.56349  21043852.23749
  21079343.128 6  -1493030.031 6  -1135540.36349  21079341.74949
  21657695.425 6    169047.012 6    125801.41449  21657692.02649
 20  5 16  0 11 18.9990000  0  8G04G08G14G16G21G26G27G31             0.000485746
  22391060.60511   -201771.16011                
  23357533.753 4  -1773465.840 4  -1353337.23848  23357533.79648
  21951695.886 5    989286.996 5    764065.55147  21951692.93347
  20491732.612 6   -201388.238 6   -153734.77348  20491729.51148
  24221473.214 5   -181959.715 5   -130068.86345  24221468.03845
  21044016.839 6    428779.770 6    328957.17649  21044015.76549
  21078703.847 6  -1496391.633 6  -1138159.78949  21078702.05849
  21657751.995 6    169343.613 6    126032.53149  21657748.44049
 20  5 16  0 11 19.9990000  0  8G04G08G14G16G21G26G27G31             0.000485331
  22390448.886 1   -204983.188 1                
  23356710.870 5  -1777788.625 5  -1356705.64148  23356711.65148
  21952142.612 5    991634.426 5    765894.70747  21952139.89447
  20491642.065 6   -201862.453 6   -154104.29748  20491638.92948
  24221285.722 5   -182945.488 5   -130837.00045  24221280.41745
  21044179.894 6    429640.273 6    329627.69549  21044179.48749
  21078063.862 6  -1499753.016 6  -1140779.04749  21078062.53849
  21657808.620 6    169640.191 6    126263.62949  21657805.17549
 20  5 16  0 11 20.9990000  0  8G04G08G14G16G21G26G27G31             0.000484913
  22389838.065 1   -208195.492 1                
  23355888.292 5  -1782111.898 5  -1360074.42648  23355888.95648
  21952589.253 6    993981.504 6    767723.60247  21952586.29247
  20491552.081 6   -202336.984 6   -154474.05548  20491548.89048
  24221097.487 5   -183931.555 5   -131605.33245  24221092.58145
  21044343.745 6    430500.262 6    330297.81649  21044343.24949
  21077424.503 6  -1503114.578 6  -1143398.44949  21077422.62449
  21657864.636 6    169936.313 6    126494.37549  21657861.15549
 20  5 16  0 11 21.9990000  0  8G04G08G14G16G21G26G27G31             0.000484495
  22389226.097 1   -211407.824 1                
  23355065.972 5  -1786435.418 5  -1363443.40648  23355066.32348
  21953036.284 6    996328.586 6    769552.48847  21953033.17147
  20491461.831 6   -202811.551 6   -154843.84448  20491458.81948
  24220910.175 5   -184917.684 5   -132373.74245  24220905.08145
  21044507.253 6    431359.965 6    330967.71149  21044506.80849
  21076784.659 6  -1506476.074 6  -1146017.80149  21076783.01549
  21657920.894 6    170232.270 6    126724.99249  21657917.48049
 20  5 16  0 11 22.9990000  0  8G04G08G14G16G21G26G27G31             0.000484076
  22388614.581 1   -214619.957 1                
  23354242.917 5  -1790759.055 5  -1366812.46948  23354243.17148
  21953482.690 6    998675.727 6    771381.42647  21953479.66747
  20491371.456 6   -203286.070 6   -155213.60248  20491367.77248
  24220722.737 4   -185903.707 4   -133142.05545  24220717.55445
  21044670.878 6    432219.504 6    331637.48049  21044670.15949
  21076145.019 6  -1509837.324 6  -1148636.95749  21076143.18349
  21657977.550 6    170528.180 6    126955.57049  21657974.24949
 20  5 16  0 11 23.9990000  0  8G04G08G14G16G21G26G27G31             0.000483658
  22388003.698 1   -217832.242 1                
  23353420.315 5  -1795083.031 5  -1370181.80148  23353420.64748
  21953929.519 6   1001022.715 6    773210.25847  21953926.21847
  20491281.073 6   -203760.750 6   -155583.48048  20491277.99148
  24220535.011 5   -186889.895 5   -133910.50445  24220530.18345
  21044834.581 6    433078.656 6    332306.94949  21044833.71049
  21075505.620 6  -1513198.641 6  -1151256.16449  21075503.89449
  21658033.417 6    170823.770 6    127185.89849  21658030.41749
 20  5 16  0 11 24.9990000  0  8G04G08G14G16G21G26G27G31             0.000483240
  22387392.003 1   -221044.582 1                
  23352597.136 5  -1799407.355 5  -1373551.40248  23352597.88248
  21954375.667 6   1003369.543 6    775038.96147  21954372.79647
  20491191.065 6   -204235.594 6   -155953.48448  20491187.53448
  24220347.058 5   -187876.207 5   -134679.07045  24220341.96445
  21044997.987 6    433937.418 6    332976.11749  21044997.17949
  21074865.980 6  -1516559.953 6  -1153875.37149  21074864.18349
  21658089.690 6    171119.098 6    127416.02049  21658086.56949
 20  5 16  0 11 25.9990000  0  8G04G08G14G16G21G26G27G31             0.000482821
  22386780.573 1   -224256.871 1                
  23351773.933 5  -1803731.895 5  -1376921.17248  23351775.11248
  21954822.847 5   1005716.398 5    776867.68047  21954819.55847
  20491100.495 6   -204710.441 6   -156323.49648  20491097.08148
  24220159.230 5   -188862.520 5   -135447.64145  24220154.47245
  21045161.230 6    434795.957 6    333645.10249  21045160.86249
  21074226.128 6  -1519921.191 6  -1156494.51649  21074224.51549
  21658145.784 6    171414.293 6    127646.03949  21658142.87849
 20  5 16  0 11 26.9990000  0  8G04G08G14G16G21G26G27G31             0.000482401
  22386169.878 2   -227469.199 2                
  23350951.026 4  -1808056.664 4  -1380291.12148  23350951.78448
  21955268.480 6   1008063.160 6    778696.31347  21955266.35147
  20491010.206 6   -205185.359 6   -156693.56348  20491006.62848
  24219971.714 5   -189848.879 5   -136216.25045  24219966.85145
  21045324.495 6    435654.191 6    334313.85949  21045323.93349
  21073586.550 6  -1523282.305 6  -1159113.55949  21073585.07349
  21658202.347 6    171709.313 6    127875.92249  21658198.84749
 20  5 16  0 11 27.9990000  0  8G04G08G14G16G21G26G27G31             0.000481981
  22385559.245 2   -230681.484 2                
  23350127.745 4  -1812381.621 4  -1383661.21148  23350128.87048
  21955715.589 5   1010409.887 5    780524.92647  21955712.92947
  20490919.964 6   -205660.336 6   -157063.67248  20490916.61648
  24219784.362 5   -190835.273 5   -136984.87145  24219779.57345
  21045487.995 6    436512.172 6    334982.41049  21045487.62449
  21072947.097 6  -1526643.363 6  -1161732.56649  21072945.34749
  21658258.315 6    172004.145 6    128105.66449  21658255.04249
 20  5 16  0 11 28.9990000  0  8G04G08G14G16G21G26G27G31             0.000481562
  22384947.386 2   -233893.703 2                
  23349305.144 5  -1816706.855 5  -1387031.52748  23349305.59748
  21956162.565 5   1012756.594 5    782353.52046  21956159.27246
  20490829.355 6   -206135.340 6   -157433.80948  20490826.19848
  24219596.222 5   -191821.673 5   -137753.50745  24219591.67545
  21045651.058 7    437369.867 7    335650.74249  21045650.61249
  21072307.440 6  -1530004.344 6  -1164351.51649  21072305.62849
  21658314.573 6    172298.805 6    128335.26649  21658310.88249
 20  5 16  0 11 29.9990000  0  8G04G08G14G16G21G26G27G31             0.000481142
  22384336.495 2   -237105.930 2                
  23348482.198 4  -1821032.285 4  -1390401.99248  23348482.90148
  21956608.675 5   1015103.270 5    784182.09447  21956606.38647
  20490738.847 6   -206610.406 6   -157803.98448  20490735.51948
  24219409.401 5   -192808.148 5   -138522.19945  24219404.06245
  21045814.464 7    438227.316 7    336318.88749  21045813.74549
  21071667.933 6  -1533365.203 6  -1166970.36349  21071666.05049
  21658370.690 6    172593.305 6    128564.74249  21658367.24149
 20  5 16  0 11 30.9990000  0  8G04G08G14G16G21G26G27G31             0.000480721
  22383725.300 2   -240318.203 2                
  23347658.433 4  -1825357.992 4  -1393772.66448  23347659.33948
  21957054.917 5   1017449.914 5    786010.65247  21957052.56547
  20490648.495 6   -207085.531 6   -158174.20748  20490645.12848
  24219220.175 5   -193794.721 5   -139290.92545  24219216.10845
  21045977.097 7    439084.461 7    336986.78949  21045976.71049
  21071028.050 6  -1536726.000 6  -1169589.16449  21071026.51149
  21658427.089 6    172887.609 6    128794.07049  21658423.03449
 20  5 16  0 11 31.9990000  0  8G04G08G14G16G21G26G27G31             0.000480301
  22383114.487 2   -243530.531 2                
  23346835.894 4  -1829683.980 4  -1397143.57448  23346835.97248
  21957501.183 5   1019796.402 5    787839.08647  21957498.85847
  20490557.948 6   -207560.793 6   -158544.53948  20490554.23348
  24219032.558 4   -194781.305 4   -140059.68845  24219028.49545
  21046140.636 7    439941.266 7    337654.43449  21046140.05049
  21070388.800 6  -1540086.793 6  -1172207.96949  21070387.16349
  21658482.347 6    173181.648 6    129023.19149  21658479.08149
 20  5 16  0 11 32.9990000  0  8G04G08G14G16G21G26G27G31             0.000479879
  22382503.198 2   -246742.719 2                
  23346012.769 4  -1834010.191 4  -1400514.64548  23346013.00748
  21957948.011 5   1022142.879 5    789667.50847  21957945.71847
  20490467.698 7   -208036.074 7   -158914.88748  20490464.48748
  24218844.519 4   -195767.926 4   -140828.49246  24218840.87846
  21046303.745 7    440797.820 7    338321.87949  21046303.01149
  21069749.144 6  -1543447.477 6  -1174826.68849  21069747.67149
  21658538.292 6    173475.570 6    129252.21949  21658535.04249
 20  5 16  0 11 33.9990000  0  8G04G08G14G16G21G26G27G31             0.000479460
  22381890.894 2   -249955.031 2                
  23345189.331 4  -1838336.699 4  -1403885.95348  23345189.64748
  21958394.550 5   1024489.223 5    791495.82046  21958391.87046
  20490376.964 6   -208511.512 6   -159285.35948  20490373.96448
  24218656.495 4   -196754.688 4   -141597.38346  24218652.92146
  21046466.136 6    441654.012 6    338989.03949  21046465.76949
  21069109.698 6  -1546808.152 6  -1177445.39549  21069107.99549
  21658594.776 6    173769.219 6    129481.03149  21658590.85849
 20  5 16  0 11 34.9990000  0  8G04G08G14G16G21G26G27G31             0.000479038
  22381280.206 2   -253167.137 2                
  23344365.651 4  -1842663.199 4  -1407257.25048  23344366.15548
  21958840.667 5   1026835.773 5    793324.30546  21958838.37446
  20490286.675 7   -208986.742 7   -159655.67248  20490283.23348
  24218468.269 4   -197741.277 4   -142366.16446  24218465.01146
  21046628.940 6    442510.148 6    339656.15249  21046628.67949
  21068470.503 6  -1550168.539 6  -1180063.87549  21068468.83549
  21658650.214 6    174062.941 6    129709.91449  21658646.88649
 20  5 16  0 11 35.9990000  0  8G04G08G14G16G21G26G27G31             0.000478617
  22380667.761 1   -256379.180 1                
  23343542.565 5  -1846989.973 5  -1410628.75848  23343542.58148
  21959287.112 5   1029182.191 5    795152.67647  21959284.79647
  20490196.167 6   -209462.105 6   -160026.08648  20490192.95248
  24218281.050 3   -198727.891 3   -143134.96145  24218277.28845
  21046791.862 6    443365.988 6    340323.03949  21046791.62449
  21067830.855 6  -1553528.863 6  -1182682.30949  21067829.37049
  21658706.308 6    174356.422 6    129938.59849  21658702.62849
 20  5 16  0 11 36.9990000  0  8G04G08G14G16G21G26G27G31             0.000478193
  22380056.480 2   -259591.313 2                
  23342719.136 4  -1851316.992 4  -1414000.46148  23342719.42148
  21959733.589 5   1031528.598 5    796981.05147  21959731.75747
  20490105.433 6   -209937.520 6   -160396.53548  20490102.22248
  24218092.831 3   -199714.582 3   -143903.85245  24218089.29245
  21046954.855 6    444221.500 6    340989.67249  21046954.64449
  21067191.519 6  -1556889.125 6  -1185300.69149  21067190.10149
  21658761.753 6    174649.707 6    130167.12949  21658758.56949
 20  5 16  0 11 37.9990000  0  8G04G08G14G16G21G26G27G31             0.000477772
  22379445.573 1   -262803.313 1                
  23341895.894 4  -1855644.141 4  -1417372.26248  23341896.03048
  21960180.495 5   1033875.035 5    798809.43447  21960178.26147
  20490014.995 6   -210412.898 6   -160766.96548  20490011.87048
  24217904.761 3   -200701.227 3   -144672.65645  24217901.54245
  21047117.589 6    445076.855 6    341656.18449  21047117.10149
  21066551.761 6  -1560249.223 6  -1187918.95349  21066550.64749
  21658816.925 6    174942.910 6    130395.60249  21658814.41749
 20  5 16  0 11 38.9990000  0  8G04G08G14G16G21G26G27G31             0.000477350
  22378834.058 1   -266015.566 1                
  23341071.776 4  -1859971.844 4  -1420744.49248  23341072.81548
  21960626.933 5   1036221.148 5    800637.57047  21960624.42147
  20489924.667 6   -210888.605 6   -161137.64148  20489921.36648
  24217717.690 4   -201688.191 4   -145441.71545  24217713.64745
  21047280.019 6    445931.637 6    342322.25049  21047279.91349
  21065912.370 6  -1563609.488 6  -1190537.34049  21065911.26949
  21658873.253 6    175235.672 6    130623.73049  21658869.74549
 20  5 16  0 11 39.9990000  0  8G04G08G14G16G21G26G27G31             0.000476927
  22378222.456 2   -269227.680 2                
  23340248.605 4  -1864299.602 4  -1424116.77748  23340248.85548
  21961073.355 5   1038567.398 5    802465.81647  21961071.30847
  20489833.823 6   -211364.215 6   -161508.25048  20489830.83948
  24217530.253 4   -202675.020 4   -146210.64145  24217526.32745
  21047442.784 6    446786.320 6    342988.23449  21047442.67949
  21065273.190 6  -1566969.547 6  -1193155.56649  21065271.56549
  21658928.698 6    175528.387 6    130851.82049  21658925.45249
 20  5 16  0 11 40.9990000  0  8G04G08G14G16G21G26G27G31             0.000476503
  22377611.808 2   -272439.492 2                
  23339424.823 4  -1868627.305 4  -1427489.01648  23339425.39748
  21961519.448 5   1040913.801 5    804294.18046  21961517.42146
  20489743.323 6   -211839.633 6   -161878.70348  20489740.31948
  24217342.628 4   -203661.645 4   -146979.44946  24217338.07746
  21047605.745 6    447640.961 6    343654.18849  21047605.28449
  21064633.542 6  -1570329.273 6  -1195773.53149  21064632.71049
  21658984.706 6    175821.207 6    131079.99249  21658981.37849
 20  5 16  0 11 41.9990000  0  8G04G08G14G16G21G26G27G31             0.000476082
  22377000.612 1   -275651.211 1                
  23338601.894 4  -1872955.145 4  -1430861.35548  23338601.83148
  21961966.237 5   1043260.352 5    806122.66447  21961963.98047
  20489653.222 6   -212314.996 6   -162249.12548  20489650.04648
  24217155.089 4   -204648.230 4   -147748.23245  24217150.63245
  21047767.628 6    448495.430 6    344320.01249  21047767.45249
  21063994.612 6  -1573688.785 6  -1198391.33249  21063993.94449
  21659040.237 6    176113.961 6    131308.10249  21659036.96849
 20  5 16  0 11 42.9990000  0  8G04G08G14G16G21G26G27G31             0.000475658
  22376390.901 1   -278862.918 1                
  23337778.097 4  -1877283.234 4  -1434233.89148  23337778.30848
  21962412.386 5   1045606.773 5    807951.03947  21962410.26147
  20489562.776 6   -212790.441 6   -162619.59848  20489559.09348
  24216967.034 4   -205634.824 4   -148517.02745  24216962.74545
  21047930.487 6    449349.629 6    344985.61349  21047930.20249
  21063355.183 6  -1577048.254 6  -1201009.09449  21063353.98049
  21659096.136 6    176406.488 6    131536.05149  21659092.64049
 20  5 16  0 11 43.9990000  0  8G04G08G14G16G21G26G27G31             0.000475235
  22375779.112 2   -282074.641 2                
  23336953.534 4  -1881611.656 4  -1437606.68848  23336954.40948
  21962859.440 5   1047953.086 5    809779.32847  21962856.69447
  20489472.183 6   -213266.000 6   -162990.16048  20489468.78048
  24216779.503 4   -206621.539 4   -149285.90646  24216774.74946
  21048092.644 6    450203.449 6    345650.92649  21048092.64049
  21062715.901 6  -1580407.691 6  -1203626.84449  21062714.66349
  21659151.440 6    176698.781 6    131763.80549  21659148.30849
 20  5 16  0 11 44.9990000  0  8G04G08G14G16G21G26G27G31             0.000474812
  22375168.378 2   -285286.383 2                
  23336130.073 4  -1885940.313 4  -1440979.66448  23336130.76948
  21963305.667 5   1050299.305 5    811607.55146  21963303.12446
  20489381.776 6   -213741.645 6   -163360.79348  20489378.13648
  24216591.706 4   -207608.281 4   -150054.79746  24216587.62046
  21048255.573 6    451056.996 6    346316.03149  21048255.16349
  21062077.089 6  -1583767.063 6  -1206244.53149  21062075.50349
  21659207.198 6    176990.910 6    131991.43849  21659203.85549
 20  5 16  0 11 45.9990000  0  8G04G08G14G16G21G26G27G31             0.000474388
  22374556.886 1   -288498.051 1                
  23335306.448 4  -1890269.113 4  -1444352.75448  23335307.15548
  21963752.464 5   1052645.625 5    813435.85947  21963749.84747
  20489291.105 6   -214217.238 6   -163731.38748  20489287.68748
  24216404.183 4   -208595.016 4   -150823.68446  24216399.53046
  21048417.823 6    451910.340 6    346980.97349  21048417.33549
  21061437.284 6  -1587126.266 6  -1208862.09449  21061435.99949
  21659262.308 6    177282.930 6    132218.98449  21659258.91349
 20  5 16  0 11 46.9990000  0  8G04G08G14G16G21G26G27G31             0.000473963
  22373945.253 1   -291709.875 1                
  23334482.605 4  -1894598.309 4  -1447726.14548  23334483.33948
  21964198.315 5   1054991.691 5    815263.96947  21964196.25347
  20489200.183 6   -214693.109 6   -164102.18848  20489196.95248
  24216216.472 4   -209581.969 4   -151592.72346  24216211.51546
  21048580.034 6    452763.219 6    347645.55549  21048580.02249
  21060798.261 6  -1590485.578 6  -1211479.73849  21060796.71049
  21659317.909 6    177574.582 6    132446.24249  21659314.23349
 20  5 16  0 11 47.9990000  0  8G04G08G14G16G21G26G27G31             0.000473539
  22373333.972 1   -294921.648 1                
  23333658.073 4  -1898927.730 4  -1451099.71548  23333659.59748
  21964644.612 5   1057337.719 5    817092.04347  21964642.50347
  20489110.292 6   -215169.004 6   -164473.02048  20489106.53448
  24216028.261 4   -210568.934 4   -152361.77346  24216023.94846
  21048742.386 6    453615.855 6    348309.94549  21048742.07349
  21060159.136 6  -1593844.785 6  -1214097.30549  21060157.68349
  21659373.503 6    177866.070 6    132673.37149  21659369.79649
 20  5 16  0 11 48.9990000  0  8G04G08G14G16G21G26G27G31             0.000473114
  22372722.722 1   -298133.418 1                
  23332834.378 4  -1903257.391 4  -1454473.47348  23332835.68348
  21965091.214 5   1059683.715 5    818920.09847  21965088.90947
  20489019.597 6   -215644.941 6   -164843.87948  20489015.87048
  24215840.151 4   -211555.949 4   -153130.85946  24215836.32746
  21048904.980 6    454468.188 6    348974.10549  21048904.71849
  21059519.667 6  -1597203.918 6  -1216714.80949  21059518.38649
  21659429.558 6    178157.402 6    132900.38349  21659425.29649
 20  5 16  0 11 49.9990000  0  8G04G08G14G16G21G26G27G31             0.000472689
  22372110.722 1   -301345.273 1                
  23332010.597 4  -1907587.313 4  -1457847.44148  23332011.60848
  21965537.855 5   1062029.645 5    820748.09047  21965535.41347
  20488928.972 6   -216120.969 6   -165214.80948  20488925.34348
  24215652.448 4   -212542.977 4   -153899.96946  24215648.51946
  21049066.839 6    455320.234 6    349638.03149  21049066.74149
  21058880.534 6  -1600562.977 6  -1219332.25449  21058879.41349
  21659484.495 6    178448.535 6    133127.24249  21659480.84749
 20  5 16  0 11 50.9990000  0  8G04G08G14G16G21G26G27G31             0.000472263
  22371499.823 1   -304556.977 1                
  23331186.940 4  -1911917.434 4  -1461221.56348  23331187.60548
  21965984.706 5   1064375.539 5    822576.05147  21965982.01947
  20488838.534 6   -216597.023 6   -165585.76648  20488834.61648
  24215465.128 4   -213530.105 4   -154669.18446  24215460.72246
  21049228.987 6    456172.016 6    350301.75049  21049228.46849
  21058241.308 6  -1603921.938 6  -1221949.62549  21058239.94049
  21659540.362 6    178739.527 6    133353.98849  21659536.19849
 20  5 16  0 11 51.9990000  0  8G04G08G14G16G21G26G27G31             0.000471838
  22370889.089 1   -307768.750 1                
  23330362.495 4  -1916247.895 4  -1464595.94948  23330363.56548
  21966430.683 5   1066721.332 5    824403.94547  21966428.26547
  20488747.386 6   -217073.215 6   -165956.83248  20488744.11248
  24215277.651 5   -214517.262 5   -155438.40246  24215272.78846
  21049390.495 6    457023.449 6    350965.21149  21049390.68749
  21057602.097 6  -1607280.879 6  -1224566.98049  21057601.14749
  21659595.214 6    179030.238 6    133580.52049  21659591.23049
 20  5 16  0 11 52.9990000  0  8G04G08G14G16G21G26G27G31             0.000471411
  22370277.495 1   -310980.602 1                
  23329538.339 4  -1920578.578 4  -1467970.51248  23329539.54248
  21966877.862 5   1069067.023 5    826231.76246  21966874.61246
  20488657.347 6   -217549.496 6   -166327.95348  20488653.30448
  24215089.495 5   -215504.531 5   -156207.71546  24215084.96446
  21049553.151 6    457874.602 6    351628.44549  21049552.53849
  21056962.972 6  -1610639.758 6  -1227184.28949  21056961.61649
  21659650.409 6    179320.766 6    133806.90249  21659646.37449
 20  5 16  0 11 53.9990000  0  8G04G08G14G16G21G26G27G31             0.000470985
  22369666.433 1   -314192.199 1                
  23328714.745 4  -1924909.359 4  -1471345.14848  23328714.99548
  21967323.933 5   1071412.863 5    828059.68847  21967321.03047
  20488566.792 6   -218025.672 6   -166699.00048  20488562.83548
  24214902.261 5   -216491.664 5   -156976.90246  24214897.06546
  21049715.011 6    458725.594 6    352291.55149  21049714.67549
  21056323.464 6  -1613998.438 6  -1229801.44149  21056322.37449
  21659705.737 6    179611.266 6    134033.26649  21659701.81249
 20  5 16  0 11 54.9990000  0  8G04G08G14G16G21G26G27G31             0.000470558
  22369055.284 1   -317403.789 1                
  23327890.284 4  -1929240.316 4  -1474719.91448  23327890.83148
  21967770.558 5   1073758.688 5    829887.60547  21967767.54247
  20488475.956 6   -218501.852 6   -167070.04748  20488472.17948
  24214713.956 5   -217478.773 5   -157746.07846  24214709.76946
  21049876.855 6    459576.395 6    352954.52049  21049876.62449
  21055684.651 6  -1617356.945 6  -1232418.46149  21055683.73049
  21659761.128 6    179901.637 6    134259.53149  21659757.03049
 20  5 16  0 11 55.9990000  0  8G04G08G14G16G21G26G27G31             0.000470133
  22368444.886 1   -320615.363 1                
  23327066.636 4  -1933571.449 4  -1478094.82048  23327066.96048
  21968217.347 5   1076104.480 5    831715.49647  21968213.61247
  20488384.659 6   -218978.035 6   -167441.10548  20488381.08148
  24214526.065 5   -218465.902 5   -158515.28146  24214521.68346
  21050038.448 6    460426.945 6    353617.28549  21050038.03849
  21055045.331 6  -1620715.348 6  -1235035.40249  21055044.69449
  21659816.378 6    180191.879 6    134485.69549  21659812.41749
 20  5 16  0 11 56.9990000  0  8G04G08G14G16G21G26G27G31             0.000469706
  22367833.183 1   -323826.816 1                
  23326241.628 4  -1937902.844 4  -1481469.92648  23326242.62048
  21968663.261 5   1078450.230 5    833543.35947  21968660.34347
  20488295.050 7   -219454.332 7   -167812.23448  20488290.90148
  24214338.167 5   -219453.047 5   -159284.47746  24214333.97246
  21050200.440 6    461277.188 6    354279.80949  21050200.10149
  21054406.214 6  -1624073.680 6  -1237652.28149  21054405.55849
  21659871.667 6    180481.914 6    134711.69949  21659867.35549
 20  5 16  0 11 57.9990000  0  8G04G08G14G16G21G26G27G31             0.000469280
  22367222.214 1   -327038.281 1                
  23325417.534 4  -1942234.402 4  -1484845.16448  23325418.52648
  21969109.667 5   1080796.012 5    835371.23447  21969106.61647
  20488204.651 6   -219930.590 6   -168183.34848  20488200.33148
  24214149.925 5   -220440.191 5   -160053.68046  24214146.54646
  21050361.933 6    462127.219 6    354942.17249  21050362.13649
  21053767.136 6  -1627431.852 6  -1240269.03949  21053766.28849
  21659926.737 6    180771.840 6    134937.61349  21659922.42149
 20  5 16  0 11 58.9990000  0  8G04G08G14G16G21G26G27G31             0.000468851
  22366611.550 2   -330249.617 2                
  23324593.534 4  -1946566.016 4  -1488220.44948  23324594.21848
  21969556.159 5   1083141.871 5    837199.17247  21969553.12447
  20488113.597 6   -220406.781 6   -168554.40248  20488109.75748
  24213962.456 5   -221427.238 5   -160822.80946  24213958.07346
  21050524.042 6    462977.102 6    355604.41849  21050523.52649
  21053127.901 6  -1630789.816 6  -1242885.63349  21053127.35149
  21659981.620 6    181061.723 6    135163.49248  21659977.27248
 20  5 16  0 11 59.9990000  0  8G04G08G14G16G21G26G27G31             0.000468424
  22365999.901 1   -333460.719 1                
  23323768.800 4  -1950897.797 4  -1491595.86348  23323769.80448
  21970002.261 5   1085487.813 5    839027.18047  21969999.42147
  20488022.573 6   -220882.898 6   -168925.40648  20488018.81948
  24213774.839 5   -222414.199 5   -161591.86346  24213770.83146
  21050685.628 6    463826.832 6    356266.54349  21050685.11249
  21052489.097 6  -1634147.574 6  -1245502.06649  21052488.60149
  21660037.230 6    181351.563 6    135389.34448  21660032.65148
 20  5 16  0 12  0.9990000  0  8G04G08G14G16G21G26G27G31             0.000467997
  22365387.933 2   -336671.973 2                
  23322944.730 4  -1955229.785 4  -1494971.44148  23322945.51948
  21970448.175 5   1087833.641 5    840855.09046  21970445.69846
  20487932.050 6   -221359.156 6   -169296.51648  20487928.56948
  24213586.815 5   -223401.238 5   -162360.97746  24213583.07346
  21050847.448 6    464676.223 6    356928.40649  21050846.63649
  21051850.198 6  -1637505.289 6  -1248118.46949  21051849.49549
  21660092.276 6    181641.156 6    135615.00047  21660087.80447
 20  5 16  0 12  1.9990000  0  8G04G08G14G16G21G26G27G31             0.000467569
  22364777.362 2   -339883.145 2                
  23322120.206 5  -1959562.051 5  -1498347.23848  23322120.99148
  21970895.175 5   1090179.406 5    842682.96147  21970892.40547
  20487841.347 6   -221835.457 6   -169667.66048  20487837.55048
  24213399.401 5   -224388.332 5   -163130.14846  24213394.82346
  21051009.112 6    465525.340 6    357590.05549  21051008.40949
  21051211.519 6  -1640862.945 6  -1250734.83249  21051210.58949
  21660146.909 6    181930.574 6    135840.52347  21660142.96447
 20  5 16  0 12  2.9990000  0  8G04G08G14G16G21G26G27G31             0.000467140
  22364166.417 2   -343094.293 2                
  23321295.808 5  -1963894.555 5  -1501723.21148  23321296.91348
  21971340.878 5   1092525.176 5    844510.83247  21971338.54247
  20487751.089 6   -222311.797 6   -170038.84048  20487747.32748
  24213210.933 5   -225375.457 5   -163899.33646  24213206.85846
  21051170.230 6    466374.184 6    358251.49249  21051170.24549
  21050572.347 6  -1644220.465 6  -1253351.07449  21050571.90549
  21660202.198 6    182219.813 6    136065.90247  21660197.87047
 20  5 16  0 12  3.9990000  0  8G04G08G14G16G21G26G27G31             0.000466713
  22363554.448 2   -346305.121 2                
  23320471.167 4  -1968226.969 4  -1505099.11348  23320472.26148
  21971787.855 5   1094871.176 5    846338.87547  21971785.25747
  20487660.417 6   -222787.883 6   -170409.81648  20487656.63248
  24213022.831 5   -226362.281 5   -164668.28946  24213019.24546
  21051331.784 6    467223.078 6    358912.96949  21051331.46049
  21049933.565 6  -1647577.621 6  -1255967.04349  21049933.02249
  21660257.042 6    182509.176 6    136291.37547  21660252.64047
 20  5 16  0 12  4.9990000  0  8G04G08G14G16G21G26G27G31             0.000466284
  22362944.245 2   -349515.887 2                
  23319646.878 4  -1972559.648 4  -1508475.22748  23319647.55048
  21972233.597 5   1097217.125 5    848166.89146  21972231.33946
  20487570.034 7   -223264.035 7   -170780.84048  20487566.01548
  24212835.448 5   -227349.176 5   -165437.30546  24212831.37846
  21051493.198 6    468071.656 6    359574.19949  21051493.03049
  21049294.784 6  -1650934.699 6  -1258582.94949  21049294.03049
  21660312.472 6    182798.391 6    136516.74247  21660307.67947
 20  5 16  0 12  5.9990000  0  8G04G08G14G16G21G26G27G31             0.000465855
  22362333.675 2   -352726.738 2                
  23318822.565 4  -1976892.543 4  -1511851.50848  23318822.62448
  21972680.550 5   1099563.023 5    849994.85546  21972677.72646
  20487479.058 7   -223740.285 7   -171151.94948  20487475.31948
  24212648.190 5   -228336.145 5   -166206.35946  24212643.87446
  21051654.620 6    468919.938 6    360235.19949  21051654.64449
  21048656.089 6  -1654291.719 6  -1261198.80549  21048654.91749
  21660367.620 6    183087.398 6    136741.94147  21660362.96047
 20  5 16  0 12  6.9990000  0  8G04G08G14G16G21G26G27G31             0.000465425
  22361722.605 2   -355937.789 2                
  23317997.542 4  -1981225.879 4  -1515228.12948  23317998.61248
  21973127.019 5   1101908.656 5    851822.60947  21973124.10147
  20487388.355 6   -224216.789 6   -171523.25048  20487384.46848
  24212460.394 5   -229323.313 5   -166975.58246  24212456.06246
  21051815.823 6    469767.746 6    360895.83649  21051815.77649
  21048017.722 6  -1657648.844 6  -1263814.75849  21048016.66749
  21660422.292 6    183376.020 6    136966.83647  21660418.03047
 20  5 16  0 12  7.9990000  0  8G04G08G14G16G21G26G27G31             0.000464996
  22361111.784 2   -359148.703 2                
  23317173.573 5  -1985559.414 5  -1518604.90248  23317173.46048
  21973572.737 5   1104254.266 5    853650.35946  21973570.35546
  20487297.487 6   -224693.309 6   -171894.55948  20487294.01548
  24212272.409 5   -230310.492 5   -167744.79746  24212267.98046
  21051977.472 6    470615.320 6    361556.28149  21051977.22249
  21047378.675 6  -1661005.852 6  -1266430.60249  21047377.65949
  21660477.362 6    183664.488 6    137191.62147  21660472.73747
 20  5 16  0 12  8.9990000  0  8G04G08G14G16G21G26G27G31             0.000464567
  22360500.698 2   -362359.457 2                
  23316348.722 5  -1989892.961 5  -1521981.69948  23316349.13648
  21974019.112 6   1106600.051 6    855478.24646  21974016.90546
  20487207.222 6   -225169.695 6   -172265.77048  20487203.30048
  24212083.776 5   -231297.574 5   -168513.94846  24212080.67946
  21052138.581 6    471462.789 6    362216.64849  21052138.38249
  21046739.519 6  -1664362.598 6  -1269046.25449  21046738.73349
  21660532.511 6    183952.996 6    137416.42647  21660527.61647
 20  5 16  0 12  9.9990000  0  8G04G08G14G16G21G26G27G31             0.000464138
  22359888.940 2   -365570.191 2                
  23315523.886 5  -1994226.844 5  -1525358.74648  23315524.35148
  21974466.019 5   1108945.723 5    857306.04747  21974463.07747
  20487116.065 6   -225646.203 6   -172637.07848  20487112.58948
  24211895.839 5   -232284.641 5   -169283.10546  24211892.67146
  21052299.651 6    472309.945 6    362876.77049  21052299.67949
  21046100.901 6  -1667719.289 6  -1271661.85549  21046099.83149
  21660587.230 6    184241.266 6    137641.05147  21660582.01547
 20  5 16  0 12 10.9990000  0  8G04G08G14G16G21G26G27G31             0.000463707
  22359278.089 2   -368781.094 2                
  23314698.940 5  -1998561.039 5  -1528736.04748  23314699.66348
  21974911.964 5   1111291.219 5    859133.70746  21974909.53446
  20487025.620 6   -226122.844 6   -173008.48448  20487021.92948
  24211708.448 5   -233271.910 5   -170052.41846  24211704.75746
  21052460.737 6    473156.715 6    363536.58649  21052460.87449
  21045461.730 6  -1671076.023 6  -1274277.49649  21045461.20249
  21660642.034 6    184529.273 6    137865.47347  21660637.53047
 20  5 16  0 12 11.9990000  0  8G04G08G14G16G21G26G27G31             0.000463276
  22358666.878 2   -371991.707 2                
  23313873.581 5  -2002895.203 5  -1532113.32448  23313874.26548
  21975358.909 5   1113636.922 5    860961.52746  21975355.90946
  20486935.261 6   -226599.309 6   -173379.75448  20486931.22248
  24211520.565 5   -234258.926 5   -170821.53146  24211517.18346
  21052622.417 6    474003.445 6    364196.37549  21052622.05049
  21044823.347 6  -1674432.395 6  -1276892.84849  21044822.43349
  21660696.495 6    184817.332 6    138089.93448  21660691.76148
 20  5 16  0 12 12.9990000  0  8G04G08G14G16G21G26G27G31             0.000462847
  22358055.987 2   -375202.133 2                
  23313049.581 5  -2007229.484 5  -1535490.68048  23313049.98348
  21975805.573 5   1115982.680 5    862789.38746  21975802.46446
  20486844.300 6   -227075.707 6   -173750.98048  20486840.48748
  24211332.612 5   -235245.941 5   -171590.63746  24211328.99946
  21052783.269 6    474850.023 6    364856.04749  21052783.26149
  21044184.511 6  -1677788.566 6  -1279508.05149  21044183.97249
  21660751.534 6    185105.348 6    138314.35547  21660747.12447
 20  5 16  0 12 13.9990000  0  8G04G08G14G16G21G26G27G31             0.000462416
  22357444.987 2   -378412.449 2                
  23312224.628 5  -2011563.809 5  -1538868.07448  23312225.02648
  21976252.245 5   1118328.582 5    864617.35546  21976249.18346
  20486753.894 6   -227552.039 6   -174122.14848  20486749.89748
  24211145.370 5   -236232.762 5   -172359.56346  24211141.61246
  21052944.495 6    475696.438 6    365515.59049  21052944.49949
  21043546.042 6  -1681144.527 6  -1282123.08249  21043545.20649
  21660806.190 6    185393.324 6    138538.75447  21660801.79247
 20  5 16  0 12 14.9990000  0  8G04G08G14G16G21G26G27G31             0.000461985
  22356835.190 2   -381622.746 2                
  23311400.120 4  -2015898.445 4  -1542245.71148  23311400.48348
  21976698.495 6   1120674.379 6    866445.23847  21976695.11247
  20486663.120 7   -228028.453 7   -174493.37548  20486659.46848
  24210957.276 5   -237219.688 5   -173128.60246  24210953.01146
  21053105.190 6    476542.555 6    366174.89849  21053105.51549
  21042907.870 6  -1684500.434 6  -1284738.07449  21042906.54649
  21660860.542 6    185681.098 6    138762.99247  21660856.87447
 20  5 16  0 12 15.9990000  0  8G04G08G14G16G21G26G27G31             0.000461554
  22356224.058 2   -384832.941 2                
  23310575.097 4  -2020233.164 4  -1545623.41448  23310575.38648
  21977144.347 5   1123020.230 5    868273.17246  21977141.60146
  20486572.855 7   -228504.816 7   -174864.56348  20486568.72248
  24210768.323 5   -238206.512 5   -173897.56346  24210765.47646
  21053266.495 7    477388.523 7    366834.09449  21053266.29249
  21042268.964 6  -1687856.141 6  -1287352.91049  21042267.87049
  21660915.917 6    185968.793 6    138987.15647  21660911.11647
 20  5 16  0 12 16.9990000  0  8G04G08G14G16G21G26G27G31             0.000461123
  22355612.769 2   -388043.242 2                
  23309749.909 4  -2024568.234 4  -1549001.39148  23309750.60848
  21977590.995 6   1125365.941 6    870100.99247  21977587.92147
  20486481.605 7   -228981.328 7   -175235.87148  20486478.05048
  24210581.245 5   -239193.531 5   -174666.69146  24210577.31546
  21053427.245 7    478234.102 7    367492.98449  21053427.23349
  21041630.511 6  -1691211.855 6  -1289967.75049  21041629.49149
  21660970.323 6    186256.234 6    139211.13347  21660966.19447
 20  5 16  0 12 17.9990000  0  8G04G08G14G16G21G26G27G31             0.000460690
  22355002.417 2   -391253.449 2                
  23308924.847 4  -2028903.461 4  -1552379.48448  23308925.67548
  21978037.190 5   1127711.598 5    871928.78546  21978033.90546
  20486391.089 7   -229457.891 7   -175607.21948  20486387.31548
  24210393.675 5   -240180.523 5   -175435.77046  24210389.25746
  21053588.276 6    479079.422 6    368151.67649  21053587.89049
  21040992.167 6  -1694567.465 6  -1292582.51249  21040991.15949
  21661025.292 6    186543.508 6    139434.98048  21661021.10848
 20  5 16  0 12 18.9990000  0  8G04G08G14G16G21G26G27G31             0.000460258
  22354391.636 2   -394463.633 2                
  23308099.831 4  -2033238.938 4  -1555757.78148  23308100.38248
  21978483.901 6   1130057.293 6    873756.59847  21978480.51547
  20486300.190 7   -229934.453 7   -175978.57048  20486296.58948
  24210206.190 5   -241167.508 5   -176204.84846  24210201.72646
  21053748.558 7    479924.504 7    368810.17649  21053749.15949
  21040352.964 6  -1697922.961 6  -1295197.18849  21040352.30449
  21661080.136 6    186830.672 6    139658.75048  21661075.51948
 20  5 16  0 12 19.9990000  0  8G04G08G14G16G21G26G27G31             0.000459827
  22353781.511 2   -397673.680 2                
  23307275.175 4  -2037574.539 4  -1559136.16848  23307275.67148
  21978929.784 6   1132402.984 6    875584.40647  21978926.80047
  20486209.683 7   -230410.988 7   -176349.89548  20486205.71448
  24210017.909 5   -242154.453 5   -176973.87546  24210013.58946
  21053909.823 7    480769.367 7    369468.51649  21053909.65949
  21039714.769 6  -1701278.266 6  -1297811.70749  21039713.92949
  21661134.480 6    187117.715 6    139882.41448  21661130.05448
 20  5 16  0 12 20.9990000  0  8G04G08G14G16G21G26G27G31             0.000459394
  22353170.276 2   -400883.582 2                
  23306449.925 4  -2041910.211 4  -1562514.61748  23306450.48348
  21979376.417 6   1134748.789 6    877412.30547  21979373.79247
  20486119.019 7   -230887.445 7   -176721.16848  20486115.33548
  24209830.573 5   -243141.281 5   -177742.80946  24209826.30046
  21054070.550 7    481614.121 7    370126.76249  21054070.64749
  21039076.308 6  -1704633.367 6  -1300426.07049  21039075.72249
  21661189.144 6    187404.723 6    140106.05547  21661184.73047
 20  5 16  0 12 21.9990000  0  8G04G08G14G16G21G26G27G31             0.000458961
  22352558.339 2   -404093.496 2                
  23305624.808 4  -2046246.113 4  -1565893.24248  23305625.15548
  21979823.105 6   1137094.563 6    879240.17647  21979819.78047
  20486028.386 6   -231363.965 6   -177092.47748  20486024.61648
  24209642.597 5   -244128.152 5   -178511.82846  24209638.33946
  21054231.698 6    482458.590 6    370784.78549  21054231.61249
  21038437.792 6  -1707988.352 6  -1303040.34849  21038437.51549
  21661243.722 6    187691.570 6    140329.57448  21661239.45648
 20  5 16  0 12 22.9990000  0  8G04G08G14G16G21G26G27G31             0.000458529
  22351947.597 2   -407303.406 2                
  23304799.417 4  -2050582.320 4  -1569272.10548  23304800.33948
  21980269.081 6   1139440.156 6    881067.91847  21980266.31547
  20485937.503 6   -231840.609 6   -177463.88748  20485933.99948
  24209455.315 5   -245115.160 5   -179280.93846  24209450.49546
  21054391.933 6    483302.680 6    371442.52349  21054391.92949
  21037799.073 6  -1711343.328 6  -1305654.61749  21037798.75349
  21661297.808 6    187978.156 6    140552.88348  21661293.81948
 20  5 16  0 12 23.9990000  0  8G04G08G14G16G21G26G27G31             0.000458096
  22351336.284 2   -410513.137 2                
  23303973.964 4  -2054918.512 4  -1572650.95348  23303974.90148
  21980715.690 5   1141785.973 5    882895.82847  21980712.48047
  20485846.948 6   -232317.098 6   -177835.17648  20485843.28448
  24209266.776 5   -246101.949 5   -180049.89146  24209262.66746
  21054552.659 6    484146.742 6    372100.23049  21054552.33549
  21037161.042 6  -1714698.008 6  -1308268.64549  21037160.62849
  21661352.948 6    188264.793 6    140776.23448  21661348.85548
 20  5 16  0 12 24.9990000  0  8G04G08G14G16G21G26G27G31             0.000457663
  22350726.667 2   -413722.656 2                
  23303149.878 4  -2059254.832 4  -1576029.90648  23303149.95248
  21981162.222 5   1144131.863 5    884723.77747  21981159.01547
  20485756.261 6   -232793.508 6   -178206.40248  20485752.56948
  24209078.597 5   -247088.641 5   -180818.74246  24209074.87846
  21054713.050 6    484990.652 6    372757.82449  21054713.04249
  21036522.933 6  -1718052.469 6  -1310882.51649  21036522.26149
  21661407.245 6    188551.391 6    140999.55548  21661403.48348
 20  5 16  0 12 25.9990000  0  8G04G08G14G16G21G26G27G31             0.000457230
  22350114.237 2   -416932.063 2                
  23302324.550 4  -2063591.234 4  -1579408.92648  23302324.31248
  21981608.550 5   1146477.848 5    886551.81347  21981605.20247
  20485666.019 6   -233269.832 6   -178577.56348  20485662.03048
  24208891.323 4   -248075.227 4   -181587.51246  24208887.30846
  21054873.636 7    485834.414 7    373415.29749  21054873.76149
  21035884.144 6  -1721406.699 6  -1313496.19949  21035883.68749
  21661461.589 6    188837.949 6    141222.84848  21661457.89448
 20  5 16  0 12 26.9990000  0  8G04G08G14G16G21G26G27G31             0.000456797
  22349504.651 1   -420141.570 1                
  23301498.503 4  -2067928.012 4  -1582788.23048  23301499.68748
  21982054.573 5   1148823.613 5    888379.68847  21982051.59747
  20485575.315 7   -233746.355 7   -178948.87948  20485571.29648
  24208703.620 5   -249061.973 5   -182356.37946  24208699.07346
  21055034.355 7    486677.766 7    374072.45349  21055034.01549
  21035245.737 6  -1724760.977 6  -1316109.91849  21035245.43349
  21661515.933 6    189124.207 6    141445.90648  21661512.27248
 20  5 16  0 12 27.9990000  0  8G04G08G14G16G21G26G27G31             0.000456362
  22348893.894 1   -423351.125 1                
  23300673.175 4  -2072265.035 4  -1586167.72748  23300673.94848
  21982500.956 5   1151169.352 5    890207.53547  21982498.31947
  20485484.175 6   -234222.996 6   -179320.28148  20485480.42948
  24208515.651 4   -250048.824 4   -183125.33646  24208511.41746
  21055194.917 7    487520.793 7    374729.35549  21055194.48049
  21034607.542 6  -1728115.223 6  -1318723.61349  21034607.12449
  21661570.862 6    189410.211 6    141668.75848  21661566.78448
 20  5 16  0 12 28.9990000  0  8G04G08G14G16G21G26G27G31             0.000455929
  22348283.128 2   -426560.680 2                
  23299847.589 4  -2076602.316 4  -1589547.42248  23299848.63248
  21982946.659 5   1153514.941 5    892035.26647  21982944.67547
  20485393.683 6   -234699.723 6   -179691.75448  20485390.01948
  24208328.230 4   -251035.766 4   -183894.38746  24208323.37046
  21055354.847 6    488363.488 6    375385.99649  21055355.17549
  21033969.784 6  -1731469.418 6  -1321337.27349  21033969.06549
  21661624.995 6    189696.035 6    141891.47748  21661621.53048
 20  5 16  0 12 29.9990000  0  8G04G08G14G16G21G26G27G31             0.000455494
  22347672.980 2   -429770.047 2                
  23299023.612 4  -2080939.652 4  -1592927.16048  23299023.34748
  21983393.214 5   1155860.645 5    893863.08247  21983390.96447
  20485302.698 6   -235176.352 6   -180063.16048  20485299.59348
  24208140.237 4   -252022.531 4   -184663.29746  24208135.67146
  21055515.472 7    489206.090 7    376042.57049  21055515.24949
  21033331.308 6  -1734823.355 6  -1323950.73449  21033330.73049
  21661679.675 6    189981.832 6    142114.17248  21661675.80448
 20  5 16  0 12 30.9990000  0  8G04G08G14G16G21G26G27G31             0.000455059
  22347061.480 2   -432978.988 2                
  23298197.042 4  -2085276.887 4  -1596306.82848  23298198.33948
  21983840.370 5   1158206.668 5    895691.15647  21983837.80847
  20485212.073 6   -235652.676 6   -180434.32048  20485208.79248
  24207952.745 4   -253008.996 4   -185431.96546  24207948.59746
  21055675.784 7    490048.746 7    376699.18849  21055675.96049
  21032692.995 6  -1738176.836 6  -1326563.83649  21032692.92549
  21661734.019 6    190267.813 6    142337.01648  21661730.10148
 20  5 16  0 12 31.9990000  0  8G04G08G14G16G21G26G27G31             0.000454626
  22346451.081 2   -436188.098 2                
  23297372.370 4  -2089614.473 4  -1599686.77048  23297372.75748
  21984286.480 5   1160552.578 5    897519.12947  21984283.74147
  20485121.300 6   -236129.129 6   -180805.58648  20485117.76548
  24207765.042 4   -253995.613 4   -186200.75046  24207760.80846
  21055836.073 7    490891.039 7    377355.52349  21055835.82749
  21032054.870 6  -1741530.336 6  -1329176.94949  21032054.26549
  21661788.292 6    190553.520 6    142559.64148  21661784.90548
 20  5 16  0 12 32.9990000  0  8G04G08G14G16G21G26G27G31             0.000454189
  22345840.940 2   -439397.297 2                
  23296546.636 4  -2093952.383 4  -1603066.96148  23296547.56548
  21984732.605 5   1162898.277 5    899346.94147  21984730.10847
  20485030.464 6   -236605.832 6   -181177.04348  20485027.37048
  24207577.401 4   -254982.387 4   -186969.67646  24207572.84346
  21055996.511 7    491732.910 7    378011.52349  21055995.98749
  21031416.620 6  -1744883.910 6  -1331790.12949  21031416.16749
  21661842.511 6    190838.914 6    142782.02748  21661838.78448
 20  5 16  0 12 33.9990000  0  8G04G08G14G16G21G26G27G31             0.000453754
  22345230.425 2   -442606.496 2                
  23295720.730 4  -2098290.531 4  -1606447.32848  23295721.80848
  21985178.964 5   1165243.930 5    901174.72346  21985176.65946
  20484939.964 6   -237082.598 6   -181548.55148  20484936.51948
  24207389.605 4   -255969.203 4   -187738.61346  24207384.96446
  21056156.487 7    492574.500 7    378667.30149  21056156.31549
  21030778.722 6  -1748237.391 6  -1334403.22749  21030778.07749
  21661896.378 6    191124.156 6    143004.28948  21661893.36648
 20  5 16  0 12 34.9990000  0  8G04G08G14G16G21G26G27G31             0.000453320
  22344618.690 2   -445815.465 2                
  23294895.526 4  -2102628.762 4  -1609827.76648  23294896.41748
  21985625.597 5   1167589.641 5    903002.55547  21985623.13247
  20484849.308 6   -237559.258 6   -181919.97348  20484845.55848
  24207200.925 4   -256955.898 4   -188507.46946  24207197.69446
  21056316.925 7    493415.922 7    379322.95349  21056316.62049
  21030140.581 6  -1751590.645 6  -1337016.14849  21030139.69449
  21661950.995 6    191409.320 6    143226.49648  21661947.45648
 20  5 16  0 12 35.9990000  0  8G04G08G14G16G21G26G27G31             0.000452885
  22344008.456 1   -449024.395 1                
  23294069.964 4  -2106967.074 4  -1613208.27148  23294070.91348
  21986072.355 5   1169935.441 5    904830.45347  21986069.73047
  20484758.644 6   -238035.844 6   -182291.33248  20484754.96448
  24207013.526 4   -257942.480 4   -189276.24246  24207009.76546
  21056476.776 7    494257.223 7    379978.51249  21056476.45249
  21029501.901 6  -1754943.668 6  -1339628.89149  21029501.92949
  21662005.308 6    191694.473 6    143448.69148  21662002.17548
 20  5 16  0 12 36.9990000  0  8G04G08G14G16G21G26G27G31             0.000452448
  22343398.042 2   -452233.164 2                
  23293243.292 4  -2111305.570 4  -1616588.91848  23293244.96448
  21986518.761 5   1172281.281 5    906658.38346  21986515.79246
  20484668.097 6   -238512.398 6   -182662.68048  20484664.78848
  24206824.870 4   -258929.055 4   -190044.99446  24206821.81946
  21056636.980 7    495098.324 7    380633.91449  21056636.90949
  21028864.862 6  -1758296.500 6  -1342241.48449  21028863.55049
  21662059.714 6    191979.531 6    143670.81648  21662056.06548
 20  5 16  0 12 37.9990000  0  8G04G08G14G16G21G26G27G31             0.000452011
  22342788.292 1   -455441.820 1                
  23292419.081 4  -2115644.152 4  -1619969.63748  23292419.57348
  21986965.120 5   1174627.195 5    908486.35946  21986962.36646
  20484577.433 6   -238988.918 6   -183033.99648  20484573.49148
  24206637.378 4   -259915.539 4   -190813.69146  24206633.92146
  21056796.878 7    495939.250 7    381289.18849  21056796.99549
  21028226.581 6  -1761649.184 6  -1344853.96549  21028225.94849
  21662113.933 6    192264.500 6    143892.87148  21662110.46848
 20  5 16  0 12 38.9990000  0  8G04G08G14G16G21G26G27G31             0.000451576
  22342176.847 1   -458650.438 1                
  23291593.183 4  -2119983.066 4  -1623350.61348  23291593.85148
  21987411.065 5   1176972.961 5    910314.23446  21987409.13246
  20484486.292 6   -239465.594 6   -183405.43048  20484483.23048
  24206450.097 4   -260902.078 4   -191582.42246  24206446.54646
  21056956.706 7    496779.801 7    381944.16449  21056956.58149
  21027587.769 6  -1765001.832 6  -1347466.42249  21027587.40949
  21662167.909 6    192549.199 6    144114.70348  21662164.56248
 20  5 16  0 12 39.9990000  0  8G04G08G14G16G21G26G27G31             0.000451139
  22341565.956 1   -461858.973 1                
  23290767.386 4  -2124322.012 4  -1626731.60948  23290768.14048
  21987857.831 5   1179318.816 5    912142.16446  21987855.45246
  20484396.136 6   -239942.148 6   -183776.77748  20484392.45248
  24206262.019 4   -261888.617 4   -192351.14146  24206259.01146
  21057116.620 7    497620.215 7    382599.03149  21057116.30449
  21026950.245 6  -1768354.246 6  -1350078.69549  21026950.09749
  21662221.855 6    192833.906 6    144336.54748  21662218.83548
 20  5 16  0 12 40.9990000  0  8G04G08G14G16G21G26G27G31             0.000450703
  22340954.956 1   -465067.535 1                
  23289941.401 4  -2128661.172 4  -1630112.77748  23289942.65948
  21988304.651 5   1181664.652 5    913970.08646  21988302.03846
  20484305.542 6   -240418.773 6   -184148.17248  20484302.14448
  24206074.386 4   -262875.109 4   -193119.85946  24206070.73346
  21057276.714 7    498460.402 7    383253.73049  21057275.96449
  21026312.409 6  -1771706.563 6  -1352690.89149  21026312.12049
  21662276.558 6    193118.438 6    144558.25848  21662272.71048
 20  5 16  0 12 41.9990000  0  8G04G08G14G16G21G26G27G31             0.000450266
  22340344.761 1   -468275.973 1                
  23289115.714 4  -2133000.520 4  -1633494.08648  23289116.18348
  21988750.269 5   1184010.500 5    915798.03146  21988748.15946
  20484214.511 6   -240895.352 6   -184519.53548  20484211.54248
  24205886.347 4   -263861.520 4   -193888.48446  24205883.11246
  21057436.597 7    499300.363 7    383908.23449  21057435.83549
  21025674.097 6  -1775058.691 6  -1355302.94149  21025674.03849
  21662330.526 6    193402.883 6    144779.91048  21662326.56248
 20  5 16  0 12 42.9990000  0  8G04G08G14G16G21G26G27G31             0.000449827
  22339733.628 1   -471484.148 1                
  23288290.167 4  -2137339.965 4  -1636875.47348  23288290.39048
  21989197.198 5   1186356.406 5    917626.00846  21989194.33146
  20484124.378 6   -241371.883 6   -184890.86748  20484120.83948
  24205699.980 4   -264847.957 4   -194657.14846  24205696.03046
  21057595.839 7    500140.156 7    384562.61749  21057596.22649
  21025036.722 6  -1778410.629 6  -1357914.84049  21025036.24149
  21662384.573 6    193687.266 6    145001.50448  21662381.10148
 20  5 16  0 12 43.9990000  0  8G04G08G14G16G21G26G27G31             0.000449390
  22339123.378 1   -474692.582 1                
  23287464.065 4  -2141679.852 4  -1640257.20348  23287464.52648
  21989643.542 5   1188702.059 5    919453.79346  21989640.78446
  20484033.269 6   -241848.707 6   -185262.41448  20484029.93748
  24205511.948 4   -265834.551 4   -195425.91446  24205507.99146
  21057755.823 7    500979.477 7    385216.63349  21057755.69049
  21024398.706 6  -1781762.691 6  -1360526.83649  21024398.30449
  21662439.050 6    193971.242 6    145222.78548  21662435.39048
 20  5 16  0 12 44.9990000  0  8G04G08G14G16G21G26G27G31             0.000448954
  22338511.980 1   -477900.828 1                
  23286638.253 4  -2146019.762 4  -1643638.95748  23286638.96448
  21990090.058 5   1191047.832 5    921281.67247  21990087.28447
  20483942.183 6   -242325.422 6   -185633.87948  20483938.78048
  24205323.378 4   -266821.035 4   -196194.59046  24205320.57746
  21057915.573 7    501818.645 7    385870.52749  21057915.38649
  21023761.042 6  -1785114.516 6  -1363138.64549  21023760.40149
  21662492.659 6    194255.227 6    145444.07448  21662489.38248
 20  5 16  0 12 45.9990000  0  8G04G08G14G16G21G26G27G31             0.000448515
  22337902.175 1   -481108.914 1                
  23285812.050 3  -2150359.828 3  -1647020.82848  23285812.80448
  21990536.190 5   1193393.711 5    923109.62147  21990533.85147
  20483851.394 6   -242802.027 6   -186005.25448  20483848.12448
  24205135.401 4   -267807.426 4   -196963.21146  24205132.48746
  21058075.081 7    502657.719 7    386524.34849  21058075.12049
  21023122.792 6  -1788466.090 6  -1365750.26649  21023122.52249
  21662547.339 6    194539.199 6    145665.35548  21662543.51948
 20  5 16  0 12 46.9990000  0  8G04G08G14G16G21G26G27G31             0.000448076
  22337291.433 1   -484316.863 1                
  23284985.956 3  -2154699.809 3  -1650402.63348  23284987.37848
  21990982.901 5   1195739.715 5    924937.66847  21990980.02647
  20483760.940 6   -243278.508 6   -186376.54748  20483757.57348
  24204948.581 4   -268793.602 4   -197731.66446  24204945.13246
  21058234.855 7    503496.695 7    387178.10249  21058234.71849
  21022485.581 6  -1791817.348 6  -1368361.63749  21022484.99949
  21662600.862 6    194823.195 6    145886.64548  21662597.31248
 20  5 16  0 12 47.9990000  0  8G04G08G14G16G21G26G27G31             0.000447639
  22336681.237 1   -487524.730 1                
  23284161.050 3  -2159040.125 3  -1653784.69548  23284161.62448
  21991429.370 5   1198085.617 5    926765.65646  21991426.31546
  20483670.425 6   -243755.102 6   -186747.91448  20483667.24148
  24204760.784 4   -269779.859 4   -198500.16846  24204757.21046
  21058394.261 7    504335.340 7    387831.59049  21058394.01149
  21021847.651 6  -1795168.602 6  -1370973.00449  21021846.98049
  21662654.894 6    195106.957 6    146107.74648  21662651.34748
 20  5 16  0 12 48.9990000  0  8G04G08G14G16G21G26G27G31             0.000447201
  22336070.761 1   -490732.449 1                
  23283334.792 3  -2163380.453 3  -1657166.77348  23283334.99548
  21991875.308 5   1200431.672 5    928593.75046  21991872.99146
  20483579.933 6   -244231.590 6   -187119.21148  20483576.42548
  24204572.542 4   -270766.008 4   -199268.59846  24204569.81246
  21058553.776 7    505173.871 7    388484.98849  21058553.71849
  21021209.901 6  -1798519.594 6  -1373584.16849  21021209.52649
  21662709.112 6    195390.723 6    146328.85948  21662704.94448
 20  5 16  0 12 49.9990000  0  8G04G08G14G16G21G26G27G31             0.000446762
  22335459.855 1   -493940.090 1                
  23282508.480 3  -2167720.988 3  -1660549.00848  23282509.40548
  21992322.214 5   1202777.680 5    930421.81346  21992319.18346
  20483488.690 6   -244708.066 6   -187490.48848  20483485.62848
  24204385.386 4   -271752.064 4   -200036.95446  24204382.00746
  21058713.284 7    506012.172 7    389138.21149  21058713.09749
  21020572.261 6  -1801870.422 6  -1376195.19549  21020571.92149
  21662763.276 6    195674.344 6    146549.86748  21662759.40548
 20  5 16  0 12 50.9990000  0  8G04G08G14G16G21G26G27G31             0.000446323
  22334849.581 1   -497147.652 1                
  23281683.519 3  -2172061.637 3  -1663931.33248  23281683.45248
  21992768.401 5   1205123.738 5    932249.90246  21992765.81246
  20483398.581 6   -245184.555 6   -187861.77348  20483394.62448
  24204197.605 4   -272738.195 4   -200805.37946  24204194.24546
  21058872.565 6    506850.266 6    389791.27349  21058872.73349
  21019934.831 6  -1805221.129 6  -1378806.13349  21019934.65949
  21662817.081 6    195957.902 6    146770.82048  21662813.28048
 20  5 16  0 12 51.9990000  0  8G04G08G14G16G21G26G27G31             0.000445883
  22334239.730 1   -500355.082 1                
  23280856.964 4  -2176402.531 4  -1667313.85248  23280857.23348
  21993215.073 5   1207469.773 5    934077.98446  21993212.67946
  20483307.597 6   -245661.051 6   -188233.07448  20483303.94848
  24204010.323 4   -273724.250 4   -201573.73846  24204006.34346
  21059032.519 7    507688.094 7    390444.12549  21059032.25749
  21019297.167 6  -1808571.680 6  -1381416.95349  21019296.54249
  21662871.206 6    196241.273 6    146991.63348  21662867.10548
 20  5 16  0 12 52.9990000  0  8G04G08G14G16G21G26G27G31             0.000445444
  22333629.847 1   -503562.480 1                
  23280030.464 3  -2180743.496 3  -1670696.42248  23280031.45648
  21993661.323 5   1209815.836 5    935906.09046  21993658.47246
  20483217.331 6   -246137.555 6   -188604.37548  20483213.38648
  24203822.480 4   -274710.258 4   -202342.06646  24203818.68746
  21059191.956 7    508525.754 7    391096.84449  21059191.60149
  21018659.714 6  -1811922.082 6  -1384027.66049  21018658.89049
  21662924.683 6    196524.586 6    147212.39148  21662920.71048
 20  5 16  0 12 53.9990000  0  8G04G08G14G16G21G26G27G31             0.000445005
  22333019.089 1   -506769.539 1                
  23279204.894 3  -2185084.414 3  -1674078.95748  23279205.23748
  21994107.198 5   1212162.164 5    937734.40246  21994105.03046
  20483126.644 6   -246613.758 6   -188975.44548  20483122.84748
  24203634.644 4   -275696.008 4   -203110.17246  24203631.39046
  21059351.237 6    509363.430 6    391749.58249  21059350.97649
  21018022.253 6  -1815272.043 6  -1386638.01249  21018021.56549
  21662978.987 6    196808.031 6    147433.26248  21662974.71048
 20  5 16  0 12 54.9990000  0  8G04G08G14G16G21G26G27G31             0.000444565
  22332408.003 1   -509976.230 1                
  23278379.065 4  -2189425.246 4  -1677461.42248  23278379.23048
  21994554.347 5   1214508.758 5    939562.89846  21994551.21846
  20483035.620 7   -247089.758 7   -189346.34848  20483032.32348
  24203446.792 3   -276681.488 3   -203878.07446  24203444.11246
  21059510.675 6    510201.125 6    392402.33249  21059510.62449
  21017384.823 6  -1818621.648 6  -1389248.09449  21017384.44049
  21663032.917 6    197091.602 6    147654.22348  21663028.69448
 20  5 16  0 12 55.9990000  0  8G04G08G14G16G21G26G27G31             0.000444126
  22331797.894 1   -513183.004 1                
  23277552.933 4  -2193766.383 4  -1680844.12548  23277553.25748
  21995001.042 5   1216855.230 5    941391.32447  21994998.14047
  20482945.151 6   -247565.844 6   -189717.32048  20482941.75748
  24203259.355 4   -277667.047 4   -204646.03946  24203256.28846
  21059669.542 7    511038.520 7    393054.84049  21059669.83149
  21016747.222 6  -1821971.184 6  -1391858.12149  21016746.88249
  21663086.972 6    197374.980 6    147875.03548  21663082.65148
 20  5 16  0 12 56.9990000  0  8G04G08G14G16G21G26G27G31             0.000443686
  22331188.644 1   -516389.738 1                
  23276726.745 4  -2198107.781 4  -1684227.03148  23276726.97248
  21995447.605 5   1219201.623 5    943219.67846  21995444.61246
  20482854.534 7   -248042.043 7   -190088.38348  20482851.42948
  24203071.112 3   -278652.652 3   -205414.03546  24203068.51146
  21059829.401 7    511875.555 7    393707.07849  21059828.99549
  21016110.003 6  -1825320.699 6  -1394468.13749  21016109.35549
  21663140.620 6    197658.090 6    148095.64148  21663136.15548
 20  5 16  0 12 57.9990000  0  8G04G08G14G16G21G26G27G31             0.000443247
  22330578.331 1   -519596.402 1                
  23275900.355 4  -2202449.250 4  -1687609.99248  23275901.22248
  21995893.573 5   1221548.055 5    945048.07846  21995890.84746
  20482763.808 6   -248518.156 6   -190459.38748  20482760.72248
  24202883.878 3   -279638.211 3   -206182.02046  24202881.07746
  21059988.659 7    512712.477 7    394359.22749  21059988.22249
  21015472.737 6  -1828669.961 6  -1397077.94949  21015472.21049
  21663193.753 6    197941.195 6    148316.24248  21663189.89448
 20  5 16  0 12 58.9990000  0  8G04G08G14G16G21G26G27G31             0.000442804
  22329967.589 1   -522802.941 1                
  23275074.808 4  -2206790.906 4  -1690993.10548  23275074.51548
  21996340.222 5   1223894.535 5    946876.50047  21996337.45647
  20482673.214 7   -248994.289 7   -190830.39548  20482669.90548
  24202697.339 3   -280623.762 3   -206950.00846  24202693.26946
  21060147.401 6    513549.145 6    395011.18049  21060147.51149
  21014835.284 6  -1832019.117 6  -1399687.68049  21014834.84749
  21663248.581 6    198224.152 6    148536.72748  21663243.99548
 20  5 16  0 12 59.9990000  0  8G04G08G14G16G21G26G27G31             0.000442366
  22329357.448 1   -526009.449 1                
  23274248.519 4  -2211132.813 4  -1694376.41048  23274248.42948
  21996786.730 5   1226240.949 5    948704.87946  21996784.19446
  20482582.542 7   -249470.488 7   -191201.46548  20482579.21848
  24202509.605 4   -281609.250 4   -207717.91846  24202505.77646
  21060306.722 6    514385.547 6    395662.91849  21060306.41349
  21014197.581 6  -1835368.125 6  -1402297.30149  21014197.58549
  21663302.339 6    198506.977 6    148757.11348  21663297.78048
 20  5 16  0 13  0.9990000  0  8G04G08G14G16G21G26G27G31             0.000441923
  22328748.472 1   -529215.832 1                
  23273421.753 4  -2215474.809 4  -1697759.77348  23273422.29648
  21997233.620 5   1228587.410 5    950533.27346  21997230.58546
  20482491.612 6   -249946.594 6   -191572.46148  20482488.51148
  24202323.480 4   -282594.723 4   -208485.80946  24202318.46846
  21060465.917 6    515221.781 6    396314.53149  21060465.91749
  21013560.347 6  -1838716.957 6  -1404906.78149  21013560.34349
  21663356.292 6    198789.738 6    148977.44148  21663351.35848
 20  5 16  0 13  1.9990000  0  8G04G08G14G16G21G26G27G31             0.000441483
  22328137.847 1   -532422.012 1                
  23272595.433 4  -2219816.781 4  -1701143.13348  23272595.78048
  21997679.730 5   1230934.055 5    952361.82846  21997677.12846
  20482401.112 6   -250422.578 6   -191943.35248  20482398.28848
  24202135.581 4   -283580.016 4   -209253.55946  24202131.04646
  21060625.198 6    516057.945 6    396966.08249  21060625.08549
  21012923.503 6  -1842065.488 6  -1407516.02049  21012923.28849
  21663409.737 6    199072.504 6    149197.77748  21663405.29248
 20  5 16  0 13  2.9990000  0  8G04G08G14G16G21G26G27G31             0.000441042
  22327528.081 1   -535628.098 1                
  23271769.394 4  -2224159.027 4  -1704526.70348  23271769.39048
  21998126.558 5   1233280.645 5    954190.34446  21998123.24946
  20482310.362 6   -250898.648 6   -192314.32048  20482307.45248
  24201947.550 4   -284565.395 4   -210021.39546  24201943.23046
  21060784.042 6    516893.801 6    397617.40249  21060784.07349
  21012286.526 6  -1845413.953 6  -1410125.21549  21012285.81549
  21663463.901 6    199355.113 6    149417.98848  21663459.52248
 20  5 16  0 13  3.9990000  0  8G04G08G14G16G21G26G27G31             0.000440601
  22326918.519 1   -538833.996 1                
  23270942.222 4  -2228501.379 4  -1707910.35948  23270943.34348
  21998572.769 5   1235627.242 5    956018.86347  21998570.19047
  20482219.792 6   -251374.652 6   -192685.22748  20482216.77648
  24201759.722 3   -285550.617 3   -210789.10946  24201756.10546
  21060943.144 6    517729.504 6    398268.59849  21060943.10149
  21011649.050 6  -1848762.207 6  -1412734.24649  21011648.93749
  21663517.644 6    199637.641 6    149638.14148  21663513.10548
 20  5 16  0 13  4.9990000  0  8G04G08G14G16G21G26G27G31             0.000440159
  22326307.448 1   -542040.031 1                
  23270116.581 4  -2232843.875 4  -1711294.12148  23270116.71848
  21999019.480 5   1237973.891 5    957847.42246  21999016.68346
  20482129.558 6   -251850.652 6   -193056.13348  20482126.49148
  24201572.511 4   -286535.836 4   -211556.79346  24201568.48746
  21061102.183 7    518564.957 7    398919.59849  21061102.15549
  21011011.894 6  -1852110.316 6  -1415343.16449  21011011.49949
  21663570.886 6    199920.047 6    149858.19148  21663566.81548
 20  5 16  0 13  5.9990000  0  8G04G08G14G16G21G26G27G31             0.000439716
  22325697.956 1   -545246.008 1                
  23269289.620 4  -2237186.730 4  -1714678.15248  23269290.35148
  21999465.800 5   1240320.367 5    959675.84446  21999463.08146
  20482038.581 6   -252326.832 6   -193427.18848  20482035.64448
  24201384.589 3   -287521.078 3   -212324.52346  24201381.33146
  21061260.878 7    519400.047 7    399570.32449  21061260.88649
  21010375.183 6  -1855458.430 6  -1417952.07849  21010374.68349
  21663625.058 6    200202.199 6    150078.05948  21663620.35148
 20  5 16  0 13  6.9990000  0  8G04G08G14G16G21G26G27G31             0.000439274
  22325088.605 1   -548452.000 1                
  23268464.058 4  -2241529.809 4  -1718062.36748  23268464.33148
  21999912.659 5   1242666.816 5    961504.25446  21999909.66746
  20481948.026 6   -252803.086 6   -193798.29348  20481944.92148
  24201196.183 3   -288506.633 3   -213092.49246  24201193.62446
  21061419.972 6    520234.832 6    400220.80549  21061419.71849
  21009737.948 6  -1858806.461 6  -1420560.93049  21009737.28449
  21663678.331 6    200484.137 6    150297.74648  21663674.13648
 20  5 16  0 13  7.9990000  0  8G04G08G14G16G21G26G27G31             0.000438831
  22324478.144 1   -551657.852 1                
  23267637.589 4  -2245872.985 4  -1721446.66448  23267637.73348
  22000358.948 5   1245013.238 5    963332.62546  22000356.01146
  20481857.808 6   -253279.336 6   -194169.40248  20481854.52648
  24201008.386 4   -289492.047 4   -213860.32846  24201006.14746
  21061578.651 6    521069.406 6    400871.11349  21061578.15149
  21009100.972 6  -1862154.359 6  -1423169.68449  21009100.51949
  21663732.237 6    200765.988 6    150517.37148  21663728.15148
 20  5 16  0 13  8.9990000  0  8G04G08G14G16G21G26G27G31             0.000438389
  22323866.995 1   -554863.535 1                
  23266811.042 4  -2250216.234 4  -1724831.01248  23266810.90548
  22000805.440 5   1247359.820 5    965161.12146  22000803.04646
  20481767.331 6   -253755.406 6   -194540.35948  20481763.80848
  24200820.901 3   -290477.238 3   -214628.00846  24200818.44046
  21061737.339 6    521903.914 6    401521.37549  21061736.85549
  21008463.284 6  -1865501.922 6  -1425778.18049  21008463.65549
  21663785.870 6    201047.887 6    150737.03548  21663781.50748
 20  5 16  0 13  9.9990000  0  8G04G08G14G16G21G26G27G31             0.000437946
  22323257.284 1   -558069.102 1                
  23265984.980 5  -2254559.609 5  -1728215.46148  23265984.43748
  22001251.565 5   1249706.422 5    966989.65246  22001249.12046
  20481676.886 6   -254231.500 6   -194911.34048  20481673.49148
  24200634.659 4   -291462.402 4   -215395.66446  24200630.74546
  21061896.355 6    522738.168 6    402171.43849  21061895.85149
  21007826.253 6  -1868849.344 6  -1428386.55549  21007826.33949
  21663839.190 6    201329.645 6    150956.58248  21663834.94448
 20  5 16  0 13 10.9990000  0  8G04G08G14G16G21G26G27G31             0.000437504
  22322647.651 1   -561274.563 1                
  23265158.261 5  -2258903.102 5  -1731600.00848  23265158.30848
  22001698.636 5   1252053.086 5    968818.22346  22001695.96446
  20481586.315 6   -254707.563 6   -195282.30948  20481582.65948
  24200447.394 4   -292447.520 4   -216163.29346  24200443.88246
  21062055.058 6    523572.289 6    402821.41049  21062054.92549
  21007189.425 6  -1872196.594 6  -1430994.80549  21007189.40149
  21663892.909 6    201611.332 6    151176.07848  21663888.68748
 20  5 16  0 13 11.9990000  0  8G04G08G14G16G21G26G27G31             0.000437061
  22322038.690 1   -564479.984 1                
  23264330.987 4  -2263246.781 4  -1734984.69148  23264331.64448
  22002144.386 5   1254399.656 5    970646.71546  22002142.19046
  20481495.511 6   -255183.664 6   -195653.29748  20481492.23348
  24200258.987 3   -293432.645 3   -216930.90246  24200255.92546
  21062213.784 6    524406.098 6    403471.13749  21062213.65949
  21006552.659 6  -1875543.715 6  -1433602.94949  21006552.53449
  21663946.612 6    201892.859 6    151395.45348  21663942.02648
 20  5 16  0 13 12.9990000  0  8G04G08G14G16G21G26G27G31             0.000436617
  22321428.128 1   -567685.277 1                
  23263503.597 4  -2267590.609 4  -1738369.49648  23263504.72648
  22002590.644 5   1256746.355 5    972475.30146  22002588.67546
  20481404.878 6   -255659.664 6   -196024.20348  20481401.30048
  24200071.651 3   -294417.656 3   -217698.44546  24200068.76946
  21062372.456 6    525239.809 6    404120.78149  21062372.04249
  21005915.167 6  -1878890.617 6  -1436210.92249  21005915.46849
  21664000.042 6    202174.387 6    151614.82848  21663995.65948
 20  5 16  0 13 13.9990000  0  8G04G08G14G16G21G26G27G31             0.000436174
  22320816.503 1   -570890.461 1                
  23262677.667 4  -2271934.652 4  -1741754.46948  23262678.19848
  22003037.870 5   1259092.973 5    974303.82846  22003035.14746
  20481314.636 6   -256135.770 6   -196395.19548  20481310.67548
  24199884.175 4   -295402.730 4   -218466.01246  24199881.09746
  21062531.105 6    526073.195 6    404770.17249  21062530.64449
  21005278.472 6  -1882237.434 6  -1438818.82849  21005278.73349
  21664053.730 6    202455.703 6    151834.03148  21664049.21448
 20  5 16  0 13 14.9990000  0  8G04G08G14G16G21G26G27G31             0.000435730
  22320206.792 1   -574095.750 1                
  23261850.956 4  -2276278.930 4  -1745139.62148  23261851.45648
  22003484.355 5   1261439.500 5    976132.28946  22003481.99546
  20481223.605 6   -256611.953 6   -196766.25448  20481220.00748
  24199696.644 3   -296387.813 3   -219233.62146  24199693.76546
  21062689.433 6    526906.273 6    405419.32449  21062689.37849
  21004641.690 6  -1885584.199 6  -1441426.69549  21004641.53449
  21664107.440 6    202736.820 6    152053.07848  21664102.93748
 20  5 16  0 13 15.9990000  0  8G04G08G14G16G21G26G27G31             0.000435286
  22319597.464 1   -577300.883 1                
  23261024.097 4  -2280623.363 4  -1748524.89848  23261024.55048
  22003930.753 5   1263786.082 5    977960.79346  22003928.24546
  20481132.581 6   -257088.102 6   -197137.27748  20481129.63648
  24199509.550 3   -297372.926 3   -220001.23446  24199506.35846
  21062848.081 6    527739.141 6    406068.30949  21062847.69449
  21004005.105 6  -1888930.785 6  -1444034.43049  21004005.43749
  21664160.378 6    203017.832 6    152272.04748  21664156.08548
 20  5 16  0 13 16.9990000  0  8G04G08G14G16G21G26G27G31             0.000434841
  22318988.144 1   -580505.703 1                
  23260197.722 4  -2284967.719 4  -1751910.10248  23260197.96848
  22004377.940 5   1266132.852 5    979789.44146  22004374.70646
  20481042.308 6   -257564.082 6   -197508.16848  20481039.37848
  24199321.706 4   -298357.785 4   -220768.68046  24199319.01946
  21063006.167 6    528572.008 6    406717.28949  21063006.10549
  21003367.855 6  -1892277.023 6  -1446641.89149  21003367.94449
  21664214.065 6    203298.949 6    152491.08648  21664210.02648
 20  5 16  0 13 17.9990000  0  8G04G08G14G16G21G26G27G31             0.000434397
  22318378.792 1   -583710.387 1                
  23259370.409 4  -2289312.172 4  -1755295.37948  23259371.12848
  22004824.651 5   1268479.727 5    981618.17246  22004821.62046
  20480951.612 6   -258039.922 6   -197878.95748  20480948.61648
  24199135.175 4   -299342.461 4   -221535.96146  24199131.49946
  21063164.847 6    529404.773 6    407366.20349  21063164.66749
  21002731.886 6  -1895622.977 6  -1449249.13349  21002731.52249
  21664267.597 6    203580.082 6    152710.14848  21664263.27248
 20  5 16  0 13 18.9990000  0  8G04G08G14G16G21G26G27G31             0.000433952
  22317768.925 1   -586915.102 1                
  23258544.495 4  -2293656.875 4  -1758680.85548  23258544.33948
  22005271.206 5   1270826.586 5    983446.90246  22005268.29246
  20480860.925 6   -258515.867 6   -198249.81648  20480857.73748
  24198947.839 4   -300327.238 4   -222303.31346  24198944.04246
  21063323.112 6    530237.219 6    408014.85949  21063322.94849
  21002095.183 6  -1898968.871 6  -1451856.32449  21002095.02249
  21664321.464 6    203860.996 6    152929.03548  21664317.13248
 20  5 16  0 13 19.9990000  0  8G04G08G14G16G21G26G27G31             0.000433508
  22317159.058 1   -590119.770 1                
  23257717.417 5  -2298001.859 5  -1762066.54748  23257717.53448
  22005717.456 5   1273173.270 5    985275.47746  22005714.70646
  20480770.597 6   -258991.941 6   -198620.78548  20480766.99948
  24198760.315 4   -301312.078 4   -223070.69946  24198756.69846
  21063481.706 6    531069.301 6    408663.23449  21063481.41749
  21001458.464 6  -1902314.758 6  -1454463.50849  21001457.72649
  21664374.823 6    204141.664 6    153147.73848  21664370.67548
 20  5 16  0 13 20.9990000  0  8G04G08G14G16G21G26G27G31             0.000433062
  22316548.956 1   -593324.371 1                
  23256890.058 5  -2302346.965 5  -1765452.34848  23256890.69048
  22006164.214 5   1275519.965 5    987104.07446  22006161.24546
  20480679.933 6   -259467.961 6   -198991.70348  20480677.05048
  24198573.339 4   -302296.898 4   -223838.09046  24198569.26946
  21063639.823 6    531901.191 6    409311.46549  21063639.44849
  21000822.058 6  -1905660.465 6  -1457070.55149  21000821.38249
  21664428.042 6    204422.270 6    153366.39148  21664423.97648
 20  5 16  0 13 21.9990000  0  8G04G08G14G16G21G26G27G31             0.000432617
  22315938.745 1   -596528.668 1                
  23256063.909 4  -2306692.047 4  -1768838.13348  23256063.92148
  22006610.808 5   1277866.930 5    988932.88346  22006607.48346
  20480589.315 6   -259943.785 6   -199362.47748  20480586.23748
  24198385.464 4   -303281.449 4   -224605.26646  24198382.02646
  21063797.956 6    532733.078 6    409959.68449  21063797.46849
  21000184.730 6  -1909005.777 6  -1459677.28549  21000184.97249
  21664480.901 6    204702.961 6    153585.11748  21664477.25748
 20  5 16  0 13 22.9990000  0  8G04G08G14G16G21G26G27G31             0.000432173
  22315329.026 1   -599732.824 1                
  23255236.175 4  -2311037.184 4  -1772223.94948  23255237.02248
  22007057.667 5   1280213.961 5    990761.73847  22007054.63247
  20480498.683 6   -260419.574 6   -199733.21948  20480495.74948
  24198198.175 4   -304265.922 4   -225372.39146  24198194.39446
  21063956.495 6    533564.813 6    410607.78949  21063956.17149
  20999548.378 6  -1912350.883 6  -1462283.85949  20999548.55049
  21664534.409 6    204983.621 6    153803.80948  21664530.35848
 20  5 16  0 13 23.9990000  0  8G04G08G14G16G21G26G27G31             0.000431726
  22314719.206 1   -602936.734 1                
  23254409.417 5  -2315382.324 5  -1775609.77348  23254410.24948
  22007504.222 5   1282561.145 5    992590.70746  22007501.10846
  20480408.269 6   -260895.184 6   -200103.83648  20480404.81548
  24198010.956 4   -305250.190 4   -226139.37246  24198007.44046
  21064115.011 6    534396.477 6    411255.83249  21064114.18349
  20998911.815 6  -1915695.688 6  -1464890.19949  20998911.48749
  21664587.956 6    205264.305 6    154022.52348  21664583.87848
 20  5 16  0 13 24.9990000  0  8G04G08G14G16G21G26G27G31             0.000431280
  22314108.644 1   -606140.422 1                
  23253583.433 4  -2319727.563 4  -1778995.69148  23253583.20648
  22007950.386 5   1284908.461 5    994419.78546  22007947.99946
  20480317.714 6   -261370.652 6   -200474.32448  20480314.60848
  24197823.870 4   -306234.359 4   -226906.23046  24197820.48746
  21064273.144 6    535228.047 6    411903.81349  21064272.67949
  20998275.511 6  -1919040.191 6  -1467496.30549  20998275.37449
  21664641.339 6    205544.996 6    154241.25448  21664637.37848
 20  5 16  0 13 25.9990000  0  8G04G08G14G16G21G26G27G31             0.000430836
  22313499.27611                                
  23252755.698 4  -2324072.844 4  -1782381.62948  23252756.16348
  22008396.980 5   1287255.848 5    996248.90646  22008394.85146
  20480227.245 6   -261846.051 6   -200844.77048  20480224.38648
  24197636.026 4   -307218.402 4   -227673.03146  24197633.10146
  21064431.058 6    536059.473 6    412551.67249  21064430.55049
  20997638.855 6  -1922384.512 6  -1470102.26649  20997638.66749
  21664694.690 6    205825.652 6    154459.94148  21664691.00348
 20  5 16  0 13 26.9990000  0  8G04G08G14G16G21G26G27G31             0.000430389
  22312889.995 1                                
  23251929.214 5  -2328418.316 5  -1785767.70748  23251929.58148
  22008844.065 5   1289603.188 5    998077.99246  22008841.51946
  20480136.636 6   -262321.512 6   -201215.25048  20480133.53848
  24197449.315 4   -308202.441 4   -228439.84446  24197445.66346
  21064589.636 6    536890.621 6    413199.32049  21064588.85149
  20997002.487 6  -1925728.684 6  -1472708.11349  20997002.60549
  21664747.980 7    206106.164 7    154678.52748  21664744.10848
 20  5 16  0 13 27.9990000  0  8G04G08G14G16G21G26G27G31             0.000429943
  22312279.651 1                                
  23251102.003 5  -2332764.004 5  -1789153.95748  23251102.44448
  22009291.065 5   1291950.531 5    999907.09846  22009287.91346
  20480046.581 6   -262796.996 6   -201585.76248  20480043.09348
  24197262.901 5   -309186.461 5   -229206.60246  24197258.31546
  21064747.800 7    537721.531 7    413846.78149  21064747.32349
  20996366.370 6  -1929072.723 6  -1475313.85949  20996366.31549
  21664801.769 7    206386.543 7    154896.99648  21664797.35148
