     2.10           OBSERVATION DATA    GPS(GPS)            RINEX VERSION / TYPE
cnvtToRINEX 3.07.0  convertToRINEX OPR  19-May-20 12:30 UTC PGM / RUN BY / DATE 
----------------------------------------------------------- COMMENT             
GG06                                                        MARKER NAME         
GG06                                                        MARKER NUMBER       
GNSS Observer       Trimble                                 OBSERVER / AGENCY   
0440101800          5700                2.32                REC # / TYPE / VERS 
                    TRM39105.00                             ANT # / TYPE        
 -3050162.5395  4928362.2112  2653597.7337                  APPROX POSITION XYZ 
        0.1030        0.0000        0.0000                  ANTENNA: DELTA H/E/N
     1     1     0                                          WAVELENGTH FACT L1/2
     4    C1    L1    L2    P2                              # / TYPES OF OBSERV 
  2020     5    16     5    19   28.0000000     GPS         TIME OF FIRST OBS   
  2020     5    16     6    21   13.0000000     GPS         TIME OF LAST OBS    
     0                                                      RCV CLOCK OFFS APPL 
    18                                                      LEAP SECONDS        
    10                                                      # OF SATELLITES     
   G01  3685  3685  3685  3685                              PRN / # OF OBS      
   G03  3706  3706  3706  3706                              PRN / # OF OBS      
   G07  3706  3706  3706  3706                              PRN / # OF OBS      
   G08  3685  3685  3685  3685                              PRN / # OF OBS      
   G11  3685  3685  3685  3685                              PRN / # OF OBS      
   G17  3684  3684  3684  3684                              PRN / # OF OBS      
   G19   565   562   565   565                              PRN / # OF OBS      
   G22  3706  3706  3706  3706                              PRN / # OF OBS      
   G28  3685  3685  3685  3685                              PRN / # OF OBS      
   G30  3685  3685  3685  3685                              PRN / # OF OBS      
CARRIER PHASE MEASUREMENTS: PHASE SHIFTS REMOVED            COMMENT             
                                                            END OF HEADER       
 20  5 16  5 19 28.0000000  0  3G03G07G22                            0.000381071
  23320471.18015   -233247.42215   -132061.23059  23320474.85559
  21092493.43016    -60789.28116    -41007.65259  21092492.27759
  22665966.38316   -174184.80516   -119657.42658  22665963.75858
 20  5 16  5 19 29.0000000  0  3G03G07G22                            0.000379318
  23319432.617 5   -238705.887 5   -136314.57449  23319436.14549
  21092214.023 6    -62258.730 6    -42152.67649  21092212.64149
  22665175.672 6   -178338.105 6   -122893.76648  22665173.26248
 20  5 16  5 19 30.0000000  0  3G03G07G22                            0.000377563
  23318394.219 5   -244165.637 5   -140568.92649  23318397.09849
  21091934.016 6    -63729.012 6    -43298.35249  21091932.75449
  22664385.664 6   -182492.395 6   -126130.87148  22664383.12548
 20  5 16  5 19 31.0000000  0  3G03G07G22                            0.000375807
  23317354.266 5   -249626.727 5   -144824.32049  23317358.00049
  21091653.883 6    -65200.070 6    -44444.62949  21091652.68449
  22663594.734 6   -186647.672 6   -129368.75048  22663592.25848
 20  5 16  5 19 32.0000000  0  3G03G07G22                            0.000374052
  23316314.992 5   -255089.027 5   -149080.66049  23316318.53149
  21091373.719 6    -66671.895 6    -45591.51649  21091372.65649
  22662804.258 6   -190803.910 6   -132607.38348  22662801.23848
 20  5 16  5 19 33.0000000  0  3G03G07G22                            0.000372293
  23315275.719 5   -260552.594 5   -153337.97749  23315278.97349
  21091093.656 6    -68144.535 6    -46739.02349  21091092.84049
  22662012.789 6   -194961.148 6   -135846.79348  22662010.07848
 20  5 16  5 19 34.0000000  0  3G03G07G22                            0.000370535
  23314235.938 5   -266017.402 5   -157596.26649  23314239.15249
  21090813.258 6    -69617.930 6    -47887.12949  21090812.14849
  22661221.563 6   -199119.309 6   -139086.91048  22661218.84848
 20  5 16  5 19 35.0000000  0  3G03G07G22                            0.000368776
  23313195.813 5   -271483.398 5   -161855.48049  23313198.76249
  21090532.695 6    -71092.016 6    -49035.77049  21090531.50849
  22660430.008 6   -203278.398 6   -142327.75848  22660427.42248
 20  5 16  5 19 36.0000000  0  3G03G07G22                            0.000367016
  23312155.313 5   -276950.602 5   -166115.63749  23312158.45749
  21090252.438 6    -72566.805 6    -50184.95749  21090251.18849
  22659638.477 6   -207438.355 6   -145569.28548  22659635.71148
 20  5 16  5 19 37.0000000  0  3G03G07G22                            0.000365255
  23311114.891 5   -282419.066 5   -170376.77349  23311118.29349
  21089971.453 6    -74042.387 6    -51334.75849  21089970.45749
  22658846.586 6   -211599.277 6   -148811.55948  22658843.58248
 20  5 16  5 19 38.0000000  0  3G03G07G22                            0.000363495
  23310074.320 5   -287888.707 5   -174638.83249  23310077.16049
  21089690.383 6    -75518.688 6    -52485.12949  21089689.34449
  22658054.750 6   -215761.102 6   -152054.54348  22658052.12548
 20  5 16  5 19 39.0000000  0  3G03G07G22                            0.000361732
  23309032.766 5   -293359.438 5   -178901.73449  23309036.08649
  21089409.414 6    -76995.605 6    -53635.96949  21089408.42249
  22657262.086 6   -219923.766 6   -155298.17248  22657259.61748
 20  5 16  5 19 40.0000000  0  3G03G07G22                            0.000359970
  23307991.977 5   -298831.383 5   -183165.58249  23307994.92649
  21089128.203 6    -78473.227 6    -54787.36749  21089127.11749
  22656470.555 6   -224087.289 6   -158542.47748  22656467.50848
 20  5 16  5 19 41.0000000  0  3G03G07G22                            0.000358206
  23306949.984 5   -304304.355 5   -187430.23049  23306953.42649
  21088846.680 7    -79951.395 7    -55939.18449  21088845.71149
  22655677.953 6   -228251.574 6   -161787.37548  22655675.06348
 20  5 16  5 19 42.0000000  0  3G03G07G22                            0.000356441
  23305908.906 6   -309778.473 6   -191695.78149  23305911.63349
  21088565.430 6    -81430.230 6    -57091.53149  21088564.53149
  22654885.383 6   -232416.699 6   -165032.92248  22654882.75048
 20  5 16  5 19 43.0000000  0  3G03G07G22                            0.000354675
  23304866.852 6   -315253.777 6   -195962.25249  23304870.00449
  21088283.648 6    -82909.789 6    -58244.43449  21088283.09449
  22654092.500 6   -236582.719 6   -168279.17248  22654090.25048
 20  5 16  5 19 44.0000000  0  3G03G07G22                            0.000352909
  23303824.297 6   -320730.160 6   -200229.57049  23303827.84449
  21088002.211 6    -84389.969 6    -59397.82049  21088000.98449
  22653299.320 6   -240749.578 6   -171526.07448  22653297.31648
 20  5 16  5 19 45.0000000  0  3G03G07G22                            0.000351143
  23302782.180 5   -326207.730 5   -204497.80549  23302785.28549
  21087720.547 6    -85870.809 6    -60551.72349  21087719.43049
  22652506.234 6   -244917.254 6   -174773.61348  22652503.98448
 20  5 16  5 19 46.0000000  0  3G03G07G22                            0.000349375
  23301739.016 5   -331686.367 5   -208766.87549  23301742.91449
  21087438.758 6    -87352.262 6    -61706.10249  21087437.50849
  22651713.047 6   -249085.754 6   -178021.79348  22651710.47748
 20  5 16  5 19 47.0000000  0  3G03G07G22                            0.000347607
  23300696.055 6   -337166.199 6   -213036.86749  23300699.83649
  21087156.719 6    -88834.434 6    -62861.04749  21087155.12549
  22650919.641 6   -253255.137 6   -181270.66848  22650916.73448
 20  5 16  5 19 48.0000000  0  3G03G07G22                            0.000345837
  23299653.063 6   -342647.082 6   -217307.68049  23299656.83649
  21086874.578 6    -90317.168 6    -64016.42649  21086873.49249
  22650126.156 6   -257425.297 6   -184520.13748  22650123.51248
 20  5 16  5 19 49.0000000  0  8G01G03G07G08G11G22G28G30             0.000344067
  20267571.35217    -54645.49617    -36660.88359  20267573.57459
  23298610.203 5   -348129.078 5   -221579.35549  23298613.77049
  21086592.266 6    -91800.574 6    -65172.32449  21086591.18849
  23279371.01615    -31677.09815    -13419.85257  23279372.25057
  21372399.17216    -26579.42216    -13004.26258  21372397.25458
  22649332.164 6   -261596.262 6   -187770.24248  22649329.91448
  23648340.90615   -149431.41815    -98677.73457  23648338.20757
  21706050.40616   -100187.68016    -64021.91459  21706051.45359
 20  5 16  5 19 50.0000000  0  9G01G03G07G08G11G17G22G28G30          0.000342287
  20267191.313 7    -56642.758 7    -38217.19149  20267193.19149
  23297566.844 5   -353612.172 5   -225851.89549  23297570.25449
  21086309.383 6    -93284.527 6    -66328.65649  21086308.87549
  23279192.930 5    -32611.230 5    -14147.75447  23279194.50847
  21372262.844 6    -27294.563 6    -13561.51648  21372261.17648
  24081966.53115   -127934.11715    -61170.62558  24081967.42658
  22648538.031 6   -265767.988 6   -191020.93848  22648536.30548
  23647325.531 5   -154764.031 5   -102833.01647  23647323.60547
  21705391.992 6   -103647.793 6    -66718.10249  21705393.43849
 20  5 16  5 19 51.0000000  0  9G01G03G07G08G11G17G22G28G30          0.000340513
  20266811.031 7    -58640.598 7    -39773.94949  20266812.65649
  23296523.172 5   -359096.379 5   -230125.30149  23296527.03949
  21086026.859 6    -94769.148 6    -67485.50049  21086026.25449
  23279015.180 5    -33546.586 5    -14876.60247  23279016.23447
  21372126.750 6    -28010.680 6    -14119.53148  21372124.89148
  24081169.141 5   -132124.480 5    -64435.84048  24081169.78948
  22647744.266 6   -269940.574 6   -194272.29748  22647741.93048
  23646310.625 5   -160097.957 5   -106989.32847  23646308.68447
  21704733.336 6   -107108.461 6    -69414.72749  21704734.93849
 20  5 16  5 19 52.0000000  0  9G01G03G07G08G11G17G22G28G30          0.000338741
  20266431.047 7    -60639.004 7    -41331.15249  20266432.37949
  23295479.438 5   -364581.664 5   -234399.55149  23295483.01649
  21085744.742 6    -96254.375 6    -68642.82849  21085743.37549
  23278837.078 5    -34483.254 5    -15606.47347  23278837.98047
  21371990.586 6    -28727.777 6    -14678.30548  21371988.03948
  24080371.445 5   -136315.961 5    -67701.92248  24080371.93848
  22646950.320 6   -274113.949 6   -197524.28148  22646948.05548
  23645295.867 5   -165433.191 5   -111146.65247  23645293.22747
  21704074.648 6   -110569.770 6    -72111.85249  21704076.10949
 20  5 16  5 19 53.0000000  0  9G01G03G07G08G11G17G22G28G30          0.000336967
  20266050.602 7    -62637.969 7    -42888.78949  20266052.32449
  23294435.922 5   -370068.023 5   -238674.63749  23294439.10949
  21085461.703 6    -97740.211 6    -69800.62149  21085460.77349
  23278658.547 5    -35421.133 5    -16337.28547  23278660.10547
  21371853.820 6    -29445.793 6    -15237.80548  21371852.00048
  24079573.602 5   -140508.492 5    -70968.82848  24079574.25448
  22646156.227 6   -278288.113 6   -200776.87948  22646153.42248
  23644280.289 5   -170769.652 5   -115304.93447  23644277.78147
  21703416.180 6   -114031.613 6    -74809.39149  21703417.27049
 20  5 16  5 19 54.0000000  0  9G01G03G07G08G11G17G22G28G30          0.000335196
  20265669.977 7    -64637.480 7    -44446.84849  20265671.46149
  23293391.625 5   -375555.418 5   -242950.52749  23293394.82049
  21085179.063 6    -99226.633 6    -70958.87549  21085177.36749
  23278479.695 5    -36360.211 5    -17069.03547  23278480.98847
  21371717.250 6    -30164.754 6    -15798.03148  21371714.94548
  24078775.734 5   -144702.078 5    -74236.55948  24078776.43048
  22645361.641 6   -282463.039 6   -204030.06648  22645359.37548
  23643264.352 5   -176107.340 5   -119464.17247  23643262.03947
  21702757.500 6   -117494.008 6    -77507.36749  21702758.77049
 20  5 16  5 19 55.0000000  0  9G01G03G07G08G11G17G22G28G30          0.000333420
  20265289.305 7    -66637.496 7    -46005.29349  20265291.28549
  23292347.078 5   -381043.906 5   -247227.26649  23292350.41849
  21084896.227 6   -100713.613 6    -72117.56649  21084895.04749
  23278300.828 5    -37300.461 5    -17801.69947  23278302.17647
  21371579.867 6    -30884.613 6    -16358.96148  21371577.87548
  24077977.516 5   -148896.727 5    -77505.12148  24077977.91848
  22644566.898 6   -286638.750 6   -207283.86748  22644564.23448
  23642248.203 5   -181446.281 5   -123624.37947  23642246.03947
  21702098.641 6   -120956.941 6    -80205.75849  21702099.93049
 20  5 16  5 19 56.0000000  0  9G01G03G07G08G11G17G22G28G30          0.000331644
  20264908.695 7    -68638.070 7    -47564.18449  20264910.37549
  23291302.266 5   -386533.457 5   -251504.84049  23291305.82049
  21084612.547 6   -102201.195 6    -73276.71949  21084611.77749
  23278121.383 5    -38241.957 5    -18535.33247  23278123.01647
  21371442.758 6    -31605.406 6    -16920.61748  21371440.66048
  24077179.500 5   -153092.449 5    -80774.51248  24077179.39148
  22643772.664 6   -290815.223 6   -210538.26248  22643769.59448
  23641232.188 6   -186786.469 6   -127785.56647  23641229.55147
  21701439.039 6   -124420.426 6    -82904.57849  21701440.43849
 20  5 16  5 19 57.0000000  0  9G01G03G07G08G11G17G22G28G30          0.000329868
  20264527.813 7    -70639.281 7    -49123.56649  20264529.69149
  23290257.188 5   -392024.129 5   -255783.27749  23290260.61349
  21084329.844 6   -103689.441 6    -74436.39849  21084328.44949
  23277941.992 5    -39184.785 5    -19270.00047  23277943.57047
  21371305.656 6    -32327.223 6    -17483.07448  21371303.45748
  24076380.797 5   -157289.305 5    -84044.78948  24076380.83248
  22642977.523 6   -294992.547 6   -213793.32048  22642974.78548
  23640215.594 5   -192127.965 5   -131947.76647  23640213.30147
  21700779.688 6   -127884.594 6    -85603.92649  21700781.16849
 20  5 16  5 19 58.0000000  0  9G01G03G07G08G11G17G22G28G30          0.000328093
  20264146.867 7    -72640.957 7    -50683.32049  20264148.70349
  23289212.266 5   -397515.863 5   -260062.55149  23289215.99649
  21084046.438 6   -105178.242 6    -75596.50049  21084045.45749
  23277762.797 5    -40128.750 5    -20005.56647  23277763.62147
  21371167.844 6    -33049.906 6    -18046.21148  21371165.71548
  24075582.195 5   -161487.156 5    -87315.84048  24075581.82048
  22642182.313 6   -299170.590 6   -217048.93848  22642179.66048
  23639198.617 5   -197470.645 5   -136110.89147  23639196.96947
  21700120.359 6   -131349.211 6    -88303.62949  21700121.94949
 20  5 16  5 19 59.0000000  0  9G01G03G07G08G11G17G22G28G30          0.000326313
  20263765.883 7    -74643.059 7    -52243.39849  20263767.83249
  23288167.070 5   -403008.488 5   -264342.51649  23288170.84449
  21083762.852 6   -106667.473 6    -76756.94149  21083761.88349
  23277582.906 5    -41073.809 5    -20741.97347  23277583.85947
  21371030.445 6    -33773.367 6    -18609.94548  21371028.23848
  24074783.195 5   -165685.953 5    -90587.62948  24074783.26248
  22641387.258 6   -303349.266 6   -220305.04348  22641384.33248
  23638182.398 5   -202814.445 5   -140274.89147  23638180.41047
  21699460.977 6   -134814.262 6    -91003.66849  21699462.45349
 20  5 16  5 20  0.0000000  0  9G01G03G07G08G11G17G22G28G30          0.000324535
  20263384.836 7    -76645.633 7    -53803.85249  20263386.75449
  23287121.664 6   -408502.145 6   -268623.28549  23287125.27049
  21083479.484 6   -108157.254 6    -77917.81349  21083478.19149
  23277402.109 5    -42019.969 5    -21479.23847  23277404.19147
  21370892.469 6    -34497.711 6    -19174.37148  21370890.39148
  24073983.547 5   -169885.762 5    -93860.20748  24073984.08248
  22640592.125 6   -307528.668 6   -223561.72748  22640589.07048
  23637165.453 5   -208159.414 5   -144439.80147  23637163.47347
  21698801.750 6   -138279.824 6    -93704.10949  21698803.11349
 20  5 16  5 20  1.0000000  0  9G01G03G07G08G11G17G22G28G30          0.000322756
  20263003.477 7    -78648.883 7    -55364.82449  20263005.34049
  23286075.773 5   -413996.980 5   -272904.97749  23286079.59849
  21083195.578 6   -109647.719 6    -79079.21549  21083195.19149
  23277222.063 5    -42967.543 5    -22217.60947  23277223.69947
  21370754.297 6    -35223.105 6    -19739.61748  21370752.23848
  24073184.656 5   -174086.730 5    -97133.69548  24073184.46548
  22639796.211 6   -311708.973 6   -226819.10248  22639793.45748
  23636148.039 5   -213505.758 5   -148605.78547  23636146.05547
  21698142.039 6   -141746.059 6    -96405.07049  21698143.42649
 20  5 16  5 20  2.0000000  0  9G01G03G07G08G11G17G22G28G30          0.000320976
  20262622.445 7    -80652.688 7    -56926.23049  20262624.18049
  23285030.484 5   -419492.898 5   -277187.50849  23285033.54749
  21082912.273 6   -111138.828 6    -80241.12149  21082910.98049
  23277041.320 5    -43916.297 5    -22956.90647  23277043.24247
  21370616.281 6    -35949.449 6    -20305.60248  21370614.20348
  24072385.188 5   -178288.813 5   -100408.04348  24072385.04348
  22639000.867 6   -315890.063 6   -230077.09848  22638998.24248
  23635130.219 5   -218853.371 5   -152772.75847  23635128.53547
  21697482.711 6   -145212.859 6    -99106.47749  21697483.81349
 20  5 16  5 20  3.0000000  0  9G01G03G07G08G11G17G22G28G30          0.000319197
  20262240.867 7    -82656.934 7    -58487.98449  20262242.83649
  23283984.586 5   -424989.828 5   -281470.82449  23283988.33649
  21082628.469 6   -112630.406 6    -81403.39149  21082627.28949
  23276860.891 5    -44866.203 5    -23697.09447  23276862.37947
  21370477.570 6    -36676.633 6    -20872.23048  21370475.88748
  24071584.180 5   -182491.859 5   -103683.14548  24071585.22348
  22638205.250 6   -320071.828 6   -233335.60948  22638201.98048
  23634112.141 5   -224202.117 5   -156940.60947  23634110.78547
  21696822.719 6   -148680.129 6   -101808.25049  21696823.96149
 20  5 16  5 20  4.0000000  0  9G01G03G07G08G11G17G22G28G30          0.000317415
  20261859.633 7    -84661.695 7    -60050.13349  20261861.03149
  23282938.109 5   -430487.715 5   -285754.89149  23282941.42249
  21082344.492 6   -114122.535 6    -82566.09049  21082343.34449
  23276679.695 5    -45817.285 5    -24438.19547  23276681.50447
  21370339.375 6    -37404.695 6    -21439.55548  21370336.93448
  24070784.836 5   -186695.941 5   -106959.05148  24070785.16048
  22637409.266 6   -324254.340 6   -236594.71148  22637406.15648
  23633093.867 5   -229552.063 5   -161109.39547  23633092.52747
  21696162.992 6   -152147.898 6   -104510.40249  21696163.90249
 20  5 16  5 20  5.0000000  0  9G01G03G07G08G11G17G22G28G30          0.000315632
  20261477.813 7    -86667.000 7    -61612.71149  20261479.58249
  23281891.633 5   -435986.699 5   -290039.81349  23281895.01249
  21082060.602 6   -115615.273 6    -83729.27049  21082059.35949
  23276498.656 5    -46769.590 5    -25180.25447  23276500.14547
  21370200.516 6    -38133.703 6    -22007.61748  21370198.28548
  24069984.984 5   -190901.055 5   -110235.75848  24069984.80548
  22636613.406 6   -328437.617 6   -239854.41048  22636610.50448
  23632075.758 5   -234903.270 5   -165279.16047  23632074.40247
  21695502.820 6   -155616.250 6   -107213.02049  21695503.96549
 20  5 16  5 20  6.0000000  0  9G01G03G07G08G11G17G22G28G30          0.000313850
  20261096.281 7    -88672.758 7    -63175.63349  20261098.11749
  23280844.633 5   -441486.648 5   -294325.48049  23280848.37949
  21081776.289 6   -117108.516 6    -84892.83249  21081775.31349
  23276317.430 5    -47723.043 5    -25923.20747  23276318.73047
  21370061.484 6    -38863.555 6    -22576.33648  21370059.62948
  24069184.555 5   -195107.172 5   -113513.25448  24069184.46548
  22635816.633 6   -332621.605 6   -243114.66048  22635814.27048
  23631057.656 5   -240255.605 5   -169449.81647  23631056.00847
  21694842.750 6   -159085.043 6   -109915.97349  21694844.20749
 20  5 16  5 20  7.0000000  0  9G01G03G07G08G11G17G22G28G30          0.000312067
  20260714.531 7    -90678.895 7    -64738.85949  20260716.18849
  23279798.313 5   -446987.508 5   -298611.85549  23279801.66849
  21081492.227 6   -118602.156 6    -86056.70349  21081490.96149
  23276135.398 5    -48677.527 5    -26666.96547  23276137.07047
  21369922.305 6    -39594.152 6    -23145.62548  21369920.98448
  24068384.164 5   -199314.188 5   -116791.44948  24068384.13748
  22635020.703 6   -336806.168 6   -246375.35548  22635017.83648
  23630038.969 5   -245609.043 5   -173621.32047  23630037.37547
  21694182.313 6   -162554.242 6   -112619.24249  21694183.53549
 20  5 16  5 20  8.0000000  0  9G01G03G07G08G11G17G22G28G30          0.000310282
  20260332.719 7    -92685.578 7    -66302.50849  20260334.26649
  23278751.125 5   -452489.449 5   -302899.07849  23278754.63749
  21081207.930 6   -120096.402 6    -87221.05149  21081206.62949
  23275953.742 5    -49633.258 5    -27411.68847  23275954.94947
  21369783.273 6    -40325.672 6    -23715.64148  21369781.68048
  24067583.227 5   -203522.262 5   -120070.46148  24067583.10248
  22634224.313 6   -340991.523 6   -249636.67248  22634221.21548
  23629020.516 5   -250963.688 5   -177793.77047  23629018.48047
  21693522.094 6   -166024.000 6   -115322.95349  21693523.93049
 20  5 16  5 20  9.0000000  0  9G01G03G07G08G11G17G22G28G30          0.000308498
  20259950.688 7    -94692.773 7    -67866.55549  20259952.17249
  23277704.164 5   -457992.418 5   -307187.10249  23277707.14549
  21080923.164 6   -121591.234 6    -88385.86349  21080921.85549
  23275771.680 5    -50590.160 5    -28157.33247  23275773.55147
  21369644.211 6    -41058.125 6    -24286.38748  21369642.21548
  24066781.492 5   -207731.391 5   -123350.30148  24066781.99248
  22633427.359 6   -345177.621 6   -252898.56348  22633424.50848
  23628000.820 5   -256319.574 5   -181967.19147  23627998.92247
  21692862.078 6   -169494.301 6   -118027.09049  21692863.18049
 20  5 16  5 20 10.0000000  0  9G01G03G07G08G11G17G22G28G30          0.000306713
  20259568.344 7    -96700.500 7    -69431.01649  20259570.07449
  23276656.484 5   -463496.441 5   -311475.94149  23276659.97749
  21080639.102 6   -123086.617 6    -89551.09849  21080637.56349
  23275589.805 5    -51548.289 5    -28903.93047  23275590.88347
  21369503.984 6    -41791.484 6    -24857.83648  21369502.46148
  24065980.891 5   -211941.582 5   -126630.96948  24065980.77748
  22632630.727 6   -349364.484 6   -256161.04748  22632627.84048
  23626980.773 5   -261676.695 5   -186141.57047  23626979.94547
  21692201.422 6   -172965.145 6   -120731.64549  21692203.18449
 20  5 16  5 20 11.0000000  0  9G01G03G07G08G11G17G22G28G30          0.000304926
  20259186.414 7    -98708.754 7    -70995.89549  20259188.14849
  23275608.969 5   -469001.520 5   -315765.61749  23275612.20349
  21080353.945 6   -124582.594 6    -90716.78549  21080353.12949
  23275407.148 5    -52507.633 5    -29651.46547  23275407.82447
  21369364.508 6    -42525.762 6    -25430.00448  21369362.60248
  24065179.828 5   -216152.805 5   -129912.44148  24065179.73048
  22631833.914 6   -353552.105 6   -259424.13748  22631831.26648
  23625961.508 5   -267035.031 5   -190316.90247  23625960.16847
  21691540.992 6   -176436.500 6   -123436.59449  21691542.54749
 20  5 16  5 20 12.0000000  0  9G01G03G07G08G11G17G22G28G30          0.000303139
  20258804.305 7   -100717.441 7    -72561.10549  20258805.88749
  23274561.000 5   -474507.520 5   -320056.00849  23274564.44149
  21080069.117 6   -126079.051 6    -91882.86349  21080068.21549
  23275224.578 5    -53468.066 5    -30399.85547  23275225.34047
  21369224.758 6    -43260.828 6    -26002.78948  21369222.94548
  24064377.875 5   -220364.977 5   -133194.64848  24064377.63748
  22631037.047 6   -357740.371 6   -262687.71948  22631033.78548
  23624941.742 5   -272394.500 5   -194493.10947  23624940.40247
  21690880.281 6   -179908.320 6   -126141.90649  21690881.39149
 20  5 16  5 20 13.0000000  0  9G01G03G07G08G11G17G22G28G30          0.000301352
  20258421.922 7   -102726.574 7    -74126.66049  20258423.52049
  23273513.313 5   -480014.511 5   -324347.17049  23273517.11749
  21079784.250 6   -127576.004 6    -93049.32449  21079782.87949
  23275040.883 5    -54429.629 5    -31149.12547  23275042.67647
  21369084.641 6    -43996.773 6    -26576.25448  21369082.68848
  24063576.367 5   -224578.141 5   -136477.62948  24063576.20748
  22630239.734 6   -361929.348 6   -265951.85248  22630236.64548
  23623921.531 6   -277755.121 6   -198670.21547  23623920.28947
  21690219.547 6   -183380.605 6   -128847.58649  21690221.02049
 20  5 16  5 20 14.0000000  0  9G01G03G07G08G11G17G22G28G30          0.000299562
  20258039.375 7   -104736.191 7    -75692.59849  20258041.02049
  23272465.313 5   -485522.469 5   -328639.09049  23272468.14849
  21079499.656 6   -129073.469 6    -94216.17649  21079498.61749
  23274857.984 5    -55392.336 5    -31899.28147  23274859.52047
  21368945.023 6    -44733.531 6    -27150.35948  21368942.44948
  24062774.750 5   -228792.250 5   -139761.35248  24062774.15648
  22629442.375 6   -366119.008 6   -269216.52348  22629439.43048
  23622901.102 6   -283116.910 6   -202848.22747  23622900.40247
  21689558.805 6   -186853.359 6   -131553.62949  21689559.69549
 20  5 16  5 20 15.0000000  0  9G01G03G07G08G11G17G22G28G30          0.000297773
  20257656.742 7   -106746.242 7    -77258.87549  20257658.75449
  23271417.172 5   -491031.395 5   -332931.75849  23271420.19949
  21079214.188 6   -130571.402 6    -95383.40249  21079213.17649
  23274674.641 5    -56356.168 5    -32650.31647  23274675.79747
  21368804.242 6    -45471.152 6    -27725.12548  21368802.05548
  24061972.984 5   -233007.344 5   -143045.83648  24061972.18848
  22628645.000 6   -370309.328 6   -272481.70748  22628642.28148
  23621881.344 6   -288479.824 6   -207027.11747  23621880.00047
  21688897.945 6   -190326.586 6   -134260.04349  21688898.84849
 20  5 16  5 20 16.0000000  0  9G01G03G07G08G11G17G22G28G30          0.000295984
  20257274.484 7   -108756.707 7    -78825.47349  20257276.18849
  23270368.648 5   -496541.273 5   -337225.16449  23270371.75449
  21078929.609 6   -132069.820 6    -96551.00449  21078927.88349
  23274491.039 5    -57321.078 5    -33402.20347  23274492.62947
  21368663.742 6    -46209.559 6    -28300.50448  21368661.69548
  24061170.391 5   -237223.402 5   -146331.07848  24061169.98048
  22627847.422 6   -374500.309 6   -275747.40248  22627844.61748
  23620859.961 6   -293843.852 6   -211206.87947  23620859.14147
  21688236.688 6   -193800.219 6   -136966.76649  21688237.82849
 20  5 16  5 20 17.0000000  0  9G01G03G07G08G11G17G22G28G30          0.000294193
  20256891.867 7   -110767.684 7    -80392.46549  20256893.66449
  23269319.875 5   -502052.191 5   -341519.38349  23269323.14149
  21078643.906 6   -133568.797 6    -97719.03149  21078642.73449
  23274306.813 5    -58287.168 5    -34155.00047  23274308.44547
  21368523.539 6    -46948.852 6    -28876.57448  21368520.89548
  24060367.750 5   -241440.438 5   -149617.07848  24060367.41048
  22627049.750 6   -378692.000 6   -279013.65248  22627046.96548
  23619838.844 5   -299209.066 5   -215387.56647  23619838.20347
  21687576.039 6   -197274.363 6   -139673.89849  21687576.85949
 20  5 16  5 20 18.0000000  0  9G01G03G07G08G11G17G22G28G30          0.000292402
  20256508.984 7   -112779.148 7    -81959.84049  20256510.62149
  23268271.102 5   -507564.105 5   -345814.37949  23268274.23449
  21078358.414 6   -135068.301 6    -98887.48049  21078357.54349
  23274122.711 5    -59254.434 5    -34908.71547  23274124.64547
  21368382.086 6    -47689.059 6    -29453.36348  21368379.94948
  24059565.617 5   -245658.551 5   -152903.91848  24059564.60248
  22626252.094 6   -382884.441 6   -282280.48848  22626249.44948
  23618817.711 6   -304575.531 6   -219569.22747  23618816.73847
  21686914.633 6   -200749.039 6   -142381.43849  21686915.66049
 20  5 16  5 20 19.0000000  0  9G01G03G07G08G11G17G22G28G30          0.000290609
  20256126.359 7   -114791.082 7    -83527.57849  20256127.92249
  23267221.758 5   -513077.012 5   -350110.14849  23267224.99249
  21078073.117 6   -136568.313 6   -100056.32849  21078072.08649
  23273938.305 5    -60222.824 5    -35663.31347  23273940.37147
  21368241.086 6    -48430.086 6    -30030.78148  21368239.20348
  24058762.680 6   -249877.590 6   -156191.48049  24058761.82449
  22625454.055 6   -387077.555 6   -285547.85248  22625451.14548
  23617796.563 6   -309943.137 6   -223751.77047  23617795.74647
  21686253.195 6   -204224.184 6   -145089.33649  21686254.18849
 20  5 16  5 20 20.0000000  0  9G01G03G07G08G11G17G22G28G30          0.000288818
  20255743.008 7   -116803.391 7    -85095.61349  20255744.80949
  23266172.969 5   -518590.809 5   -354406.61349  23266175.79749
  21077787.570 6   -138068.762 6   -101225.51249  21077786.84849
  23273754.398 5    -61192.277 5    -36418.73847  23273755.80547
  21368100.008 6    -49171.910 6    -30608.82848  21368098.18048
  24057959.555 6   -254097.566 6   -159479.77049  24057958.98049
  22624655.789 6   -391271.270 6   -288815.68048  22624653.25048
  23616774.914 5   -315311.816 5   -227935.15247  23616774.05547
  21685591.555 6   -207699.734 6   -147797.55949  21685592.80949
 20  5 16  5 20 21.0000000  0  9G01G03G07G08G11G17G22G28G30          0.000287024
  20255360.211 7   -118816.176 7    -86664.02349  20255361.82849
  23265122.641 5   -524105.590 5   -358703.84449  23265126.74649
  21077502.008 6   -139569.727 6   -102395.09449  21077500.78549
  23273569.500 5    -62162.844 5    -37175.02347  23273571.37947
  21367958.805 6    -49914.566 6    -31187.52048  21367956.86748
  24057155.969 5   -258318.543 5   -162768.84448  24057155.63748
  22623857.531 6   -395465.707 6   -292084.07048  22623854.96948
  23615753.297 5   -320681.633 5   -232119.42647  23615751.93047
  21684929.633 6   -211175.742 6   -150506.14149  21684931.65649
 20  5 16  5 20 22.0000000  0  9G01G03G07G08G11G17G22G28G30          0.000285231
  20254977.008 7   -120829.547 7    -88232.88749  20254978.63349
  23264073.117 5   -529621.488 5   -363001.94149  23264077.07049
  21077216.680 6   -141071.305 6   -103565.16049  21077215.33649
  23273384.781 5    -63134.719 5    -37932.32447  23273386.25047
  21367817.039 6    -50658.188 6    -31766.96948  21367815.06648
  24056351.969 5   -262540.605 5   -166058.76648  24056352.27348
  22623059.008 6   -399660.926 6   -295353.07048  22623056.77348
  23614731.023 6   -326052.781 6   -236304.73047  23614729.87147
  21684268.852 6   -214652.355 6   -153215.18849  21684270.19949
 20  5 16  5 20 23.0000000  0  9G01G03G07G08G11G17G22G28G30          0.000283436
  20254593.883 7   -122843.336 7    -89802.07049  20254595.25049
  23263023.469 5   -535138.285 5   -367300.74649  23263027.49649
  21076930.617 6   -142573.371 6   -104735.60249  21076929.08249
  23273199.523 5    -64107.645 5    -38690.44147  23273201.12547
  21367675.422 6    -51402.641 6    -32347.05548  21367673.32448
  24055548.875 5   -266763.598 5   -169349.40648  24055548.67248
  22622261.016 6   -403856.828 6   -298622.60548  22622258.25848
  23613708.539 5   -331425.012 5   -240490.88747  23613707.68047
  21683606.813 6   -218129.395 6   -155924.57049  21683607.97349
 20  5 16  5 20 24.0000000  0  9G01G03G07G08G11G17G22G28G30          0.000281641
  20254210.555 7   -124857.441 7    -91371.50049  20254212.52349
  23261973.813 5   -540655.969 5   -371600.23849  23261977.31349
  21076644.781 6   -144075.797 6   -105906.32049  21076643.62949
  23273013.969 5    -65081.605 5    -39449.37147  23273015.54747
  21367533.547 6    -52147.797 6    -32927.70348  21367531.93048
  24054745.086 5   -270987.484 5   -172640.74649  24054744.95349
  22621462.547 6   -408053.250 6   -301892.54748  22621459.64548
  23612685.734 5   -336798.285 5   -244677.85247  23612685.18447
  21682945.523 6   -221606.797 6   -158634.23449  21682946.29749
 20  5 16  5 20 25.0000000  0  9G01G03G07G08G11G17G22G28G30          0.000279844
  20253827.273 7   -126871.996 7    -92941.27749  20253828.96549
  23260923.195 5   -546174.598 5   -375900.46549  23260927.21549
  21076358.742 6   -145578.730 6   -107077.44149  21076357.17249
  23272828.602 5    -66056.652 5    -40209.14847  23272830.39847
  21367391.664 6    -52893.766 6    -33508.97348  21367389.94948
  24053940.938 5   -275212.301 5   -175932.81648  24053940.96948
  22620664.156 6   -412250.363 6   -305163.02748  22620661.00848
  23611663.500 5   -342172.691 5   -248865.70347  23611662.21147
  21682283.633 6   -225084.605 6   -161344.21949  21682284.59449
 20  5 16  5 20 26.0000000  0  9G01G03G07G08G11G17G22G28G30          0.000278048
  20253443.813 7   -128886.965 7    -94511.38749  20253445.55149
  23259872.766 5   -551694.188 5   -380201.44149  23259876.88749
  21076072.641 6   -147082.109 6   -108248.90249  21076071.35549
  23272642.461 5    -67032.805 5    -40969.78147  23272644.32047
  21367249.953 6    -53640.535 6    -34090.87948  21367247.64148
  24053136.867 5   -279438.055 5   -179225.62148  24053136.64548
  22619865.070 6   -416448.117 6   -308434.00048  22619862.09448
  23610640.250 6   -347548.203 6   -253054.41047  23610639.02347
  21681621.547 6   -228562.867 6   -164054.54749  21681622.82449
 20  5 16  5 20 27.0000000  0  9G01G03G07G08G11G17G22G28G30          0.000276251
  20253060.156 7   -130902.395 7    -96081.85249  20253061.86749
  23258822.727 5   -557214.719 5   -384503.15249  23258826.27749
  21075786.328 6   -148585.988 6   -109420.75449  21075785.08649
  23272456.234 5    -68010.094 5    -41731.30947  23272458.54347
  21367107.633 6    -54388.172 6    -34673.44948  21367105.47748
  24052332.875 5   -283664.777 5   -182519.17248  24052332.37148
  22619066.398 6   -420646.547 6   -311705.50848  22619063.40648
  23609617.289 5   -352924.855 5   -257244.00447  23609616.10547
  21680959.305 6   -232041.578 6   -166765.23849  21680960.76649
 20  5 16  5 20 28.0000000  0  9G01G03G07G08G11G17G22G28G30          0.000274452
  20252676.555 7   -132918.285 7    -97652.67649  20252678.10949
  23257772.320 5   -562736.230 5   -388805.62949  23257775.64549
  21075500.141 6   -150090.383 6   -110593.01649  21075498.87549
  23272270.219 5    -68988.465 5    -42493.68447  23272272.09447
  21366965.000 6    -55136.656 6    -35256.68848  21366963.06348
  24051528.055 5   -287892.504 5   -185813.50449  24051527.70349
  22618267.258 6   -424845.672 6   -314977.55948  22618264.13348
  23608593.852 5   -358302.707 5   -261434.53547  23608592.71547
  21680296.914 6   -235520.785 6   -169476.30549  21680298.60549
 20  5 16  5 20 29.0000000  0  9G01G03G07G08G11G17G22G28G30          0.000272654
  20252292.883 7   -134934.547 7    -99223.79349  20252294.76649
  23256720.969 5   -568258.680 5   -393108.83249  23256724.36749
  21075213.586 6   -151595.207 6   -111765.60949  21075212.44149
  23272084.078 5    -69967.965 5    -43256.94547  23272085.85947
  21366822.297 6    -55885.902 6    -35840.51648  21366820.48848
  24050723.734 5   -292121.117 5   -189108.52748  24050723.17248
  22617468.078 6   -429045.410 6   -318250.07848  22617465.09448
  23607569.867 5   -363681.633 5   -265625.90647  23607569.03947
  21679635.281 6   -239000.379 6   -172187.67649  21679636.72349
 20  5 16  5 20 30.0000000  0  9G01G03G07G08G11G17G22G28G30          0.000270855
  20251909.195 7   -136951.238 7   -100795.23849  20251910.68849
  23255670.008 5   -573782.004 5   -397412.72349  23255673.29349
  21074927.063 6   -153100.484 6   -112938.55549  21074926.20749
  23271897.227 5    -70948.535 5    -44021.02747  23271899.37947
  21366679.555 6    -56635.938 6    -36424.96148  21366677.67248
  24049918.914 5   -296350.656 5   -192404.26648  24049918.23048
  22616668.398 6   -433245.770 6   -321523.08648  22616665.64548
  23606546.430 5   -369061.625 5   -269818.10947  23606544.94947
  21678973.070 6   -242480.371 6   -174899.36749  21678974.59449
 20  5 16  5 20 31.0000000  0  9G01G03G07G08G11G17G22G28G30          0.000269054
  20251525.570 7   -138968.359 7   -102367.02049  20251527.27349
  23254618.898 5   -579306.328 5   -401717.38749  23254622.22749
  21074640.984 6   -154606.258 6   -114111.89149  21074639.85549
  23271710.539 5    -71930.215 5    -44785.96947  23271712.35547
  21366536.836 6    -57386.820 6    -37010.06348  21366534.69548
  24049114.383 5   -300581.227 5   -195700.81348  24049113.13348
  22615869.031 6   -437446.824 6   -324796.64148  22615866.05948
  23605522.781 5   -374442.781 5   -274011.22347  23605521.18047
  21678311.328 6   -245960.852 6   -177611.43049  21678311.81649
 20  5 16  5 20 32.0000000  0  9G01G03G07G08G11G17G22G28G30          0.000267254
  20251141.492 7   -140985.836 7   -103939.07849  20251143.18049
  23253567.695 5   -584831.523 5   -406022.73049  23253570.68049
  21074353.828 6   -156112.422 6   -115285.52049  21074353.06649
  23271523.820 5    -72912.895 5    -45551.70347  23271526.01247
  21366393.406 6    -58138.445 6    -37595.74648  21366391.65648
  24048309.086 5   -304812.617 5   -198997.99648  24048308.06348
  22615069.602 6   -441648.449 6   -328070.62548  22615066.63348
  23604498.648 5   -379824.980 5   -278205.14147  23604496.86747
  21677648.766 6   -249441.711 6   -180323.78549  21677649.76249
 20  5 16  5 20 33.0000000  0  9G01G03G07G08G11G17G22G28G30          0.000265451
  20250757.406 7   -143003.715 7   -105511.45349  20250758.93049
  23252516.188 5   -590357.641 5   -410328.80149  23252518.94149
  21074066.961 6   -157619.051 6   -116459.51649  21074066.38349
  23271337.008 5    -73896.672 5    -46318.28547  23271338.36347
  21366250.469 6    -58890.832 6    -38182.02348  21366248.48048
  24047503.648 5   -309044.910 5   -202295.89148  24047502.84848
  22614270.000 6   -445850.695 6   -331345.10548  22614267.27048
  23603473.391 5   -385208.293 5   -282399.93047  23603471.96547
  21676986.305 6   -252922.922 6   -183036.41849  21676987.35949
 20  5 16  5 20 34.0000000  0  9G01G03G07G08G11G17G22G28G30          0.000263651
  20250372.984 7   -145022.125 7   -107084.24249  20250374.89849
  23251463.672 5   -595884.797 5   -414635.67249  23251467.09049
  21073780.570 6   -159126.242 6   -117633.96149  21073779.26649
  23271149.094 5    -74881.695 5    -47085.83647  23271150.68047
  21366107.016 6    -59644.156 6    -38769.02748  21366105.47748
  24046697.570 5   -313278.270 5   -205594.61748  24046696.85548
  22613470.055 6   -450053.719 6   -334620.18448  22613467.39848
  23602449.250 5   -390592.813 5   -286595.66047  23602447.64847
  21676323.695 6   -256404.719 6   -185749.50849  21676325.15249
 20  5 16  5 20 35.0000000  0  9G01G03G07G08G11G17G22G28G30          0.000261847
  20249988.836 7   -147040.898 7   -108657.31649  20249990.65649
  23250411.891 5   -601412.832 5   -418943.23449  23250415.09449
  21073493.477 6   -160633.832 6   -118808.70349  21073492.50449
  23270961.781 5    -75867.703 5    -47854.14847  23270963.13347
  21365963.547 6    -60398.219 6    -39356.61748  21365961.69548
  24045891.844 5   -317512.559 5   -208894.06648  24045891.70748
  22612670.266 6   -454257.328 6   -337895.72348  22612667.84848
  23601424.406 5   -395978.402 5   -290792.22747  23601422.57447
  21675660.859 6   -259886.867 6   -188462.87149  21675662.19549
 20  5 16  5 20 36.0000000  0  9G01G03G07G08G11G17G22G28G30          0.000260044
  20249604.984 7   -149060.016 7   -110230.64849  20249606.83649
  23249359.844 5   -606941.711 5   -423251.44549  23249363.19549
  21073207.180 6   -162141.824 6   -119983.76649  21073205.63349
  23270773.781 5    -76854.730 5    -48623.25847  23270775.35247
  21365820.070 6    -61153.008 6    -39944.76248  21365818.12148
  24045085.570 5   -321747.672 5   -212194.15248  24045085.53948
  22611870.156 6   -458461.461 6   -341171.68048  22611867.45748
  23600399.156 5   -401364.988 5   -294989.57047  23600397.46147
  21674998.211 6   -263369.402 6   -191176.53949  21674999.11749
 20  5 16  5 20 37.0000000  0  9G01G03G07G08G11G17G22G28G30          0.000258240
  20249220.523 7   -151079.516 7   -111804.28949  20249222.44949
  23248307.648 5   -612471.523 5   -427560.39149  23248310.70749
  21072919.953 6   -163650.270 6   -121159.17649  21072918.50449
  23270586.094 5    -77842.863 5    -49393.22747  23270587.49647
  21365676.445 6    -61908.602 6    -40533.53948  21365674.36748
  24044280.133 5   -325983.695 5   -215494.94548  24044279.55148
  22611069.969 6   -462666.266 6   -344448.14848  22611067.35248
  23599374.148 5   -406752.723 5   -299187.79747  23599372.33247
  21674335.602 6   -266852.305 6   -193890.49249  21674336.69549
 20  5 16  5 20 38.0000000  0  9G01G03G07G08G11G17G22G28G30          0.000256435
  20248836.023 7   -153099.359 7   -113378.19549  20248837.86349
  23247255.367 5   -618002.137 5   -431869.95349  23247258.26649
  21072632.867 6   -165159.074 6   -122334.87149  21072631.33649
  23270397.289 5    -78831.930 5    -50163.93047  23270399.28147
  21365532.242 6    -62664.887 6    -41122.85248  21365530.42648
  24043473.789 5   -330220.598 5   -218796.42248  24043473.68848
  22610269.953 6   -466871.586 6   -347725.01648  22610267.30948
  23598349.391 5   -412141.430 5   -303386.78947  23598347.13347
  21673672.852 6   -270335.551 6   -196604.70749  21673673.87949
 20  5 16  5 20 39.0000000  0  9G01G03G07G08G11G17G22G28G30          0.000254629
  20248452.070 7   -155119.582 7   -114952.39149  20248453.85549
  23246202.289 5   -623533.703 5   -436180.26249  23246205.99649
  21072345.672 6   -166668.316 6   -123510.91049  21072344.15649
  23270209.625 5    -79822.140 5    -50935.52947  23270210.93447
  21365388.148 6    -63421.934 6    -41712.75848  21365386.29748
  24042667.281 5   -334458.359 5   -222098.57448  24042667.18848
  22609469.500 6   -471077.523 6   -351002.37548  22609466.57848
  23597322.969 5   -417531.234 5   -307586.64547  23597320.88747
  21673009.680 6   -273819.199 6   -199319.24649  21673010.89849
 20  5 16  5 20 40.0000000  0  9G01G03G07G08G11G17G22G28G30          0.000252825
  20248067.508 7   -157140.188 7   -116526.89549  20248069.30949
  23245149.508 5   -629066.176 5   -440491.27749  23245152.96949
  21072058.359 6   -168177.984 6   -124687.27349  21072057.10949
  23270020.461 5    -80813.348 5    -51707.90247  23270022.16047
  21365244.063 6    -64179.770 6    -42303.27748  21365242.30548
  24041861.070 5   -338697.063 5   -225401.45348  24041860.45348
  22608668.773 6   -475284.074 6   -354280.19948  22608665.99648
  23596296.953 5   -422922.117 5   -311787.33647  23596295.05947
  21672347.031 6   -277303.250 6   -202034.09049  21672348.09449
 20  5 16  5 20 41.0000000  0  9G01G03G07G08G11G17G22G28G30          0.000251017
  20247682.836 7   -159161.070 7   -118101.60949  20247684.46149
  23244096.313 5   -634599.398 5   -444802.87949  23244099.63749
  21071770.656 6   -169688.004 6   -125863.91049  21071769.46149
  23269831.336 5    -81805.535 5    -52481.03147  23269833.75047
  21365099.953 6    -64938.293 6    -42894.33248  21365097.72348
  24041053.953 5   -342936.555 5   -228704.95749  24041053.46949
  22607868.602 6   -479491.148 6   -357558.44148  22607866.01648
  23595270.648 5   -428313.973 5   -315988.78147  23595268.88347
  21671683.992 6   -280787.598 6   -204749.17249  21671684.79749
 20  5 16  5 20 42.0000000  0  9G01G03G07G08G11G17G22G28G30          0.000249210
  20247298.188 7   -161182.305 7   -119676.59449  20247299.76649
  23243043.578 5   -640133.477 5   -449115.14549  23243046.82049
  21071483.234 6   -171198.414 6   -127040.85549  21071482.15249
  23269642.102 5    -82798.773 5    -53254.97747  23269644.51647
  21364955.352 6    -65697.535 6    -43485.94948  21364953.12148
  24040247.109 5   -347176.934 5   -232009.14548  24040246.84848
  22607067.703 6   -483698.785 6   -360837.12148  22607065.06348
  23594244.609 5   -433706.895 5   -320191.05547  23594243.03947
  21671020.367 6   -284272.285 6   -207464.50449  21671021.72349
 20  5 16  5 20 43.0000000  0  9G01G03G07G08G11G17G22G28G30          0.000247402
  20246913.508 7   -163204.008 7   -121251.94949  20246915.03149
  23241990.086 5   -645668.609 5   -453428.23349  23241993.97349
  21071196.070 6   -172709.355 6   -128218.21149  21071194.62949
  23269453.203 5    -83793.082 5    -54029.77047  23269455.05147
  21364810.367 6    -66457.637 6    -44078.24248  21364808.84048
  24039439.523 5   -351418.266 5   -235314.07848  24039439.66848
  22606266.977 6   -487907.133 6   -364116.34448  22606264.30148
  23593218.008 5   -439100.969 5   -324394.23047  23593215.98447
  21670357.109 6   -287757.469 6   -210180.23049  21670358.89849
 20  5 16  5 20 44.0000000  0  9G01G03G07G08G11G17G22G28G30          0.000245594
  20246528.469 7   -165226.023 7   -122827.53949  20246530.44949
  23240936.438 5   -651204.531 5   -457741.93849  23240940.14149
  21070908.023 6   -174220.656 6   -129395.84849  21070907.30549
  23269263.938 5    -84788.441 5    -54805.37547  23269265.95747
  21364665.758 6    -67218.445 6    -44671.07848  21364663.57048
  24038632.172 5   -355660.484 5   -238619.70348  24038632.56648
  22605466.031 6   -492116.023 6   -367396.00048  22605463.44148
  23592191.281 5   -444496.066 5   -328598.20347  23592189.52047
  21669694.383 6   -291242.977 6   -212896.21149  21669695.12949
 20  5 16  5 20 45.0000000  0  9G01G03G07G08G11G17G22G28G30          0.000243786
  20246143.688 7   -167248.484 7   -124403.48849  20246145.29749
  23239883.336 5   -656741.383 5   -462056.36349  23239886.74649
  21070620.492 6   -175732.410 6   -130573.83649  21070619.38349
  23269074.000 5    -85784.895 5    -55581.83247  23269076.03947
  21364520.914 6    -67980.043 6    -45264.53148  21364518.85248
  24037824.508 5   -359903.613 5   -241926.02748  24037824.79348
  22604665.109 6   -496325.547 6   -370676.14548  22604662.34848
  23591165.023 5   -449892.254 5   -332803.01247  23591162.84047
  21669030.586 6   -294728.895 6   -215612.51649  21669031.60549
 20  5 16  5 20 46.0000000  0  9G01G03G07G08G11G17G22G28G30          0.000241976
  20245758.727 7   -169271.371 7   -125979.76649  20245760.80149
  23238829.258 5   -662279.223 5   -466371.55549  23238832.89549
  21070333.031 6   -177244.672 6   -131752.21949  21070331.80149
  23268884.609 5    -86782.438 5    -56359.13747  23268886.37147
  21364375.898 6    -68742.496 6    -45858.65648  21364373.84848
  24037016.977 5   -364147.730 5   -245233.12948  24037017.08648
  22603864.000 6   -500535.742 6   -373956.81348  22603861.27348
  23590137.836 5   -455289.609 5   -337008.75047  23590135.83647
  21668367.508 6   -298215.305 6   -218329.19549  21668368.52049
 20  5 16  5 20 47.0000000  0  9G01G03G07G08G11G17G22G28G30          0.000240164
  20245373.836 7   -171294.586 7   -127556.28549  20245375.66849
  23237775.484 5   -667817.871 5   -470687.37949  23237778.56349
  21070044.695 6   -178757.289 6   -132930.88749  21070043.88349
  23268694.813 5    -87781.008 5    -57137.24647  23268695.96947
  21364230.578 6    -69505.648 6    -46453.31648  21364228.66848
  24036209.656 5   -368392.672 5   -248540.87148  24036209.59048
  22603062.367 6   -504746.488 6   -377237.91448  22603059.93848
  23589110.320 5   -460687.945 5   -341215.23847  23589108.34847
  21667703.984 6   -301702.020 6   -221046.12149  21667705.20749
 20  5 16  5 20 48.0000000  0  9G01G03G07G08G11G17G22G28G30          0.000238354
  20244988.719 7   -173318.160 7   -129133.10249  20244990.37149
  23236721.531 5   -673357.418 5   -475003.91049  23236724.57449
  21069756.719 6   -180270.324 6   -134109.88349  21069756.09049
  23268504.383 5    -88780.590 5    -57916.14547  23268505.80547
  21364085.445 6    -70269.523 6    -47048.55148  21364083.32448
  24035401.195 5   -372638.457 5   -251849.27048  24035401.63748
  22602260.680 6   -508957.809 6   -380519.46148  22602258.26648
  23588082.625 5   -466087.355 5   -345422.58247  23588080.73847
  21667040.344 6   -305189.109 6   -223763.33249  21667041.46149
 20  5 16  5 20 49.0000000  0  9G01G03G07G08G11G17G22G28G30          0.000236542
  20244603.758 7   -175342.023 7   -130710.13749  20244605.34449
  23235667.484 5   -678897.758 5   -479321.05549  23235670.25449
  21069469.047 6   -181783.680 6   -135289.11749  21069467.91049
  23268313.664 5    -89781.141 5    -58695.78947  23268315.91447
  21363939.969 6    -71034.117 6    -47644.34048  21363937.49248
  24034594.008 5   -376885.109 5   -255158.34848  24034593.63748
  22601459.313 6   -513169.660 6   -383801.41848  22601456.83648
  23587055.297 5   -471487.770 5   -349630.69547  23587053.07847
  21666376.234 6   -308676.512 6   -226480.78949  21666377.77349
 20  5 16  5 20 50.0000000  0  9G01G03G07G08G11G17G22G28G30          0.000234730
  20244218.563 7   -177366.301 7   -132287.50049  20244220.16449
  23234612.367 5   -684439.055 5   -483638.94549  23234615.86749
  21069180.953 6   -183297.496 6   -136468.71949  21069179.87949
  23268123.016 5    -90782.773 5    -59476.28947  23268124.78547
  21363794.430 6    -71799.500 6    -48240.74248  21363792.23848
  24033785.578 5   -381132.641 5   -258468.11748  24033785.15248
  22600658.039 6   -517382.113 6   -387083.85548  22600655.37548
  23586027.328 5   -476889.262 5   -353839.66047  23586025.19947
  21665712.797 6   -312164.313 6   -229198.55549  21665713.80949
 20  5 16  5 20 51.0000000  0  9G01G03G07G08G11G17G22G28G30          0.000232918
  20243833.305 7   -179390.910 7   -133865.11749  20243834.97749
  23233558.156 5   -689981.164 5   -487957.46949  23233561.31649
  21068892.367 6   -184811.711 6   -137648.62949  21068891.50449
  23267932.133 5    -91785.402 5    -60257.55547  23267933.91847
  21363648.672 6    -72565.586 6    -48837.69148  21363646.55548
  24032976.594 5   -385381.070 5   -261778.59048  24032976.58648
  22599856.156 6   -521595.148 6   -390366.73848  22599853.70748
  23584999.125 5   -482291.809 5   -358049.43047  23584997.28947
  21665048.797 6   -315652.480 6   -231916.60549  21665050.32449
 20  5 16  5 20 52.0000000  0  9G01G03G07G08G11G17G22G28G30          0.000231104
  20243447.766 7   -181415.859 7   -135443.00449  20243449.75449
  23232503.672 5   -695524.137 5   -492276.66849  23232506.55549
  21068604.375 6   -186326.301 6   -138828.83249  21068603.49649
  23267740.766 5    -92789.074 5    -61039.64147  23267743.03547
  21363502.625 6    -73332.398 6    -49435.21148  21363500.37548
  24032168.148 5   -389630.348 5   -265089.71948  24032167.71148
  22599054.398 6   -525808.727 6   -393650.05148  22599051.99648
  23583971.203 5   -487695.359 5   -362259.98847  23583968.89547
  21664385.281 6   -319140.973 6   -234634.91449  21664386.42249
 20  5 16  5 20 53.0000000  0  9G01G03G07G08G11G17G22G28G30          0.000229290
  20243062.555 7   -183441.094 7   -137021.10549  20243063.75849
  23231448.156 5   -701067.902 5   -496596.48449  23231451.10949
  21068316.195 6   -187841.238 6   -140009.30549  21068315.16849
  23267550.500 5    -93793.691 5    -61822.46547  23267552.07047
  21363356.172 6    -74099.914 6    -50033.27048  21363354.30948
  24031359.234 5   -393880.453 5   -268401.49648  24031359.12948
  22598252.609 6   -530022.820 6   -396933.76248  22598250.27048
  23582942.898 5   -493099.918 5   -366471.32847  23582940.21147
  21663721.414 6   -322629.797 6   -237353.48449  21663722.69949
 20  5 16  5 20 54.0000000  0  9G01G03G07G08G11G17G22G28G30          0.000227474
  20242676.773 7   -185466.746 7   -138599.53549  20242678.50849
  23230393.266 5   -706612.609 5   -500917.03549  23230396.07449
  21068027.852 7   -189356.613 7   -141190.11749  21068026.87949
  23267358.852 5    -94799.402 5    -62606.14147  23267360.44947
  21363210.070 6    -74868.203 6    -50631.93848  21363208.08648
  24030550.281 5   -398131.449 5   -271713.95748  24030550.49648
  22597450.352 6   -534237.574 6   -400217.98448  22597448.50848
  23581914.234 5   -498505.586 5   -370683.53547  23581911.15647
  21663057.398 6   -326119.016 6   -240072.35249  21663058.61349
 20  5 16  5 20 55.0000000  0  9G01G03G07G08G11G17G22G28G30          0.000225658
  20242291.250 7   -187492.711 7   -140178.21149  20242292.90649
  23229337.602 5   -712158.102 5   -505238.19949  23229340.71949
  21067739.398 6   -190872.344 6   -142371.20749  21067738.14549
  23267168.039 5    -95806.063 5    -63390.55547  23267168.99247
  21363063.734 6    -75637.191 6    -51231.15248  21363061.73448
  24029741.156 5   -402383.285 5   -275027.07448  24029741.10248
  22596648.438 6   -538452.824 6   -403502.59048  22596646.16848
  23580885.297 5   -503912.219 5   -374896.48847  23580882.40647
  21662393.367 6   -329608.543 6   -242791.46549  21662394.26649
 20  5 16  5 20 56.0000000  0  9G01G03G07G08G11G17G22G28G30          0.000223845
  20241905.852 7   -189518.965 7   -141757.10949  20241907.49249
  23228282.406 5   -717704.434 5   -509560.02049  23228285.31349
  21067450.742 6   -192388.434 6   -143552.57449  21067450.07449
  23266975.586 5    -96813.699 5    -64175.73047  23266977.40247
  21362917.227 6    -76406.867 6    -51830.89548  21362915.06648
  24028932.078 5   -406635.949 5   -278340.83648  24028931.68448
  22595846.250 6   -542668.605 6   -406787.61748  22595843.95348
  23579856.547 5   -509319.867 5   -379110.24647  23579853.56347
  21661729.070 6   -333098.395 6   -245510.83649  21661730.43849
 20  5 16  5 20 57.0000000  0  9G01G03G07G08G11G17G22G28G30          0.000222027
  20241520.195 7   -191545.613 7   -143336.32049  20241521.96549
  23227226.680 5   -723251.676 5   -513882.54349  23227230.00449
  21067162.414 6   -193904.957 6   -144734.28949  21067161.21149
  23266784.195 5    -97822.426 5    -64961.75847  23266785.56647
  21362771.109 6    -77177.324 6    -52431.25448  21362768.78148
  24028122.523 6   -410889.535 6   -281655.32049  24028122.57049
  22595044.102 6   -546885.016 6   -410073.13748  22595041.16848
  23578827.133 5   -514728.598 5   -383324.85547  23578824.70347
  21661064.773 6   -336588.648 6   -248230.51649  21661066.07449
 20  5 16  5 20 58.0000000  0  9G01G03G07G08G11G17G22G28G30          0.000220209
  20241134.680 7   -193572.520 7   -144915.72749  20241136.12149
  23226171.078 5   -728799.684 5   -518205.66449  23226174.20749
  21066873.961 6   -195421.809 6   -145916.25049  21066872.56649
  23266591.789 5    -98832.086 5    -65748.49247  23266593.20747
  21362623.875 6    -77948.422 6    -53032.10948  21362622.12148
  24027312.883 5   -415143.883 5   -284970.39548  24027313.11348
  22594241.844 6   -551101.895 6   -413359.02048  22594238.78948
  23577798.172 5   -520138.270 5   -387540.18447  23577795.19547
  21660400.398 6   -340079.164 6   -250950.40249  21660401.94549
 20  5 16  5 20 59.0000000  0  9G01G03G07G08G11G17G22G28G30          0.000218391
  20240748.461 7   -195599.727 7   -146495.37149  20240750.12549
  23225115.422 5   -734348.488 5   -522529.41049  23225118.23449
  21066585.086 6   -196938.941 6   -147098.42649  21066584.07049
  23266399.250 5    -99842.688 5    -66535.96147  23266400.91047
  21362477.031 6    -78720.191 6    -53633.48848  21362475.06348
  24026503.609 5   -419399.051 5   -288286.10948  24026503.02048
  22593438.914 6   -555319.309 6   -416645.31348  22593436.40248
  23576768.328 6   -525548.938 6   -391756.29347  23576765.53547
  21659736.297 6   -343569.969 6   -253670.51249  21659737.49649
 20  5 16  5 21  0.0000000  0  9G01G03G07G08G11G17G22G28G30          0.000216574
  20240362.641 7   -197627.211 7   -148075.22749  20240364.53549
  23224059.313 5   -739898.119 5   -526853.79849  23224061.82049
  21066296.297 6   -198456.461 6   -148280.91849  21066295.09849
  23266206.898 5   -100854.262 5    -67324.19147  23266208.58647
  21362330.000 6    -79492.637 6    -54235.39848  21362327.94548
  24025693.563 5   -423655.080 5   -291602.49148  24025693.12148
  22592635.945 6   -559537.203 6   -419931.98848  22592633.56648
  23575738.453 6   -530960.586 6   -395973.16047  23575736.02047
  21659072.172 6   -347061.066 6   -256390.84849  21659073.65649
 20  5 16  5 21  1.0000000  0  9G01G03G07G08G11G17G22G28G30          0.000214754
  20239976.813 7   -199655.141 7   -149655.43049  20239978.32049
  23223002.867 5   -745448.672 5   -531178.89849  23223005.91449
  21066006.984 6   -199974.457 6   -149463.77049  21066006.08649
  23266014.133 5   -101866.955 5    -68113.31047  23266015.91047
  21362182.930 6    -80265.910 6    -54837.94948  21362181.00048
  24024883.867 5   -427911.965 5   -294919.54348  24024883.24248
  22591833.406 6   -563755.777 6   -423219.19548  22591830.59048
  23574707.930 6   -536373.359 6   -400190.91447  23574705.81647
  21658407.773 6   -350552.621 6   -259111.53949  21658409.05149
 20  5 16  5 21  2.0000000  0  9G01G03G07G08G11G17G22G28G30          0.000212934
  20239590.820 7   -201683.453 7   -151235.93049  20239592.71549
  23221946.633 5   -751000.133 5   -535504.71549  23221949.64549
  21065718.492 6   -201492.891 6   -150646.96149  21065717.28549
  23265820.789 5   -102880.645 5    -68903.20347  23265822.75447
  21362035.547 6    -81039.973 6    -55441.11348  21362033.36348
  24024073.570 5   -432169.809 5   -298237.34449  24024072.89549
  22591030.727 6   -567974.969 6   -426506.87148  22591027.95348
  23573678.258 6   -541787.207 6   -404409.48847  23573675.44547
  21657743.469 6   -354044.582 6   -261832.54349  21657744.71549
 20  5 16  5 21  3.0000000  0  9G01G03G07G08G11G17G22G28G30          0.000211115
  20239204.789 7   -203712.039 7   -152816.65249  20239206.67649
  23220889.773 5   -756552.379 5   -539831.13349  23220892.85549
  21065429.555 6   -203011.617 6   -151830.39149  21065428.33649
  23265628.023 5   -103895.316 5    -69693.86347  23265629.65247
  21361888.414 6    -81814.672 6    -56044.77348  21361886.36748
  24023262.977 5   -436428.457 5   -301555.77749  24023262.31349
  22590227.648 6   -572194.652 6   -429794.93448  22590224.99248
  23572647.359 6   -547202.023 6   -408628.82447  23572645.57847
  21657078.797 6   -357536.848 6   -264553.79349  21657079.92249
 20  5 16  5 21  4.0000000  0  9G01G03G07G08G11G17G22G28G30          0.000209293
  20238818.930 7   -205740.969 7   -154397.63349  20238820.35549
  23219832.992 5   -762105.465 5   -544158.20749  23219836.29749
  21065140.422 6   -204530.754 6   -153014.13349  21065139.62149
  23265434.508 5   -104910.961 5    -70485.27747  23265436.76247
  21361740.719 6    -82590.133 6    -56649.03148  21361738.62148
  24022452.086 5   -440687.945 5   -304874.85948  24022451.88748
  22589424.758 6   -576414.887 6   -433083.42648  22589422.18848
  23571617.055 5   -552617.883 5   -412848.97747  23571615.02047
  21656414.281 6   -361029.406 6   -267275.27049  21656415.62149
 20  5 16  5 21  5.0000000  0  9G01G03G07G08G11G17G22G28G30          0.000207472
  20238432.656 7   -207770.211 7   -155978.86349  20238434.37149
  23218776.180 5   -767659.402 5   -548485.94949  23218779.24649
  21064850.938 6   -206050.258 6   -154198.16449  21064850.09449
  23265240.438 5   -105927.633 5    -71277.49247  23265243.00047
  21361592.938 6    -83366.262 6    -57253.81348  21361591.31348
  24021641.828 5   -444948.270 5   -308194.59448  24021641.32848
  22588621.469 6   -580635.652 6   -436372.32848  22588618.87948
  23570585.906 5   -558034.734 5   -417069.89847  23570584.17247
  21655749.289 6   -364522.340 6   -269997.03549  21655750.71149
 20  5 16  5 21  6.0000000  0  9G01G03G07G08G11G17G22G28G30          0.000205650
  20238046.469 7   -209799.684 7   -157560.27349  20238048.10249
  23217719.258 5   -773214.070 5   -552814.25849  23217722.38749
  21064561.828 6   -207570.043 6   -155382.41449  21064561.01249
  23265048.039 5   -106945.191 5    -72070.38747  23265049.65647
  21361445.258 6    -84143.031 6    -57859.09048  21361443.25448
  24020830.227 6   -449209.359 6   -311514.91848  24020830.17648
  22587817.992 6   -584856.895 6   -439661.60948  22587815.22748
  23569554.703 5   -563452.547 5   -421291.57447  23569553.01647
  21655084.578 6   -368015.480 6   -272718.96149  21655085.84049
 20  5 16  5 21  7.0000000  0  9G01G03G07G08G11G17G22G28G30          0.000203827
  20237660.273 7   -211829.484 7   -159141.93849  20237662.21549
  23216662.000 5   -778769.590 5   -557143.23449  23216665.10549
  21064272.594 6   -209090.191 6   -156566.95349  21064271.29749
  23264853.641 5   -107963.777 5    -72864.09447  23264855.13347
  21361297.391 6    -84920.520 6    -58464.92648  21361295.11748
  24020019.602 5   -453471.277 5   -314835.88748  24020019.63748
  22587014.438 6   -589078.695 6   -442951.32448  22587012.19548
  23568523.719 5   -568871.336 5   -425514.00047  23568521.86347
  21654419.563 6   -371508.969 6   -275441.16049  21654421.00449
 20  5 16  5 21  8.0000000  0  9G01G03G07G08G11G17G22G28G30          0.000202003
  20237273.938 7   -213859.672 7   -160723.90249  20237275.79749
  23215604.883 5   -784325.984 5   -561472.89549  23215607.87149
  21063983.484 6   -210610.762 6   -157751.81349  21063982.11749
  23264659.852 5   -108983.402 5    -73658.60547  23264661.40647
  21361149.102 6    -85698.770 6    -59071.35548  21361147.12948
  24019208.352 5   -457734.113 5   -318157.58249  24019208.23049
  22586211.047 6   -593301.074 6   -446241.48048  22586208.73448
  23567493.289 6   -574291.215 6   -429737.28947  23567490.46947
  21653755.086 6   -375002.836 6   -278163.66049  21653756.47349
 20  5 16  5 21  9.0000000  0  9G01G03G07G08G11G17G22G28G30          0.000200180
  20236887.547 7   -215890.004 7   -162305.97749  20236889.22349
  23214547.258 5   -789883.039 5   -565803.07049  23214550.50849
  21063693.852 6   -212131.559 6   -158936.85949  21063692.91049
  23264465.625 5   -110003.836 5    -74453.74647  23264467.30547
  21361000.930 6    -86477.574 6    -59678.21548  21360998.83648
  24018397.203 5   -461997.617 5   -321479.79349  24018396.87149
  22585407.086 6   -597523.824 6   -449531.93448  22585404.96148
  23566461.016 5   -579711.953 5   -433961.24647  23566459.16847
  21653090.109 6   -378496.898 6   -280886.30549  21653091.47749
 20  5 16  5 21 10.0000000  0  9G01G03G07G08G11G17G22G28G30          0.000198357
  20236501.031 7   -217920.781 7   -163888.40249  20236502.80549
  23213489.648 5   -795441.035 5   -570133.97749  23213492.73449
  21063404.320 6   -213652.805 6   -160122.23849  21063403.52349
  23264271.250 5   -111025.387 5    -75249.76247  23264272.68847
  21360852.703 6    -87257.172 6    -60285.69948  21360850.25448
  24017585.328 5   -466262.078 5   -324802.76249  24017585.55949
  22584603.578 6   -601747.246 6   -452822.91848  22584601.02348
  23565429.516 6   -585133.781 6   -438186.03947  23565427.41447
  21652425.375 6   -381991.355 6   -283609.25449  21652426.53149
 20  5 16  5 21 11.0000000  0  9G01G03G07G08G11G17G22G28G30          0.000196531
  20236114.484 7   -219951.984 7   -165471.16049  20236116.37549
  23212431.758 5   -801000.000 5   -574465.63749  23212435.03949
  21063114.781 6   -215174.551 6   -161308.00849  21063114.12549
  23264076.766 5   -112048.039 5    -76046.63747  23264078.28147
  21360703.883 6    -88037.613 6    -60893.82848  21360702.34048
  24016774.156 5   -470527.520 5   -328126.46948  24016773.78948
  22583799.703 6   -605971.309 6   -456114.39148  22583797.10548
  23564397.375 6   -590556.770 6   -442411.73847  23564395.33647
  21651760.195 6   -385486.273 6   -286332.57849  21651761.51249
 20  5 16  5 21 12.0000000  0  9G01G03G07G08G11G17G22G28G30          0.000194706
  20235728.039 7   -221983.430 7   -167054.10549  20235729.73449
  23211373.992 5   -806559.707 5   -578797.86749  23211376.82849
  21062825.430 6   -216696.578 6   -162494.00849  21062824.11749
  23263881.789 5   -113071.660 5    -76844.26247  23263883.44147
  21360555.500 6    -88818.680 6    -61502.45348  21360553.14148
  24015962.219 5   -474793.711 5   -331450.77349  24015961.80949
  22582996.281 6   -610195.832 6   -459406.22348  22582993.50048
  23563365.406 6   -595980.695 6   -446638.17647  23563363.19147
  21651095.078 6   -388981.457 6   -289056.08649  21651096.51649
 20  5 16  5 21 13.0000000  0  9G01G03G07G08G11G17G22G28G30          0.000192879
  20235341.531 7   -224015.086 7   -168637.21149  20235343.35949
  23210315.859 5   -812120.141 5   -583130.67649  23210319.00049
  21062535.563 6   -218218.875 6   -163680.21549  21062534.73849
  23263686.820 5   -114096.098 5    -77642.52047  23263688.37547
  21360406.422 6    -89600.336 6    -62111.53948  21360404.60248
  24015150.094 5   -479060.617 5   -334775.64149  24015149.83649
  22582192.508 6   -614420.781 6   -462698.39148  22582189.42648
  23562333.148 5   -601405.512 5   -450865.31347  23562331.13747
  21650429.570 6   -392476.836 6   -291779.75849  21650431.10549
 20  5 16  5 21 14.0000000  0  9G01G03G07G08G11G17G22G28G30          0.000191051
  20234954.891 7   -226046.996 7   -170220.51649  20234956.34049
  23209257.773 5   -817681.320 5   -587464.05949  23209260.57449
  21062245.867 6   -219741.477 6   -164866.65649  21062244.94949
  23263491.969 5   -115121.473 5    -78441.52047  23263493.44547
  21360257.758 6    -90382.633 6    -62721.12148  21360256.07448
  24014337.742 5   -483328.277 5   -338101.09449  24014337.91049
  22581388.313 6   -618646.234 6   -465990.94948  22581385.65648
  23561300.328 5   -606831.273 5   -455093.18847  23561298.66447
  21649764.500 6   -395972.484 6   -294503.63749  21649765.99649
 20  5 16  5 21 15.0000000  0  9G01G03G07G08G11G17G22G28G30          0.000189224
  20234568.094 7   -228079.227 7   -171804.07049  20234569.64149
  23208198.906 5   -823243.340 5   -591798.09449  23208202.30549
  21061956.000 6   -221264.430 6   -166053.37149  21061955.06649
  23263296.914 5   -116147.844 5    -79241.28947  23263298.06347
  21360108.898 6    -91165.645 6    -63331.25848  21360106.54348
  24013525.039 5   -487596.793 5   -341427.20749  24013525.52049
  22580584.508 6   -622872.203 6   -469283.91048  22580581.19148
  23560268.000 5   -612258.051 5   -459321.84447  23560265.91847
  21649099.375 6   -399468.453 6   -297227.76649  21649101.00449
 20  5 16  5 21 16.0000000  0  9G01G03G07G08G11G17G22G28G30          0.000187397
  20234181.469 7   -230111.742 7   -173387.85249  20234183.27049
  23207140.313 5   -828806.156 5   -596132.75449  23207143.70749
  21061666.305 6   -222787.703 6   -167240.34049  21061665.45749
  23263100.727 5   -117175.176 5    -80041.80147  23263102.64847
  21359959.617 6    -91949.328 6    -63941.92648  21359957.27748
  24012712.539 5   -491866.102 5   -344753.94149  24012713.28549
  22579779.813 6   -627098.668 6   -472577.26248  22579777.15648
  23559234.680 5   -617685.820 5   -463551.27347  23559233.78947
  21648434.156 6   -402964.723 6   -299952.12949  21648435.48049
 20  5 16  5 21 17.0000000  0  9G01G03G07G08G11G17G22G28G30          0.000185568
  20233794.516 7   -232144.582 7   -174971.88349  20233796.46949
  23206081.375 5   -834369.813 5   -600468.06349  23206085.08649
  21061376.359 6   -224311.391 6   -168427.63349  21061375.34449
  23262904.977 5   -118203.527 5    -80843.10947  23262906.84447
  21359810.758 6    -92733.730 6    -64553.15648  21359808.22748
  24011900.117 5   -496136.293 5   -348081.35549  24011900.87949
  22578975.227 6   -631325.695 6   -475871.04748  22578972.15648
  23558201.969 5   -623114.559 5   -467781.45347  23558200.68047
  21647768.594 6   -406461.305 6   -302676.74249  21647769.80149
 20  5 16  5 21 18.0000000  0  9G01G03G07G08G11G17G22G28G30          0.000183739
  20233407.344 7   -234177.750 7   -176556.16849  20233409.04749
  23205022.477 5   -839934.293 5   -604804.02049  23205026.16849
  21061086.102 6   -225835.430 6   -169615.19549  21061085.23049
  23262709.227 5   -119232.879 5    -81645.20347  23262711.49647
  21359661.320 6    -93518.852 6    -65164.93048  21359659.02048
  24011087.445 5   -500407.320 5   -351409.42649  24011088.00849
  22578170.570 6   -635553.277 6   -479165.26648  22578168.12948
  23557168.602 5   -628544.359 5   -472012.46547  23557167.47347
  21647103.297 6   -409958.242 6   -305401.63749  21647104.71949
 20  5 16  5 21 19.0000000  0  9G01G03G07G08G11G17G22G28G30          0.000181910
  20233020.500 7   -236211.219 7   -178140.68449  20233022.65249
  23203963.836 5   -845499.605 5   -609140.63349  23203967.34049
  21060796.563 6   -227359.809 6   -170803.02349  21060795.35249
  23262513.313 5   -120263.184 5    -82448.05147  23262515.09047
  21359511.617 6    -94304.633 6    -65777.23448  21359509.23848
  24010274.945 6   -504679.160 6   -354738.13349  24010275.17249
  22577366.039 6   -639781.363 6   -482459.87548  22577363.48448
  23556135.133 5   -633975.141 5   -476244.24647  23556133.68447
  21646437.578 6   -413455.480 6   -308126.75849  21646438.95749
 20  5 16  5 21 20.0000000  0  9G01G03G07G08G11G17G22G28G30          0.000180079
  20232633.406 7   -238244.945 7   -179725.41049  20232635.30149
  23202904.805 5   -851065.684 5   -613477.83249  23202907.82049
  21060506.078 6   -228884.488 6   -171991.09449  21060505.02349
  23262316.633 5   -121294.461 5    -83251.65247  23262318.54747
  21359361.969 6    -95091.102 6    -66390.06648  21359359.78148
  24009461.633 5   -508951.797 5   -358067.45749  24009462.07449
  22576561.867 6   -644009.930 6   -485754.86348  22576559.02348
  23555101.234 5   -639406.859 5   -480476.73847  23555100.31347
  21645772.242 6   -416952.980 6   -310852.08649  21645773.43849
 20  5 16  5 21 21.0000000  0  9G01G03G07G08G11G17G22G28G30          0.000178247
  20232246.508 7   -240278.891 7   -181310.30149  20232248.19549
  23201844.609 5   -856632.508 5   -617815.60949  23201848.48049
  21060215.789 6   -230409.461 6   -173179.37949  21060214.80949
  23262120.500 5   -122326.602 5    -84055.92247  23262122.56347
  21359212.250 6    -95878.145 6    -67003.34848  21359210.18848
  24008648.617 5   -513225.133 5   -361397.32048  24008649.19948
  22575756.617 6   -648238.930 6   -489050.18848  22575754.03148
  23554067.523 5   -644839.488 5   -484709.94547  23554066.75847
  21645106.523 6   -420450.738 6   -313577.62149  21645107.86749
 20  5 16  5 21 22.0000000  0  9G01G03G07G08G11G17G22G28G30          0.000176416
  20231859.391 7   -242313.121 7   -182895.41849  20231861.24649
  23200785.344 5   -862200.047 5   -622153.94549  23200789.14849
  21059925.813 6   -231934.746 6   -174367.91449  21059924.50849
  23261924.867 5   -123359.664 5    -84860.90647  23261925.60547
  21359062.109 6    -96665.871 6    -67617.15648  21359060.00048
  24007835.281 5   -517499.336 5   -364727.86749  24007835.77749
  22574951.539 6   -652468.422 6   -492345.89848  22574949.14148
  23553033.898 5   -650273.078 5   -488943.90647  23553032.44547
  21644441.031 6   -423948.754 6   -316303.34449  21644442.41849
 20  5 16  5 21 23.0000000  0  9G01G03G07G08G11G17G22G28G30          0.000174583
  20231472.211 7   -244347.656 7   -184480.77049  20231474.14149
  23199725.883 5   -867768.469 5   -626492.96949  23199729.32449
  21059635.156 6   -233460.414 6   -175556.75049  21059634.05549
  23261728.047 5   -124393.738 5    -85666.68447  23261728.96547
  21358912.281 6    -97454.285 6    -68231.50848  21358910.00448
  24007021.734 5   -521774.316 5   -368059.00848  24007021.98448
  22574146.711 6   -656698.449 6   -495642.02748  22574144.32848
  23551999.547 5   -655707.711 5   -493178.68847  23551998.44547
  21643775.430 6   -427447.105 6   -319029.33249  21643776.88349
 20  5 16  5 21 24.0000000  0  9G01G03G07G08G11G17G22G28G30          0.000172750
  20231085.016 7   -246382.410 7   -186066.29349  20231086.82449
  23198666.484 5   -873337.578 5   -630832.53149  23198669.77049
  21059345.063 6   -234986.305 6   -176745.75449  21059344.00049
  23261530.930 5   -125428.668 5    -86473.11747  23261532.05547
  21358761.961 6    -98243.301 6    -68846.32848  21358759.62548
  24006208.383 5   -526050.016 5   -371390.72749  24006208.29349
  22573342.031 6   -660928.906 6   -498938.48448  22573339.48848
  23550965.766 5   -661143.195 5   -497414.12547  23550964.14147
  21643109.773 6   -430945.656 6   -321755.48049  21643110.93449
 20  5 16  5 21 25.0000000  0  9G01G03G07G08G11G17G22G28G30          0.000170918
  20230697.992 7   -248417.457 7   -187652.03949  20230699.46949
  23197606.094 5   -878907.520 5   -635172.74249  23197609.71549
  21059054.648 6   -236512.555 6   -177935.04749  21059053.06649
  23261333.086 5   -126464.586 5    -87280.33247  23261335.29747
  21358611.758 6    -99033.008 6    -69461.68448  21358609.82048
  24005394.945 5   -530326.570 5   -374723.11349  24005394.76249
  22572536.883 6   -665159.898 6   -502235.36348  22572534.34448
  23549930.984 5   -666579.699 5   -501650.36347  23549929.78947
  21642443.805 6   -434444.527 6   -324481.87149  21642444.93449
 20  5 16  5 21 26.0000000  0  9G01G03G07G08G11G17G22G28G30          0.000169085
  20230310.570 7   -250452.750 7   -189237.98849  20230312.26649
  23196546.227 5   -884478.160 5   -639513.49649  23196549.67249
  21058763.859 6   -238039.078 6   -179124.54749  21058762.60949
  23261136.195 5   -127501.391 5    -88088.22747  23261137.77347
  21358461.477 6    -99823.320 6    -70077.51248  21358459.19548
  24004580.703 5   -534603.855 5   -378056.07449  24004580.28949
  22571731.859 6   -669391.316 6   -505532.57448  22571728.98848
  23548896.180 5   -672017.094 5   -505887.29747  23548894.83247
  21641778.016 6   -437943.621 6   -327208.43449  21641779.26249
 20  5 16  5 21 27.0000000  0  9G01G03G07G08G11G17G22G28G30          0.000167250
  20229923.227 7   -252488.277 7   -190824.12149  20229924.68449
  23195485.813 5   -890049.574 5   -643854.85549  23195489.56649
  21058473.391 6   -239565.898 6   -180314.27749  21058472.39149
  23260938.492 5   -128539.098 5    -88896.83247  23260940.35947
  21358311.055 6   -100614.250 6    -70693.82448  21358309.23048
  24003766.344 5   -538881.922 5   -381389.63349  24003766.57849
  22570926.531 6   -673623.191 6   -508830.14148  22570923.53148
  23547861.406 6   -677455.422 6   -510124.94947  23547860.31647
  21641111.703 6   -441442.980 6   -329935.20349  21641113.09849
 20  5 16  5 21 28.0000000  0  9G01G03G07G08G11G17G22G28G30          0.000165415
  20229535.773 7   -254524.078 7   -192410.45749  20229537.35249
  23194425.672 5   -895621.820 5   -648196.86349  23194429.37949
  21058182.617 6   -241093.066 6   -181504.28149  21058181.57849
  23260740.578 5   -129577.781 5    -89706.18847  23260742.90647
  21358160.234 6   -101405.898 6    -71310.69548  21358158.36748
  24002951.789 5   -543160.805 5   -384723.82449  24002952.05549
  22570120.844 6   -677855.609 6   -512128.12948  22570118.18048
  23546826.297 6   -682894.770 6   -514363.40647  23546824.73847
  21640445.750 6   -444942.625 6   -332662.20349  21640447.32049
 20  5 16  5 21 29.0000000  0  9G01G03G07G08G11G17G22G28G30          0.000163580
  20229148.555 7   -256560.211 7   -193997.05149  20229149.98849
  23193365.906 5   -901194.809 5   -652539.44949  23193368.65249
  21057892.156 6   -242620.555 6   -182694.53149  21057890.92249
  23260542.969 5   -130617.410 5    -90516.28947  23260544.96547
  21358009.531 6   -102198.180 6    -71928.05948  21358007.29348
  24002137.477 5   -547440.504 5   -388058.64849  24002137.64149
  22569315.383 6   -682088.520 6   -515426.49648  22569312.46148
  23545790.797 5   -688335.059 5   -518602.58647  23545789.68847
  21639779.563 6   -448442.582 6   -335389.44149  21639781.30949
 20  5 16  5 21 30.0000000  0  9G01G03G07G08G11G17G22G28G30          0.000161743
  20228760.672 7   -258596.555 7   -195583.81349  20228762.26249
  23192304.813 5   -906768.551 5   -656882.62549  23192307.78149
  21057601.773 6   -244148.352 6   -183885.02049  21057600.56649
  23260344.938 5   -131657.977 5    -91327.11747  23260346.91447
  21357858.547 6   -102991.137 6    -72545.94548  21357856.37948
  24001322.711 4   -551720.961 4   -391394.05148  24001323.47348
  22568510.070 6   -686321.879 6   -518725.21948  22568506.81348
  23544755.617 6   -693776.309 6   -522842.52747  23544754.27047
  21639113.805 6   -451942.781 6   -338116.88349  21639115.18849
 20  5 16  5 21 31.0000000  0  9G01G03G07G08G11G17G22G28G30          0.000159906
  20228372.961 7   -260633.098 7   -197170.73449  20228375.04349
  23191244.047 6   -912343.027 6   -661226.37149  23191246.97749
  21057310.766 6   -245676.363 6   -185075.68449  21057309.85549
  23260146.680 5   -132699.371 5    -92138.60247  23260148.42647
  21357707.969 6   -103784.641 6    -73164.25848  21357705.70348
  24000508.461 5   -556002.012 5   -394729.93048  24000508.57448
  22567704.469 6   -690555.648 6   -522024.26248  22567701.10248
  23543720.578 6   -699218.391 6   -527083.10947  23543718.55147
  21638448.117 6   -455443.184 6   -340844.47749  21638449.04749
 20  5 16  5 21 32.0000000  0  9G01G03G07G08G11G17G22G28G30          0.000158070
  20227985.773 7   -262669.926 7   -198757.87149  20227987.53549
  23190183.430 5   -917918.305 5   -665570.74249  23190186.39549
  21057020.039 6   -247204.766 6   -186266.65249  21057018.81649
  23259948.391 5   -133741.777 5    -92950.87147  23259950.69947
  21357556.297 6   -104578.848 6    -73783.12548  21357554.22348
  23999693.250 4   -560284.039 4   -398066.57848  23999693.82848
  22566898.898 6   -694789.973 6   -525323.73448  22566895.65648
  23542684.227 6   -704661.504 6   -531324.49247  23542682.92647
  21637781.914 6   -458943.875 6   -343572.28149  21637783.14849
 20  5 16  5 21 33.0000000  0  9G01G03G07G08G11G17G22G28G30          0.000156233
  20227597.914 7   -264707.141 7   -200345.30949  20227599.84449
  23189122.313 5   -923494.434 5   -669915.77349  23189124.60249
  21056728.844 6   -248733.555 6   -187457.91049  21056727.82049
  23259749.836 5   -134785.184 5    -93763.91847  23259752.07047
  21357405.242 6   -105373.793 6    -74402.56648  21357403.03548
  23998878.547 5   -564566.883 5   -401403.85548  23998878.22348
  22566092.633 6   -699024.824 6   -528623.62548  22566089.67648
  23541648.180 5   -710105.641 5   -535566.68847  23541647.08647
  21637115.531 6   -462444.945 6   -346300.37949  21637116.80149
 20  5 16  5 21 34.0000000  0  9G01G03G07G08G11G17G22G28G30          0.000154394
  20227210.266 7   -266744.539 7   -201932.89149  20227212.02049
  23188060.469 5   -929071.281 5   -674261.37149  23188063.93449
  21056437.734 6   -250262.555 6   -188649.34049  21056436.87949
  23259551.141 5   -135829.508 5    -94577.67647  23259553.60247
  21357253.766 6   -106169.332 6    -75022.46548  21357251.72748
  23998063.461 4   -568850.438 4   -404741.69148  23998063.59448
  22565286.617 6   -703260.121 6   -531923.85248  22565283.68448
  23540611.398 5   -715550.684 5   -539809.57847  23540611.23047
  21636449.156 6   -465946.230 6   -349028.65649  21636450.77349
 20  5 16  5 21 35.0000000  0  9G01G03G07G08G11G17G22G28G30          0.000152555
  20226822.523 7   -268782.105 7   -203520.60249  20226824.03149
  23186999.375 5   -934648.781 5   -678607.47749  23187002.39149
  21056147.039 6   -251791.813 6   -189840.97349  21056145.84849
  23259352.406 5   -136874.617 5    -95392.04347  23259354.53947
  21357102.148 6   -106965.414 6    -75642.78948  21357100.49648
  23997248.203 5   -573134.691 5   -408080.07048  23997248.14548
  22564480.875 6   -707495.793 6   -535224.37548  22564477.60948
  23539575.430 6   -720996.590 6   -544053.14547  23539574.09447
  21635782.813 6   -469447.656 6   -351757.04749  21635783.90249
 20  5 16  5 21 36.0000000  0  9G01G03G07G08G11G17G22G28G30          0.000150715
  20226434.805 7   -270819.977 7   -205108.55549  20226436.51249
  23185937.914 5   -940227.105 5   -682954.21949  23185940.52749
  21055855.992 6   -253321.410 6   -191032.86749  21055855.10249
  23259153.352 5   -137920.754 5    -96207.21547  23259154.78547
  21356950.523 6   -107762.191 6    -76263.65648  21356948.57448
  23996433.156 5   -577419.777 5   -411419.10248  23996432.87548
  22563674.477 6   -711731.996 6   -538525.30948  22563671.59848
  23538539.328 5   -726443.445 5   -548297.44547  23538537.95347
  21635116.383 6   -472949.395 6   -354485.68049  21635117.62949
 20  5 16  5 21 37.0000000  0  9G01G03G07G08G11G17G22G28G30          0.000148876
  20226047.156 7   -272858.012 7   -206696.64149  20226048.49249
  23184876.352 5   -945806.117 5   -687301.50449  23184879.34049
  21055564.414 6   -254851.215 6   -192224.93049  21055563.46149
  23258954.211 5   -138967.703 5    -97023.03147  23258956.17247
  21356798.813 6   -108559.547 6    -76884.97348  21356796.79748
  23995617.023 4   -581705.555 4   -414758.66848  23995617.02048
  22562868.758 6   -715968.590 6   -541826.55548  22562865.55548
  23537502.742 6   -731891.219 6   -552542.46947  23537501.18447
  21634450.180 6   -476451.340 6   -357214.47349  21634451.18449
 20  5 16  5 21 38.0000000  0  9G01G03G07G08G11G17G22G28G30          0.000147036
  20225659.023 7   -274896.289 7   -208284.91049  20225660.62549
  23183814.555 5   -951385.855 5   -691649.35249  23183817.63349
  21055273.383 6   -256381.277 6   -193417.18849  21055272.40249
  23258754.570 5   -140015.555 5    -97839.53947  23258756.79747
  21356647.094 6   -109357.488 6    -77506.75048  21356644.84448
  23994801.344 5   -585992.035 5   -418098.77748  23994801.37948
  22562061.992 6   -720205.602 6   -545128.11748  22562059.21548
  23536465.594 6   -737339.875 6   -556788.16847  23536464.35247
  21633783.789 6   -479953.500 6   -359943.43449  21633784.91849
 20  5 16  5 21 39.0000000  0  9G01G03G07G08G11G17G22G28G30          0.000145193
  20225271.219 7   -276934.770 7   -209873.33249  20225272.90649
  23182752.375 5   -956966.305 5   -695997.75049  23182755.66849
  21054982.320 6   -257911.633 6   -194609.68049  21054980.99649
  23258555.516 5   -141064.250 5    -98656.69947  23258556.90247
  21356494.945 6   -110156.027 6    -78128.99248  21356493.13748
  23993985.672 5   -590279.297 5   -421439.49648  23993985.70748
  22561255.766 6   -724443.066 6   -548430.03548  22561252.94948
  23535428.227 5   -742789.434 5   -561034.58247  23535426.98847
  21633117.133 6   -483455.871 6   -362672.54749  21633118.14549
 20  5 16  5 21 40.0000000  0  9G01G03G07G08G11G17G22G28G30          0.000143353
  20224883.195 7   -278973.242 7   -211461.75449  20224885.18049
  23181690.195 5   -962547.250 5   -700346.53549  23181693.64149
  21054691.281 6   -259442.047 6   -195802.21149  21054689.81649
  23258355.188 5   -142113.680 5    -99474.43047  23258357.05547
  21356343.039 6   -110954.984 6    -78751.55148  21356341.13748
  23993169.742 5   -594567.063 5   -424780.60948  23993169.46548
  22560449.148 6   -728680.742 6   -551732.11748  22560446.24648
  23534391.063 5   -748239.668 5   -565281.51647  23534390.21147
  21632450.844 6   -486958.258 6   -365401.68049  21632451.59049
 20  5 16  5 21 41.0000000  0  9G01G03G07G08G11G17G22G28G30          0.000141510
  20224495.313 7   -281011.941 7   -213050.35249  20224497.07849
  23180627.359 5   -968128.934 5   -704695.89849  23180631.20749
  21054400.047 6   -260972.699 6   -196994.93449  21054398.60549
  23258155.578 5   -143163.934 5   -100292.81347  23258157.21147
  21356190.883 6   -111754.520 6    -79374.56648  21356188.80948
  23992353.781 5   -598855.547 5   -428122.28148  23992353.97348
  22559642.414 6   -732918.848 6   -555034.54348  22559639.75048
  23533353.875 5   -753690.813 5   -569529.16447  23533352.69947
  21631784.125 6   -490460.871 6   -368130.98449  21631785.05549
 20  5 16  5 21 42.0000000  0  9G01G03G07G08G11G17G22G28G30          0.000139668
  20224107.492 7   -283050.891 7   -214639.13749  20224109.40649
  23179565.742 5   -973711.352 5   -709045.83249  23179569.15249
  21054109.023 6   -262503.641 6   -198187.86749  21054107.67249
  23257955.742 5   -144215.121 5   -101111.92647  23257957.15247
  21356038.703 6   -112554.715 6    -79998.09848  21356036.60548
  23991537.414 5   -603144.797 5   -431464.55548  23991537.27348
  22558836.031 6   -737157.418 6   -558337.31648  22558833.19148
  23532315.883 5   -759142.906 5   -573777.54347  23532314.91847
  21631117.617 6   -493963.719 6   -370860.47749  21631118.80149
 20  5 16  5 21 43.0000000  0  9G01G03G07G08G11G17G22G28G30          0.000137825
  20223719.219 7   -285089.922 7   -216227.99649  20223720.80149
  23178503.445 5   -979294.395 5   -713396.25049  23178506.87549
  21053817.031 6   -264034.766 6   -199380.95349  21053816.28949
  23257755.023 5   -145267.117 5   -101931.66447  23257756.99647
  21355886.594 6   -113355.367 6    -80621.98848  21355884.39848
  23990721.055 5   -607434.703 5   -434807.34448  23990721.00448
  22558029.617 6   -741396.324 6   -561640.36348  22558026.40648
  23531278.641 5   -764595.816 5   -578026.55147  23531277.48447
  21630450.813 6   -497466.688 6   -373590.06649  21630452.05949
 20  5 16  5 21 44.0000000  0  9G01G03G07G08G11G17G22G28G30          0.000135983
  20223331.203 7   -287129.195 7   -217817.03949  20223332.89849
  23177440.805 5   -984878.148 5   -717747.23049  23177443.90649
  21053525.477 6   -265566.137 6   -200574.23049  21053524.58649
  23257554.695 5   -146319.938 5   -102752.04747  23257556.69547
  21355733.961 6   -114156.672 6    -81246.37948  21355731.96548
  23989904.547 5   -611725.336 5   -438150.69148  23989904.74648
  22557222.477 6   -745635.660 6   -564943.74248  22557219.86348
  23530240.992 5   -770049.629 5   -582276.27347  23530239.75047
  21629784.563 6   -500969.898 6   -376319.84049  21629785.76649
 20  5 16  5 21 45.0000000  0  9G01G03G07G08G11G17G22G28G30          0.000134138
  20222942.977 7   -289168.758 7   -219406.30949  20222944.99649
  23176378.617 5   -990462.703 5   -722098.83249  23176381.41849
  21053234.211 6   -267097.867 6   -201767.78549  21053233.37549
  23257353.969 5   -147373.750 5   -103573.21547  23257356.52047
  21355581.430 6   -114958.629 6    -81871.28148  21355579.46948
  23989087.672 5   -616016.754 5   -441494.65648  23989087.92248
  22556415.578 6   -749875.496 6   -568247.51248  22556413.26248
  23529203.234 5   -775504.395 5   -586526.73847  23529201.63347
  21629117.555 6   -504473.375 6   -379049.82849  21629118.77349
 20  5 16  5 21 46.0000000  0  9G01G03G07G08G11G17G22G28G30          0.000132294
  20222554.789 7   -291208.496 7   -220995.71949  20222556.47349
  23175314.758 5   -996047.941 5   -726450.96949  23175318.62549
  21052942.914 6   -268629.813 6   -202961.51249  21052941.89149
  23257153.719 5   -148428.406 5   -104395.02747  23257155.41047
  21355428.648 6   -115761.148 6    -82496.62148  21355426.55148
  23988271.094 5   -620308.898 5   -444839.18848  23988271.17248
  22555609.023 6   -754115.727 6   -571551.59048  22555606.45348
  23528164.828 5   -780960.039 5   -590777.89547  23528163.54747
  21628451.125 6   -507977.066 6   -381779.97749  21628452.09449
 20  5 16  5 21 47.0000000  0  9G01G03G07G08G11G17G22G28G30          0.000130447
  20222166.539 7   -293248.504 7   -222585.34049  20222168.35549
  23174251.961 5  -1001633.949 5   -730803.69949  23174255.36749
  21052650.766 6   -270162.063 6   -204155.47749  21052649.99249
  23256952.836 5   -149484.012 5   -105217.57847  23256954.48047
  21355275.594 6   -116564.320 6    -83122.47348  21355273.51248
  23987453.922 5   -624601.832 5   -448184.32448  23987454.40248
  22554802.023 6   -758356.426 6   -574856.03548  22554799.52748
  23527126.070 5   -786416.625 5   -595029.77747  23527125.28947
  21627784.367 6   -511481.008 6   -384510.32449  21627785.41849
 20  5 16  5 21 48.0000000  0  9G01G03G07G08G11G17G22G28G30          0.000128601
  20221778.484 7   -295288.723 7   -224175.11749  20221780.20349
  23173189.094 5  -1007220.676 5   -735156.99249  23173192.32849
  21052359.539 6   -271694.582 6   -205349.64849  21052358.55949
  23256751.719 5   -150540.492 5   -106040.81647  23256753.35247
  21355123.094 6   -117368.105 6    -83748.79748  21355120.70348
  23986636.594 5   -628895.465 5   -451530.01248  23986637.28548
  22553995.203 6   -762597.559 6   -578160.81348  22553992.44548
  23526088.133 5   -791874.117 5   -599282.36747  23526086.52747
  21627117.094 6   -514985.160 6   -387240.82849  21627118.58249
 20  5 16  5 21 49.0000000  0  9G01G03G07G08G11G17G22G28G30          0.000126755
  20221390.414 7   -297329.258 7   -225765.14849  20221392.02049
  23172125.906 5  -1012808.234 5   -739510.93049  23172129.11749
  21052067.867 6   -273227.457 6   -206544.09849  21052066.73049
  23256550.805 5   -151597.949 5   -106864.80947  23256552.72347
  21354969.688 6   -118172.574 6    -84375.65248  21354967.67648
  23985819.914 5   -633189.965 5   -454876.37148  23985820.20348
  22553187.883 6   -766839.227 6   -581466.00848  22553184.97748
  23525049.391 5   -797332.609 5   -603535.73847  23525048.00447
  21626450.320 6   -518489.637 6   -389971.59449  21626451.45749
 20  5 16  5 21 50.0000000  0  9G01G03G07G08G11G17G22G28G30          0.000124908
  20221002.133 7   -299370.043 7   -227355.36349  20221003.68849
  23171062.805 5  -1018396.527 5   -743865.44149  23171066.09449
  21051776.320 6   -274760.648 6   -207738.80149  21051775.21549
  23256349.070 5   -152656.352 5   -107689.54347  23256350.84047
  21354816.805 6   -118977.699 6    -85003.02748  21354814.78948
  23985002.680 5   -637485.203 5   -458223.31348  23985002.41048
  22552380.563 6   -771081.375 6   -584771.57448  22552378.29348
  23524010.336 5   -802792.039 5   -607789.84447  23524008.90247
  21625783.219 6   -521994.406 6   -392702.57449  21625784.70749
 20  5 16  5 21 51.0000000  0  9G01G03G07G08G11G17G22G28G30          0.000123060
  20220613.328 7   -301411.086 7   -228945.78949  20220615.26249
  23169998.875 5  -1023985.586 5   -748220.54749  23170002.39549
  21051484.414 6   -276294.137 6   -208933.72749  21051483.20349
  23256147.414 5   -153715.656 5   -108514.97347  23256149.47347
  21354663.336 6   -119783.449 6    -85630.89148  21354660.88748
  23984185.648 5   -641781.262 5   -461570.89548  23984185.19948
  22551572.938 6   -775323.988 6   -588077.50048  22551570.53548
  23522971.633 5   -808252.414 5   -612044.68047  23522969.75847
  21625116.547 6   -525499.406 6   -395433.75049  21625117.95749
 20  5 16  5 21 52.0000000  0  9G01G03G07G08G11G17G22G28G30          0.000121214
  20220224.977 7   -303452.277 7   -230536.33249  20220226.75049
  23168935.125 5  -1029575.344 5   -752576.20749  23168938.55149
  21051192.375 6   -277827.824 6   -210128.80949  21051191.33649
  23255946.133 5   -154775.789 5   -109341.04747  23255947.83247
  21354509.852 6   -120589.773 6    -86259.19148  21354508.06348
  23983367.469 5   -646077.945 5   -464918.96948  23983367.44148
  22550765.891 6   -779566.957 6   -591383.71948  22550763.56348
  23521932.000 5   -813713.652 5   -616300.18847  23521930.57447
  21624449.547 6   -529004.590 6   -398165.05949  21624450.89849
 20  5 16  5 21 53.0000000  0  9G01G03G07G08G11G17G22G28G30          0.000119364
  20219836.383 7   -305493.777 7   -232127.10949  20219838.42249
  23167871.273 5  -1035165.844 5   -756932.43449  23167874.60249
  21050900.844 6   -279361.855 6   -211324.15649  21050899.50049
  23255744.281 5   -155836.902 5   -110167.89147  23255745.87947
  21354356.266 6   -121396.754 6    -86888.00448  21354354.39848
  23982549.664 5   -650375.504 5   -468267.71548  23982549.68048
  22549958.336 6   -783810.449 6   -594690.33648  22549956.17248
  23520892.383 5   -819175.859 5   -620556.44947  23520891.02347
  21623782.352 6   -532510.047 6   -400896.58649  21623783.66449
 20  5 16  5 21 54.0000000  0  9G01G03G07G08G11G17G22G28G30          0.000117516
  20219447.977 7   -307535.461 7   -233718.03549  20219450.01649
  23166807.438 5  -1040757.121 5   -761289.26649  23166811.09449
  21050608.703 6   -280896.152 6   -212519.71549  21050607.66449
  23255541.875 5   -156898.879 5   -110995.40647  23255543.76647
  21354202.695 6   -122204.352 6    -87517.30548  21354200.44948
  23981731.203 5   -654673.781 5   -471617.01248  23981731.93048
  22549150.391 6   -788054.359 6   -597997.27348  22549148.21148
  23519853.086 5   -824638.988 5   -624813.43847  23519851.62947
  21623115.328 6   -536015.734 6   -403628.28949  21623116.89549
 20  5 16  5 21 55.0000000  0  9G01G03G07G08G11G17G22G28G30          0.000115665
  20219059.398 7   -309577.406 7   -235309.16049  20219061.27049
  23165743.180 5  -1046349.082 5   -765646.63749  23165747.44149
  21050316.516 6   -282430.730 6   -213715.48849  21050315.28949
  23255339.813 5   -157961.742 5   -111823.61347  23255341.50847
  21354048.852 6   -123012.586 6    -88147.09448  21354046.93848
  23980913.102 5   -658972.773 5   -474966.86948  23980913.33648
  22548342.781 6   -792298.730 6   -601304.58248  22548340.56648
  23518813.344 5   -830103.023 5   -629071.12147  23518811.37147
  21622447.906 6   -539521.672 6   -406360.19549  21622449.63749
 20  5 16  5 21 56.0000000  0  9G01G03G07G08G11G17G22G28G30          0.000113815
  20218670.758 7   -311619.664 7   -236900.52749  20218672.49249
  23164679.031 5  -1051941.844 5   -770004.62949  23164682.53549
  21050024.273 6   -283965.648 6   -214911.53149  21050023.18049
  23255137.563 5   -159025.625 5   -112652.61747  23255139.16847
  21353894.656 6   -123821.496 6    -88777.41448  21353893.02348
  23980094.773 5   -663272.602 5   -478317.37948  23980095.31648
  22547535.531 6   -796543.602 6   -604612.26648  22547532.41448
  23517773.719 6   -835568.047 6   -633329.58647  23517771.66847
  21621780.805 6   -543027.887 6   -409092.30949  21621782.33249
 20  5 16  5 21 57.0000000  0  9G01G03G07G08G11G17G22G28G30          0.000111965
  20218281.945 7   -313662.027 7   -238491.98049  20218283.86349
  23163614.016 5  -1057535.250 5   -774363.12549  23163617.68049
  21049732.391 6   -285500.734 6   -216107.70349  21049731.35249
  23254934.688 5   -160090.266 5   -113482.20347  23254936.59847
  21353740.609 6   -124630.926 6    -89408.13748  21353738.92648
  23979276.648 5   -667573.047 5   -481668.37548  23979276.98048
  22546727.773 6   -800788.809 6   -607920.22748  22546725.04348
  23516733.250 6   -841033.914 6   -637588.69947  23516731.68047
  21621113.734 6   -546534.266 6   -411824.55949  21621114.95349
 20  5 16  5 21 58.0000000  0  9G01G03G07G08G11G17G22G28G30          0.000110113
  20217893.406 7   -315704.578 7   -240083.57849  20217895.20749
  23162549.859 5  -1063129.328 5   -778722.14549  23162553.73049
  21049440.219 6   -287036.051 6   -217304.05149  21049439.24649
  23254732.484 5   -161155.754 5   -114312.45747  23254733.57047
  21353586.344 6   -125440.887 6    -90039.27748  21353584.59848
  23978458.305 5   -671874.223 5   -485019.94948  23978458.70748
  22545919.633 6   -805034.395 6   -611228.47348  22545916.79748
  23515693.313 6   -846500.598 6   -641848.45347  23515691.18047
  21620446.320 6   -550040.793 6   -414556.91049  21620447.60549
 20  5 16  5 21 59.0000000  0  9G01G03G07G08G11G17G22G28G30          0.000108261
  20217504.656 7   -317747.313 7   -241675.31349  20217506.74249
  23161485.773 5  -1068724.055 5   -783081.66449  23161488.91849
  21049147.914 6   -288571.602 6   -218500.58649  21049146.97349
  23254528.852 5   -162222.082 5   -115143.36347  23254530.96547
  21353432.234 6   -126251.449 6    -90670.89148  21353430.55148
  23977640.195 5   -676176.070 5   -488372.03948  23977640.18048
  22545111.758 6   -809280.402 6   -614537.05148  22545108.82448
  23514652.094 5   -851968.176 5   -646108.90647  23514650.92247
  21619778.656 6   -553547.496 6   -417289.41049  21619780.20749
 20  5 16  5 22  0.0000000  0  9G01G03G07G08G11G17G22G28G30          0.000106409
  20217115.961 7   -319790.211 7   -243267.19149  20217117.81649
  23160420.328 5  -1074319.520 5   -787441.77049  23160424.02749
  21048855.727 6   -290107.406 6   -219697.32049  21048854.70749
  23254326.547 5   -163289.305 5   -115974.96547  23254328.13747
  21353277.930 6   -127062.605 6    -91302.95348  21353276.04748
  23976820.828 4   -680478.672 4   -491724.71548  23976821.14548
  22544303.773 6   -813526.805 6   -617845.93848  22544301.26648
  23513611.859 6   -857436.648 6   -650370.05947  23513610.35947
  21619111.664 6   -557054.430 6   -420022.08649  21619113.14549
 20  5 16  5 22  1.0000000  0  9G01G03G07G08G11G17G22G28G30          0.000104557
  20216727.320 7   -321833.313 7   -244859.21149  20216729.18449
  23159355.734 5  -1079915.684 5   -791802.42249  23159359.10549
  21048563.453 6   -291643.434 6   -220894.23049  21048562.50849
  23254122.375 5   -164357.359 5   -116807.21547  23254124.49647
  21353122.969 6   -127874.309 6    -91935.45748  21353121.75448
  23976002.172 5   -684781.895 5   -495077.88348  23976002.47348
  22543495.875 6   -817773.605 6   -621155.13748  22543492.82048
  23512571.047 6   -862905.945 6   -654631.84447  23512569.10547
  21618444.453 6   -560561.531 6   -422754.89849  21618445.48849
 20  5 16  5 22  2.0000000  0  9G01G03G07G08G11G17G22G28G30          0.000102703
  20216338.172 7   -323876.672 7   -246451.44549  20216340.00049
  23158290.797 5  -1085512.570 5   -796163.62549  23158294.38349
  21048271.234 6   -293179.766 6   -222091.36749  21048270.21549
  23253919.039 5   -165426.355 5   -117640.19947  23253920.82847
  21352968.789 6   -128686.668 6    -92568.46548  21352966.90248
  23975183.250 5   -689086.023 5   -498431.73848  23975183.27048
  22542687.516 6   -822020.895 6   -624464.71148  22542684.74648
  23511529.750 6   -868376.203 6   -658894.38347  23511528.45747
  21617777.016 6   -564068.906 6   -425487.92249  21617778.21549
 20  5 16  5 22  3.0000000  0  9G01G03G07G08G11G17G22G28G30          0.000100849
  20215949.688 7   -325920.184 7   -248043.78549  20215951.42249
  23157225.586 5  -1091110.121 5   -800525.34849  23157229.14849
  21047978.773 6   -294716.285 6   -223288.65649  21047977.87949
  23253715.430 5   -166496.148 5   -118473.80547  23253717.57447
  21352814.289 6   -129499.563 6    -93201.89848  21352812.39548
  23974364.297 5   -693390.730 5   -501786.04348  23974364.03148
  22541878.992 6   -826268.523 6   -627774.54748  22541876.48048
  23510488.891 5   -873847.316 5   -663157.59847  23510487.14847
  21617109.414 6   -567576.441 6   -428221.05549  21617110.73049
 20  5 16  5 22  4.0000000  0  9G01G03G07G08G11G17G22G28G30          0.000098995
  20215560.633 7   -327963.934 7   -249636.32049  20215562.19149
  23156160.109 5  -1096708.406 5   -804887.64549  23156163.79349
  21047686.125 6   -296253.105 6   -224486.18049  21047685.14149
  23253511.789 5   -167566.875 5   -119308.13747  23253513.09847
  21352659.008 6   -130313.070 6    -93835.80148  21352657.43848
  23973544.664 5   -697696.223 5   -505140.96548  23973544.78548
  22541070.867 6   -830516.617 6   -631084.74648  22541067.86348
  23509447.445 5   -879319.344 5   -667421.51247  23509445.59047
  21616441.813 6   -571084.203 6   -430954.37549  21616443.14549
 20  5 16  5 22  5.0000000  0  9G01G03G07G08G11G17G22G28G30          0.000097139
  20215171.594 7   -330007.824 7   -251228.96549  20215173.21549
  23155095.055 5  -1102307.328 5   -809250.43849  23155097.93449
  21047393.609 6   -297790.109 6   -225683.84849  21047392.41849
  23253307.578 5   -168638.398 5   -120143.08647  23253310.00047
  21352504.313 6   -131127.121 6    -94470.12548  21352502.43048
  23972725.148 5   -702002.340 5   -508496.38748  23972725.07448
  22540262.086 6   -834765.051 6   -634395.21548  22540259.11348
  23508406.180 6   -884792.188 6   -671686.06347  23508404.18847
  21615774.594 6   -574592.125 6   -433687.82449  21615775.94549
 20  5 16  5 22  6.0000000  0  9G01G03G07G08G11G17G22G28G30          0.000095285
  20214782.859 7   -332051.883 7   -252821.73849  20214784.50449
  23154029.078 5  -1107906.934 5   -813613.77049  23154032.70749
  21047101.258 6   -299327.328 6   -226881.68849  21047100.60249
  23253102.906 5   -169710.754 5   -120978.69147  23253105.68447
  21352349.586 6   -131941.730 6    -95104.88348  21352347.41848
  23971905.141 5   -706309.164 5   -511852.35948  23971905.50048
  22539453.578 6   -839013.887 6   -637705.99248  22539451.16448
  23507364.875 6   -890265.871 6   -675951.27047  23507362.54747
  21615106.680 6   -578100.195 6   -436421.39149  21615108.53549
 20  5 16  5 22  7.0000000  0  9G01G03G07G08G11G17G22G28G30          0.000093428
  20214393.547 7   -334096.102 7   -254414.63749  20214395.21549
  23152963.242 5  -1113507.211 5   -817977.62149  23152966.81649
  21046808.805 6   -300864.766 6   -228079.68849  21046807.34449
  23252898.984 5   -170783.918 5   -121814.92247  23252901.44547
  21352194.625 6   -132756.887 6    -95740.07048  21352192.13748
  23971085.695 5   -710616.684 5   -515208.87548  23971086.23448
  22538644.719 6   -843263.078 6   -641017.05148  22538642.18448
  23506323.133 5   -895740.453 5   -680217.17647  23506320.83647
  21614439.641 6   -581608.445 6   -439155.08649  21614440.71149
 20  5 16  5 22  8.0000000  0  9G01G03G07G08G11G17G22G28G30          0.000091572
  20214004.609 7   -336140.445 7   -256007.62949  20214006.37549
  23151897.539 5  -1119108.078 5   -822341.93049  23151900.97349
  21046515.984 6   -302402.352 6   -229277.80149  21046515.12149
  23252694.898 5   -171857.895 5   -122651.78547  23252696.87547
  21352039.250 6   -133572.531 6    -96375.63748  21352037.14848
  23970265.836 5   -714924.820 5   -518565.87148  23970265.84448
  22537836.102 6   -847512.609 6   -644328.37548  22537833.69148
  23505280.883 5   -901215.789 5   -684483.68047  23505278.59047
  21613771.523 6   -585116.820 6   -441888.88349  21613773.06649
 20  5 16  5 22  9.0000000  0  9G01G03G07G08G11G17G22G28G30          0.000089716
  20213615.367 7   -338184.871 7   -257600.69149  20213617.29749
  23150831.883 5  -1124709.539 5   -826706.69949  23150835.03949
  21046223.602 6   -303940.086 6   -230476.04349  21046222.48849
  23252490.898 5   -172932.594 5   -123489.22347  23252492.30947
  21351884.016 6   -134388.684 6    -97011.60248  21351881.78148
  23969445.477 5   -719233.594 5   -521923.35548  23969445.91448
  22537027.453 6   -851762.445 6   -647639.93048  22537025.17648
  23504238.688 5   -906691.910 5   -688750.78547  23504236.86747
  21613104.289 6   -588625.270 6   -444622.74249  21613105.45349
 20  5 16  5 22 10.0000000  0  9G01G03G07G08G11G17G22G28G30          0.000087858
  20213226.602 7   -340229.402 7   -259193.83249  20213228.23849
  23149765.289 5  -1130311.613 5   -831071.94949  23149768.68049
  21045930.664 6   -305477.953 6   -231674.38349  21045929.93449
  23252285.625 5   -174008.105 5   -124327.29347  23252287.59047
  21351728.609 6   -135205.313 6    -97647.93448  21351726.44548
  23968626.273 5   -723542.969 5   -525281.30948  23968626.05148
  22536218.742 6   -856012.582 6   -650951.72348  22536216.06648
  23503196.234 5   -912168.824 5   -693018.52047  23503194.60547
  21612436.375 6   -592133.852 6   -447356.70349  21612437.66449
 20  5 16  5 22 11.0000000  0  9G01G03G07G08G11G17G22G28G30          0.000086000
  20212837.328 7   -342274.137 7   -260787.13349  20212839.03549
  23148699.023 5  -1135914.426 5   -835437.78149  23148702.75449
  21045638.117 6   -307016.113 6   -232872.94949  21045637.09849
  23252081.523 5   -175084.473 5   -125166.01647  23252083.09047
  21351572.922 6   -136022.535 6    -98284.73448  21351570.78148
  23967805.789 5   -727853.098 5   -528639.84848  23967805.64548
  22535409.977 6   -860263.160 6   -654263.86348  22535407.44948
  23502153.969 5   -917646.637 5   -697286.93447  23502152.06347
  21611768.625 6   -595642.645 6   -450090.82849  21611770.27049
 20  5 16  5 22 12.0000000  0  9G01G03G07G08G11G17G22G28G30          0.000084143
  20212448.406 7   -344319.031 7   -262380.55949  20212450.02749
  23147632.852 5  -1141517.863 5   -839804.09449  23147636.52049
  21045345.305 6   -308554.449 6   -234071.65249  21045344.41449
  23251875.969 5   -176161.664 5   -126005.39847  23251877.68447
  21351417.500 6   -136840.305 6    -98921.96148  21351415.48848
  23966985.430 5   -732163.844 5   -531998.86748  23966985.43848
  22534600.820 6   -864514.086 6   -657576.27748  22534598.27748
  23501111.625 5   -923125.262 5   -701555.98847  23501109.50447
  21611100.984 6   -599151.582 6   -452825.06649  21611102.51249
 20  5 16  5 22 13.0000000  0  9G01G03G07G08G11G17G22G28G30          0.000082283
  20212059.156 7   -346364.098 7   -263974.11349  20212061.02349
  23146566.461 5  -1147121.965 5   -844170.92249  23146570.27749
  21045052.617 6   -310093.027 6   -235270.55149  21045051.27349
  23251670.844 5   -177239.719 5   -126845.44147  23251672.98847
  21351261.719 6   -137658.633 6    -99559.62148  21351259.57048
  23966164.617 5   -736475.316 5   -535358.45748  23966165.03548
  22533791.539 6   -868765.422 6   -660889.00848  22533789.46548
  23500068.914 5   -928604.781 5   -705825.73047  23500066.93047
  21610433.180 6   -602660.695 6   -455559.43849  21610434.17249
 20  5 16  5 22 14.0000000  0  9G01G03G07G08G11G17G22G28G30          0.000080423
  20211670.023 7   -348409.383 7   -265567.84849  20211671.40249
  23145500.344 5  -1152726.813 5   -848538.33249  23145503.54349
  21044759.602 6   -311631.840 6   -236469.62549  21044759.03149
  23251465.734 5   -178318.656 5   -127686.17247  23251467.49247
  21351106.078 6   -138477.570 6   -100197.75448  21351103.98048
  23965343.914 5   -740787.531 5   -538718.62948  23965344.32448
  22532982.703 6   -873017.145 6   -664202.03548  22532979.93448
  23499026.602 5   -934085.168 5   -710096.16447  23499024.20747
  21609765.531 6   -606170.020 6   -458293.98049  21609766.43449
 20  5 16  5 22 15.0000000  0  9G01G03G07G08G11G17G22G28G30          0.000078564
  20211280.742 7   -350454.836 7   -267161.70749  20211282.64149
  23144433.875 5  -1158332.309 5   -852906.25449  23144436.83249
  21044466.500 6   -313170.895 6   -237668.88749  21044465.98849
  23251260.445 5   -179398.391 5   -128527.52147  23251262.12147
  21350949.859 6   -139297.074 6   -100836.32848  21350948.09448
  23964523.609 5   -745100.418 5   -542079.32048  23964523.56348
  22532173.586 6   -877269.281 6   -667515.38348  22532171.12948
  23497983.211 6   -939566.434 6   -714367.28547  23497981.25847
  21609097.844 6   -609679.535 6   -461028.67249  21609098.68849
 20  5 16  5 22 16.0000000  0  9G01G03G07G08G11G17G22G28G30          0.000076704
  20210891.531 7   -352500.434 7   -268755.67649  20210893.04349
  23143366.641 5  -1163938.430 5   -857274.65649  23143369.83249
  21044173.969 6   -314710.117 6   -238868.28949  21044173.19549
  23251054.609 5   -180478.945 5   -129369.52047  23251056.25047
  21350793.641 6   -140117.070 6   -101475.29348  21350791.94148
  23963702.523 5   -749413.934 5   -545440.50448  23963703.03548
  22531364.664 6   -881521.750 6   -670828.99248  22531361.99248
  23496940.430 6   -945048.484 6   -718639.01647  23496937.62947
  21608429.445 6   -613189.180 6   -463763.46149  21608430.89149
 20  5 16  5 22 17.0000000  0  9G01G03G07G08G11G17G22G28G30          0.000074842
  20210502.508 7   -354546.215 7   -270349.79749  20210504.06649
  23142299.539 5  -1169545.238 5   -861643.59849  23142302.72749
  21043880.867 6   -316249.590 6   -240067.87949  21043879.82449
  23250848.477 5   -181560.379 5   -130212.19547  23250851.00447
  21350637.555 6   -140937.672 6   -102114.71948  21350635.68448
  23962881.234 5   -753728.195 5   -548802.26648  23962881.67248
  22530555.250 6   -885774.613 6   -674142.91048  22530552.73448
  23495897.016 6   -950531.434 6   -722911.44547  23495893.95747
  21607761.656 6   -616699.023 6   -466498.39849  21607763.24249
 20  5 16  5 22 18.0000000  0  9G01G03G07G08G11G17G22G28G30          0.000072981
  20210112.742 7   -356592.078 7   -271943.96949  20210114.68049
  23141232.359 5  -1175152.648 5   -866013.00449  23141235.97349
  21043588.195 6   -317789.188 6   -241267.56649  21043587.13749
  23250642.852 5   -182642.547 5   -131055.44947  23250645.08247
  21350481.250 6   -141758.723 6   -102754.49248  21350479.47748
  23962060.617 5   -758043.059 5   -552164.49248  23962060.82848
  22529745.602 6   -890027.777 6   -677457.07048  22529743.04748
  23494853.398 6   -956015.137 6   -727184.46547  23494850.47347
  21607093.898 6   -620208.945 6   -469233.40249  21607095.34449
 20  5 16  5 22 19.0000000  0  9G01G03G07G08G11G17G22G28G30          0.000071119
  20209723.547 7   -358638.129 7   -273538.30149  20209725.01649
  23140164.977 5  -1180760.742 5   -870382.94549  23140168.87549
  21043294.750 6   -319329.020 6   -242467.43849  21043294.05549
  23250437.109 5   -183725.602 5   -131899.39147  23250438.70747
  21350325.008 6   -142580.363 6   -103394.73448  21350322.77748
  23961239.789 5   -762358.637 5   -555527.28148  23961239.64848
  22528936.047 6   -894281.340 6   -680771.53148  22528933.66848
  23493809.820 6   -961499.723 6   -731458.17247  23493806.77047
  21606426.023 6   -623719.066 6   -471968.56649  21606427.04349
 20  5 16  5 22 20.0000000  0  9G01G03G07G08G11G17G22G28G30          0.000069256
  20209334.250 7   -360684.313 7   -275132.72749  20209335.64549
  23139098.492 5  -1186369.441 5   -874753.36349  23139101.60249
  21043002.070 6   -320869.043 6   -243667.46149  21043000.78549
  23250230.086 5   -184809.430 5   -132743.93447  23250232.49647
  21350168.258 6   -143402.508 6   -104035.36748  21350166.37948
  23960418.078 5   -766674.871 5   -558890.57448  23960418.08248
  22528126.719 6   -898535.219 6   -684086.24648  22528124.60548
  23492766.023 6   -966985.105 6   -735732.50047  23492763.12547
  21605757.672 6   -627229.332 6   -474703.84049  21605759.32849
 20  5 16  5 22 21.0000000  0  9G01G03G07G08G11G17G22G28G30          0.000067394
  20208944.633 7   -362730.656 7   -276727.27749  20208946.71549
  23138030.078 5  -1191978.813 5   -879124.29749  23138034.00049
  21042708.969 6   -322409.266 6   -244867.62949  21042707.91049
  23250024.086 5   -185894.039 5   -133589.08647  23250025.71947
  21350012.086 6   -144225.207 6   -104676.43848  21350010.11348
  23959596.750 5   -770991.723 5   -562254.34848  23959596.96948
  22527317.492 6   -902789.496 6   -687401.26248  22527314.78548
  23491722.055 6   -972471.367 6   -740007.51647  23491719.32447
  21605089.836 6   -630739.754 6   -477439.23049  21605091.35949
 20  5 16  5 22 22.0000000  0  9G01G03G07G08G11G17G22G28G30          0.000065531
  20208555.195 7   -364777.125 7   -278321.92649  20208557.02349
  23136963.039 5  -1197588.805 5   -883495.71549  23136966.27749
  21042415.695 6   -323949.660 6   -246067.93449  21042414.58649
  23249817.266 5   -186979.465 5   -134434.87547  23249819.48447
  21349855.055 6   -145048.414 6   -105317.89548  21349853.71548
  23958775.531 5   -775309.242 5   -565618.64848  23958774.91048
  22526507.750 6   -907044.090 6   -690716.52748  22526505.12548
  23490677.719 6   -977958.395 6   -744283.11347  23490675.22347
  21604421.703 6   -634250.273 6   -480174.69949  21604422.69949
 20  5 16  5 22 23.0000000  0  9G01G03G07G08G11G17G22G28G30          0.000063667
  20208165.867 7   -366823.703 7   -279916.66449  20208167.45749
  23135895.758 5  -1203199.422 5   -887867.61749  23135898.95349
  21042122.656 6   -325490.211 6   -247268.36749  21042121.59049
  23249610.766 5   -188065.711 5   -135281.30147  23249612.67647
  21349698.664 6   -145872.137 6   -105959.75848  21349696.91848
  23957954.258 5   -779627.383 5   -568983.43448  23957953.52048
  22525698.156 6   -911299.016 6   -694032.06348  22525695.23848
  23489632.813 6   -983446.254 6   -748559.37147  23489630.68047
  21603754.164 6   -637760.934 6   -482910.28549  21603754.94149
 20  5 16  5 22 24.0000000  0  9G01G03G07G08G11G17G22G28G30          0.000061802
  20207776.352 7   -368870.438 7   -281511.52349  20207778.05549
  23134827.563 5  -1208810.691 5   -892240.03949  23134830.93449
  21041829.422 6   -327030.992 6   -248468.97749  21041828.62949
  23249404.281 5   -189152.758 5   -136128.35247  23249405.77047
  21349541.805 6   -146696.395 6   -106602.04348  21349539.52748
  23957132.180 5   -783946.223 5   -572348.76248  23957131.63748
  22524888.117 6   -915554.313 6   -697347.87948  22524885.14548
  23488588.734 6   -988934.922 6   -752836.26247  23488586.41447
  21603086.000 6   -641271.762 6   -485645.98849  21603087.04749
 20  5 16  5 22 25.0000000  0  9G01G03G07G08G11G17G22G28G30          0.000059938
  20207386.680 7   -370917.383 7   -283106.55549  20207388.47749
  23133760.109 5  -1214422.629 5   -896612.97749  23133762.98449
  21041535.977 6   -328571.977 6   -249669.74249  21041535.25449
  23249196.961 5   -190240.660 5   -136976.06347  23249198.43847
  21349384.938 6   -147521.242 6   -107244.78148  21349382.65248
  23956309.961 5   -788265.777 5   -575714.64548  23956309.82848
  22524078.125 6   -919810.000 6   -700663.99648  22524075.69148
  23487543.727 6   -994424.496 6   -757113.85547  23487541.89147
  21602417.523 6   -644782.762 6   -488381.83649  21602418.73849
 20  5 16  5 22 26.0000000  0  9G01G03G07G08G11G17G22G28G30          0.000058073
  20206997.297 7   -372964.484 7   -284701.69549  20206998.91449
  23132691.391 5  -1220035.250 5   -900986.44549  23132694.88349
  21041242.781 7   -330113.188 7   -250870.69549  21041241.64849
  23248989.602 5   -191329.398 5   -137824.43847  23248991.64547
  21349227.914 6   -148346.633 6   -107887.93848  21349226.06348
  23955487.875 5   -792586.012 5   -579081.06648  23955487.70348
  22523268.422 6   -924066.070 6   -703980.41848  22523265.95348
  23486499.383 6   -999914.910 6   -761392.09847  23486497.07847
  21601749.219 6   -648293.973 6   -491117.84849  21601750.55149
 20  5 16  5 22 27.0000000  0  9G01G03G07G08G11G17G22G28G30          0.000056206
  20206607.789 7   -375011.715 7   -286296.94149  20206609.59449
  23131624.008 5  -1225648.461 5   -905360.37149  23131627.09849
  21040949.398 6   -331654.574 6   -252071.77749  21040948.48449
  23248782.539 5   -192418.965 5   -138673.45347  23248784.10547
  21349070.727 6   -149172.523 6   -108531.49248  21349068.35948
  23954666.031 5   -796906.871 5   -582447.96948  23954665.60948
  22522458.492 6   -928322.477 6   -707297.09848  22522456.03148
  23485454.500 6  -1005406.129 6   -765670.96147  23485452.22747
  21601080.750 6   -651805.254 6   -493853.91849  21601082.68849
 20  5 16  5 22 28.0000000  0  9G01G03G07G08G11G17G22G28G30          0.000054340
  20206218.367 7   -377058.961 7   -287892.19949  20206219.87149
  23130555.156 5  -1231262.227 5   -909734.73449  23130558.85549
  21040656.320 6   -333196.035 6   -253272.91449  21040655.37149
  23248575.125 5   -193509.160 5   -139522.95347  23248576.99247
  21348913.367 6   -149998.844 6   -109175.37948  21348911.35548
  23953843.258 5   -801228.281 5   -585815.29748  23953843.17248
  22521648.703 6   -932579.105 6   -710613.94948  22521646.05548
  23484409.250 6  -1010898.055 6   -769950.38347  23484406.97347
  21600413.031 6   -655316.590 6   -496590.02349  21600413.93449
 20  5 16  5 22 29.0000000  0  9G01G03G07G08G11G17G22G28G30          0.000052473
  20205828.281 7   -379106.332 7   -289487.55149  20205830.27349
  23129486.859 5  -1236876.590 5   -914109.56349  23129490.16849
  21040362.797 6   -334737.672 6   -254474.19549  21040362.05149
  23248367.148 5   -194600.188 5   -140373.10547  23248369.28147
  21348755.984 6   -150825.660 6   -109819.65248  21348754.10548
  23953020.523 5   -805550.344 5   -589183.13748  23953020.80948
  22520838.188 6   -936836.078 6   -713931.06648  22520835.78548
  23483364.008 6  -1016390.785 6   -774230.43447  23483362.15247
  21599744.648 6   -658828.043 6   -499326.22349  21599746.19149
 20  5 16  5 22 30.0000000  0  9G01G03G07G08G11G17G22G28G30          0.000050606
  20205438.750 7   -381153.777 7   -291082.96149  20205440.67249
  23128418.680 5  -1242491.555 5   -918484.85549  23128421.44149
  21040069.320 6   -336279.398 6   -255675.54349  21040068.29749
  23248159.852 5   -195691.930 5   -141223.82047  23248162.02047
  21348598.719 6   -151652.957 6   -110464.29348  21348596.45348
  23952197.773 5   -809873.000 5   -592551.44548  23952197.95348
  22520028.305 6   -941093.328 6   -717248.40648  22520025.85548
  23482318.883 6  -1021884.270 6   -778511.07447  23482316.57847
  21599076.969 6   -662339.582 6   -502062.48849  21599077.94149
 20  5 16  5 22 31.0000000  0  9G01G03G07G08G11G17G22G28G30          0.000048738
  20205049.195 7   -383201.371 7   -292678.48849  20205050.85549
  23127350.195 5  -1248107.137 5   -922860.62949  23127352.98449
  21039775.891 7   -337821.367 7   -256877.07049  21039774.99649
  23247951.719 5   -196784.492 5   -142075.16447  23247953.80547
  21348441.234 6   -152480.777 6   -111109.35548  21348439.13348
  23951375.422 5   -814196.324 5   -595920.26648  23951375.39848
  22519218.070 6   -945350.918 6   -720566.00048  22519215.92248
  23481273.047 6  -1027378.598 6   -782792.37547  23481271.19547
  21598408.617 6   -665851.262 6   -504798.86349  21598409.60949
 20  5 16  5 22 32.0000000  0  9G01G03G07G08G11G17G22G28G30          0.000046871
  20204659.477 7   -385249.117 7   -294274.13749  20204661.18849
  23126281.195 5  -1253723.395 5   -927236.93049  23126284.13749
  21039482.602 7   -339363.520 7   -258078.75449  21039481.92249
  23247743.227 5   -197877.867 5   -142927.14547  23247745.59447
  21348283.273 6   -153309.156 6   -111754.84448  21348281.80148
  23950552.188 5   -818520.320 5   -599289.60948  23950552.59448
  22518407.938 6   -949608.918 6   -723883.92248  22518405.16848
  23480227.242 6  -1032873.777 6   -787074.32447  23480225.52747
  21597740.250 6   -669363.121 6   -507535.37949  21597741.14849
 20  5 16  5 22 33.0000000  0  9G01G03G07G08G11G17G22G28G30          0.000045002
  20204270.016 7   -387296.973 7   -295869.86349  20204271.82849
  23125212.070 5  -1259340.250 5   -931613.69949  23125215.24249
  21039189.211 6   -340905.828 6   -259280.54749  21039188.12949
  23247535.516 5   -198972.039 5   -143779.74247  23247537.07847
  21348125.422 6   -154138.004 6   -112400.69948  21348123.57048
  23949730.031 5   -822844.906 5   -602659.41448  23949729.63348
  22517597.828 6   -953867.191 6   -727202.06348  22517595.50448
  23479181.188 6  -1038369.699 6   -791356.86347  23479179.47347
  21597071.766 6   -672875.066 6   -510271.95749  21597073.16049
 20  5 16  5 22 34.0000000  0  9G01G03G07G08G11G17G22G28G30          0.000043133
  20203880.234 7   -389344.922 7   -297465.66849  20203881.94949
  23124143.641 5  -1264957.660 5   -935990.90249  23124146.50449
  21038895.758 6   -342448.270 6   -260482.45349  21038894.49249
  23247327.375 5   -200066.969 5   -144632.94147  23247328.71147
  21347967.914 6   -154967.344 6   -113046.94148  21347966.07048
  23948906.867 5   -827170.129 5   -606029.72348  23948906.48048
  22516787.484 6   -958125.766 6   -730520.43048  22516784.61748
  23478135.992 6  -1043866.426 6   -795640.03147  23478133.78547
  21596403.461 6   -676387.102 6   -513008.60949  21596404.60949
 20  5 16  5 22 35.0000000  0  9G01G03G07G08G11G17G22G28G30          0.000041264
  20203490.156 7   -391393.000 7   -299061.57849  20203492.20749
  23123074.047 5  -1270575.730 5   -940368.61749  23123077.59049
  21038602.508 6   -343990.914 6   -261684.52049  21038601.34049
  23247118.617 5   -201162.699 5   -145486.75447  23247120.16047
  21347809.953 6   -155797.227 6   -113693.60248  21347808.14548
  23948084.125 5   -831496.008 5   -609400.53948  23948083.26248
  22515977.141 6   -962384.703 6   -733839.09048  22515974.23448
  23477089.531 6  -1049363.953 6   -799923.81647  23477087.53547
  21595735.273 6   -679899.289 6   -515745.37949  21595736.36749
 20  5 16  5 22 36.0000000  0  9G01G03G07G08G11G17G22G28G30          0.000039394
  20203100.609 7   -393441.277 7   -300657.63749  20203102.59849
  23122004.820 5  -1276194.453 5   -944746.84449  23122008.32449
  21038308.500 6   -345533.789 6   -262886.75849  21038307.31349
  23246910.313 5   -202259.305 5   -146341.25847  23246911.47347
  21347651.859 6   -156627.648 6   -114340.68448  21347649.96948
  23947260.000 5   -835822.574 5   -612771.89148  23947260.04748
  22515166.469 6   -966644.027 6   -737158.04748  22515163.66448
  23476042.977 5  -1054862.355 5   -804208.29347  23476041.65647
  21595066.820 6   -683411.660 6   -518482.29349  21595067.93449
 20  5 16  5 22 37.0000000  0  9G01G03G07G08G11G17G22G28G30          0.000037523
  20202710.695 7   -395489.625 7   -302253.75449  20202712.95749
  23120936.047 5  -1281813.805 5   -949125.55949  23120939.03149
  21038015.023 6   -347076.777 6   -264089.08649  21038013.88749
  23246701.383 5   -203356.656 5   -147196.34447  23246702.83247
  21347493.938 6   -157458.559 6   -114988.14848  21347491.58248
  23946436.805 5   -840149.750 5   -616143.71548  23946436.39548
  22514356.125 6   -970903.641 6   -740477.22748  22514353.16448
  23474996.680 5  -1060361.527 5   -808493.35547  23474995.00047
  21594398.148 6   -686924.117 6   -521219.27749  21594399.63349
 20  5 16  5 22 38.0000000  0  9G01G03G07G08G11G17G22G28G30          0.000035652
  20202320.813 7   -397538.230 7   -303850.07049  20202323.06349
  23119866.305 5  -1287433.832 5   -953504.79349  23119869.08649
  21037721.328 6   -348620.078 6   -265291.66049  21037720.10949
  23246492.313 5   -204454.881 5   -148052.10247  23246493.62147
  21347335.578 6   -158290.102 6   -115636.10948  21347333.57048
  23945613.055 5   -844477.691 5   -619516.13748  23945613.16048
  22513545.414 6   -975163.691 6   -743796.74648  22513542.24648
  23473949.813 5  -1065861.598 5   -812779.12547  23473948.41447
  21593729.898 6   -690436.813 6   -523956.44549  21593731.17249
 20  5 16  5 22 39.0000000  0  9G01G03G07G08G11G17G22G28G30          0.000033779
  20201931.148 7   -399586.941 7   -305446.46549  20201933.07449
  23118796.500 5  -1293054.512 5   -957884.54749  23118799.61349
  21037427.734 6   -350163.527 6   -266494.35249  21037426.46949
  23246283.078 5   -205553.895 5   -148908.48447  23246284.63747
  21347176.977 6   -159122.141 6   -116284.44548  21347175.11748
  23944789.141 5   -848806.254 5   -622889.03548  23944789.60248
  22512734.219 6   -979424.055 6   -747116.50448  22512731.83248
  23472903.203 5  -1071362.504 5   -817065.53947  23472902.07847
  21593061.773 6   -693949.613 6   -526693.69149  21593062.63749
 20  5 16  5 22 40.0000000  0  9G01G03G07G08G11G17G22G28G30          0.000031908
  20201541.328 7   -401635.746 7   -307042.93849  20201542.87149
  23117727.336 5  -1298675.770 5   -962264.73849  23117730.16449
  21037134.008 6   -351707.125 6   -267697.15249  21037132.56349
  23246073.438 5   -206653.691 5   -149765.46147  23246075.82847
  21347018.742 6   -159954.668 6   -116933.16848  21347017.04748
  23943965.938 5   -853135.430 5   -626262.41448  23943965.39548
  22511923.430 6   -983684.750 6   -750436.52348  22511921.02748
  23471856.234 5  -1076864.184 5   -821352.55547  23471854.77747
  21592392.797 6   -697462.527 6   -529431.02049  21592394.16449
 20  5 16  5 22 41.0000000  0  9G01G03G07G08G11G17G22G28G30          0.000030035
  20201151.352 7   -403684.621 7   -308639.46549  20201153.35249
  23116657.250 5  -1304297.563 5   -966645.35949  23116660.45349
  21036839.695 6   -353250.828 6   -268900.04349  21036838.87149
  23245863.695 5   -207754.176 5   -150622.98847  23245866.40647
  21346860.266 6   -160787.629 6   -117582.22748  21346858.11348
  23943141.773 5   -857465.207 5   -629636.27048  23943141.32848
  22511112.914 6   -987945.695 6   -753756.73848  22511109.99248
  23470809.039 5  -1082366.594 5   -825640.14547  23470807.88347
  21591724.313 6   -700975.484 6   -532168.39549  21591725.87149
 20  5 16  5 22 42.0000000  0  9G01G03G07G08G11G17G22G28G30          0.000028164
  20200761.297 7   -405733.594 7   -310236.06649  20200762.96549
  23115587.359 5  -1309919.980 5   -971026.45749  23115590.21549
  21036546.125 6   -354794.691 6   -270103.05949  21036545.32449
  23245654.141 5   -208855.453 5   -151481.12547  23245656.71547
  21346701.820 6   -161621.125 6   -118231.70748  21346699.59048
  23942317.531 5   -861795.598 5   -633010.60548  23942317.19948
  22510302.078 6   -992206.977 6   -757077.21948  22510299.19148
  23469761.742 5  -1087869.820 5   -829928.37947  23469760.89147
  21591055.859 6   -704488.594 6   -534905.88349  21591057.22749
 20  5 16  5 22 43.0000000  0  9G01G03G07G08G11G17G22G28G30          0.000026289
  20200371.477 7   -407782.707 7   -311832.78149  20200373.29349
  23114517.789 5  -1315543.035 5   -975408.06349  23114520.30549
  21036252.227 6   -356338.766 6   -271306.23049  21036251.35949
  23245444.477 5   -209957.504 5   -152339.86747  23245447.10947
  21346543.055 6   -162455.137 6   -118881.59448  21346541.10248
  23941493.492 5   -866126.648 5   -636385.44948  23941493.48448
  22509491.125 6   -996468.598 6   -760397.96148  22509488.27048
  23468714.039 5  -1093373.852 5   -834217.22747  23468713.46947
  21590387.438 6   -708001.820 6   -537643.45749  21590388.69149
 20  5 16  5 22 44.0000000  0  9G01G03G07G08G11G17G22G28G30          0.000024416
  20199981.195 7   -409831.805 7   -313429.48049  20199983.10949
  23113447.391 5  -1321166.566 5   -979790.03149  23113450.35549
  21035958.336 6   -357882.828 6   -272509.39849  21035957.39549
  23245235.031 5   -211060.211 5   -153199.12547  23245237.25047
  21346383.969 6   -163289.492 6   -119531.73848  21346381.79748
  23940669.078 5   -870458.164 5   -639760.66048  23940669.05948
  22508679.836 6  -1000730.375 6   -763718.83248  22508677.35548
  23467666.742 5  -1098878.531 5   -838506.57847  23467665.61347
  21589718.805 6   -711515.027 6   -540381.02349  21589719.93449
 20  5 16  5 22 45.0000000  0  9G01G03G07G08G11G17G22G28G30          0.000022541
  20199591.641 7   -411880.953 7   -315026.22349  20199593.64549
  23112376.961 5  -1326790.648 5   -984172.43049  23112380.30549
  21035664.383 6   -359427.031 6   -273712.67649  21035663.59849
  23245024.734 5   -212163.672 5   -154058.97347  23245027.20747
  21346225.219 6   -164124.301 6   -120182.24248  21346223.10548
  23939844.805 5   -874790.289 5   -643136.34048  23939844.88748
  22507868.828 6  -1004992.457 6   -767039.93048  22507866.14848
  23466619.547 6  -1104383.969 6   -842796.53147  23466618.12947
  21589050.375 6   -715028.301 6   -543118.63749  21589051.47749
 20  5 16  5 22 46.0000000  0  9G01G03G07G08G11G17G22G28G30          0.000020666
  20199201.672 7   -413930.273 7   -316623.09049  20199203.70349
  23111306.594 5  -1332415.352 5   -988555.31649  23111309.71149
  21035370.766 6   -360971.426 6   -274916.10249  21035369.77049
  23244815.102 5   -213267.949 5   -154919.44947  23244817.07047
  21346066.039 6   -164959.676 6   -120833.18448  21346064.59048
  23939020.313 5   -879123.074 5   -646512.53148  23939020.36748
  22507057.758 6  -1009254.895 6   -770361.30948  22507054.81648
  23465571.875 5  -1109890.238 5   -847087.12547  23465570.37547
  21588382.117 6   -718541.719 6   -545856.37149  21588383.28549
 20  5 16  5 22 47.0000000  0  9G01G03G07G08G11G17G22G28G30          0.000018791
  20198811.500 7   -415979.633 7   -318219.99649  20198813.64149
  23110236.313 5  -1338040.633 5   -992938.64849  23110239.42249
  21035076.969 6   -362515.926 6   -276119.60949  21035075.70749
  23244604.266 5   -214372.953 5   -155780.49647  23244606.44147
  21345907.055 6   -165795.477 6   -121484.45748  21345905.12948
  23938195.383 5   -883456.441 5   -649889.17648  23938195.77348
  22506246.773 6  -1013517.590 6   -773682.89148  22506244.17648
  23464524.008 5  -1115397.215 5   -851378.27047  23464522.61347
  21587713.414 6   -722055.199 6   -548594.14849  21587714.68049
 20  5 16  5 22 48.0000000  0  9G01G03G07G08G11G17G22G28G30          0.000016916
  20198421.945 7   -418029.051 7   -319816.94149  20198423.14849
  23109165.758 5  -1343666.430 5   -997322.37949  23109169.02049
  21034783.039 6   -364060.500 6   -277323.18049  21034781.86749
  23244394.234 5   -215478.648 5   -156642.07047  23244396.27747
  21345748.250 6   -166631.691 6   -122136.04748  21345746.32848
  23937371.461 5   -887790.363 5   -653266.26248  23937370.96948
  22505434.883 6  -1017780.531 6   -777004.66448  22505432.44148
  23463475.313 5  -1120904.980 5   -855670.03547  23463474.41447
  21587044.477 6   -725568.727 6   -551331.95749  21587045.60249
 20  5 16  5 22 49.0000000  0  9G01G03G07G08G11G17G22G28G30          0.000015039
  20198031.609 7   -420078.543 7   -321413.95349  20198033.28149
  23108094.680 6  -1349292.832 6  -1001706.58649  23108098.45749
  21034489.031 6   -365605.234 6   -278526.86749  21034488.03149
  23244184.125 5   -216585.117 5   -157504.25447  23244185.59047
  21345588.859 6   -167468.414 6   -122788.04748  21345586.96548
  23936546.328 5   -892124.914 5   -656643.84048  23936546.03148
  22504624.047 6  -1022043.793 6   -780326.68848  22504621.40248
  23462427.367 6  -1126413.473 6   -859962.36347  23462426.20347
  21586375.797 6   -729082.336 6   -554069.84449  21586377.24249
 20  5 16  5 22 50.0000000  0  9G01G03G07G08G11G17G22G28G30          0.000013163
  20197641.727 7   -422128.082 7   -323010.99649  20197643.35949
  23107024.289 6  -1354919.762 6  -1006091.21149  23107027.39549
  21034194.953 6   -367150.055 6   -279730.62949  21034194.06649
  23243973.219 5   -217692.305 5   -158366.99247  23243975.23447
  21345429.477 6   -168305.563 6   -123440.37148  21345428.09848
  23935721.039 5   -896459.996 5   -660021.82048  23935721.34048
  22503812.672 6  -1026307.262 6   -783648.86748  22503810.11348
  23461378.586 6  -1131922.691 6   -864255.26247  23461377.55547
  21585707.250 6   -732595.988 6   -556807.75449  21585708.43049
 20  5 16  5 22 51.0000000  0  9G01G03G07G08G11G17G22G28G30          0.000011286
  20197251.688 7   -424177.715 7   -324608.11749  20197253.35549
  23105953.070 5  -1360547.266 5  -1010476.27749  23105956.95349
  21033901.039 6   -368695.004 6   -280934.48049  21033900.17649
  23243762.094 5   -218800.254 5   -159230.32847  23243763.71947
  21345270.281 6   -169143.168 6   -124093.05148  21345268.36348
  23934895.898 5   -900795.703 5   -663400.29748  23934896.18048
  22503000.977 6  -1030571.070 6   -786971.31648  22502998.50048
  23460330.945 6  -1137432.668 6   -868548.75047  23460329.30947
  21585038.570 6   -736109.719 6   -559545.73049  21585039.78949
 20  5 16  5 22 52.0000000  0  9G01G03G07G08G11G17G22G28G30          0.000009409
  20196861.789 7   -426227.438 7   -326205.30149  20196863.47749
  23104882.031 5  -1366175.328 5  -1014861.78149  23104885.43449
  21033606.977 6   -370240.074 6   -282138.43449  21033606.09449
  23243551.555 5   -219908.906 5   -160094.21147  23243553.12547
  21345110.805 6   -169981.262 6   -124746.11748  21345108.87148
  23934070.672 5   -905131.988 5   -666779.21148  23934070.69148
  22502189.820 6  -1034835.137 6   -790293.96148  22502187.31348
  23459281.602 6  -1142943.406 6   -872842.83647  23459280.53947
  21584369.945 6   -739623.570 6   -562283.79349  21584371.28549
 20  5 16  5 22 53.0000000  0  9G01G03G07G08G11G17G22G28G30          0.000007532
  20196471.438 7   -428277.277 7   -327802.57449  20196473.54349
  23103811.125 5  -1371804.027 5  -1019247.78149  23103814.35249
  21033312.844 6   -371785.320 6   -283342.52349  21033311.64149
  23243340.086 5   -221018.320 5   -160958.69947  23243342.13747
  21344951.188 6   -170819.867 6   -125399.57048  21344949.57048
  23933245.227 5   -909468.934 5   -670158.64848  23933245.62148
  22501378.617 6  -1039099.543 6   -793616.87148  22501375.93848
  23458233.781 6  -1148454.941 6   -877137.53947  23458232.09447
  21583701.133 6   -743137.520 6   -565021.93449  21583702.12549
 20  5 16  5 22 54.0000000  0  9G01G03G07G08G11G17G22G28G30          0.000005653
  20196081.383 7   -430327.230 7   -329399.94149  20196083.43849
  23102740.094 5  -1377433.336 5  -1023634.25449  23102743.46949
  21033018.688 6   -373330.723 6   -284546.73449  21033017.92649
  23243128.750 5   -222128.539 5   -161823.80947  23243130.94547
  21344791.594 6   -171658.953 6   -126053.41048  21344789.60248
  23932420.000 5   -913806.473 5   -673538.54748  23932419.99248
  22500566.719 6  -1043364.238 6   -796940.01648  22500564.36748
  23457184.242 6  -1153967.293 6   -881432.87547  23457182.86347
  21583032.758 6   -746651.566 6   -567760.14849  21583033.79749
 20  5 16  5 22 55.0000000  0  9G01G03G07G08G11G17G22G28G30          0.000003775
  20195691.297 7   -432377.258 7   -330997.37149  20195693.01249
  23101668.836 5  -1383063.223 5  -1028021.16849  23101672.11749
  21032724.438 6   -374876.266 6   -285751.05549  21032723.53949
  23242917.859 5   -223239.473 5   -162689.47747  23242919.48847
  21344631.750 6   -172498.531 6   -126707.62548  21344629.79748
  23931594.383 5   -918144.656 5   -676918.94948  23931594.34448
  22499755.156 6  -1047629.254 6   -800263.41048  22499752.37148
  23456134.500 6  -1159480.414 6   -885728.81647  23456133.22347
  21582363.984 6   -750165.707 6   -570498.44949  21582365.25849
 20  5 16  5 22 56.0000000  0  9G01G03G07G08G11G17G22G28G30          0.000001894
  20195301.438 7   -434427.438 7   -332594.91049  20195302.86349
  23100596.914 5  -1388693.727 5  -1032408.56649  23100600.59449
  21032430.570 6   -376422.000 6   -286955.52349  21032429.64149
  23242705.867 5   -224351.230 5   -163555.78547  23242707.44947
  21344471.984 6   -173338.605 6   -127362.23448  21344470.21148
  23930769.086 5   -922483.480 5   -680299.85248  23930768.96948
  22498943.211 6  -1051894.590 6   -803587.04748  22498940.59048
  23455085.555 6  -1164994.332 6   -890025.37147  23455084.48447
  21581695.227 6   -753679.973 6   -573236.83649  21581696.14849
 20  5 16  5 22 57.0000000  0  9G01G03G07G08G11G17G22G28G30          0.000000015
  20194910.883 7   -436477.633 7   -334192.46549  20194912.66049
  23099525.797 5  -1394324.770 5  -1036796.38749  23099528.94949
  21032136.469 6   -377967.824 6   -288160.06649  21032135.57849
  23242493.711 5   -225463.715 5   -164422.65647  23242496.30947
  21344312.000 6   -174179.145 6   -128017.19948  21344310.03548
  23929942.734 5   -926822.863 5   -683681.18448  23929942.95748
  22498131.656 6  -1056160.199 6   -806910.89848  22498129.52048
  23454035.492 5  -1170508.969 5   -894322.49247  23454034.71547
  21581026.617 6   -757194.305 6   -575975.27349  21581027.56349
 20  5 16  5 22 58.0000000  0  9G01G03G07G08G11G17G22G28G30         -0.000001865
  20194520.852 7   -438527.957 7   -335790.12549  20194522.62149
  23098453.539 5  -1399956.418 5  -1041184.68049  23098457.47349
  21031842.305 6   -379513.793 6   -289364.71549  21031841.33649
  23242282.234 5   -226576.934 5   -165290.09447  23242284.28947
  21344152.031 6   -175020.137 6   -128672.51648  21344150.05148
  23929117.422 5   -931162.863 5   -687063.00448  23929117.29348
  22497319.727 6  -1060426.102 6   -810234.97748  22497317.67648
  23452986.266 6  -1176024.406 6   -898620.23847  23452984.62147
  21580357.891 6   -760708.719 6   -578713.78149  21580358.39849
 20  5 16  5 22 59.0000000  0  9G01G03G07G08G11G17G22G28G30         -0.000003746
  20194130.805 7   -440578.262 7   -337387.76249  20194132.40249
  23097382.102 5  -1405588.508 5  -1045573.32049  23097385.65649
  21031548.266 6   -381059.813 6   -290569.41049  21031547.08249
  23242070.188 5   -227690.887 5   -166158.10947  23242072.46947
  21343992.125 6   -175861.547 6   -129328.16048  21343990.00448
  23928291.414 5   -935503.387 5   -690445.22348  23928291.08248
  22496508.234 6  -1064692.207 6   -813559.21148  22496505.53548
  23451937.234 6  -1181540.504 6   -902918.49247  23451935.42647
  21579688.961 6   -764223.156 6   -581452.30549  21579690.27049
 20  5 16  5 23  0.0000000  0  9G01G03G07G08G11G17G22G28G30         -0.000005627
  20193740.531 7   -442628.770 7   -338985.56349  20193741.99249
  23096310.133 5  -1411221.316 5  -1049962.52049  23096313.80949
  21031253.930 6   -382606.070 6   -291774.28149  21031252.64849
  23241858.172 5   -228805.633 5   -167026.75047  23241860.37547
  21343831.375 6   -176703.516 6   -129984.24248  21343829.66848
  23927465.500 5   -939844.586 5   -693827.97748  23927465.16848
  22495696.336 6  -1068958.680 6   -816883.73448  22495693.84448
  23450886.703 5  -1187057.477 5   -907217.43047  23450885.54347
  21579020.320 6   -767737.762 6   -584190.96149  21579021.32049
 20  5 16  5 23  1.0000000  0  9G01G03G07G08G11G17G22G28G30         -0.000007507
  20193350.195 7   -444679.297 7   -340583.37149  20193352.23849
  23095238.336 5  -1416854.660 5  -1054352.13749  23095241.52749
  21030959.852 6   -384152.410 6   -292979.22749  21030958.78149
  23241646.047 5   -229921.129 5   -167895.96547  23241648.48047
  21343671.438 6   -177545.918 6   -130640.65648  21343669.32848
  23926639.227 5   -944186.355 5   -697211.18048  23926638.80148
  22494884.523 6  -1073225.434 6   -820208.47748  22494881.85548
  23449837.188 5  -1192575.164 5   -911516.93047  23449835.40647
  21578351.469 6   -771252.414 6   -586929.64849  21578352.57849
 20  5 16  5 23  2.0000000  0  9G01G03G07G08G11G17G22G28G30         -0.000009390
  20192960.102 7   -446729.945 7   -342181.28149  20192961.79749
  23094166.266 5  -1422488.578 5  -1058742.19549  23094169.48449
  21030665.445 6   -385698.891 6   -294184.27749  21030664.40649
  23241433.242 5   -231037.379 5   -168765.77347  23241435.71547
  21343511.164 6   -178388.793 6   -131297.44948  21343508.79748
  23925812.781 5   -948528.789 5   -700594.89848  23925812.43848
  22494072.719 6  -1077492.465 6   -823533.43048  22494069.55548
  23448786.695 6  -1198093.605 6   -915817.01647  23448785.07447
  21577682.883 6   -774767.156 6   -589668.40649  21577683.60249
 20  5 16  5 23  3.0000000  0  9G01G03G07G08G11G17G22G28G30         -0.000011272
  20192569.680 7   -448780.688 7   -343779.26249  20192571.50049
  23093093.906 5  -1428123.086 5  -1063132.71549  23093097.09449
  21030370.773 6   -387245.551 6   -295389.46949  21030370.23449
  23241220.766 5   -232154.352 5   -169636.13747  23241222.57047
  21343350.469 6   -179232.176 6   -131954.62948  21343348.47348
  23924986.195 5   -952871.793 5   -703979.05948  23924985.75448
  22493260.586 6  -1081759.813 6   -826858.64548  22493257.74248
  23447736.609 6  -1203612.871 6   -920117.74247  23447735.33247
  21577013.203 6   -778282.012 6   -592407.26249  21577014.82449
 20  5 16  5 23  4.0000000  0  9G01G03G07G08G11G17G22G28G30         -0.000013155
  20192179.836 7   -450831.465 7   -345377.27349  20192181.62149
  23092021.297 5  -1433758.125 5  -1067523.66049  23092024.93049
  21030076.625 6   -388792.281 6   -296594.71549  21030075.73449
  23241008.227 5   -233272.039 5   -170507.06347  23241010.61347
  21343189.867 6   -180075.965 6   -132612.12548  21343187.86348
  23924159.430 5   -957215.387 5   -707363.67248  23924159.37548
  22492448.203 6  -1086027.387 6   -830184.02748  22492445.96548
  23446685.992 6  -1209132.813 6   -924419.00447  23446684.60947
  21576344.602 6   -781796.910 6   -595146.14149  21576345.99249
 20  5 16  5 23  5.0000000  0  9G01G03G07G08G11G17G22G28G30         -0.000015039
  20191789.375 7   -452882.320 7   -346975.34449  20191791.07849
  23090948.703 5  -1439393.707 5  -1071915.02349  23090952.30149
  21029782.414 6   -390339.125 6   -297800.05549  21029781.27349
  23240795.797 5   -234390.477 5   -171378.58647  23240797.69147
  21343029.305 6   -180920.211 6   -133269.98448  21343027.31648
  23923333.164 5   -961559.574 5   -710748.75048  23923332.72348
  22491636.477 6  -1090295.246 6   -833509.63348  22491633.77748
  23445635.602 6  -1214653.496 6   -928720.84047  23445633.94147
  21575675.828 6   -785311.863 6   -597885.06649  21575676.83649
 20  5 16  5 23  6.0000000  0  9G01G03G07G08G11G17G22G28G30         -0.000016922
  20191399.039 7   -454933.203 7   -348573.43449  20191400.87149
  23089876.734 5  -1445029.816 5  -1076306.80149  23089879.67249
  21029487.641 6   -391886.047 6   -299005.44949  21029486.68849
  23240582.680 5   -235509.625 5   -172250.64547  23240584.49647
  21342868.570 6   -181764.887 6   -133928.17648  21342866.35248
  23922506.766 5   -965904.266 5   -714134.23048  23922505.69148
  22490824.461 6  -1094563.332 6   -836835.41448  22490821.43048
  23444585.328 6  -1220174.934 6   -933023.26647  23444583.24647
  21575007.234 6   -788826.840 6   -600624.01249  21575008.38349
 20  5 16  5 23  7.0000000  0  9G01G03G07G08G11G17G22G28G30         -0.000018806
  20191008.828 7   -456984.211 7   -350171.62149  20191010.50449
  23088804.086 5  -1450666.555 5  -1080699.05949  23088807.15649
  21029193.789 6   -393433.141 6   -300210.97749  21029192.72749
  23240369.508 5   -236629.488 5   -173123.26647  23240371.49247
  21342707.727 6   -182610.094 6   -134586.77748  21342705.68848
  23921679.211 5   -970249.621 5   -717520.21548  23921679.29348
  22490011.648 6  -1098831.758 6   -840161.46548  22490008.99248
  23443534.109 6  -1225697.148 6   -937326.28547  23443532.24247
  21574338.180 6   -792341.949 6   -603363.05949  21574339.25449
 20  5 16  5 23  8.0000000  0  9G01G03G07G08G11G17G22G28G30         -0.000020691
  20190618.438 7   -459035.156 7   -351769.75849  20190620.03549
  23087731.563 5  -1456303.719 5  -1085091.65649  23087734.68449
  21028898.977 6   -394980.211 6   -301416.48449  21028898.17249
  23240155.961 5   -237749.965 5   -173996.36747  23240158.19547
  21342546.750 6   -183455.602 6   -135245.61748  21342544.78948
  23920852.586 5   -974595.441 5   -720906.57048  23920852.18448
  22489199.703 6  -1103100.324 6   -843487.62148  22489196.75848
  23442483.234 5  -1231219.996 5   -941629.80147  23442481.23847
  21573669.367 6   -795857.004 6   -606102.06349  21573670.15249
 20  5 16  5 23  9.0000000  0  9G01G03G07G08G11G17G22G28G30         -0.000022575
  20190228.203 7   -461086.227 7   -353368.00049  20190230.12949
  23086658.531 5  -1461941.496 5  -1089484.72749  23086661.23849
  21028604.977 6   -396527.457 6   -302622.12949  21028603.68449
  23239942.688 4   -238871.262 4   -174870.11347  23239944.70347
  21342385.813 6   -184301.609 6   -135904.84048  21342383.63348
  23920025.594 5   -978941.852 5   -724293.37548  23920025.36348
  22488387.555 6  -1107369.195 6   -846814.00848  22488384.48448
  23441432.281 6  -1236743.633 6   -945933.93047  23441430.21547
  21573000.180 6   -799372.180 6   -608841.15649  21573001.53149
 20  5 16  5 23 10.0000000  0  9G01G03G07G08G11G17G22G28G30         -0.000024462
  20189837.531 7   -463137.367 7   -354966.28949  20189839.52349
  23085585.258 5  -1467579.813 5  -1093878.20749  23085588.73449
  21028309.961 6   -398074.848 6   -303827.89149  21028309.34449
  23239729.203 5   -239993.328 5   -175744.44947  23239731.73047
  21342224.594 6   -185148.063 6   -136564.41048  21342222.98048
  23919198.109 5   -983288.887 5   -727680.67648  23919197.52048
  22487575.016 6  -1111638.340 6   -850140.61348  22487571.69948
  23440380.617 5  -1242268.012 5   -950238.62547  23440378.61747
  21572331.461 6   -802887.410 6   -611580.30149  21572332.30149
 20  5 16  5 23 11.0000000  0  9G01G03G07G08G11G17G22G28G30         -0.000026348
  20189447.531 7   -465188.492 7   -356564.56349  20189449.26649
  23084512.469 5  -1473218.621 5  -1098272.08249  23084515.48849
  21028015.758 6   -399622.238 6   -305033.64849  21028014.73849
  23239515.570 5   -241116.023 5   -176619.27347  23239517.98847
  21342063.359 6   -185994.918 6   -137224.30148  21342061.50448
  23918370.594 5   -987636.414 5   -731068.36748  23918370.39548
  22486762.680 6  -1115907.688 6   -853467.37148  22486759.13748
  23439329.508 5  -1247793.043 5   -954543.85247  23439327.55947
  21571662.516 6   -806402.605 6   -614319.41049  21571663.57449
 20  5 16  5 23 12.0000000  0  9G01G03G07G08G11G17G22G28G30         -0.000028233
  20189056.883 7   -467239.668 7   -358162.88349  20189058.88349
  23083439.414 5  -1478857.980 5  -1102666.38349  23083442.58249
  21027721.492 6   -401169.750 6   -306239.50449  21027720.37549
  23239301.523 5   -242239.434 5   -177494.65647  23239304.14147
  21341902.375 6   -186842.191 6   -137884.51648  21341900.45348
  23917543.156 5   -991984.543 5   -734456.51248  23917543.15648
  22485949.914 6  -1120177.281 6   -856794.32848  22485946.94548
  23438277.602 5  -1253318.828 5   -958849.65647  23438275.72347
  21570993.375 6   -809917.895 6   -617058.60249  21570994.96949
 20  5 16  5 23 13.0000000  0  9G01G03G07G08G11G17G22G28G30         -0.000030121
  20188666.906 7   -469290.832 7   -359761.19149  20188668.35949
  23082365.492 5  -1484497.801 5  -1107061.05149  23082369.02049
  21027427.031 6   -402717.309 6   -307445.40249  21027425.75449
  23239088.266 5   -243363.523 5   -178370.57447  23239090.23047
  21341741.141 6   -187689.875 6   -138545.04748  21341739.10248
  23916716.141 5   -996333.164 5   -737845.05148  23916715.69548
  22485137.336 6  -1124447.105 6   -860121.46148  22485134.59448
  23437226.063 5  -1258845.320 5   -963156.01647  23437223.98047
  21570324.648 6   -813433.176 6   -619797.78549  21570325.93849
 20  5 16  5 23 14.0000000  0  9G01G03G07G08G11G17G22G28G30         -0.000032007
  20188276.453 7   -471342.164 7   -361359.64149  20188278.19549
  23081292.914 5  -1490138.246 5  -1111456.19949  23081295.55949
  21027132.148 6   -404265.051 6   -308651.43849  21027131.22749
  23238874.242 5   -244488.387 5   -179247.09047  23238876.07447
  21341579.813 6   -188538.074 6   -139205.98848  21341577.35548
  23915888.078 5  -1000682.457 5   -741234.10948  23915888.03948
  22484324.594 6  -1128717.242 6   -863448.84048  22484322.44948
  23436174.820 5  -1264372.594 5   -967462.98047  23436171.91047
  21569655.617 6   -816948.594 6   -622537.07049  21569656.72349
 20  5 16  5 23 15.0000000  0  9G01G03G07G08G11G17G22G28G30         -0.000033895
  20187886.219 7   -473393.496 7   -362958.08249  20187888.10549
  23080219.258 5  -1495779.258 5  -1115851.79349  23080222.27049
  21026837.742 6   -405812.875 6   -309857.53149  21026836.64149
  23238659.672 5   -245613.941 5   -180124.14547  23238662.02047
  21341417.930 6   -189386.695 6   -139867.25048  21341416.12548
  23915060.797 5  -1005032.273 5   -744623.57448  23915060.32048
  22483512.195 6  -1132987.609 6   -866776.40248  22483509.41848
  23435122.695 5  -1269900.570 5   -971770.49247  23435120.37147
  21568986.477 6   -820464.031 6   -625276.37149  21568987.94149
 20  5 16  5 23 16.0000000  0  9G01G03G07G08G11G17G22G28G30         -0.000035782
  20187495.852 7   -475444.793 7   -364556.49249  20187497.91849
  23079145.539 5  -1501420.691 5  -1120247.70749  23079148.60249
  21026543.008 6   -407360.719 6   -311063.64849  21026542.30549
  23238445.063 5   -246740.148 5   -181001.70347  23238447.60547
  21341256.500 6   -190235.660 6   -140528.78148  21341254.29348
  23914232.047 5  -1009382.574 5   -748013.41448  23914232.23848
  22482699.297 6  -1137258.164 6   -870104.10248  22482696.85948
  23434070.945 5  -1275429.203 5   -976078.51647  23434068.49647
  21568317.734 6   -823979.434 6   -628015.65649  21568318.86349
 20  5 16  5 23 17.0000000  0  9G01G03G07G08G11G17G22G28G30         -0.000037672
  20187105.555 7   -477496.109 7   -366154.92249  20187107.27349
  23078072.680 5  -1507062.633 5  -1124644.02349  23078075.19949
  21026248.352 6   -408908.617 6   -312269.80149  21026247.52749
  23238230.297 4   -247867.027 4   -181879.79747  23238233.27047
  21341094.977 6   -191085.043 6   -141190.63748  21341093.09848
  23913404.859 5  -1013733.418 5   -751403.67648  23913404.39548
  22481886.344 6  -1141528.891 6   -873431.94148  22481884.33648
  23433018.391 6  -1280958.496 6   -980387.05947  23433016.02747
  21567648.344 6   -827494.828 6   -630754.92249  21567649.77049
 20  5 16  5 23 18.0000000  0  9G01G03G07G08G11G17G22G28G30         -0.000039560
  20186714.938 7   -479547.457 7   -367753.37949  20186717.02349
  23076998.383 5  -1512705.055 5  -1129040.71549  23077001.47749
  21025953.992 6   -410456.594 6   -313476.02349  21025952.83249
  23238016.133 5   -248994.578 5   -182758.40647  23238018.76247
  21340933.109 6   -191934.824 6   -141852.80948  21340931.00048
  23912576.367 5  -1018084.770 5   -754794.33648  23912576.45348
  22481074.031 6  -1145799.871 6   -876759.98048  22481071.12548
  23431965.813 6  -1286488.535 6   -984696.18047  23431963.28547
  21566979.609 6   -831010.262 6   -633494.21949  21566980.91449
 20  5 16  5 23 19.0000000  0  9G01G03G07G08G11G17G22G28G30         -0.000041449
  20186324.844 7   -481598.852 7   -369351.86349  20186326.60549
  23075924.945 5  -1518348.012 5  -1133437.82449  23075927.27749
  21025659.664 6   -412004.684 6   -314682.32449  21025658.31649
  23237801.523 4   -250122.836 4   -183637.57047  23237804.23447
  21340771.477 6   -192785.070 6   -142515.33648  21340769.40648
  23911749.313 5  -1022436.684 5   -758185.43848  23911748.45748
  22480261.234 6  -1150071.090 6   -880088.19948  22480258.48448
  23430913.586 6  -1292019.262 6   -989005.83647  23430911.27047
  21566310.695 6   -834525.742 6   -636233.55949  21566311.78549
 20  5 16  5 23 20.0000000  0  9G01G03G07G08G11G17G22G28G30         -0.000043339
  20185934.594 7   -483650.422 7   -370950.49249  20185935.94949
  23074850.500 5  -1523991.656 5  -1137835.46549  23074853.56649
  21025365.109 6   -413552.969 6   -315888.78149  21025363.94149
  23237586.906 4   -251251.930 4   -184517.38747  23237589.34447
  21340609.484 6   -193635.855 6   -143178.28548  21340607.59448
  23910920.680 5  -1026789.316 5   -761577.10248  23910920.02048
  22479448.680 6  -1154342.684 6   -883416.71548  22479445.50448
  23429861.313 6  -1297550.813 6   -993316.13747  23429858.61347
  21565641.859 6   -838041.391 6   -638973.02749  21565643.07449
 20  5 16  5 23 21.0000000  0  9G01G03G07G08G11G17G22G28G30         -0.000045229
  20185543.992 7   -485702.031 7   -372549.14149  20185545.67249
  23073776.648 5  -1529635.824 5  -1142233.52049  23073779.37549
  21025070.258 6   -415101.352 6   -317095.31649  21025069.09049
  23237372.133 4   -252381.730 4   -185397.75847  23237374.15647
  21340447.719 6   -194487.070 6   -143841.56648  21340445.68048
  23910091.633 5  -1031142.508 5   -764969.20348  23910091.70348
  22478635.539 6  -1158614.516 6   -886745.41448  22478632.96148
  23428807.898 6  -1303083.113 6   -997627.02747  23428805.83647
  21564972.906 6   -841557.082 6   -641712.52349  21564974.09849
 20  5 16  5 23 22.0000000  0  9G01G03G07G08G11G17G22G28G30         -0.000047119
  20185153.508 7   -487753.699 7   -374147.84449  20185155.18049
  23072702.117 5  -1535280.543 5  -1146632.00449  23072705.25049
  21024775.328 6   -416649.883 6   -318301.96149  21024774.75449
  23237157.070 4   -253512.258 4   -186278.68847  23237159.18047
  21340285.609 6   -195338.770 6   -144505.23448  21340283.05148
  23909263.070 5  -1035496.289 5   -768361.76248  23909263.38348
  22477822.383 6  -1162886.613 6   -890074.31648  22477819.46148
  23427755.273 6  -1308616.164 6  -1001938.49647  23427752.47747
  21564303.891 6   -845072.836 6   -644452.07849  21564304.63749
 20  5 16  5 23 23.0000000  0  9G01G03G07G08G11G17G22G28G30         -0.000049011
  20184763.289 7   -489805.418 7   -375746.59049  20184764.62949
  23071628.016 5  -1540925.824 5  -1151030.91949  23071631.04749
  21024480.719 6   -418198.457 6   -319508.64549  21024480.00449
  23236941.453 4   -254643.480 4   -187160.17247  23236943.76647
  21340123.492 6   -196190.863 6   -145169.19948  21340121.00048
  23908434.102 5  -1039850.617 5   -771754.75048  23908434.91048
  22477009.602 6  -1167158.977 6   -893403.43048  22477006.73048
  23426701.875 6  -1314149.957 6  -1006250.54747  23426699.52747
  21563634.906 6   -848588.617 6   -647191.64849  21563636.06649
 20  5 16  5 23 24.0000000  0  9G01G03G07G08G11G17G22G28G30         -0.000050901
  20184372.703 7   -491857.102 7   -377345.30949  20184374.39549
  23070553.734 5  -1546571.496 5  -1155430.14849  23070556.63349
  21024186.211 6   -419747.070 6   -320715.35249  21024185.05149
  23236726.688 4   -255775.359 4   -188042.14847  23236728.24247
  21339961.102 6   -197043.336 6   -145833.47348  21339959.03548
  23907606.148 5  -1044205.387 5   -775148.07848  23907605.99248
  22476196.234 6  -1171431.480 6   -896732.66048  22476193.73448
  23425648.844 6  -1319684.336 6  -1010563.04347  23425646.84847
  21562965.570 6   -852104.383 6   -649931.20749  21562967.03149
 20  5 16  5 23 25.0000000  0  9G01G03G07G08G11G17G22G28G30         -0.000052794
  20183982.430 7   -493908.809 7   -378944.03949  20183983.97749
  23069479.547 5  -1552217.672 5  -1159829.76649  23069481.95349
  21023891.547 6   -421295.727 6   -321922.09849  21023890.37149
  23236511.039 4   -256907.918 4   -188924.66847  23236512.32847
  21339798.875 6   -197896.191 6   -146498.03548  21339796.58648
  23906777.156 5  -1048560.742 5   -778541.85948  23906777.10248
  22475383.250 6  -1175704.211 6   -900062.06648  22475380.65648
  23424595.430 5  -1325219.441 5  -1014876.11747  23424593.07847
  21562296.570 6   -855620.148 6   -652670.76649  21562297.69949
 20  5 16  5 23 26.0000000  0  9G01G03G07G08G11G17G22G28G30         -0.000054686
  20183591.773 7   -495960.566 7   -380542.80949  20183593.62549
  23068404.930 5  -1557864.418 5  -1164229.82449  23068407.36749
  21023596.695 6   -422844.508 6   -323128.94549  21023595.78149
  23236295.148 5   -258041.203 5   -189807.75447  23236296.74647
  21339636.414 6   -198749.492 6   -147162.94148  21339634.48048
  23905948.219 5  -1052916.672 5   -781936.09048  23905948.06648
  22474570.508 6  -1179977.219 6   -903391.68048  22474567.53548
  23423542.547 6  -1330755.281 6  -1019189.75447  23423540.08647
  21561627.430 6   -859135.984 6   -655410.37549  21561628.93449
 20  5 16  5 23 27.0000000  0  9G01G03G07G08G11G17G22G28G30         -0.000056578
  20183201.406 7   -498012.277 7   -382141.55149  20183203.25849
  23067329.984 5  -1563511.641 5  -1168630.25049  23067332.83249
  21023302.172 7   -424393.293 7   -324335.79349  21023300.81649
  23236079.531 5   -259175.090 5   -190691.29747  23236080.88347
  21339474.031 6   -199603.145 6   -147828.12948  21339471.71548
  23905119.430 5  -1057273.074 5   -785330.68848  23905119.18448
  22473757.055 6  -1184250.355 6   -906721.40648  22473754.35248
  23422488.508 6  -1336291.719 6  -1023503.85947  23422486.24647
  21560958.313 6   -862651.773 6   -658149.95349  21560960.06649
 20  5 16  5 23 28.0000000  0  9G01G03G07G08G11G17G22G28G30         -0.000058472
  20182811.031 7   -500064.109 7   -383740.37949  20182812.75849
  23066255.398 5  -1569159.438 5  -1173031.13749  23066258.11349
  21023007.250 7   -425942.234 7   -325542.75849  21023006.09849
  23235863.508 5   -260309.777 5   -191575.46147  23235865.19947
  21339311.703 6   -200457.293 6   -148493.69948  21339309.22348
  23904290.141 5  -1061630.102 5   -788725.77048  23904290.04348
  22472944.172 6  -1188523.832 6   -910051.38348  22472941.30148
  23421435.281 6  -1341829.008 6  -1027818.63747  23421432.71547
  21560289.586 6   -866167.680 6   -660889.62149  21560290.52049
 20  5 16  5 23 29.0000000  0  9G01G03G07G08G11G17G22G28G30         -0.000060366
  20182420.555 7   -502115.988 7   -385339.24649  20182421.76649
  23065180.531 5  -1574807.727 5  -1177432.39549  23065183.11349
  21022712.594 7   -427491.285 7   -326749.81349  21022711.29349
  23235647.391 5   -261445.188 5   -192460.19947  23235649.05147
  21339148.820 6   -201311.891 6   -149159.61748  21339146.57848
  23903461.297 5  -1065987.688 5   -792121.28548  23903460.90248
  22472130.961 6  -1192797.539 6   -913381.53948  22472127.77348
  23420381.047 6  -1347366.961 6  -1032133.92247  23420378.55547
  21559620.680 6   -869683.617 6   -663629.31349  21559621.72349
 20  5 16  5 23 30.0000000  0  9G01G03G07G08G11G17G22G28G30         -0.000062258
  20182029.805 7   -504167.953 7   -386938.18049  20182031.44149
  23064105.680 5  -1580456.605 5  -1181834.11749  23064108.62549
  21022417.781 7   -429040.449 7   -327956.95749  21022416.59849
  23235430.922 5   -262581.320 5   -193345.50047  23235432.90647
  21338986.031 6   -202166.957 6   -149825.90648  21338983.73848
  23902632.023 5  -1070345.836 5   -795517.24248  23902631.50048
  22471317.773 6  -1197071.547 6   -916711.94148  22471314.39148
  23419326.984 6  -1352905.719 6  -1036449.83647  23419324.44547
  21558951.727 6   -873199.645 6   -666369.07849  21558952.71549
 20  5 16  5 23 31.0000000  0  9G01G03G07G08G11G17G22G28G30         -0.000064154
  20181639.422 7   -506219.922 7   -388537.11349  20181641.46949
  23063030.586 5  -1586106.047 5  -1186236.28149  23063033.37549
  21022122.898 6   -430589.711 6   -329164.17649  21022121.71149
  23235214.930 5   -263718.145 5   -194231.34447  23235216.49247
  21338823.336 6   -203022.426 6   -150492.50448  21338820.75848
  23901802.055 5  -1074704.578 5   -798913.66448  23901801.84448
  22470504.117 6  -1201345.766 6   -920042.50048  22470501.08648
  23418272.867 6  -1358445.133 6  -1040766.27747  23418271.14547
  21558282.578 6   -876715.711 6   -669108.86749  21558283.66449
 20  5 16  5 23 32.0000000  0  9G01G03G07G08G11G17G22G28G30         -0.000066048
  20181248.914 7   -508271.953 7   -390136.10549  20181250.54749
  23061955.875 5  -1591755.953 5  -1190638.80549  23061958.57049
  21021828.070 6   -432139.051 6   -330371.45749  21021827.10249
  23234998.102 5   -264855.715 5   -195117.75947  23235000.29347
  21338660.172 6   -203878.332 6   -151159.44548  21338658.26248
  23900973.383 5  -1079063.848 5   -802310.50448  23900972.15648
  22469690.555 6  -1205620.238 6   -923373.25448  22469687.82048
  23417218.484 6  -1363985.305 6  -1045083.29747  23417216.48847
  21557613.594 6   -880231.793 6   -671848.67249  21557614.01649
 20  5 16  5 23 33.0000000  0  9G01G03G07G08G11G17G22G28G30         -0.000067944
  20180858.492 7   -510324.000 7   -391735.09849  20180860.16049
  23060880.313 5  -1597406.395 5  -1195041.74249  23060883.00849
  21021533.383 7   -433688.453 7   -331578.78549  21021532.33649
  23234781.883 5   -265993.891 5   -196004.65647  23234784.03547
  21338497.430 6   -204734.660 6   -151826.71148  21338495.14848
  23900143.586 5  -1083423.656 5   -805707.75448  23900142.87148
  22468877.281 6  -1209894.926 6   -926704.18048  22468874.31348
  23416164.398 6  -1369526.152 6  -1049400.83647  23416161.92247
  21556944.211 6   -883747.887 6   -674588.48049  21556945.18849
 20  5 16  5 23 34.0000000  0  9G01G03G07G08G11G17G22G28G30         -0.000069838
  20180468.063 7   -512376.086 7   -393334.12949  20180470.00049
  23059804.813 5  -1603057.313 5  -1199445.05549  23059807.76649
  21021238.656 7   -435237.945 7   -332786.18449  21021237.07049
  23234564.211 5   -267132.762 5   -196892.08647  23234567.27047
  21338334.352 6   -205591.395 6   -152494.30948  21338332.61748
  23899313.750 5  -1087784.008 5   -809105.42648  23899313.22348
  22468063.789 6  -1214169.848 6   -930035.28948  22468061.19548
  23415109.781 6  -1375067.715 6  -1053718.93447  23415107.41847
  21556274.898 6   -887264.004 6   -677328.31649  21556276.05549
 20  5 16  5 23 35.0000000  0  9G01G03G07G08G11G17G22G28G30         -0.000071735
  20180077.414 7   -514428.172 7   -394933.16049  20180079.46149
  23058729.875 5  -1608708.793 5  -1203848.80949  23058732.71949
  21020943.680 7   -436787.504 7   -333993.63349  21020942.82849
  23234347.875 5   -268272.348 5   -197780.07447  23234350.40647
  21338171.422 6   -206448.555 6   -153162.22348  21338169.61348
  23898483.766 5  -1092144.930 5   -812503.54748  23898483.32448
  22467250.094 6  -1218444.973 6   -933366.54748  22467247.37548
  23414055.102 6  -1380609.996 6  -1058037.59447  23414052.71947
  21555605.711 6   -890780.180 6   -680068.19149  21555607.23849
 20  5 16  5 23 36.0000000  0  9G01G03G07G08G11G17G22G28G30         -0.000073631
  20179687.070 7   -516480.293 7   -396532.21949  20179689.09049
  23057654.219 5  -1614360.754 5  -1208252.93449  23057656.76249
  21020648.578 6   -438337.137 6   -335201.14549  21020647.53949
  23234131.258 5   -269412.613 5   -198668.59047  23234133.24647
  21338008.109 6   -207306.121 6   -153830.44948  21338006.34048
  23897653.805 5  -1096506.348 5   -815902.05548  23897653.57048
  22466436.250 6  -1222720.305 6   -936697.98048  22466433.66048
  23413000.438 5  -1386152.930 5  -1062356.76647  23412998.22747
  21554936.789 6   -894296.344 6   -682808.06649  21554938.14549
 20  5 16  5 23 37.0000000  0  9G01G03G07G08G11G17G22G28G30         -0.000075527
  20179296.523 7   -518532.344 7   -398131.21949  20179298.35249
  23056578.289 5  -1620013.109 5  -1212657.35549  23056581.36349
  21020353.820 6   -439886.719 6   -336408.60949  21020352.73849
  23233914.148 5   -270553.457 5   -199557.56347  23233916.00047
  21337844.867 6   -208163.973 6   -154498.91048  21337842.99248
  23896823.563 5  -1100868.223 5   -819300.91448  23896823.30148
  22465622.898 6  -1226995.781 6   -940029.52048  22465620.30948
  23411945.539 5  -1391696.480 5  -1066676.41447  23411943.41047
  21554267.867 6   -897812.422 6   -685547.86749  21554269.01649
 20  5 16  5 23 38.0000000  0  9G01G03G07G08G11G17G22G28G30         -0.000077425
  20178906.297 7   -520584.449 7   -399730.26249  20178908.10249
  23055503.063 5  -1625666.020 5  -1217062.22349  23055505.37149
  21020058.891 6   -441436.434 6   -337616.17649  21020057.77349
  23233696.586 5   -271695.020 5   -200447.09847  23233698.78547
  21337681.711 6   -209022.289 6   -155167.72748  21337679.66848
  23895994.031 5  -1105230.660 5   -822700.21548  23895993.28548
  22464809.180 6  -1231271.508 6   -943361.25048  22464806.46548
  23410890.805 6  -1397240.754 6  -1070996.62147  23410888.42647
  21553598.883 6   -901328.551 6   -688287.70749  21553599.94549
 20  5 16  5 23 39.0000000  0  9G01G03G07G08G11G17G22G28G30         -0.000079323
  20178515.430 7   -522636.617 7   -401329.35549  20178517.22349
  23054426.305 5  -1631319.457 5  -1221467.50049  23054429.94549
  21019764.117 7   -442986.230 7   -338823.81349  21019762.88349
  23233479.508 5   -272837.309 5   -201337.19147  23233481.37547
  21337517.828 6   -209881.043 6   -155836.88748  21337516.09048
  23895163.164 5  -1109593.664 5   -826099.96148  23895162.78148
  22463995.609 6  -1235547.492 6   -946693.18848  22463992.63748
  23409835.125 6  -1402785.793 6  -1075317.43447  23409833.15647
  21552929.383 6   -904844.754 6   -691027.60949  21552930.64849
 20  5 16  5 23 40.0000000  0  9G01G03G07G08G11G17G22G28G30         -0.000081221
  20178125.258 7   -524688.859 7   -402928.50449  20178126.88349
  23053350.594 5  -1636973.473 5  -1225873.22749  23053353.95349
  21019468.914 7   -444536.191 7   -340031.57849  21019468.02349
  23233261.367 5   -273980.387 5   -202227.90247  23233263.74247
  21337354.602 6   -210740.273 6   -156506.42648  21337352.76648
  23894332.789 5  -1113957.289 5   -829500.19548  23894332.77748
  22463181.930 6  -1239823.758 6   -950025.34848  22463179.15248
  23408780.180 6  -1408331.582 6  -1079638.82847  23408777.82447
  21552259.891 6   -908361.023 6   -693767.56349  21552261.45749
 20  5 16  5 23 41.0000000  0  9G01G03G07G08G11G17G22G28G30         -0.000083118
  20177734.391 7   -526741.094 7   -404527.64549  20177736.34049
  23052274.711 5  -1642627.973 5  -1230279.32849  23052278.37149
  21019173.930 6   -446086.176 6   -341239.35549  21019172.89849
  23233043.883 5   -275124.090 5   -203119.09047  23233046.24247
  21337191.227 6   -211599.914 6   -157176.27748  21337189.10548
  23893502.656 5  -1118321.445 5   -832900.84848  23893502.34448
  22462368.016 6  -1244100.219 6   -953357.65248  22462365.15648
  23407724.875 6  -1413878.027 6  -1083960.73447  23407722.64547
  21551591.297 6   -911877.289 6   -696507.50849  21551592.42249
 20  5 16  5 23 42.0000000  0  9G01G03G07G08G11G17G22G28G30         -0.000085018
  20177344.063 7   -528793.215 7   -406126.70349  20177345.76249
  23051198.734 5  -1648282.813 5  -1234685.69549  23051202.16049
  21018879.070 6   -447636.090 6   -342447.08249  21018878.10549
  23232826.141 4   -276268.320 4   -204010.70347  23232828.77747
  21337027.828 6   -212459.789 6   -157846.31348  21337025.23848
  23892671.766 5  -1122685.914 5   -836301.73048  23892671.71148
  22461554.383 6  -1248376.754 6   -956690.01248  22461551.89548
  23406668.734 6  -1419425.043 6  -1088283.08247  23406666.96947
  21550922.406 6   -915393.438 6   -699247.36749  21550923.43849
 20  5 16  5 23 43.0000000  0  9G01G03G07G08G11G17G22G28G30         -0.000086918
  20176953.461 7   -530845.398 7   -407725.80949  20176955.12149
  23050122.539 5  -1653938.230 5  -1239092.50449  23050126.02349
  21018584.227 7   -449186.109 7   -343654.89549  21018582.96949
  23232608.242 4   -277413.262 4   -204902.87147  23232610.74647
  21336863.883 6   -213320.113 6   -158516.69148  21336861.43048
  23891841.398 5  -1127051.016 5   -839703.10948  23891840.97348
  22460740.000 6  -1252653.559 6   -960022.58648  22460737.55548
  23405613.336 6  -1424972.805 6  -1092606.01647  23405611.06647
  21550253.250 6   -918909.621 6   -701987.25449  21550254.28949
 20  5 16  5 23 44.0000000  0  9G01G03G07G08G11G17G22G28G30         -0.000088816
  20176563.164 7   -532897.633 7   -409324.95349  20176564.91849
  23049046.430 5  -1659594.152 5  -1243499.71149  23049049.71949
  21018289.328 7   -450736.234 7   -344862.78549  21018287.86749
  23232390.203 4   -278558.949 4   -205795.61747  23232392.96947
  21336700.492 6   -214180.902 6   -159187.43848  21336697.46148
  23891010.586 5  -1131416.688 5   -843104.92648  23891010.19548
  22459926.109 6  -1256930.613 6   -963355.35548  22459923.48848
  23404557.461 6  -1430521.266 6  -1096929.48847  23404555.30547
  21549583.977 6   -922425.879 6   -704727.19949  21549585.16449
 20  5 16  5 23 45.0000000  0  9G01G03G07G08G11G17G22G28G30         -0.000090717
  20176172.570 7   -534949.824 7   -410924.05949  20176174.07049
  23047969.836 5  -1665250.570 5  -1247907.30549  23047972.98449
  21017994.352 7   -452286.383 7   -346070.68849  21017993.25049
  23232172.102 4   -279705.246 4   -206688.83647  23232174.99247
  21336536.258 6   -215042.043 6   -159858.45348  21336533.99648
  23890179.555 5  -1135782.816 5   -846507.09848  23890179.33648
  22459112.516 6  -1261207.816 6   -966688.24248  22459109.68448
  23403501.352 5  -1436070.371 5  -1101253.46947  23403499.70747
  21548914.891 6   -925942.086 6   -707467.09849  21548915.84849
 20  5 16  5 23 46.0000000  0  9G01G03G07G08G11G17G22G28G30         -0.000092617
  20175781.938 7   -537001.992 7   -412523.14849  20175784.01649
  23046893.656 5  -1670907.387 5  -1252315.21149  23046896.75849
  21017699.602 7   -453836.516 7   -347278.58649  21017698.31649
  23231953.641 4   -280852.180 4   -207582.55547  23231956.25047
  21336372.172 6   -215903.531 6   -160529.74648  21336369.94548
  23889348.570 5  -1140149.457 5   -849909.67248  23889348.76648
  22458298.148 6  -1265485.156 6   -970021.23448  22458295.51248
  23402445.406 6  -1441620.125 6  -1105577.95347  23402443.43047
  21548246.070 6   -929458.242 6   -710206.95749  21548246.70749
 20  5 16  5 23 47.0000000  0  9G01G03G07G08G11G17G22G28G30         -0.000094519
  20175391.164 7   -539054.246 7   -414122.31349  20175393.32449
  23045817.125 5  -1676564.781 5  -1256723.57049  23045820.19949
  21017404.203 7   -455386.828 7   -348486.62549  21017403.38349
  23231735.492 4   -281999.840 4   -208476.84047  23231738.33247
  21336207.984 6   -216765.496 6   -161201.40648  21336205.98048
  23888517.313 5  -1144516.684 5   -853312.70348  23888517.08248
  22457484.406 6  -1269762.855 6   -973354.50848  22457481.89148
  23401388.867 6  -1447170.613 6  -1109903.00047  23401387.09447
  21547576.797 6   -932974.527 6   -712946.92249  21547577.70749
 20  5 16  5 23 48.0000000  0  9G01G03G07G08G11G17G22G28G30         -0.000096418
  20175000.758 7   -541106.586 7   -415721.53549  20175002.78549
  23044740.477 5  -1682222.734 5  -1261132.36749  23044743.39849
  21017109.055 7   -456937.242 7   -349694.74649  21017107.79349
  23231516.578 4   -283148.223 4   -209371.68447  23231519.52747
  21336043.984 6   -217627.918 6   -161873.42248  21336041.93448
  23887686.734 5  -1148884.508 5   -856716.19948  23887686.22748
  22456670.641 6  -1274040.758 6   -976687.93448  22456668.05948
  23400332.789 6  -1452721.895 6  -1114228.67647  23400331.02047
  21546907.891 6   -936490.848 6   -715686.91449  21546908.58649
 20  5 16  5 23 49.0000000  0  9G01G03G07G08G11G17G22G28G30         -0.000098320
  20174610.398 7   -543158.863 7   -417320.71549  20174612.07049
  23043663.727 5  -1687881.121 5  -1265541.49249  23043667.03149
  21016814.125 7   -458487.648 7   -350902.85249  21016813.16449
  23231298.367 4   -284297.195 4   -210266.99647  23231300.81647
  21335879.992 6   -218490.668 6   -162545.69548  21335877.95348
  23886856.055 5  -1153252.781 5   -860120.04748  23886855.01648
  22455857.008 6  -1278318.863 6   -980021.52348  22455853.19148
  23399275.563 5  -1458273.762 5  -1118554.80547  23399274.27347
  21546238.344 6   -940007.121 6   -718426.86749  21546239.43849
 20  5 16  5 23 50.0000000  0  9G01G03G07G08G11G17G22G28G30         -0.000100224
  20174219.680 7   -545211.203 7   -418919.93849  20174221.39849
  23042586.789 5  -1693540.055 5  -1269951.05549  23042590.04349
  21016519.344 7   -460038.160 7   -352111.04749  21016518.50049
  23231079.609 4   -285446.977 4   -211162.94147  23231082.06647
  21335715.977 6   -219353.883 6   -163218.33648  21335713.27748
  23886024.828 5  -1157621.648 5   -863524.35948  23886023.75448
  22455042.609 6  -1282597.203 6   -983355.30148  22455039.38348
  23398219.555 5  -1463826.395 5  -1122881.52747  23398217.34447
  21545569.367 6   -943523.438 6   -721166.85549  21545570.68049
 20  5 16  5 23 51.0000000  0  9G01G03G07G08G11G17G22G28G30         -0.000102125
  20173829.211 7   -547263.422 7   -420519.07449  20173831.21149
  23041509.797 5  -1699199.367 5  -1274360.90249  23041513.17649
  21016224.297 7   -461588.637 7   -353319.21149  21016222.98049
  23230861.109 4   -286597.273 4   -212059.28547  23230862.72747
  21335551.102 6   -220217.371 6   -163891.18448  21335549.34048
  23885193.477 5  -1161990.883 5   -866928.96948  23885192.25048
  22454228.641 6  -1286875.602 6   -986689.11348  22454225.33648
  23397163.063 6  -1469379.543 6  -1127208.65247  23397161.27747
  21544900.156 6   -947039.668 6   -723906.77749  21544901.09049
 20  5 16  5 23 52.0000000  0  9G01G03G07G08G11G17G22G28G30         -0.000104029
  20173438.828 7   -549315.629 7   -422118.19149  20173440.49649
  23040432.883 5  -1704859.113 5  -1278771.09449  23040436.19149
  21015928.938 6   -463139.105 6   -354527.36749  21015927.82449
  23230642.195 4   -287748.203 4   -212956.11347  23230643.98047
  21335386.703 6   -221081.223 6   -164564.31348  21335384.76648
  23884361.492 5  -1166360.641 5   -870333.97348  23884360.59448
  22453414.531 6  -1291154.203 6   -990023.09048  22453410.80148
  23396106.148 5  -1474933.375 5  -1131536.31347  23396104.47747
  21544230.938 6   -950555.859 6   -726646.66449  21544232.34449
 20  5 16  5 23 53.0000000  0  9G01G03G07G08G11G17G22G28G30         -0.000105932
  20173048.016 7   -551367.797 7   -423717.28949  20173049.62149
  23039355.664 5  -1710519.355 5  -1283181.67249  23039358.78549
  21015634.031 6   -464689.633 6   -355735.57849  21015632.69149
  23230423.203 4   -288899.770 4   -213853.44947  23230425.02047
  21335222.180 6   -221945.445 6   -165237.72748  21335220.33248
  23883529.258 5  -1170730.891 5   -873739.37148  23883529.28948
  22452599.992 6  -1295432.969 6   -993357.19548  22452596.68448
  23395048.766 6  -1480487.867 6  -1135864.49247  23395047.66047
  21543561.969 6   -954072.016 6   -729386.52749  21543563.14849
 20  5 16  5 23 54.0000000  0  9G01G03G07G08G11G17G22G28G30         -0.000107836
  20172657.547 7   -553420.074 7   -425316.46949  20172659.46549
  23038278.477 5  -1716180.133 5  -1287592.66849  23038281.80149
  21015338.938 6   -466240.270 6   -356943.87149  21015337.99249
  23230203.797 4   -290052.074 4   -214751.35247  23230205.61347
  21335058.016 6   -222810.117 6   -165911.50048  21335055.99248
  23882697.531 5  -1175101.738 5   -877145.22348  23882697.46148
  22451785.289 6  -1299711.996 6   -996691.50448  22451782.43848
  23393991.719 6  -1486043.094 6  -1140193.25047  23393990.67247
  21542892.391 6   -957588.266 6   -732126.46549  21542894.08649
 20  5 16  5 23 55.0000000  0  9G01G03G07G08G11G17G22G28G30         -0.000109739
  20172267.391 7   -555472.391 7   -426915.67649  20172268.62949
  23037201.727 5  -1721841.480 5  -1292004.10249  23037204.50449
  21015043.844 7   -467791.051 7   -358152.26649  21015042.63749
  23229984.273 4   -291205.133 4   -215649.82847  23229986.21547
  21334893.297 6   -223675.270 6   -166585.65248  21334891.26248
  23881866.086 5  -1179473.160 5   -880551.52348  23881865.85548
  22450971.125 6  -1303991.320 6  -1000026.03548  22450968.46548
  23392934.609 6  -1491599.078 6  -1144522.59047  23392932.89147
  21542223.594 6   -961104.574 6   -734866.44549  21542224.89549
 20  5 16  5 23 56.0000000  0  9G01G03G07G08G11G17G22G28G30         -0.000111643
  20171876.578 7   -557524.738 7   -428514.91049  20171878.33249
  23036124.305 5  -1727503.289 5  -1296415.89549  23036126.93849
  21014748.727 7   -469341.867 7   -359360.69949  21014747.55949
  23229764.773 5   -292358.828 5   -216548.81347  23229766.64847
  21334728.609 6   -224540.828 6   -167260.11748  21334726.26248
  23881033.992 5  -1183845.125 5   -883958.24648  23881033.60548
  22450156.781 6  -1308270.828 6  -1003360.71148  22450154.11348
  23391877.641 5  -1497155.723 5  -1148852.44547  23391876.21147
  21541554.836 6   -964620.895 6   -737606.43049  21541555.73849
 20  5 16  5 23 57.0000000  0  9G01G03G07G08G11G17G22G28G30         -0.000113548
  20171485.914 7   -559577.000 7   -430114.07449  20171487.39549
  23035046.914 5  -1733165.520 5  -1300828.02049  23035049.59849
  21014453.352 6   -470892.641 6   -360569.09849  21014452.80949
  23229545.047 5   -293513.109 5   -217448.25047  23229546.86347
  21334563.938 6   -225406.660 6   -167934.78948  21334561.59448
  23880201.969 5  -1188217.496 5   -887365.29348  23880201.39848
  22449342.320 6  -1312550.449 6  -1006695.48448  22449339.46548
  23390820.086 6  -1502712.977 6  -1153182.76247  23390818.55947
  21540885.477 6   -968137.113 6   -740346.35249  21540886.39149
 20  5 16  5 23 58.0000000  0  9G01G03G07G08G11G17G22G28G30         -0.000115454
  20171095.383 7   -561629.223 7   -431713.20749  20171097.17249
  23033969.078 5  -1738828.164 5  -1305240.46549  23033971.99649
  21014158.266 7   -472443.445 7   -361777.51649  21014157.62549
  23229325.594 5   -294668.023 5   -218348.19547  23229327.05147
  21334399.031 6   -226272.859 6   -168609.74648  21334396.87948
  23879369.984 5  -1192590.355 5   -890772.72348  23879369.49648
  22448527.906 6  -1316830.230 6  -1010030.38348  22448525.60248
  23389762.328 5  -1508270.828 5  -1157513.55547  23389760.89547
  21540216.414 6   -971653.301 6   -743086.23849  21540217.86349
 20  5 16  5 23 59.0000000  0  9G01G03G07G08G11G17G22G28G30         -0.000117359
  20170705.133 7   -563681.477 7   -433312.36349  20170706.64149
  23032891.266 5  -1744491.344 5  -1309653.33649  23032894.07449
  21013863.250 7   -473994.309 7   -362985.97749  21013862.25849
  23229105.531 5   -295823.625 5   -219248.66847  23229107.39147
  21334234.133 6   -227139.469 6   -169285.03148  21334231.72748
  23878537.609 5  -1196963.766 5   -894180.57048  23878537.03548
  22447713.773 6  -1321110.230 6  -1013365.44948  22447710.82448
  23388704.484 6  -1513829.414 6  -1161844.91847  23388702.93447
  21539547.242 6   -975169.504 6   -745826.13749  21539548.48049
 20  5 16  5 24  0.0000000  0  9G01G03G07G08G11G17G22G28G30         -0.000119265
  20170314.258 7   -565733.727 7   -434911.52349  20170316.26649
  23031813.570 5  -1750155.008 5  -1314066.57849  23031816.84049
  21013568.180 7   -475545.230 7   -364194.49249  21013566.95749
  23228885.211 5   -296979.891 5   -220149.65247  23228887.53147
  21334068.914 6   -228006.508 6   -169960.64548  21334067.31648
  23877705.180 5  -1201337.680 5   -897588.80948  23877704.83648
  22446899.352 6  -1325390.426 6  -1016700.66448  22446896.21148
  23387646.695 6  -1519388.664 6  -1166176.79747  23387645.15647
  21538878.055 6   -978685.715 6   -748566.03949  21538879.52749
 20  5 16  5 24  1.0000000  0  9G01G03G07G08G11G17G22G28G30         -0.000121172
  20169923.789 7   -567785.992 7   -436510.68849  20169925.70749
  23030735.594 5  -1755819.141 5  -1318480.18849  23030738.47749
  21013272.906 6   -477096.227 6   -365403.06349  21013272.35549
  23228664.883 5   -298136.824 5   -221051.15247  23228667.05547
  21333904.031 6   -228873.898 6   -170636.53948  21333901.45748
  23876872.898 5  -1205712.145 5   -900997.48048  23876872.03148
  22446084.617 6  -1329670.824 6  -1020036.03948  22446081.92648
  23386588.352 6  -1524948.598 6  -1170509.21547  23386586.88747
  21538209.195 6   -982201.910 6   -751305.93849  21538209.82449
 20  5 16  5 24  2.0000000  0  9G01G03G07G08G11G17G22G28G30         -0.000123077
  20169533.359 7   -569838.211 7   -438109.82049  20169534.86349
  23029657.773 6  -1761483.738 6  -1322894.16049  23029660.46549
  21012977.695 6   -478647.207 6   -366611.62149  21012976.94549
  23228444.586 5   -299294.379 5   -221953.13747  23228446.73447
  21333738.961 6   -229741.684 6   -171312.73048  21333736.57448
  23876039.781 5  -1210087.078 5   -904406.51648  23876039.82048
  22445270.398 6  -1333951.406 6  -1023371.55948  22445267.41848
  23385530.547 6  -1530509.184 6  -1174842.13747  23385529.25047
  21537539.789 6   -985718.074 6   -754045.80149  21537541.34849
 20  5 16  5 24  3.0000000  0  9G01G03G07G08G11G17G22G28G30         -0.000124985
  20169142.758 7   -571890.422 7   -439708.94949  20169144.60549
  23028579.820 5  -1767148.777 5  -1327308.47349  23028582.73449
  21012682.477 7   -480198.250 7   -367820.22749  21012681.66449
  23228224.172 5   -300452.594 5   -222855.63747  23228226.46947
  21333573.492 6   -230609.793 6   -171989.18448  21333571.71148
  23875207.203 5  -1214462.473 5   -907815.91448  23875207.08248
  22444455.313 6  -1338232.133 6  -1026707.18848  22444452.53948
  23384472.000 6  -1536070.402 6  -1179175.55547  23384470.59847
  21536870.797 6   -989234.211 6   -756785.64849  21536872.14849
 20  5 16  5 24  4.0000000  0  9G01G03G07G08G11G17G22G28G30         -0.000126892
  20168752.289 7   -573942.656 7   -441308.09049  20168753.75449
  23027501.773 5  -1772814.320 5  -1331723.18449  23027504.35949
  21012387.266 6   -481749.371 6   -369028.89849  21012386.35949
  23228004.383 5   -301611.508 5   -223758.68847  23228006.29347
  21333408.430 6   -231478.340 6   -172665.97348  21333405.76248
  23874374.359 5  -1218838.438 5   -911225.75848  23874374.01248
  22443640.836 6  -1342513.105 6  -1030043.01648  22443638.23048
  23383413.805 6  -1541632.340 6  -1183509.53147  23383412.42247
  21536201.797 6   -992750.375 6   -759525.52349  21536203.08249
 20  5 16  5 24  5.0000000  0  9G01G03G07G08G11G17G22G28G30         -0.000128801
  20168361.898 7   -575994.785 7   -442907.14849  20168363.62549
  23026423.477 5  -1778480.250 5  -1336138.18849  23026426.02749
  21012092.320 6   -483300.406 6   -370237.49649  21012091.44549
  23227783.039 5   -302770.906 5   -224662.11347  23227785.56647
  21333242.992 6   -232347.160 6   -173342.97348  21333240.91448
  23873541.289 5  -1223214.832 5   -914635.93448  23873541.62148
  22442826.164 6  -1346794.152 6  -1033378.89848  22442823.42248
  23382355.063 6  -1547194.820 6  -1187843.92647  23382353.82047
  21535532.563 6   -996266.430 6   -762265.30949  21535533.74249
 20  5 16  5 24  6.0000000  0  9G01G03G07G08G11G17G22G28G30         -0.000130709
  20167971.336 7   -578046.879 7   -444506.18849  20167972.70749
  23025344.508 6  -1784146.605 6  -1340553.53149  23025348.22749
  21011797.328 6   -484851.469 6   -371446.11749  21011796.65649
  23227561.703 5   -303930.977 5   -225566.06647  23227564.77347
  21333077.938 6   -233216.359 6   -174020.27348  21333075.60948
  23872708.820 5  -1227591.680 5   -918046.46948  23872708.43448
  22442010.984 6  -1351075.383 6  -1036714.91048  22442008.42648
  23381296.781 6  -1552757.934 6  -1192178.82047  23381295.14147
  21534864.008 6   -999782.453 6   -765005.05949  21534864.72749
 20  5 16  5 24  7.0000000  0  9G01G03G07G08G11G17G22G28G30         -0.000132618
  20167580.836 7   -580099.094 7   -446105.31349  20167582.58249
  23024266.750 5  -1789813.563 5  -1344969.34049  23024269.56349
  21011502.203 6   -486402.688 6   -372654.86349  21011501.01249
  23227341.297 5   -305091.801 5   -226470.60247  23227343.86347
  21332911.945 6   -234086.063 6   -174697.96548  21332910.21548
  23871875.859 5  -1231969.168 5   -921457.49648  23871875.80148
  22441196.492 6  -1355356.879 6  -1040051.14548  22441194.10248
  23380237.875 6  -1558321.852 6  -1196514.34847  23380236.35247
  21534194.492 6  -1003298.555 6   -767744.87949  21534195.57449
 20  5 16  5 24  8.0000000  0  9G01G03G07G08G11G17G22G28G30         -0.000134527
  20167190.344 7   -582151.199 7   -447704.35949  20167191.67249
  23023188.523 6  -1795480.887 6  -1349385.43449  23023191.25049
  21011207.008 6   -487953.863 6   -373863.57049  21011206.05549
  23227120.117 5   -306253.180 5   -227375.57047  23227122.59847
  21332746.469 6   -234956.027 6   -175375.85948  21332744.30148
  23871042.570 5  -1236347.090 5   -924868.86348  23871042.54748
  22440381.969 6  -1359638.484 6  -1043387.45748  22440379.15648
  23379179.188 6  -1563886.332 6  -1200850.30547  23379177.12147
  21533525.438 7  -1006814.574 7   -770484.63749  21533526.10249
 20  5 16  5 24  9.0000000  0  9G01G03G07G08G11G17G22G28G30         -0.000136436
  20166799.727 7   -584203.293 7   -449303.39149  20166801.71949
  23022109.336 5  -1801148.672 5  -1353801.88749  23022112.95349
  21010912.016 6   -489505.055 6   -375072.29749  21010910.80549
  23226899.070 5   -307415.215 5   -228281.05147  23226901.70347
  21332580.680 6   -235826.355 6   -176054.03148  21332578.58648
  23870210.023 5  -1240725.461 5   -928280.57848  23870209.80148
  22439567.266 6  -1363920.277 6  -1046723.92648  22439564.64548
  23378119.859 6  -1569451.441 6  -1205186.75047  23378118.42247
  21532856.188 7  -1010330.566 7   -773224.37549  21532857.31349
 20  5 16  5 24 10.0000000  0  9G01G03G07G08G11G17G22G28G30         -0.000138346
  20166408.969 7   -586255.348 7   -450902.39849  20166410.96149
  23021031.023 5  -1806816.918 5  -1358218.70749  23021034.36349
  21010616.633 6   -491056.262 6   -376281.02749  21010615.34849
  23226678.164 5   -308577.871 5   -229187.02347  23226680.32847
  21332415.117 6   -236697.063 6   -176732.51648  21332413.26248
  23869376.445 5  -1245104.336 5   -931692.69148  23869375.94948
  22438752.633 6  -1368202.211 6  -1050060.50048  22438749.52048
  23377060.125 6  -1575017.211 6  -1209523.71547  23377059.07447
  21532187.500 6  -1013846.523 6   -775964.07849  21532188.14149
 20  5 16  5 24 11.0000000  0  9G01G03G07G08G11G17G22G28G30         -0.000140257
  20166018.609 7   -588307.418 7   -452501.41049  20166020.34049
  23019951.938 5  -1812485.637 5  -1362635.89149  23019955.37549
  21010321.758 7   -492607.531 7   -377489.80949  21010320.23449
  23226456.656 4   -309741.219 4   -230093.53147  23226459.25847
  21332249.047 6   -237568.168 6   -177411.29748  21332247.55948
  23868543.313 5  -1249483.746 5   -935105.21948  23868542.39148
  22437937.625 6  -1372484.355 6  -1053397.22748  22437934.47348
  23376001.297 6  -1580583.695 6  -1213861.23447  23375999.84447
  21531518.461 6  -1017362.473 6   -778703.78149  21531519.02049
 20  5 16  5 24 12.0000000  0  9G01G03G07G08G11G17G22G28G30         -0.000142166
  20165628.367 7   -590359.391 7   -454100.35249  20165630.00849
  23018873.680 5  -1818154.770 5  -1367053.39149  23018877.04349
  21010026.273 6   -494158.789 6   -378698.58649  21010024.98449
  23226234.844 4   -310905.129 4   -231000.48847  23226237.55147
  21332083.508 6   -238439.574 6   -178090.31648  21332081.50848
  23867709.758 5  -1253863.574 5   -938518.06348  23867709.11348
  22437122.477 6  -1376766.621 6  -1056734.05948  22437120.32048
  23374942.242 6  -1586150.734 6  -1218199.18447  23374940.54747
  21530849.117 6  -1020878.344 6   -781443.41849  21530850.12149
 20  5 16  5 24 13.0000000  0  9G01G03G07G08G11G17G22G28G30         -0.000144077
  20165237.883 7   -592411.336 7   -455699.27349  20165239.52349
  23017794.383 5  -1823824.348 5  -1371471.23449  23017798.07449
  21009731.281 6   -495710.016 6   -379907.34049  21009729.65649
  23226013.219 4   -312069.641 4   -231907.90647  23226015.95347
  21331917.695 6   -239311.324 6   -178769.60948  21331915.70348
  23866876.547 5  -1258243.871 5   -941931.28948  23866876.24248
  22436307.641 6  -1381049.043 6  -1060071.00848  22436305.05548
  23373882.328 6  -1591718.410 6  -1222537.63347  23373880.70747
  21530179.992 6  -1024394.156 6   -784183.01649  21530181.35949
 20  5 16  5 24 14.0000000  0  9G01G03G07G08G11G17G22G28G30         -0.000145988
  20164847.430 7   -594463.219 7   -457298.14549  20164848.93049
  23016715.344 5  -1829494.285 5  -1375889.36749  23016718.85249
  21009435.828 7   -497261.246 7   -381116.08649  21009434.67249
  23225791.648 4   -313234.770 4   -232815.79347  23225794.44547
  21331751.875 6   -240183.398 6   -179449.14848  21331749.55148
  23866042.109 5  -1262624.648 5   -945344.88348  23866042.18448
  22435492.320 6  -1385331.586 6  -1063408.06648  22435490.11748
  23372823.258 6  -1597286.672 6  -1226876.54347  23372821.53147
  21529511.180 6  -1027909.914 6   -786922.56649  21529512.30149
 20  5 16  5 24 15.0000000  0  9G01G03G07G08G11G17G22G28G30         -0.000147902
  20164456.820 7   -596515.113 7   -458897.02049  20164458.69949
  23015636.359 5  -1835164.785 5  -1380307.93849  23015639.59449
  21009140.672 7   -498812.563 7   -382324.90649  21009139.45349
  23225570.297 4   -314400.551 4   -233724.19547  23225572.26247
  21331585.914 6   -241055.895 6   -180129.01648  21331583.66848
  23865209.172 5  -1267005.949 5   -948758.87548  23865208.67248
  22434677.641 6  -1389614.355 6  -1066745.28148  22434675.11748
  23371762.938 5  -1602855.664 5  -1231216.02047  23371761.24647
  21528842.117 6  -1031425.672 6   -789662.12149  21528843.18449
 20  5 16  5 24 16.0000000  0  9G01G03G07G08G11G17G22G28G30         -0.000149813
  20164066.445 7   -598567.004 7   -460495.89849  20164068.21949
  23014556.891 5  -1840835.723 5  -1384726.84849  23014560.78149
  21008845.109 7   -500363.918 7   -383533.75849  21008844.19949
  23225347.141 4   -315567.035 4   -234633.14847  23225349.88347
  21331419.992 6   -241928.770 6   -180809.18048  21331417.51648
  23864374.750 5  -1271387.754 5   -952173.26648  23864374.78148
  22433862.219 6  -1393897.297 6  -1070082.64148  22433859.93848
  23370702.820 5  -1608425.293 5  -1235555.99647  23370701.51247
  21528173.133 6  -1034941.453 6   -792401.68849  21528174.40249
 20  5 16  5 24 17.0000000  0  9G01G03G07G08G11G17G22G28G30         -0.000151726
  20163675.938 7   -600618.910 7   -462094.78949  20163677.78149
  23013478.008 5  -1846507.137 5  -1389146.12949  23013481.42649
  21008549.906 7   -501915.309 7   -384742.63349  21008548.81649
  23225125.609 4   -316734.148 4   -235542.59847  23225128.06647
  21331253.844 6   -242802.012 6   -181489.63348  21331251.69148
  23863540.844 5  -1275770.082 5   -955588.06648  23863540.37148
  22433047.141 6  -1398180.426 6  -1073420.14148  22433044.83248
  23369643.078 5  -1613995.590 5  -1239896.48047  23369641.49247
  21527504.047 6  -1038457.184 6   -795141.22349  21527504.95349
 20  5 16  5 24 18.0000000  0  9G01G03G07G08G11G17G22G28G30         -0.000153639
  20163285.547 7   -602670.727 7   -463693.60249  20163287.04349
  23012398.570 5  -1852178.953 5  -1393565.71949  23012402.19549
  21008254.914 7   -503466.656 7   -385951.47749  21008253.92249
  23224903.633 4   -317901.840 4   -236452.48047  23224905.45347
  21331087.453 6   -243675.566 6   -182170.32048  21331084.81348
  23862707.188 5  -1280152.824 5   -959003.18848  23862706.90248
  22432232.438 6  -1402463.668 6  -1076757.73448  22432229.71948
  23368583.359 5  -1619566.480 5  -1244237.43047  23368581.87147
  21526835.109 6  -1041972.832 6   -797880.68449  21526836.33249
 20  5 16  5 24 19.0000000  0  9G01G03G07G08G11G17G22G28G30         -0.000155552
  20162895.086 7   -604722.484 7   -465292.37949  20162896.79749
  23011319.039 5  -1857851.199 5  -1397985.65249  23011323.11349
  21007959.555 6   -505018.016 6   -387160.32449  21007958.46549
  23224681.891 4   -319070.137 4   -237362.84047  23224683.10247
  21330921.156 6   -244549.461 6   -182851.27348  21330919.14148
  23861872.742 5  -1284536.020 5   -962418.66048  23861872.49248
  22431417.609 6  -1406747.070 6  -1080095.44948  22431414.58248
  23367522.977 6  -1625137.969 6  -1248578.84847  23367521.47347
  21526166.234 6  -1045488.449 6   -800620.12949  21526167.17649
 20  5 16  5 24 20.0000000  0  9G01G03G07G08G11G17G22G28G30         -0.000157465
  20162504.617 7   -606774.273 7   -466891.17249  20162506.51649
  23010239.570 5  -1863523.934 5  -1402405.96149  23010243.40649
  21007664.180 6   -506569.473 6   -388369.25849  21007663.60549
  23224458.930 5   -320239.125 5   -238273.75047  23224461.21947
  21330754.883 6   -245423.766 6   -183532.54748  21330752.70748
  23861038.539 5  -1288919.789 5   -965834.59448  23861038.26648
  22430602.031 6  -1411030.680 6  -1083433.32848  22430599.48448
  23366462.813 5  -1630710.191 5  -1252920.83647  23366461.02347
  21525497.195 6  -1049004.078 6   -803359.58249  21525498.21549
 20  5 16  5 24 21.0000000  0  9G01G03G07G08G11G17G22G28G30         -0.000159378
  20162114.195 7   -608826.023 7   -468489.94149  20162115.98849
  23009159.984 5  -1869197.109 5  -1406826.61749  23009163.86749
  21007369.313 6   -508120.895 6   -389578.15249  21007368.31649
  23224236.297 5   -321408.727 5   -239185.12947  23224238.43047
  21330588.281 6   -246298.410 6   -184214.09048  21330586.17648
  23860204.602 5  -1293304.000 5   -969250.85548  23860203.97348
  22429787.047 6  -1415314.410 6  -1086771.29748  22429784.34048
  23365402.609 6  -1636283.012 6  -1257263.29747  23365400.78147
  21524828.469 6  -1052519.633 6   -806098.97749  21524829.18449
 20  5 16  5 24 22.0000000  0  9G01G03G07G08G11G17G22G28G30         -0.000161293
  20161723.805 7   -610877.652 7   -470088.61349  20161725.28949
  23008080.102 5  -1874870.637 5  -1411247.54349  23008083.90649
  21007074.047 6   -509672.273 6   -390787.02749  21007073.23049
  23224013.406 5   -322578.879 5   -240096.93847  23224015.83247
  21330421.719 6   -247173.363 6   -184895.87948  21330419.73448
  23859370.133 5  -1297688.656 5   -972667.46948  23859370.21948
  22428971.742 6  -1419598.266 6  -1090109.36748  22428969.20748
  23364341.867 6  -1641856.387 6  -1261606.18847  23364340.18447
  21524159.195 6  -1056035.113 6   -808838.31349  21524160.36749
 20  5 16  5 24 23.0000000  0  9G01G03G07G08G11G17G22G28G30         -0.000163208
  20161333.477 7   -612929.230 7   -471687.24649  20161334.82049
  23007000.648 5  -1880544.598 5  -1415668.81649  23007004.88349
  21006778.570 6   -511223.656 6   -391995.89849  21006777.75449
  23223791.109 5   -323749.637 5   -241009.21547  23223792.67647
  21330255.250 6   -248048.602 6   -185577.87948  21330253.09848
  23858535.563 5  -1302073.770 5   -976084.44548  23858535.59048
  22428156.523 6  -1423882.234 6  -1093447.52748  22428154.21948
  23363281.133 5  -1647430.406 5  -1265949.58247  23363279.41447
  21523490.391 6  -1059550.512 6   -811577.59449  21523491.51249
 20  5 16  5 24 24.0000000  0  9G01G03G07G08G11G17G22G28G30         -0.000165123
  20160943.219 7   -614980.809 7   -473285.88349  20160944.85549
  23005921.352 5  -1886219.008 5  -1420090.43049  23005924.85549
  21006483.578 6   -512775.063 6   -393204.78949  21006482.64149
  23223568.305 5   -324921.035 5   -241922.00047  23223569.94947
  21330088.367 6   -248924.254 6   -186260.20348  21330086.57448
  23857700.633 5  -1306459.359 5   -979501.78548  23857700.74648
  22427341.844 6  -1428166.398 6  -1096785.83648  22427339.04348
  23362220.625 5  -1653005.094 5  -1270293.49647  23362218.62947
  21522821.172 6  -1063065.883 6   -814316.84049  21522822.50849
 20  5 16  5 24 25.0000000  0  9G01G03G07G08G11G17G22G28G30         -0.000167038
  20160552.547 7   -617032.320 7   -474884.46549  20160554.25849
  23004841.023 5  -1891893.844 5  -1424512.37549  23004844.73049
  21006188.313 6   -514326.477 6   -394413.68449  21006187.26649
  23223345.422 5   -326093.012 5   -242835.23047  23223346.97747
  21329921.719 6   -249800.219 6   -186942.78148  21329919.74248
  23856866.742 5  -1310845.410 5   -982919.48848  23856866.34848
  22426526.367 6  -1432450.676 6  -1100124.23048  22426523.67248
  23361159.102 5  -1658580.367 5  -1274637.85947  23361157.54347
  21522152.633 6  -1066581.207 6   -817056.05549  21522153.26649
 20  5 16  5 24 26.0000000  0  9G01G03G07G08G11G17G22G28G30         -0.000168953
  20160162.234 7   -619083.832 7   -476483.04349  20160163.93049
  23003761.281 5  -1897569.152 5  -1428934.69549  23003765.08649
  21005893.016 6   -515877.914 6   -395622.60249  21005892.03949
  23223122.094 5   -327265.672 5   -243748.98447  23223123.89147
  21329755.063 6   -250676.570 6   -187625.64848  21329752.97348
  23856031.461 5  -1315231.949 5   -986337.57448  23856031.36748
  22425710.859 6  -1436735.145 6  -1103462.77748  22425708.29748
  23360097.977 5  -1664156.297 5  -1278982.73447  23360096.46147
  21521483.789 6  -1070096.488 6   -819795.23849  21521484.44949
 20  5 16  5 24 27.0000000  0  9G01G03G07G08G11G17G22G28G30         -0.000170870
  20159771.914 7   -621135.301 7   -478081.59049  20159773.46149
  23002681.297 5  -1903244.891 5  -1433357.34449  23002684.96549
  21005597.922 7   -517429.371 7   -396831.53149  21005596.75049
  23222899.203 5   -328438.930 5   -244663.21547  23222900.83647
  21329588.234 6   -251553.273 6   -188308.79348  21329586.44148
  23855197.039 5  -1319618.984 5   -989756.03948  23855196.70348
  22424895.125 6  -1441019.758 6  -1106801.43848  22424893.03948
  23359036.992 6  -1669732.848 6  -1283328.10247  23359035.38747
  21520814.109 6  -1073611.750 6   -822534.40249  21520815.59449
 20  5 16  5 24 28.0000000  0  9G01G03G07G08G11G17G22G28G30         -0.000172787
  20159381.344 7   -623186.871 7   -479680.21549  20159383.02049
  23001601.133 5  -1908921.242 5  -1437780.47349  23001604.27349
  21005302.711 7   -518981.000 7   -398040.59449  21005301.66449
  23222675.703 5   -329612.984 5   -245578.06347  23222676.91047
  21329420.805 6   -252430.477 6   -188992.33248  21329419.14848
  23854361.992 5  -1324006.664 5   -993175.01248  23854361.89148
  22424080.016 6  -1445304.695 6  -1110140.34448  22424077.81648
  23357975.719 6  -1675310.238 6  -1287674.11747  23357973.82047
  21520145.352 6  -1077127.121 6   -825273.65249  21520146.55549
 20  5 16  5 24 29.0000000  0  9G01G03G07G08G11G17G22G28G30         -0.000174704
  20158990.938 7   -625238.340 7   -481278.76249  20158992.66049
  23000520.828 5  -1914597.945 5  -1442203.87149  23000524.53549
  21005007.844 7   -520532.551 7   -399249.59449  21005006.48849
  23222452.063 5   -330787.578 5   -246493.33247  23222453.50847
  21329254.266 6   -253307.941 6   -189676.07448  21329252.23848
  23853526.898 5  -1328394.691 5   -996594.25448  23853526.53548
  22423265.000 6  -1449589.676 6  -1113479.29748  22423262.11748
  23356914.477 6  -1680888.129 6  -1292020.52347  23356912.28547
  21519476.227 6  -1080642.352 6   -828012.79349  21519477.41849
 20  5 16  5 24 30.0000000  0  9G01G03G07G08G11G17G22G28G30         -0.000176620
  20158600.828 7   -627289.602 7   -482877.15249  20158602.92649
  22999440.320 5  -1920274.883 5  -1446627.44949  22999443.98049
  21004712.195 7   -522083.977 7   -400458.48849  21004710.92649
  23222228.242 5   -331962.598 5   -247408.92647  23222229.80147
  21329087.398 6   -254185.613 6   -190359.97348  21329085.04748
  23852691.867 5  -1332783.074 5  -1000013.77348  23852691.39148
  22422449.578 6  -1453874.668 6  -1116818.25048  22422446.55148
  23355852.508 5  -1686466.504 5  -1296367.31347  23355851.02747
  21518807.367 6  -1084157.371 6   -830751.77049  21518808.55549
 20  5 16  5 24 31.0000000  0  9G01G03G07G08G11G17G22G28G30         -0.000178539
  20158210.500 7   -629340.863 7   -484475.53949  20158211.87949
  22998360.055 5  -1925952.313 5  -1451051.42249  22998363.68449
  21004417.078 7   -523635.422 7   -401667.39149  21004415.95349
  23222004.484 5   -333138.328 5   -248325.07447  23222006.41447
  21328919.961 6   -255063.648 6   -191044.16048  21328918.07048
  23851856.539 5  -1337171.961 5  -1003433.68448  23851856.49648
  22421633.680 6  -1458159.836 6  -1120157.34048  22421631.70348
  23354790.820 5  -1692045.563 5  -1300714.62947  23354789.07847
  21518138.547 6  -1087672.402 6   -833490.75449  21518139.80949
 20  5 16  5 24 32.0000000  0  9G01G03G07G08G11G17G22G28G30         -0.000180456
  20157820.102 7   -631392.180 7   -486073.96949  20157821.74649
  22997279.609 5  -1931630.277 5  -1455475.80149  22997283.29749
  21004121.852 6   -525186.969 6   -402876.39149  21004120.89149
  23221781.250 5   -334314.762 5   -249241.78147  23221782.66047
  21328752.906 6   -255942.125 6   -191728.68848  21328751.19548
  23851021.250 5  -1341561.406 5  -1006854.02748  23851021.07048
  22420818.547 6  -1462445.289 6  -1123496.64848  22420815.70748
  23353728.891 5  -1697625.336 5  -1305062.50447  23353726.89547
  21517469.688 6  -1091187.477 6   -836229.77749  21517470.78149
 20  5 16  5 24 33.0000000  0  9G01G03G07G08G11G17G22G28G30         -0.000182375
  20157429.820 7   -633443.453 7   -487672.35549  20157431.54349
  22996198.547 5  -1937308.688 5  -1459900.53149  22996202.25849
  21003826.648 7   -526738.547 7   -404085.41449  21003825.51249
  23221556.688 5   -335491.820 5   -250158.97347  23221558.90647
  21328585.539 6   -256820.938 6   -192413.47348  21328583.60548
  23850184.977 5  -1345951.344 5  -1010274.75448  23850185.55148
  22420003.477 6  -1466730.852 6  -1126836.04748  22420000.47348
  23352666.836 5  -1703205.738 5  -1309410.86747  23352665.16447
  21516800.672 6  -1094702.504 6   -838968.75849  21516801.93049
 20  5 16  5 24 34.0000000  0  9G01G03G07G08G11G17G22G28G30         -0.000184294
  20157039.406 7   -635494.719 7   -489270.75449  20157041.12949
  22995117.586 5  -1942987.551 5  -1464325.61749  22995121.98049
  21003530.945 7   -528290.172 7   -405294.47349  21003530.33649
  23221332.172 5   -336669.488 5   -251076.63747  23221334.66047
  21328418.391 6   -257700.145 6   -193098.57848  21328416.33648
  23849350.242 5  -1350341.801 5  -1013695.89148  23849350.48048
  22419187.813 6  -1471016.598 6  -1130175.59848  22419184.79748
  23351605.031 5  -1708786.793 5  -1313759.74247  23351603.45747
  21516131.867 6  -1098217.516 6   -841707.72349  21516133.53149
 20  5 16  5 24 35.0000000  0  9G01G03G07G08G11G17G22G28G30         -0.000186213
  20156649.164 7   -637545.875 7   -490869.05549  20156650.71149
  22994037.328 5  -1948666.734 5  -1468750.95749  22994041.02349
  21003235.805 6   -529841.703 6   -406503.46549  21003234.78149
  23221107.875 5   -337847.703 5   -251994.72747  23221110.43847
  21328250.875 6   -258579.613 6   -193783.87548  21328249.07848
  23848514.789 5  -1354732.609 5  -1017117.29348  23848514.56648
  22418371.734 6  -1475302.426 6  -1133515.19948  22418368.92248
  23350542.844 5  -1714368.406 5  -1318109.05547  23350541.26247
  21515463.109 6  -1101732.398 6   -844446.60249  21515464.47349
 20  5 16  5 24 36.0000000  0  9G01G03G07G08G11G17G22G28G30         -0.000188131
  20156258.797 7   -639596.961 7   -492467.30149  20156260.48849
  22992956.172 5  -1954346.383 5  -1473176.65649  22992960.00849
  21002940.727 6   -531393.223 6   -407712.44149  21002939.60249
  23220883.406 5   -339026.512 5   -252913.27747  23220885.72747
  21328083.734 6   -259459.410 6   -194469.43448  21328082.04748
  23847678.773 5  -1359123.898 5  -1020539.07848  23847678.85548
  22417556.234 6  -1479588.387 6  -1136854.91048  22417553.03548
  23349480.742 5  -1719950.613 5  -1322458.83247  23349478.92247
  21514793.867 6  -1105247.207 6   -847185.40649  21514795.25049
 20  5 16  5 24 37.0000000  0  9G01G03G07G08G11G17G22G28G30         -0.000190052
  20155868.563 7   -641648.016 7   -494065.52749  20155870.26649
  22991876.398 5  -1960026.441 5  -1477602.67249  22991879.18449
  21002645.164 6   -532944.762 6   -408921.44149  21002644.31349
  23220659.086 5   -340205.938 5   -253832.30547  23220661.61347
  21327916.289 6   -260339.555 6   -195155.26248  21327914.32848
  23846843.445 5  -1363515.641 5  -1023961.21948  23846843.10548
  22416740.758 6  -1483874.473 6  -1140194.71548  22416738.04748
  23348418.484 5  -1725533.453 5  -1326809.09047  23348416.59447
  21514125.125 6  -1108761.953 6   -849924.17649  21514126.75049
 20  5 16  5 24 38.0000000  0  9G01G03G07G08G11G17G22G28G30         -0.000191973
  20155478.008 7   -643698.969 7   -495663.67649  20155479.67649
  22990794.875 5  -1965706.887 5  -1482028.98849  22990798.08249
  21002350.094 6   -534496.273 6   -410130.41049  21002349.39549
  23220434.586 5   -341385.957 5   -254751.79747  23220437.44947
  21327748.469 6   -261220.020 6   -195841.34048  21327746.63748
  23846007.570 5  -1367907.840 5  -1027383.71148  23846007.41848
  22415925.227 6  -1488160.684 6  -1143534.61748  22415922.14548
  23347355.984 5  -1731116.871 5  -1331159.80547  23347353.98447
  21513456.484 6  -1112276.633 6   -852662.88349  21513457.43449
 20  5 16  5 24 39.0000000  0  9G01G03G07G08G11G17G22G28G30         -0.000193893
  20155087.867 7   -645749.879 7   -497261.78149  20155089.54749
  22989714.563 5  -1971387.742 5  -1486455.63349  22989716.91049
  21002054.836 7   -536047.754 7   -411339.35949  21002054.03149
  23220209.633 5   -342566.551 5   -255671.74647  23220212.47347
  21327581.102 6   -262100.785 6   -196527.65248  21327578.94148
  23845171.813 5  -1372300.477 5  -1030806.53948  23845171.26248
  22415109.547 6  -1492447.008 6  -1146874.60948  22415106.37548
  23346293.680 5  -1736700.906 5  -1335510.99647  23346291.43847
  21512787.758 6  -1115791.246 6   -855401.54749  21512788.98449
 20  5 16  5 24 40.0000000  0  9G01G03G07G08G11G17G22G28G30         -0.000195814
  20154697.625 7   -647800.637 7   -498859.77749  20154699.46949
  22988632.852 5  -1977068.914 5  -1490882.51649  22988635.59449
  21001760.047 6   -537599.129 6   -412548.22749  21001759.00849
  23219984.813 5   -343747.668 5   -256592.09447  23219988.07847
  21327413.789 6   -262981.816 6   -197214.17248  21327411.68848
  23844335.406 5  -1376693.456 5  -1034229.64148  23844335.02048
  22414293.734 6  -1496733.375 6  -1150214.63748  22414291.16848
  23345231.039 5  -1742285.453 5  -1339862.59047  23345228.74647
  21512118.906 6  -1119305.691 6   -858140.07849  21512120.36749
 20  5 16  5 24 41.0000000  0  9G01G03G07G08G11G17G22G28G30         -0.000197735
  20154307.578 7   -649851.359 7   -500457.74249  20154308.97349
  22987551.422 5  -1982750.563 5  -1495309.77049  22987554.25049
  21001464.492 6   -539150.551 6   -413757.12149  21001463.51249
  23219760.055 4   -344929.375 4   -257512.91047  23219762.82847
  21327245.727 6   -263863.234 6   -197900.98848  21327244.00448
  23843499.797 5  -1381087.000 5  -1037653.18448  23843499.43448
  22413478.016 6  -1501019.902 6  -1153554.78548  22413475.45748
  23344167.836 6  -1747870.648 6  -1344214.68047  23344165.50447
  21511450.148 6  -1122820.109 6   -860878.58249  21511451.44149
 20  5 16  5 24 42.0000000  0  9G01G03G07G08G11G17G22G28G30         -0.000199657
  20153917.320 7   -651902.012 7   -502055.65649  20153918.77349
  22986469.758 5  -1988432.598 5  -1499737.32049  22986472.90649
  21001169.344 6   -540701.914 6   -414965.98049  21001168.31349
  23219535.430 5   -346111.727 5   -258434.23447  23219538.02047
  21327077.953 6   -264744.930 6   -198588.02348  21327076.05148
  23842663.453 5  -1385480.902 5  -1041077.00848  23842663.31648
  22412662.438 6  -1505306.523 6  -1156895.01248  22412659.47748
  23343105.141 5  -1753456.418 5  -1348567.23847  23343103.02047
  21510781.719 6  -1126334.410 6   -863616.99649  21510782.66849
 20  5 16  5 24 43.0000000  0  9G01G03G07G08G11G17G22G28G30         -0.000201578
  20153526.992 7   -653952.535 7   -503653.46549  20153528.84849
  22985389.234 5  -1994114.965 5  -1504165.13749  22985391.97349
  21000874.328 6   -542253.223 6   -416174.79349  21000872.98849
  23219309.836 4   -347294.570 4   -259355.93447  23219312.69947
  21326910.266 6   -265626.926 6   -199275.29748  21326908.03948
  23841827.828 5  -1389875.223 5  -1044501.15248  23841827.01248
  22411846.453 6  -1509593.234 6  -1160235.30148  22411843.51248
  23342042.203 6  -1759042.746 6  -1352920.22347  23342039.99647
  21510113.102 6  -1129848.613 6   -866355.33649  21510113.73849
 20  5 16  5 24 44.0000000  0  9G01G03G07G08G11G17G22G28G30         -0.000203501
  20153136.852 7   -656003.055 7   -505251.27349  20153138.57449
  22984307.578 5  -1999797.797 5  -1508593.32049  22984310.01249
  21000578.742 6   -543804.555 6   -417383.62949  21000577.71549
  23219085.164 4   -348478.039 4   -260278.12147  23219087.50047
  21326742.336 6   -266509.262 6   -199962.82848  21326740.37548
  23840991.906 5  -1394270.043 5  -1047925.69148  23840990.66048
  22411030.469 6  -1513880.090 6  -1163575.70748  22411028.02348
  23340978.273 5  -1764629.688 5  -1357273.68847  23340976.33247
  21509443.992 6  -1133362.777 6   -869093.65249  21509445.11349
 20  5 16  5 24 45.0000000  0  9G01G03G07G08G11G17G22G28G30         -0.000205423
  20152746.719 7   -658053.480 7   -506849.00449  20152748.51249
  22983226.000 5  -2005481.016 5  -1513021.80149  22983228.58249
  21000283.508 6   -545355.902 6   -418592.47349  21000282.85249
  23218860.195 4   -349662.113 4   -261200.78147  23218862.20747
  21326574.469 6   -267391.934 6   -200650.62148  21326572.31648
  23840154.742 5  -1398665.309 5  -1051350.56648  23840153.84848
  22410215.117 6  -1518167.098 6  -1166916.23448  22410212.15648
  23339914.797 5  -1770217.277 5  -1361627.65647  23339912.93447
  21508775.359 6  -1136876.883 6   -871831.91449  21508776.42249
 20  5 16  5 24 46.0000000  0  9G01G03G07G08G11G17G22G28G30         -0.000207346
  20152356.391 7   -660103.941 7   -508446.77049  20152357.97749
  22982144.016 5  -2011164.707 5  -1517450.66049  22982147.09449
  20999988.156 6   -546907.277 6   -419801.33649  20999987.69149
  23218634.766 4   -350846.855 4   -262123.95747  23218637.26647
  21326405.977 6   -268274.992 6   -201338.72348  21326404.12148
  23839318.156 5  -1403061.070 5  -1054775.84848  23839317.59448
  22409399.242 6  -1522454.273 6  -1170256.88748  22409396.00848
  23338852.156 6  -1775805.496 6  -1365982.11747  23338849.62147
  21508106.555 6  -1140390.969 6   -874570.16849  21508107.67249
 20  5 16  5 24 47.0000000  0  9G01G03G07G08G11G17G22G28G30         -0.000209270
  20151966.055 7   -662154.273 7   -510044.42649  20151967.99649
  22981062.945 5  -2016848.797 5  -1521879.82049  22981065.37549
  20999693.492 6   -548458.602 6   -421010.15649  20999692.32849
  23218409.117 4   -352032.133 4   -263047.55147  23218411.73847
  21326238.117 6   -269158.332 6   -202027.03948  21326236.18048
  23838481.664 5  -1407457.273 5  -1058201.46148  23838481.39848
  22408583.320 6  -1526741.551 6  -1173597.62148  22408580.55148
  23337788.281 6  -1781394.297 6  -1370337.02747  23337786.25447
  21507437.914 6  -1143904.945 6   -877308.32849  21507439.44949
 20  5 16  5 24 48.0000000  0  9G01G03G07G08G11G17G22G28G30         -0.000211193
  20151576.133 7   -664204.520 7   -511642.02749  20151577.83649
  22979981.000 5  -2022533.242 5  -1526309.25849  22979983.80549
  20999397.984 7   -550009.875 7   -422218.94149  20999397.08249
  23218183.508 4   -353217.957 4   -263971.57847  23218185.28947
  21326069.781 6   -270041.957 6   -202715.58248  21326067.61748
  23837644.984 5  -1411853.871 5  -1061627.37548  23837644.62948
  22407767.109 6  -1531028.910 6  -1176938.42248  22407764.46548
  23336724.875 5  -1786983.660 5  -1374692.36747  23336722.63347
  21506769.227 6  -1147418.797 6   -880046.39849  21506770.79749
 20  5 16  5 24 49.0000000  0  9G01G03G07G08G11G17G22G28G30         -0.000213118
  20151185.719 7   -666254.707 7   -513239.57449  20151187.44149
  22978899.484 5  -2028218.094 5  -1530739.00849  22978901.79349
  20999102.883 7   -551561.141 7   -423427.71949  20999101.74249
  23217957.570 4   -354404.434 4   -264896.11347  23217959.80947
  21325901.633 6   -270925.934 6   -203404.39148  21325899.93048
  23836807.930 5  -1416250.957 5  -1065053.67648  23836808.22348
  22406951.242 6  -1535316.418 6  -1180279.34048  22406948.50448
  23335661.180 5  -1792573.668 5  -1379048.22347  23335658.98447
  21506100.398 6  -1150932.621 6   -882784.44149  21506101.95349
 20  5 16  5 24 50.0000000  0  9G01G03G07G08G11G17G22G28G30         -0.000215042
  20150795.641 7   -668304.809 7   -514837.05549  20150797.21549
  22977817.727 5  -2033903.328 5  -1535169.05949  22977820.11749
  20998807.688 6   -553112.367 6   -424636.47349  20998806.52049
  23217731.641 4   -355591.441 4   -265821.05947  23217733.90247
  21325733.539 6   -271810.191 6   -204093.43048  21325731.44948
  23835970.672 5  -1420648.426 5  -1068480.27348  23835971.16048
  22406135.391 6  -1539604.012 6  -1183620.31648  22406132.56648
  23334597.109 5  -1798164.180 5  -1383404.46147  23334595.19147
  21505432.055 6  -1154446.332 6   -885522.39849  21505433.34049
 20  5 16  5 24 51.0000000  0  9G01G03G07G08G11G17G22G28G30         -0.000216967
  20150405.898 7   -670354.770 7   -516434.43049  20150407.60249
  22976735.891 5  -2039588.918 5  -1539599.38749  22976738.35949
  20998512.539 6   -554663.496 6   -425845.14549  20998511.66049
  23217505.906 4   -356778.969 4   -266746.41447  23217508.13347
  21325565.250 6   -272694.711 6   -204782.66848  21325563.40648
  23835134.078 5  -1425046.270 5  -1071907.16848  23835134.17648
  22405319.609 6  -1543891.664 6  -1186961.34848  22405316.72348
  23333533.055 5  -1803755.313 5  -1387761.18447  23333531.18847
  21504763.719 6  -1157959.895 6   -888260.23849  21504764.85949
 20  5 16  5 24 52.0000000  0  9G01G03G07G08G11G17G22G28G30         -0.000218891
  20150015.656 7   -672404.648 7   -518031.74249  20150017.22349
  22975653.797 5  -2045274.879 5  -1544030.00449  22975656.16049
  20998217.352 7   -556214.621 7   -427053.81649  20998215.87149
  23217279.539 4   -357967.094 4   -267672.22747  23217281.87547
  21325396.570 6   -273579.543 6   -205472.14848  21325394.79748
  23834297.445 5  -1429444.613 5  -1075334.44548  23834297.46948
  22404503.680 6  -1548179.414 6  -1190302.45348  22404501.02048
  23332469.266 5  -1809346.977 5  -1392118.32847  23332467.50047
  21504094.297 6  -1161473.375 6   -890998.01649  21504095.88749
 20  5 16  5 24 53.0000000  0  9G01G03G07G08G11G17G22G28G30         -0.000220818
  20149625.672 7   -674454.598 7   -519629.10249  20149627.24649
  22974571.625 5  -2050961.375 5  -1548461.03949  22974574.41449
  20997922.383 7   -557765.840 7   -428262.56349  20997920.95749
  23217053.719 4   -359155.891 4   -268598.55947  23217055.76647
  21325228.688 6   -274464.824 6   -206161.98048  21325226.26648
  23833460.883 5  -1433843.465 5  -1078762.12948  23833460.14148
  22403687.977 6  -1552467.422 6  -1193643.75448  22403684.84048
  23331404.914 6  -1814939.367 6  -1396476.03547  23331402.75447
  21503426.133 6  -1164986.898 6   -893735.82849  21503427.52349
 20  5 16  5 24 54.0000000  0  9G01G03G07G08G11G17G22G28G30         -0.000222742
  20149235.734 7   -676504.379 7   -521226.33649  20149237.44149
  22973489.688 5  -2056648.191 5  -1552892.32049  22973492.42249
  20997626.891 7   -559316.957 7   -429471.22749  20997626.12149
  23216827.531 4   -360345.242 4   -269525.32847  23216829.60947
  21325059.797 6   -275350.340 6   -206851.99648  21325058.04748
  23832624.141 5  -1438242.723 5  -1082190.12148  23832623.30948
  22402871.664 6  -1556755.449 6  -1196985.07448  22402868.61748
  23330340.578 6  -1820532.273 6  -1400834.14847  23330338.41047
  21502757.555 6  -1168500.273 6   -896473.53149  21502758.65649
 20  5 16  5 24 55.0000000  0  9G01G03G07G08G11G17G22G28G30         -0.000224669
  20148845.375 7   -678554.156 7   -522823.56349  20148847.08649
  22972407.180 5  -2062335.453 5  -1557323.95349  22972410.02049
  20997332.086 6   -560868.094 6   -430679.90649  20997330.79349
  23216600.617 4   -361535.207 4   -270452.57847  23216603.18047
  21324891.414 6   -276236.230 6   -207542.29348  21324889.20748
  23831785.938 5  -1442642.449 5  -1085618.47748  23831785.93848
  22402055.789 6  -1561043.664 6  -1200326.53548  22402053.00848
  23329276.648 6  -1826125.844 6  -1405192.77747  23329274.00447
  21502088.844 6  -1172013.621 6   -899211.19549  21502090.47749
 20  5 16  5 24 56.0000000  0  9G01G03G07G08G11G17G22G28G30         -0.000226595
  20148455.594 7   -680603.828 7   -524420.70749  20148457.19149
  22971325.211 5  -2068023.102 5  -1561755.87949  22971327.62149
  20997036.586 6   -562419.188 6   -431888.54749  20997035.37949
  23216373.969 5   -362725.746 5   -271380.27047  23216376.62947
  21324722.563 6   -277122.395 6   -208232.81348  21324720.85948
  23830948.984 5  -1447042.594 5  -1089047.16048  23830948.89848
  22401239.836 6  -1565331.957 6  -1203668.06648  22401236.94948
  23328211.773 6  -1831719.969 6  -1409551.84047  23328209.41047
  21501420.711 6  -1175526.848 6   -901948.78149  21501421.54749
 20  5 16  5 24 57.0000000  0  9G01G03G07G08G11G17G22G28G30         -0.000228521
  20148065.305 7   -682653.438 7   -526017.80949  20148066.96549
  22970242.367 5  -2073711.129 5  -1566188.10549  22970245.29349
  20996741.500 6   -563970.281 6   -433097.19949  20996740.58249
  23216147.313 4   -363916.891 4   -272308.43047  23216149.75847
  21324554.156 6   -278008.898 6   -208923.59448  21324552.06348
  23830111.266 5  -1451443.199 5  -1092476.19548  23830110.90648
  22400423.648 6  -1569620.363 6  -1207009.68848  22400420.93048
  23327147.078 6  -1837314.672 6  -1413911.34847  23327144.98847
  21500751.727 6  -1179040.012 6   -904686.31349  21500753.29349
 20  5 16  5 24 58.0000000  0  9G01G03G07G08G11G17G22G28G30         -0.000230450
  20147675.094 7   -684702.969 7   -527614.85249  20147677.08649
  22969159.805 5  -2079399.535 5  -1570620.62949  22969162.74649
  20996446.375 6   -565521.324 6   -434305.80549  20996445.28549
  23215920.227 5   -365108.566 5   -273237.01247  23215923.25447
  21324384.953 6   -278895.695 6   -209614.60948  21324383.01248
  23829273.852 5  -1455844.207 5  -1095905.54748  23829273.73048
  22399607.664 6  -1573908.887 6  -1210351.39148  22399604.56348
  23326082.539 6  -1842909.996 6  -1418271.34047  23326080.42647
  21500083.406 6  -1182553.066 6   -907423.75449  21500084.61749
 20  5 16  5 24 59.0000000  0  9G01G03G07G08G11G17G22G28G30         -0.000232376
  20147285.492 7   -686752.363 7   -529211.77749  20147286.81349
  22968077.180 5  -2085088.309 5  -1575053.44149  22968080.30949
  20996151.203 7   -567072.289 7   -435514.34849  20996150.09449
  23215693.688 5   -366300.797 5   -274166.02747  23215696.35547
  21324216.219 6   -279782.742 6   -210305.81648  21324214.28948
  23828436.078 5  -1460245.598 5  -1099335.19948  23828436.02348
  22398791.367 6  -1578197.438 6  -1213693.11348  22398788.58648
  23325017.750 6  -1848505.840 6  -1422631.73447  23325015.91447
  21499415.000 6  -1186065.996 6   -910161.10549  21499416.16049
 20  5 16  5 25  0.0000000  0  9G01G03G07G08G11G17G22G28G30         -0.000234304
  20146895.219 7   -688801.758 7   -530808.70749  20146896.94949
  22966994.617 5  -2090777.523 5  -1579486.59849  22966997.91049
  20995856.266 7   -568623.285 7   -436722.91449  20995854.81349
  23215466.883 5   -367493.668 5   -275095.53547  23215468.93847
  21324047.195 6   -280670.188 6   -210997.33248  21324045.26248
  23827598.648 5  -1464647.535 5  -1102765.28148  23827598.15248
  22397975.492 6  -1582486.203 6  -1217035.01248  22397972.40648
  23323952.578 6  -1854102.355 6  -1426992.66047  23323950.96947
  21498746.602 6  -1189578.902 6   -912898.43849  21498747.77749
 20  5 16  5 25  1.0000000  0  9G01G03G07G08G11G17G22G28G30         -0.000236233
  20146505.492 7   -690851.082 7   -532405.58649  20146506.99649
  22965911.477 5  -2096467.164 5  -1583920.07849  22965915.08649
  20995561.156 7   -570174.281 7   -437931.49249  20995560.12149
  23215239.180 5   -368687.168 5   -276025.54347  23215241.95747
  21323878.570 6   -281557.938 6   -211689.09048  21323876.51648
  23826760.719 5  -1469049.871 5  -1106195.67648  23826760.62548
  22397159.094 6  -1586775.082 6  -1220377.00048  22397156.64548
  23322887.688 6  -1859699.445 6  -1431354.03147  23322885.69547
  21498078.109 6  -1193091.738 6   -915635.71949  21498079.13349
 20  5 16  5 25  2.0000000  0  9G01G03G07G08G11G17G22G28G30         -0.000238161
  20146115.820 7   -692900.273 7   -534002.36349  20146116.96949
  22964828.859 5  -2102157.129 5  -1588353.81649  22964832.33649
  20995265.695 7   -571725.199 7   -439139.99249  20995264.79749
  23215012.461 5   -369881.176 5   -276955.93447  23215014.60547
  21323709.406 6   -282445.945 6   -212381.04348  21323707.55148
  23825922.617 5  -1473452.613 5  -1109626.39148  23825922.86748
  22396343.469 6  -1591063.984 6  -1223719.00048  22396340.38348
  23321822.109 6  -1865297.090 6  -1435715.83647  23321820.39847
  21497409.797 6  -1196604.422 6   -918372.87149  21497410.91849
 20  5 16  5 25  3.0000000  0  9G01G03G07G08G11G17G22G28G30         -0.000240089
  20145725.375 7   -694949.379 7   -535599.06349  20145727.25049
  22963746.438 5  -2107847.496 5  -1592787.85949  22963750.29749
  20994970.359 6   -573276.082 6   -440348.47749  20994969.81349
  23214785.039 5   -371075.703 5   -277886.73047  23214787.46947
  21323540.500 6   -283334.273 6   -213073.24648  21323538.47748
  23825085.070 5  -1477855.762 5  -1113057.41448  23825085.02348
  22395527.031 6  -1595353.035 6  -1227061.10948  22395524.35548
  23320756.547 6  -1870895.324 6  -1440078.09047  23320754.87147
  21496741.594 6  -1200117.039 6   -921109.97749  21496742.47349
 20  5 16  5 25  4.0000000  0  9G01G03G07G08G11G17G22G28G30         -0.000242020
  20145335.492 7   -696998.426 7   -537195.72349  20145337.19549
  22962663.266 5  -2113538.227 5  -1597222.19549  22962666.79749
  20994675.227 6   -574826.930 6   -441556.93449  20994674.97349
  23214557.766 5   -372270.828 5   -278817.99647  23214559.92647
  21323371.508 6   -284222.906 6   -213765.69148  21323369.62148
  23824247.461 5  -1482259.379 5  -1116488.79748  23824246.83248
  22394711.039 6  -1599642.184 6  -1230403.30548  22394707.82448
  23319691.781 6  -1876494.125 6  -1444440.79747  23319690.07847
  21496072.742 6  -1203629.535 6   -923846.98849  21496074.03149
 20  5 16  5 25  5.0000000  0  9G01G03G07G08G11G17G22G28G30         -0.000243948
  20144945.531 7   -699047.434 7   -538792.35549  20144947.43849
  22961580.508 5  -2119229.398 5  -1601656.87149  22961583.95749
  20994380.594 6   -576377.801 6   -442765.40249  20994379.49249
  23214330.063 5   -373466.590 5   -279749.76247  23214332.66047
  21323202.492 6   -285111.887 6   -214458.40648  21323200.23448
  23823409.180 5  -1486663.457 5  -1119920.53948  23823408.66048
  22393894.898 6  -1603931.453 6  -1233745.59048  22393891.46148
  23318626.313 6  -1882093.539 6  -1448803.98047  23318624.36747
  21495404.453 6  -1207142.000 6   -926583.97749  21495405.50049
 20  5 16  5 25  6.0000000  0  9G01G03G07G08G11G17G22G28G30         -0.000245878
  20144556.180 7   -701096.316 7   -540388.88349  20144557.72749
  22960497.688 5  -2124920.945 5  -1606091.83649  22960500.79349
  20994085.125 6   -577928.605 6   -443973.82449  20994084.60249
  23214102.695 5   -374662.891 5   -280681.93847  23214105.26247
  21323033.016 6   -286001.160 6   -215151.34448  21323031.12548
  23822570.859 5  -1491067.965 5  -1123352.61748  23822570.80548
  22393078.422 6  -1608220.848 6  -1237087.97748  22393075.18448
  23317560.586 5  -1887693.547 5  -1453167.62147  23317559.25047
  21494735.875 6  -1210654.371 6   -929320.88749  21494737.50449
 20  5 16  5 25  7.0000000  0  9G01G03G07G08G11G17G22G28G30         -0.000247808
  20144165.914 7   -703145.152 7   -541985.37949  20144167.59849
  22959414.703 5  -2130612.863 5  -1610527.09449  22959417.66449
  20993789.859 6   -579479.375 6   -445182.21949  20993789.15649
  23213874.313 5   -375859.793 5   -281614.59047  23213877.06647
  21322864.023 6   -286890.754 6   -215844.53148  21322861.56648
  23821732.641 5  -1495472.875 5  -1126785.01248  23821732.29348
  22392262.250 6  -1612510.305 6  -1240430.40648  22392258.97348
  23316494.477 6  -1893294.137 6  -1457531.70747  23316492.86347
  21494067.961 6  -1214166.645 6   -932057.72749  21494069.06649
 20  5 16  5 25  8.0000000  0  9G01G03G07G08G11G17G22G28G30         -0.000249739
  20143776.070 7   -705193.766 7   -543581.70349  20143777.84449
  22958331.156 5  -2136305.055 5  -1614962.56649  22958334.43449
  20993494.875 6   -581030.031 6   -446390.52049  20993493.98449
  23213646.273 5   -377057.145 5   -282547.58647  23213649.25447
  21322694.242 6   -287780.547 6   -216537.88348  21322692.02748
  23820893.961 5  -1499878.141 5  -1130217.68848  23820894.12148
  22391446.141 6  -1616799.762 6  -1243772.84448  22391442.83248
  23315429.023 6  -1898895.176 6  -1461896.14847  23315427.27347
  21493399.125 6  -1217678.699 6   -934794.39549  21493400.32849
 20  5 16  5 25  9.0000000  0  9G01G03G07G08G11G17G22G28G30         -0.000251671
  20143386.320 7   -707242.313 7   -545177.96949  20143388.06349
  22957248.250 5  -2141997.652 5  -1619398.35249  22957251.51249
  20993200.102 7   -582580.641 7   -447598.78949  20993199.37949
  23213418.500 5   -378255.063 5   -283481.03147  23213421.47347
  21322525.156 6   -288670.641 6   -217231.46148  21322522.83248
  23820055.625 5  -1504283.785 5  -1133650.66048  23820055.89548
  22390629.484 6  -1621089.324 6  -1247115.35548  22390626.57448
  23314362.648 6  -1904496.828 6  -1466261.07047  23314361.57447
  21492730.836 6  -1221190.691 6   -937531.00049  21492732.47349
 20  5 16  5 25 10.0000000  0  9G01G03G07G08G11G17G22G28G30         -0.000253601
  20142996.656 7   -709290.809 7   -546774.19949  20142998.38349
  22956165.273 5  -2147690.641 5  -1623834.44149  22956168.02349
  20992905.117 7   -584131.266 7   -448807.07049  20992904.03549
  23213190.578 5   -379453.648 5   -284415.00047  23213193.49647
  21322355.781 6   -289561.082 6   -217925.31348  21322353.46548
  23819217.438 5  -1508689.922 5  -1137084.02048  23819217.28148
  22389813.102 6  -1625379.023 6  -1250457.97748  22389810.67248
  23313297.039 6  -1910099.094 6  -1470626.47347  23313295.51647
  21492062.586 6  -1224702.621 6   -940267.57049  21492063.79749
 20  5 16  5 25 11.0000000  0  9G01G03G07G08G11G17G22G28G30         -0.000255533
  20142606.516 7   -711339.238 7   -548370.38349  20142608.05949
  22955081.719 5  -2153384.055 5  -1628270.87149  22955084.50849
  20992609.914 6   -585681.871 6   -450015.33649  20992609.30949
  23212962.648 5   -380652.777 5   -285349.39547  23212965.09047
  21322186.125 6   -290451.844 6   -218619.41448  21322184.09048
  23818379.430 5  -1513096.535 5  -1140517.74248  23818378.63348
  22388996.383 6  -1629668.844 6  -1253800.69548  22388994.17648
  23312230.586 6  -1915701.957 6  -1474992.34847  23312229.25847
  21491394.375 6  -1228214.461 6   -943004.07449  21491395.41849
 20  5 16  5 25 12.0000000  0  9G01G03G07G08G11G17G22G28G30         -0.000257465
  20142216.766 7   -713387.637 7   -549966.54349  20142218.62949
  22953998.008 5  -2159077.891 5  -1632707.62549  22954001.13349
  20992315.094 6   -587232.469 6   -451223.59849  20992313.98049
  23212734.516 5   -381852.512 5   -286284.25447  23212737.00447
  21322016.586 6   -291342.918 6   -219313.75848  21322014.70348
  23817540.234 5  -1517503.602 5  -1143951.81648  23817539.94548
  22388180.555 6  -1633958.813 6  -1257143.53148  22388178.12948
  23311163.781 5  -1921305.422 5  -1479358.68447  23311162.74247
  21490726.156 6  -1231726.258 6   -945740.53949  21490727.43049
 20  5 16  5 25 13.0000000  0  9G01G03G07G08G11G17G22G28G30         -0.000259398
  20141827.250 7   -715435.906 7   -551562.59449  20141829.13349
  22952914.219 5  -2164772.063 5  -1637144.64549  22952917.34049
  20992019.977 7   -588783.008 7   -452431.81349  20992018.83249
  23212506.781 5   -383052.824 5   -287219.55947  23212508.54747
  21321846.953 6   -292234.285 6   -220008.33248  21321844.76648
  23816701.898 5  -1521911.090 5  -1147386.22348  23816701.60248
  22387363.852 6  -1638248.836 6  -1260486.40648  22387361.25448
  23310097.844 6  -1926909.469 6  -1483725.47347  23310096.69947
  21490058.016 6  -1235237.949 6   -948476.92249  21490058.89149
 20  5 16  5 25 14.0000000  0  9G01G03G07G08G11G17G22G28G30         -0.000261330
  20141437.586 7   -717484.090 7   -553158.57849  20141439.22749
  22951830.547 6  -2170466.609 6  -1641581.94949  22951833.70749
  20991724.750 7   -590333.492 7   -453639.98049  20991723.86349
  23212277.281 5   -384253.641 5   -288155.26247  23212279.68847
  21321677.508 6   -293125.926 6   -220703.12148  21321675.41048
  23815862.852 5  -1526318.949 5  -1150820.91848  23815862.74648
  22386547.711 6  -1642538.953 6  -1263829.35948  22386545.02748
  23309031.570 6  -1932514.063 6  -1488092.69147  23309030.25447
  21489389.820 6  -1238749.508 6   -951213.20349  21489391.03949
 20  5 16  5 25 15.0000000  0  9G01G03G07G08G11G17G22G28G30         -0.000263262
  20141047.836 7   -719532.188 7   -554754.50049  20141049.00449
  22950747.094 5  -2176161.559 5  -1646019.57049  22950750.60949
  20991429.789 7   -591883.969 7   -454848.14549  20991428.80549
  23212048.820 5   -385455.082 5   -289091.45347  23212051.37947
  21321507.680 6   -294017.875 6   -221398.14548  21321505.74248
  23815024.109 5  -1530727.262 5  -1154255.96148  23815023.57048
  22385731.430 6  -1646829.188 6  -1267172.39548  22385728.75048
  23307964.734 6  -1938119.230 6  -1492460.35547  23307963.45347
  21488721.438 6  -1242260.988 6   -953949.42249  21488722.59849
 20  5 16  5 25 16.0000000  0  9G01G03G07G08G11G17G22G28G30         -0.000265196
  20140657.898 7   -721580.273 7   -556350.41449  20140659.49649
  22949663.391 5  -2181856.910 5  -1650457.50849  22949666.59449
  20991134.609 7   -593434.426 7   -456056.30149  20991133.81349
  23211820.023 5   -386657.125 5   -290028.10947  23211822.22747
  21321337.789 6   -294910.195 6   -222093.46148  21321335.68448
  23814185.070 5  -1535136.051 5  -1157691.38348  23814184.80948
  22384914.586 6  -1651119.547 6  -1270515.52748  22384912.19548
  23306897.977 6  -1943725.027 6  -1496828.50447  23306896.54347
  21488053.711 6  -1245772.414 6   -956685.59849  21488054.54349
 20  5 16  5 25 17.0000000  0  9G01G03G07G08G11G17G22G28G30         -0.000267130
  20140268.266 7   -723628.188 7   -557946.19149  20140269.65249
  22948579.344 6  -2187552.617 6  -1654895.71549  22948582.81649
  20990839.742 7   -594984.828 7   -457264.40649  20990838.54349
  23211591.320 5   -387859.660 5   -290965.15647  23211593.64847
  21321168.008 6   -295802.746 6   -222788.96148  21321165.83648
  23813346.578 5  -1539545.207 5  -1161127.09048  23813345.46148
  22384098.398 6  -1655409.973 6  -1273858.71548  22384095.84048
  23305830.930 5  -1949331.367 5  -1501197.08247  23305830.28947
  21487384.891 6  -1249283.703 6   -959421.66849  21487386.56649
 20  5 16  5 25 18.0000000  0  9G01G03G07G08G11G17G22G28G30         -0.000269064
  20139878.453 7   -725676.066 7   -559541.94149  20139880.11749
  22947495.305 6  -2193248.715 6  -1659334.23049  22947498.69949
  20990544.430 6   -596535.207 6   -458472.49249  20990543.64849
  23211362.570 4   -389062.801 4   -291902.66847  23211364.89147
  21320997.969 6   -296695.648 6   -223484.72748  21320995.48448
  23812507.078 5  -1543954.855 5  -1164563.18048  23812506.42648
  22383281.789 6  -1659700.516 6  -1277202.00048  22383279.43448
  23304764.000 6  -1954938.305 6  -1505566.12947  23304763.34447
  21486716.898 6  -1252794.895 6   -962157.66449  21486718.01249
 20  5 16  5 25 19.0000000  0  9G01G03G07G08G11G17G22G28G30         -0.000270998
  20139488.922 7   -727723.816 7   -561137.59049  20139490.71949
  22946411.477 5  -2198945.152 5  -1663773.00849  22946414.67649
  20990249.492 6   -598085.504 6   -459680.51649  20990248.53949
  23211132.867 4   -390266.492 4   -292840.60947  23211135.81347
  21320828.008 6   -297588.832 6   -224180.71548  21320826.09448
  23811668.047 5  -1548364.828 5  -1167999.52348  23811667.42248
  22382465.422 6  -1663991.121 6  -1280545.32848  22382462.93048
  23303697.164 6  -1960545.770 6  -1509935.57447  23303695.94547
  21486048.313 6  -1256305.977 6   -964893.57449  21486049.80949
 20  5 16  5 25 20.0000000  0  9G01G03G07G08G11G17G22G28G30         -0.000272932
  20139098.898 7   -729771.418 7   -562733.12549  20139100.66449
  22945327.352 6  -2204641.918 6  -1668212.04749  22945330.78149
  20989954.586 6   -599635.711 6   -460888.46549  20989953.77349
  23210904.133 4   -391470.680 4   -293778.94147  23210906.38347
  21320658.008 6   -298482.246 6   -224876.87548  21320655.82048
  23810828.609 5  -1552775.199 5  -1171436.17648  23810828.09048
  22381648.906 6  -1668281.766 6  -1283888.68448  22381646.20348
  23302630.133 6  -1966153.754 6  -1514305.43047  23302629.06347
  21485380.391 6  -1259816.879 6   -967629.34049  21485381.80949
 20  5 16  5 25 21.0000000  0  9G01G03G07G08G11G17G22G28G30         -0.000274866
  20138709.289 7   -731818.883 7   -564328.54749  20138711.09049
  22944242.875 6  -2210339.004 6  -1672651.32849  22944246.36349
  20989659.242 6   -601185.840 6   -462096.36349  20989658.46549
  23210675.047 4   -392675.379 4   -294717.66447  23210677.51647
  21320488.148 6   -299375.906 6   -225573.23048  21320485.82848
  23809989.656 5  -1557185.953 5  -1174873.13748  23809988.94148
  22380831.969 6  -1672572.457 6  -1287232.07848  22380829.62548
  23301562.906 6  -1971762.285 6  -1518675.71547  23301561.73047
  21484712.438 6  -1263327.660 6   -970365.01649  21484713.54349
 20  5 16  5 25 22.0000000  0  9G01G03G07G08G11G17G22G28G30         -0.000276802
  20138319.672 7   -733866.207 7   -565923.86749  20138321.92649
  22943158.852 6  -2216036.406 6  -1677090.86349  22943162.34449
  20989364.430 6   -602735.863 6   -463304.17649  20989363.94949
  23210445.539 4   -393880.574 4   -295656.78947  23210448.06347
  21320317.813 6   -300269.836 6   -226269.80148  21320315.89148
  23809149.742 5  -1561597.047 5  -1178310.35248  23809149.47748
  22380016.320 6  -1676863.164 6  -1290575.49248  22380013.32848
  23300495.406 6  -1977371.328 6  -1523046.39147  23300494.09447
  21484044.617 6  -1266838.285 6   -973100.57049  21484045.54349
 20  5 16  5 25 23.0000000  0  9G01G03G07G08G11G17G22G28G30         -0.000278738
  20137930.070 7   -735913.441 7   -567519.12149  20137932.21149
  22942074.531 6  -2221734.207 6  -1681530.70749  22942077.87549
  20989069.461 6   -604285.867 6   -464511.97749  20989068.56349
  23210216.250 4   -395086.395 4   -296596.39547  23210218.64147
  21320147.695 6   -301164.043 6   -226966.59048  21320146.10248
  23808310.367 5  -1566008.570 5  -1181747.89848  23808309.98848
  22379199.539 6  -1681153.984 6  -1293918.98448  22379196.79748
  23299427.789 5  -1982980.941 5  -1527417.51647  23299426.31647
  21483376.555 6  -1270348.816 6   -975836.04749  21483377.82049
 20  5 16  5 25 24.0000000  0  9G01G03G07G08G11G17G22G28G30         -0.000280672
  20137540.859 7   -737960.504 7   -569114.23049  20137542.37949
  22940989.805 5  -2227432.316 5  -1685970.78549  22940993.68849
  20988774.742 6   -605835.746 6   -465719.67249  20988773.78949
  23209986.461 4   -396292.652 4   -297536.34047  23209989.03547
  21319977.250 6   -302058.492 6   -227663.56348  21319975.20348
  23807471.438 5  -1570420.492 5  -1185185.76248  23807470.45348
  22378382.891 6  -1685444.844 6  -1297262.51248  22378380.59048
  23298360.219 6  -1988591.059 6  -1531789.03947  23298359.08647
  21482708.766 6  -1273859.164 6   -978571.38749  21482709.82049
 20  5 16  5 25 25.0000000  0  9G01G03G07G08G11G17G22G28G30         -0.000282610
  20137151.438 7   -740007.516 7   -570709.30549  20137152.84449
  22939906.180 5  -2233130.797 5  -1690411.16449  22939909.48049
  20988479.969 6   -607385.609 6   -466927.36349  20988479.04349
  23209756.781 4   -397499.543 4   -298476.77347  23209759.46947
  21319807.047 6   -302953.273 6   -228360.79348  21319805.14148
  23806631.898 5  -1574832.813 5  -1188623.93448  23806631.08248
  22377566.656 6  -1689735.789 6  -1300606.10548  22377563.82048
  23297292.211 6  -1994201.785 6  -1536161.02747  23297291.50047
  21482040.875 6  -1277369.406 6   -981306.64149  21482041.77749
 20  5 16  5 25 26.0000000  0  9G01G03G07G08G11G17G22G28G30         -0.000284546
  20136761.789 7   -742054.340 7   -572304.23849  20136763.69949
  22938820.984 6  -2238829.570 6  -1694851.77049  22938824.60949
  20988185.195 6   -608935.348 6   -468134.95349  20988183.89149
  23209527.055 4   -398706.910 4   -299417.57047  23209529.77047
  21319636.734 6   -303848.230 6   -229058.16448  21319634.72748
  23805792.039 5  -1579245.484 5  -1192062.37548  23805791.26248
  22376750.211 6  -1694026.773 6  -1303949.72748  22376747.02348
  23296224.859 5  -1999813.016 5  -1540533.41447  23296223.39847
  21481372.891 6  -1280879.516 6   -984041.79349  21481373.78549
 20  5 16  5 25 27.0000000  0  9G01G03G07G08G11G17G22G28G30         -0.000286482
  20136372.438 7   -744101.094 7   -573899.10949  20136373.76249
  22937736.836 5  -2244528.734 5  -1699292.67249  22937740.15649
  20987890.039 6   -610485.035 6   -469342.50049  20987888.88749
  23209297.328 4   -399914.805 4   -300358.79347  23209299.68847
  21319466.656 6   -304743.516 6   -229755.79348  21319464.55548
  23804951.758 5  -1583658.563 5  -1195501.14148  23804951.48448
  22375933.531 6  -1698317.805 6  -1307293.38748  22375931.22348
  23295157.016 5  -2005424.754 5  -1544906.19547  23295155.52047
  21480704.578 6  -1284389.488 6   -986776.83649  21480705.94149
 20  5 16  5 25 28.0000000  0  9G01G03G07G08G11G17G22G28G30         -0.000288420
  20135982.875 7   -746147.715 7   -575493.87949  20135984.68849
  22936652.313 5  -2250228.219 5  -1703733.82449  22936655.29349
  20987595.164 6   -612034.691 6   -470550.02349  20987594.27749
  23209067.938 4   -401123.277 4   -301300.46547  23209070.07847
  21319295.836 6   -305639.051 6   -230453.62148  21319294.33248
  23804111.734 5  -1588072.059 5  -1198940.22748  23804111.69148
  22375116.914 6  -1702608.930 6  -1310637.11748  22375114.19948
  23294088.867 5  -2011037.082 5  -1549279.44147  23294087.78147
  21480036.695 6  -1287899.348 6   -989511.78949  21480037.92249
 20  5 16  5 25 29.0000000  0  9G01G03G07G08G11G17G22G28G30         -0.000290358
  20135593.539 7   -748194.215 7   -577088.55149  20135595.20349
  22935567.297 5  -2255928.059 5  -1708175.25449  22935571.12949
  20987300.227 6   -613584.250 6   -471757.47749  20987299.22349
  23208837.492 4   -402332.281 4   -302242.55547  23208840.05147
  21319125.844 6   -306534.891 6   -231151.67648  21319123.53948
  23803271.984 5  -1592485.938 5  -1202379.61348  23803271.59848
  22374300.227 6  -1706900.098 6  -1313980.89148  22374297.49648
  23293021.016 5  -2016649.938 5  -1553653.09447  23293019.38747
  21479368.930 6  -1291409.078 6   -992246.64549  21479370.07049
 20  5 16  5 25 30.0000000  0  9G01G03G07G08G11G17G22G28G30         -0.000292295
  20135203.758 7   -750240.637 7   -578683.16849  20135205.77349
  22934483.117 5  -2261628.270 5  -1712616.97349  22934485.92649
  20987005.625 6   -615133.746 6   -472964.87949  20987004.09049
  23208606.820 5   -403541.801 5   -303185.03947  23208609.79347
  21318955.086 6   -307430.996 6   -231849.93848  21318952.97748
  23802431.742 5  -1596900.215 5  -1205819.30948  23802431.64148
  22373483.766 6  -1711191.340 6  -1317324.71948  22373481.20348
  23291952.328 5  -2022263.359 5  -1558027.17647  23291951.24647
  21478701.320 6  -1294918.680 6   -994981.39849  21478702.34049
 20  5 16  5 25 31.0000000  0  9G01G03G07G08G11G17G22G28G30         -0.000294233
  20134814.617 7   -752286.934 7   -580277.68449  20134816.17249
  22933397.930 5  -2267328.809 5  -1717058.95349  22933401.20749
  20986710.781 6   -616683.203 6   -474172.25049  20986709.32449
  23208376.844 5   -404751.914 5   -304127.98847  23208379.20747
  21318784.664 6   -308327.391 6   -232548.43048  21318782.45348
  23801591.898 5  -1601314.883 5  -1209259.31348  23801591.67248
  22372666.734 6  -1715482.656 6  -1320668.59848  22372664.70748
  23290884.133 5  -2027877.344 5  -1562401.71547  23290882.91447
  21478033.109 6  -1298428.180 6   -997716.07449  21478034.14149
 20  5 16  5 25 32.0000000  0  9G01G03G07G08G11G17G22G28G30         -0.000296171
  20134425.227 7   -754333.102 7   -581872.10249  20134426.90649
  22932312.992 5  -2273029.707 5  -1721501.21149  22932316.23449
  20986415.727 6   -618232.574 6   -475379.55149  20986414.37149
  23208146.039 4   -405962.552 4   -305071.33847  23208149.19947
  21318614.258 6   -309224.047 6   -233247.12548  21318611.46948
  23800751.984 5  -1605729.969 5  -1212699.64148  23800751.35948
  22371850.586 6  -1719774.039 6  -1324012.53148  22371848.00448
  23289815.797 6  -2033491.840 6  -1566776.64847  23289814.29747
  21477365.320 6  -1301937.516 6  -1000450.62549  21477366.49249
 20  5 16  5 25 33.0000000  0  9G01G03G07G08G11G17G22G28G30         -0.000298109
  20134035.797 7   -756379.152 7   -583466.43049  20134037.75049
  22931228.367 5  -2278730.926 5  -1725943.71949  22931231.60949
  20986120.820 6   -619781.863 6   -476586.79349  20986119.70349
  23207916.469 5   -407173.668 5   -306015.05947  23207918.43047
  21318443.328 6   -310120.977 6   -233946.03548  21318441.22348
  23799911.984 5  -1610145.422 5  -1216140.26248  23799911.05148
  22371033.859 6  -1724065.480 6  -1327356.51248  22371031.28948
  23288747.609 6  -2039106.879 6  -1571152.00447  23288745.81347
  21476697.570 6  -1305446.750 6  -1003185.09049  21476698.74649
 20  5 16  5 25 34.0000000  0  9G01G03G07G08G11G17G22G28G30         -0.000300049
  20133646.836 7   -758425.129 7   -585060.69149  20133648.06349
  22930143.063 5  -2284432.543 5  -1730386.53549  22930146.36349
  20985826.211 6   -621331.164 6   -477794.03949  20985824.85249
  23207685.820 5   -408385.422 5   -306959.28547  23207687.85247
  21318272.359 6   -311018.199 6   -234645.16848  21318270.59848
  23799071.305 5  -1614561.328 5  -1219581.22748  23799070.78148
  22370217.305 6  -1728357.020 6  -1330700.57048  22370214.47748
  23287679.102 6  -2044722.504 6  -1575527.81347  23287677.32047
  21476029.625 6  -1308955.879 6  -1005919.47749  21476030.66849
 20  5 16  5 25 35.0000000  0  9G01G03G07G08G11G17G22G28G30         -0.000301989
  20133257.195 7   -760470.969 7   -586654.85549  20133258.55149
  22929058.570 5  -2290134.520 5  -1734829.62949  22929061.19949
  20985531.133 6   -622880.355 6   -479001.19949  20985529.79749
  23207455.203 5   -409597.680 5   -307903.91447  23207457.47747
  21318101.867 6   -311915.699 6   -235344.52048  21318099.52348
  23798231.148 5  -1618977.621 5  -1223022.50048  23798230.62548
  22369400.664 6  -1732648.625 6  -1334044.67648  22369397.97348
  23286610.141 6  -2050338.660 6  -1579904.03947  23286608.18047
  21475361.836 6  -1312464.863 6  -1008653.75449  21475363.22749
 20  5 16  5 25 36.0000000  0  9G01G03G07G08G11G17G22G28G30         -0.000303928
  20132867.805 7   -762516.715 7   -588248.94149  20132869.44949
  22927973.453 5  -2295836.797 5  -1739272.96149  22927975.78549
  20985236.531 6   -624429.484 6   -480208.31349  20985235.29749
  23207224.305 5   -410810.477 5   -308848.94147  23207226.52047
  21317931.063 6   -312813.473 6   -236044.08248  21317929.10948
  23797390.203 5  -1623394.332 5  -1226464.08648  23797390.02748
  22368583.820 6  -1736940.285 6  -1337388.82048  22368581.26248
  23285541.602 6  -2055955.371 6  -1584280.69947  23285539.69947
  21474694.617 6  -1315973.730 6  -1011387.93849  21474695.74649
 20  5 16  5 25 37.0000000  0  9G01G03G07G08G11G17G22G28G30         -0.000305868
  20132478.961 7   -764562.258 7   -589842.87549  20132480.28149
  22926888.156 5  -2301539.406 5  -1743716.54749  22926891.10549
  20984941.898 6   -625978.500 6   -481415.34849  20984940.65649
  23206992.742 5   -412023.754 5   -309794.35947  23206995.50447
  21317760.023 6   -313711.461 6   -236743.81348  21317758.10248
  23796549.734 5  -1627811.363 5  -1229905.93048  23796549.34848
  22367767.398 6  -1741231.941 6  -1340732.96948  22367765.19148
  23284472.273 6  -2061572.594 6  -1588657.75847  23284470.63347
  21474026.648 6  -1319482.430 6  -1014121.98849  21474027.76249
 20  5 16  5 25 38.0000000  0  9G01G03G07G08G11G17G22G28G30         -0.000307808
  20132089.586 7   -766607.652 7   -591436.68849  20132091.03149
  22925802.930 5  -2307242.277 5  -1748160.34849  22925805.57449
  20984646.969 6   -627527.395 6   -482622.27749  20984645.89149
  23206761.805 4   -413237.516 4   -310740.13347  23206764.46147
  21317589.273 6   -314609.652 6   -237443.70748  21317586.99248
  23795709.523 5  -1632228.727 5  -1233348.02348  23795709.10248
  22366950.633 6  -1745523.633 6  -1344077.14148  22366948.34048
  23283403.234 6  -2067190.270 6  -1593035.17247  23283401.19947
  21473359.039 6  -1322990.910 6  -1016855.87149  21473360.35549
 20  5 16  5 25 39.0000000  0  9G01G03G07G08G11G17G22G28G30         -0.000309748
  20131700.156 7   -768653.016 7   -593030.48049  20131701.91849
  22924717.609 5  -2312945.602 5  -1752604.49249  22924720.20749
  20984352.055 6   -629076.305 6   -483829.21949  20984351.34049
  23206530.711 5   -414451.887 5   -311686.39847  23206533.32047
  21317418.273 6   -315508.219 6   -238143.88348  21317415.73848
  23794869.016 5  -1636646.578 5  -1236790.50848  23794868.07048
  22366133.680 6  -1749815.453 6  -1347421.41448  22366130.93448
  23282334.078 6  -2072808.574 6  -1597413.07447  23282332.42247
  21472691.672 6  -1326499.367 6  -1019589.73449  21472692.52049
 20  5 16  5 25 40.0000000  0  9G01G03G07G08G11G17G22G28G30         -0.000311689
  20131311.086 7   -770698.301 7   -594624.20749  20131312.96549
  22923632.734 5  -2318649.320 5  -1757048.94949  22923635.20749
  20984057.547 6   -630625.207 6   -485036.16449  20984056.66449
  23206299.734 4   -415666.887 4   -312633.14847  23206301.94547
  21317246.961 6   -316407.109 6   -238844.32048  21317245.15648
  23794027.602 5  -1641064.898 5  -1240233.35548  23794027.31648
  22365316.602 6  -1754107.406 6  -1350765.78948  22365314.78548
  23281264.914 6  -2078427.492 6  -1601791.44947  23281262.98847
  21472023.961 6  -1330007.742 6  -1022323.53549  21472025.06349
 20  5 16  5 25 41.0000000  0  9G01G03G07G08G11G17G22G28G30         -0.000313631
  20130921.844 7   -772743.449 7   -596217.82849  20130923.40249
  22922546.789 5  -2324353.324 5  -1761493.62949  22922549.87949
  20983762.828 6   -632174.000 6   -486243.00849  20983761.57449
  23206068.664 4   -416882.367 4   -313580.28547  23206071.00047
  21317075.867 6   -317306.238 6   -239544.94548  21317073.99248
  23793186.766 5  -1645483.574 5  -1243676.48048  23793186.53148
  22364499.781 6  -1758399.375 6  -1354110.18048  22364497.53148
  23280195.773 6  -2084046.922 6  -1606170.22747  23280193.90647
  21471356.430 6  -1333515.965 6  -1025057.21549  21471357.43049
 20  5 16  5 25 42.0000000  0  9G01G03G07G08G11G17G22G28G30         -0.000315573
  20130532.578 7   -774788.477 7   -597811.35949  20130534.66849
  22921460.953 5  -2330057.711 5  -1765938.60249  22921463.85549
  20983468.250 6   -633722.730 6   -487449.82049  20983466.80549
  23205836.969 4   -418098.355 4   -314527.81347  23205839.17647
  21316905.234 6   -318205.637 6   -240245.77048  21316902.97748
  23792345.453 5  -1649902.625 5  -1247119.90248  23792345.39148
  22363682.844 6  -1762691.398 6  -1357454.61348  22363680.97348
  23279126.156 6  -2089666.902 6  -1610549.43447  23279124.64547
  21470688.672 6  -1337024.066 6  -1027790.80549  21470689.80949
 20  5 16  5 25 43.0000000  0  9G01G03G07G08G11G17G22G28G30         -0.000317514
  20130143.281 7   -776833.508 7   -599404.89149  20130145.09449
  22920375.680 5  -2335762.539 5  -1770383.92249  22920378.23849
  20983173.391 6   -635271.527 6   -488656.68049  20983172.44149
  23205605.297 4   -419315.008 4   -315475.85547  23205607.75047
  21316733.422 6   -319105.430 6   -240946.90648  21316731.19148
  23791504.531 5  -1654322.219 5  -1250563.73848  23791504.66448
  22362866.563 6  -1766983.621 6  -1360799.20748  22362863.85548
  23278056.555 6  -2095287.527 6  -1614929.13747  23278054.73447
  21470021.289 6  -1340532.129 6  -1030524.35549  21470022.10949
 20  5 16  5 25 44.0000000  0  9G01G03G07G08G11G17G22G28G30         -0.000319456
  20129754.375 7   -778878.387 7   -600998.30149  20129756.16849
  22919289.906 5  -2341467.656 5  -1774829.46549  22919292.84449
  20982878.438 6   -636820.215 6   -489863.44549  20982877.40249
  23205373.820 4   -420532.203 4   -316424.32047  23205376.17247
  21316562.289 6   -320005.438 6   -241648.21948  21316560.26648
  23790663.516 5  -1658742.152 5  -1254007.83248  23790663.48048
  22362049.758 6  -1771275.879 6  -1364143.81648  22362047.26248
  23276986.633 6  -2100908.676 6  -1619309.24647  23276984.98447
  21469353.281 6  -1344040.043 6  -1033257.79749  21469354.52749
 20  5 16  5 25 45.0000000  0  9G01G03G07G08G11G17G22G28G30         -0.000321400
  20129365.453 7   -780923.105 7   -602591.59049  20129366.96149
  22918203.992 5  -2347173.117 5  -1779275.28149  22918206.83649
  20982583.906 6   -638368.789 6   -491070.12949  20982582.55149
  23205141.891 4   -421749.860 4   -317373.14747  23205144.44947
  21316390.781 6   -320905.707 6   -242349.72748  21316388.90648
  23789822.297 5  -1663162.426 5  -1257452.19948  23789822.48448
  22361232.828 6  -1775568.160 6  -1367488.45348  22361230.40248
  23275917.086 6  -2106530.301 6  -1623689.73847  23275915.35247
  21468685.531 6  -1347547.801 6  -1035991.11749  21468687.09849
 20  5 16  5 25 46.0000000  0  9G01G03G07G08G11G17G22G28G30         -0.000323341
  20128975.945 7   -782967.762 7   -604184.82849  20128978.09849
  22917118.820 5  -2352878.910 5  -1783721.35549  22917121.31349
  20982289.297 6   -639917.328 6   -492276.78149  20982288.39149
  23204910.242 4   -422968.117 4   -318322.44147  23204912.87947
  21316219.320 6   -321806.254 6   -243051.45348  21316217.34848
  23788981.195 5  -1667583.164 5  -1260896.93448  23788981.53948
  22360416.242 6  -1779860.516 6  -1370833.14548  22360413.48848
  23274847.203 6  -2112152.508 6  -1628070.68847  23274845.38347
  21468018.422 6  -1351055.438 6  -1038724.34449  21468019.66449
 20  5 16  5 25 47.0000000  0  9G01G03G07G08G11G17G22G28G30         -0.000325285
  20128587.102 7   -785012.270 7   -605777.94949  20128589.00049
  22916031.906 5  -2358585.070 5  -1788167.71149  22916035.37949
  20981994.531 6   -641465.793 6   -493483.37949  20981993.35249
  23204678.164 4   -424186.832 4   -319272.08647  23204681.19547
  21316048.227 6   -322707.105 6   -243753.41848  21316045.82448
  23788140.453 5  -1672004.246 5  -1264341.93048  23788139.82848
  22359599.141 6  -1784152.926 6  -1374177.87548  22359596.77748
  23273777.320 6  -2117775.242 6  -1632452.03947  23273775.32047
  21467351.078 6  -1354562.965 6  -1041457.48449  21467352.25049
 20  5 16  5 25 48.0000000  0  9G01G03G07G08G11G17G22G28G30         -0.000327229
  20128198.133 7   -787056.664 7   -607370.98049  20128199.71949
  22914946.234 5  -2364291.582 5  -1792614.34049  22914949.76649
  20981699.828 6   -643014.180 6   -494689.91449  20981698.79749
  23204446.375 4   -425406.143 4   -320222.20047  23204448.62947
  21315876.625 6   -323608.172 6   -244455.54748  21315874.80548
  23787298.398 5  -1676425.738 5  -1267787.25048  23787298.71548
  22358782.344 6  -1788445.402 6  -1377522.66848  22358780.03948
  23272706.805 6  -2123398.559 6  -1636833.84447  23272705.22747
  21466683.680 6  -1358070.336 6  -1044190.50449  21466685.03549
 20  5 16  5 25 49.0000000  0  9G01G03G07G08G11G17G22G28G30         -0.000329172
  20127809.195 7   -789100.852 7   -608963.85949  20127810.72349
  22913860.477 5  -2369998.297 5  -1797061.12549  22913863.72349
  20981405.352 6   -644562.441 6   -495896.35949  20981404.41849
  23204214.016 4   -426625.848 4   -321172.62947  23204216.51247
  21315705.539 6   -324509.453 6   -245157.84848  21315702.97748
  23786457.281 5  -1680847.543 5  -1271232.81348  23786457.27348
  22357965.609 6  -1792737.867 6  -1380867.44148  22357963.38348
  23271637.102 6  -2129022.277 6  -1641215.96147  23271634.93447
  21466016.406 6  -1361577.496 6  -1046923.35549  21466017.21549
 20  5 16  5 25 50.0000000  0  9G01G03G07G08G11G17G22G28G30         -0.000331116
  20127420.078 7   -791144.973 7   -610556.67649  20127421.83249
  22912774.258 5  -2375705.461 5  -1801508.26249  22912777.90249
  20981110.688 6   -646110.684 6   -497102.78149  20981109.74649
  23203982.578 4   -427846.145 4   -322123.51247  23203984.65647
  21315533.711 6   -325411.078 6   -245860.41048  21315531.62948
  23785615.688 5  -1685269.840 5  -1274678.76248  23785615.69148
  22357148.352 6  -1797030.438 6  -1384212.30548  22357146.32448
  23270566.727 6  -2134646.637 6  -1645598.57847  23270564.85247
  21465348.789 6  -1365084.605 6  -1049656.16849  21465350.12949
 20  5 16  5 25 51.0000000  0  9G01G03G07G08G11G17G22G28G30         -0.000333061
  20127031.133 7   -793189.133 7   -612149.52749  20127032.96949
  22911688.914 5  -2381413.059 5  -1805955.73849  22911691.43049
  20980815.820 6   -647658.977 6   -498309.23849  20980815.20349
  23203750.445 4   -429067.113 4   -323074.92247  23203752.27047
  21315362.102 6   -326313.078 6   -246563.27048  21315359.96148
  23784773.313 5  -1689692.594 5  -1278125.05948  23784774.13348
  22356331.797 6  -1801323.203 6  -1387557.32048  22356329.31348
  23269496.438 6  -2140271.660 6  -1649981.71147  23269494.23447
  21464681.305 6  -1368591.688 6  -1052388.95749  21464682.51649
 20  5 16  5 25 52.0000000  0  9G01G03G07G08G11G17G22G28G30         -0.000335005
  20126642.031 7   -795233.109 7   -613742.24249  20126643.78549
  22910602.641 5  -2387120.973 5  -1810403.46949  22910605.47349
  20980521.375 6   -649207.156 6   -499515.61749  20980520.47749
  23203516.953 4   -430288.559 4   -324026.69947  23203519.35547
  21315190.469 6   -327215.293 6   -247266.29348  21315188.21948
  23783931.766 5  -1694115.715 5  -1281571.64848  23783932.61348
  22355515.438 6  -1805615.961 6  -1390902.32048  22355512.33648
  23268426.148 6  -2145897.152 6  -1654365.21147  23268423.68047
  21464014.195 6  -1372098.590 6  -1055121.60549  21464015.31649
 20  5 16  5 25 53.0000000  0  9G01G03G07G08G11G17G22G28G30         -0.000336950
  20126253.328 7   -797276.852 7   -615334.76649  20126254.97349
  22909515.648 5  -2392829.133 5  -1814851.37949  22909519.25049
  20980226.633 7   -650755.164 7   -500721.85949  20980226.06349
  23203284.469 4   -431510.480 4   -324978.85547  23203287.20347
  21315019.008 6   -328117.730 6   -247969.49248  21315016.37548
  23783090.461 5  -1698539.156 5  -1285018.48448  23783090.73848
  22354698.156 6  -1809908.703 6  -1394247.31348  22354695.32048
  23267355.523 6  -2151523.105 6  -1658749.06647  23267353.29747
  21463346.813 6  -1375605.273 6  -1057854.08649  21463347.87149
 20  5 16  5 25 54.0000000  0  9G01G03G07G08G11G17G22G28G30         -0.000338896
  20125864.320 7   -799320.449 7   -616927.18049  20125866.19949
  22908429.609 5  -2398537.570 5  -1819299.51249  22908432.76249
  20979932.484 6   -652303.055 6   -501928.00849  20979931.26649
  23203052.195 4   -432732.844 4   -325931.34847  23203054.28547
  21314846.945 6   -329020.348 6   -248672.82848  21314844.73048
  23782248.172 5  -1702962.891 5  -1288465.55148  23782248.59048
  22353881.555 6  -1814201.426 6  -1397592.29748  22353878.34448
  23266284.422 6  -2157149.551 6  -1663133.32047  23266282.61347
  21462679.719 6  -1379111.758 6  -1060586.41049  21462680.85949
 20  5 16  5 25 55.0000000  0  9G01G03G07G08G11G17G22G28G30         -0.000340841
  20125475.516 7   -801363.891 7   -618519.47349  20125477.33649
  22907343.172 5  -2404246.316 5  -1823747.88749  22907346.95349
  20979637.914 7   -653850.855 7   -503134.08649  20979636.78549
  23202819.570 4   -433955.746 4   -326884.26247  23202821.72747
  21314675.133 6   -329923.234 6   -249376.37948  21314673.19548
  23781406.852 5  -1707387.016 5  -1291912.91848  23781407.23448
  22353064.695 6  -1818494.203 6  -1400937.31648  22353061.48448
  23265214.180 6  -2162776.516 6  -1667517.96947  23265211.80947
  21462012.430 6  -1382618.090 6  -1063318.62149  21462013.57849
 20  5 16  5 25 56.0000000  0  9G01G03G07G08G11G17G22G28G30         -0.000342787
  20125086.719 7   -803407.207 7   -620111.67249  20125088.53949
  22906256.820 5  -2409955.395 5  -1828196.51649  22906260.54349
  20979343.453 6   -655398.574 6   -504340.10549  20979341.98849
  23202587.469 4   -435179.176 4   -327837.59047  23202588.91047
  21314502.961 6   -330826.340 6   -250080.10548  21314500.95348
  23780564.508 5  -1711811.523 5  -1295360.57848  23780564.71948
  22352247.719 6  -1822787.023 6  -1404282.36748  22352244.94948
  23264142.508 6  -2168403.984 6  -1671903.01647  23264141.05147
  21461344.773 6  -1386124.285 6  -1066050.72349  21461345.96149
 20  5 16  5 25 57.0000000  0  9G01G03G07G08G11G17G22G28G30         -0.000344734
  20124697.961 7   -805450.383 7   -621703.75849  20124699.37549
  22905170.383 5  -2415664.813 5  -1832645.41049  22905174.00849
  20979049.039 6   -656946.211 6   -505546.05949  20979047.91449
  23202354.563 4   -436403.141 4   -328791.32447  23202356.09047
  21314331.453 6   -331729.727 6   -250784.03548  21314329.39148
  23779722.859 5  -1716236.426 5  -1298808.55148  23779722.88348
  22351430.969 6  -1827079.891 6  -1407627.46148  22351427.90648
  23263071.805 6  -2174031.980 6  -1676288.46547  23263069.89547
  21460678.109 6  -1389630.324 6  -1068782.70349  21460679.11749
 20  5 16  5 25 58.0000000  0  9G01G03G07G08G11G17G22G28G30         -0.000346680
  20124308.844 7   -807493.422 7   -623295.73449  20124310.78549
  22904083.789 5  -2421374.516 5  -1837094.51649  22904087.39549
  20978754.641 6   -658493.719 6   -506751.90649  20978753.05149
  23202121.250 4   -437627.582 4   -329745.44547  23202123.02047
  21314158.961 6   -332633.340 6   -251488.15648  21314157.35948
  23778880.570 5  -1720661.629 5  -1302256.75448  23778880.96948
  22350614.094 6  -1831372.770 6  -1410972.55948  22350611.16448
  23262001.266 6  -2179660.496 6  -1680674.32047  23261998.95747
  21460010.805 6  -1393136.234 6  -1071514.58249  21460011.85249
 20  5 16  5 25 59.0000000  0  9G01G03G07G08G11G17G22G28G30         -0.000348627
  20123920.531 7   -809536.359 7   -624887.63349  20123922.11349
  22902997.023 5  -2427084.621 5  -1841543.94549  22903000.88749
  20978460.039 6   -660041.223 6   -507957.75449  20978459.07449
  23201888.516 4   -438852.637 4   -330700.03547  23201890.07047
  21313987.414 6   -333537.254 6   -252192.50448  21313985.10248
  23778037.969 5  -1725087.336 5  -1305705.35248  23778038.59448
  22349797.008 6  -1835665.707 6  -1414317.70348  22349793.78148
  23260930.078 6  -2185289.566 6  -1685060.61347  23260927.89147
  21459343.984 6  -1396642.000 6  -1074246.35249  21459344.93849
 20  5 16  5 26  0.0000000  0  9G01G03G07G08G11G17G22G28G30         -0.000350574
  20123531.789 7   -811579.160 7   -626479.42649  20123533.52349
  22901910.406 5  -2432794.980 5  -1845993.57849  22901914.20749
  20978165.484 6   -661588.629 6   -509163.52749  20978163.98049
  23201655.297 4   -440078.145 4   -331654.97347  23201656.84447
  21313815.289 6   -334441.414 6   -252897.04748  21313812.91048
  23777195.906 4  -1729513.344 4  -1309154.19148  23777196.32448
  22348979.969 6  -1839958.695 6  -1417662.89548  22348977.05148
  23259858.461 6  -2190919.164 6  -1689447.31647  23259856.57847
  21458676.781 6  -1400147.613 6  -1076977.99649  21458677.57849
 20  5 16  5 26  1.0000000  0  9G01G03G07G08G11G17G22G28G30         -0.000352522
  20123142.906 7   -813621.820 7   -628071.11349  20123144.43849
  22900823.805 5  -2438505.695 5  -1850443.48049  22900827.25449
  20977870.945 6   -663135.938 6   -510369.22749  20977869.78549
  23201422.047 5   -441304.191 5   -332610.32847  23201423.53547
  21313642.977 6   -335345.832 6   -253601.78948  21313640.82848
  23776353.180 4  -1733939.781 4  -1312603.36348  23776353.71548
  22348162.820 6  -1844251.719 6  -1421008.10948  22348159.97348
  23258786.711 6  -2196549.281 6  -1693834.42247  23258784.98447
  21458009.727 6  -1403653.105 6  -1079709.54349  21458010.77049
 20  5 16  5 26  2.0000000  0  9G01G03G07G08G11G17G22G28G30         -0.000354469
  20122754.109 7   -815664.449 7   -629662.76649  20122755.62949
  22899737.117 5  -2444216.848 5  -1854893.72749  22899740.44149
  20977576.555 6   -664683.254 6   -511574.92649  20977575.34849
  23201188.406 5   -442530.887 5   -333566.20347  23201190.44547
  21313470.922 6   -336250.602 6   -254306.80548  21313468.98848
  23775511.180 4  -1738366.684 4  -1316052.90248  23775511.68448
  22347346.281 6  -1848544.906 6  -1424353.45348  22347343.11348
  23257715.047 6  -2202180.020 6  -1698222.00447  23257713.59447
  21457342.453 6  -1407158.523 6  -1082441.03949  21457343.81349
 20  5 16  5 26  3.0000000  0  9G01G03G07G08G11G17G22G28G30         -0.000356417
  20122365.430 7   -817706.852 7   -631254.25049  20122367.41449
  22898650.203 5  -2449928.199 5  -1859344.12949  22898653.84049
  20977282.289 6   -666230.418 6   -512780.51249  20977281.24649
  23200955.172 5   -443757.984 5   -334522.38347  23200956.69547
  21313298.828 6   -337155.551 6   -255011.96548  21313296.69148
  23774668.523 5  -1742793.816 5  -1319502.61748  23774669.34448
  22346529.266 6  -1852838.035 6  -1427698.74248  22346526.35548
  23256644.180 6  -2207811.191 6  -1702609.92647  23256642.29747
  21456675.539 6  -1410663.695 6  -1085172.34449  21456676.50449
 20  5 16  5 26  4.0000000  0  9G01G03G07G08G11G17G22G28G30         -0.000358366
  20121977.156 7   -819749.160 7   -632845.65649  20121978.47749
  22897563.406 5  -2455639.930 5  -1863794.83249  22897566.81349
  20976987.555 7   -667777.504 7   -513986.03549  20976986.79749
  23200721.766 5   -444985.629 5   -335478.99247  23200723.40647
  21313126.781 6   -338060.773 6   -255717.33248  21313124.39848
  23773826.664 5  -1747221.414 5  -1322952.68448  23773826.69548
  22345711.852 6  -1857131.238 6  -1431044.09448  22345708.97348
  23255572.344 6  -2213442.922 6  -1706998.28947  23255570.39147
  21456008.563 6  -1414168.766 6  -1087903.56649  21456009.85949
 20  5 16  5 26  5.0000000  0  9G01G03G07G08G11G17G22G28G30         -0.000360315
  20121588.391 7   -821791.195 7   -634436.85549  20121589.84449
  22896476.078 5  -2461351.844 5  -1868245.67249  22896479.97749
  20976693.492 7   -669324.395 7   -515191.40649  20976692.41449
  23200487.586 5   -446213.652 5   -336435.89147  23200489.71547
  21312954.102 6   -338966.125 6   -256422.80148  21312952.32048
  23772983.992 5  -1751649.242 5  -1326402.93848  23772983.83248
  22344895.023 6  -1861424.367 6  -1434389.39148  22344892.03148
  23254501.398 6  -2219075.016 6  -1711386.93447  23254498.63747
  21455341.734 6  -1417673.559 6  -1090634.57849  21455342.73049
 20  5 16  5 26  6.0000000  0  9G01G03G07G08G11G17G22G28G30         -0.000362263
  20121199.750 7   -823833.086 7   -636027.93849  20121201.53549
  22895389.000 5  -2467064.082 5  -1872696.75849  22895392.83649
  20976399.102 6   -670871.184 6   -516396.69549  20976397.85249
  23200253.711 5   -447442.203 5   -337393.20347  23200256.11747
  21312781.789 6   -339871.723 6   -257128.46148  21312779.81348
  23772141.328 5  -1756077.426 5  -1329853.46948  23772141.15248
  22344078.102 6  -1865717.520 6  -1437734.69948  22344075.20748
  23253428.750 6  -2224707.645 6  -1715776.00047  23253426.83247
  21454674.352 6  -1421178.195 6  -1093365.46949  21454675.59849
 20  5 16  5 26  7.0000000  0  9G01G03G07G08G11G17G22G28G30         -0.000364212
  20120811.352 7   -825874.906 7   -637618.96549  20120812.53549
  22894302.320 5  -2472776.688 5  -1877148.12949  22894305.98849
  20976104.563 7   -672417.961 7   -517601.97749  20976103.66449
  23200019.578 5   -448671.313 5   -338350.94547  23200022.26647
  21312609.469 6   -340777.625 6   -257834.35948  21312607.60248
  23771298.047 4  -1760506.055 4  -1333304.34048  23771298.43848
  22343261.359 6  -1870010.773 6  -1441080.08648  22343258.44148
  23252356.727 5  -2230340.875 5  -1720165.52747  23252354.77347
  21454007.961 6  -1424682.746 6  -1096096.28949  21454009.13749
 20  5 16  5 26  8.0000000  0  9G01G03G07G08G11G17G22G28G30         -0.000366161
  20120422.656 7   -827916.539 7   -639209.85249  20120424.62549
  22893215.141 5  -2478489.563 5  -1881599.71949  22893218.79749
  20975810.188 6   -673964.594 6   -518807.14849  20975809.25449
  23199785.023 5   -449900.891 5   -339309.05947  23199787.96147
  21312436.914 6   -341683.738 6   -258540.42248  21312435.23448
  23770455.531 4  -1764935.055 4  -1336755.50848  23770455.62148
  22342444.297 6  -1874304.055 6  -1444425.50448  22342441.50848
  23251284.406 5  -2235974.570 5  -1724555.42247  23251282.84847
  21453341.070 6  -1428187.094 6  -1098826.94949  21453342.12549
 20  5 16  5 26  9.0000000  0  9G01G03G07G08G11G17G22G28G30         -0.000368113
  20120034.070 7   -829958.094 7   -640800.67649  20120036.23449
  22892128.242 5  -2484202.816 5  -1886051.59849  22892131.88349
  20975516.039 6   -675511.188 6   -520012.28949  20975514.98449
  23199551.703 5   -451131.035 5   -340267.60947  23199554.03947
  21312264.367 6   -342590.152 6   -259246.71548  21312262.28548
  23769612.898 5  -1769364.414 5  -1340206.95348  23769612.69948
  22341627.352 6  -1878597.359 6  -1447770.93448  22341624.15248
  23250212.328 6  -2241608.824 6  -1728945.75047  23250210.86347
  21452674.383 6  -1431691.328 6  -1101557.52349  21452675.23449
 20  5 16  5 26 10.0000000  0  9G01G03G07G08G11G17G22G28G30         -0.000370062
  20119645.898 7   -831999.438 7   -642391.33249  20119647.81349
  22891041.164 5  -2489916.320 5  -1890503.68049  22891043.87949
  20975221.531 6   -677057.637 6   -521217.31649  20975220.92249
  23199317.336 5   -452361.637 5   -341226.52047  23199320.09447
  21312091.961 6   -343496.742 6   -259953.15248  21312089.86748
  23768769.539 4  -1773794.129 4  -1343658.67648  23768769.68048
  22340809.883 6  -1882890.680 6  -1451116.37948  22340807.55548
  23249140.500 6  -2247243.547 6  -1733336.44547  23249138.47747
  21452007.461 6  -1435195.383 6  -1104287.95349  21452008.73849
 20  5 16  5 26 11.0000000  0  9G01G03G07G08G11G17G22G28G30         -0.000372013
  20119257.461 7   -834040.645 7   -643981.88349  20119259.03149
  22889953.500 5  -2495630.141 5  -1894956.00849  22889956.89849
  20974927.039 6   -678603.980 6   -522422.26249  20974926.56349
  23199082.320 5   -453592.664 5   -342185.76247  23199085.24247
  21311919.734 6   -344403.566 6   -260659.77348  21311917.35948
  23767926.938 5  -1778224.199 5  -1347110.67648  23767927.33248
  22339993.078 6  -1887184.016 6  -1454461.84048  22339990.21548
  23248067.727 6  -2252878.758 6  -1737727.51247  23248066.42647
  21451340.727 6  -1438699.250 6  -1107018.24249  21451341.73049
 20  5 16  5 26 12.0000000  0  9G01G03G07G08G11G17G22G28G30         -0.000373964
  20118869.227 7   -836081.625 7   -645572.25849  20118870.85949
  22888866.102 5  -2501344.164 5  -1899408.49649  22888869.40649
  20974632.820 6   -680150.184 6   -523627.09849  20974632.06349
  23198847.945 5   -454824.188 5   -343145.39147  23198851.10247
  21311746.992 6   -345310.574 6   -261366.53148  21311744.76648
  23767083.695 5  -1782654.555 5  -1350562.89848  23767084.11348
  22339176.359 6  -1891477.301 6  -1457807.26248  22339173.33248
  23246995.625 6  -2258514.449 6  -1742118.96547  23246994.45347
  21450673.977 6  -1442202.887 6  -1109748.34849  21450674.92649
 20  5 16  5 26 13.0000000  0  9G01G03G07G08G11G17G22G28G30         -0.000375914
  20118480.891 7   -838122.461 7   -647162.51649  20118482.30949
  22887779.055 5  -2507058.531 5  -1903861.25049  22887781.65649
  20974339.047 7   -681696.258 7   -524831.82849  20974338.02349
  23198613.523 5   -456056.199 5   -344105.40247  23198616.67647
  21311574.375 6   -346217.832 6   -262073.48848  21311571.69148
  23766241.031 4  -1787085.250 4  -1354015.38748  23766240.91048
  22338359.281 6  -1895770.637 6  -1461152.71548  22338356.16048
  23245922.820 6  -2264150.609 6  -1746510.78147  23245921.70747
  21450007.352 6  -1445706.355 6  -1112478.32049  21450008.29749
 20  5 16  5 26 14.0000000  0  9G01G03G07G08G11G17G22G28G30         -0.000377865
  20118092.391 7   -840163.133 7   -648752.65249  20118094.11349
  22886691.641 5  -2512773.160 5  -1908314.20749  22886694.50849
  20974045.148 6   -683242.219 6   -526036.47749  20974043.84849
  23198379.109 4   -457288.719 4   -345065.80147  23198382.07447
  21311401.336 6   -347125.285 6   -262780.59048  21311399.33648
  23765397.430 4  -1791516.281 4  -1357468.14148  23765397.43848
  22337542.539 6  -1900063.961 6  -1464498.15648  22337539.14848
  23244850.258 6  -2269787.277 6  -1750902.98447  23244848.77747
  21449340.336 6  -1449209.633 6  -1115208.14849  21449341.60549
 20  5 16  5 26 15.0000000  0  9G01G03G07G08G11G17G22G28G30         -0.000379818
  20117704.086 7   -842203.730 7   -650342.72749  20117705.82049
  22885603.781 5  -2518488.191 5  -1912767.47749  22885606.74249
  20973750.516 7   -684788.176 7   -527241.11749  20973749.79749
  23198144.328 5   -458521.824 5   -346026.66447  23198147.36747
  21311228.734 6   -348033.070 6   -263487.95748  21311226.75448
  23764554.602 5  -1795947.785 5  -1360921.25848  23764554.25848
  22336725.203 6  -1904357.402 6  -1467843.69948  22336722.08248
  23243777.742 6  -2275424.516 6  -1755295.62947  23243776.03947
  21448673.758 6  -1452712.840 6  -1117937.92649  21448675.21949
 20  5 16  5 26 16.0000000  0  9G01G03G07G08G11G17G22G28G30         -0.000381769
  20117315.828 7   -844244.297 7   -651932.78549  20117317.81349
  22884516.430 5  -2524203.648 5  -1917221.07849  22884519.54749
  20973456.328 6   -686334.129 6   -528445.75849  20973455.25049
  23197909.578 4   -459755.512 4   -346987.98047  23197912.91847
  21311056.203 6   -348941.203 6   -264195.59448  21311054.02348
  23763711.117 5  -1800379.742 5  -1364374.72348  23763710.70748
  22335907.945 6  -1908650.965 6  -1471189.33248  22335905.15248
  23242704.883 5  -2281062.375 5  -1759688.76247  23242703.39547
  21448007.133 6  -1456215.996 6  -1120667.64849  21448008.41449
 20  5 16  5 26 17.0000000  0  9G01G03G07G08G11G17G22G28G30         -0.000383722
  20116927.367 7   -846284.691 7   -653522.70349  20116929.22349
  22883428.289 5  -2529919.379 5  -1921674.89149  22883431.43849
  20973162.148 6   -687879.961 6   -529650.30549  20973161.23049
  23197675.195 4   -460989.660 4   -347949.65647  23197677.76647
  21310883.070 6   -349849.563 6   -264903.40648  21310880.96948
  23762867.297 5  -1804812.055 5  -1367828.47348  23762867.23448
  22335091.164 6  -1912944.527 6  -1474534.96548  22335088.26648
  23241632.125 5  -2286700.746 5  -1764082.30547  23241630.00847
  21447340.461 6  -1459718.969 6  -1123397.24649  21447341.70349
 20  5 16  5 26 18.0000000  0  9G01G03G07G08G11G17G22G28G30         -0.000385674
  20116539.133 7   -848324.879 7   -655112.45749  20116541.02349
  22882340.656 5  -2535635.363 5  -1926128.89849  22882343.82449
  20972867.852 6   -689425.668 6   -530854.75049  20972867.29349
  23197439.477 4   -462224.324 4   -348911.73047  23197443.01247
  21310710.227 6   -350758.109 6   -265611.37148  21310708.18048
  23762023.688 5  -1809244.688 5  -1371282.48048  23762024.04348
  22334274.602 6  -1917238.090 6  -1477880.59848  22334270.98048
  23240558.500 5  -2292339.547 5  -1768476.17247  23240557.15647
  21446673.961 6  -1463221.742 6  -1126126.68049  21446674.73449
 20  5 16  5 26 19.0000000  0  9G01G03G07G08G11G17G22G28G30         -0.000387627
  20116150.953 7   -850364.988 7   -656702.15249  20116152.52749
  22881253.289 5  -2541351.707 5  -1930583.18849  22881256.46549
  20972573.891 6   -690971.324 6   -532059.16049  20972572.60949
  23197204.742 4   -463459.473 4   -349874.19147  23197207.66047
  21310537.516 6   -351666.941 6   -266319.55148  21310535.08248
  23761180.117 5  -1813677.730 5  -1374736.80148  23761180.19548
  22333457.258 6  -1921531.730 6  -1481226.29348  22333453.90248
  23239485.711 5  -2297978.922 5  -1772870.49247  23239484.13747
  21446007.688 6  -1466724.379 6  -1128856.00849  21446008.76249
 20  5 16  5 26 20.0000000  0  9G01G03G07G08G11G17G22G28G30         -0.000389580
  20115762.773 7   -852404.906 7   -658291.69549  20115764.28949
  22880165.383 5  -2547068.313 5  -1935037.68449  22880168.35549
  20972279.797 6   -692516.852 6   -533263.46949  20972278.94549
  23196969.969 4   -464695.125 4   -350837.05147  23196972.75847
  21310364.406 6   -352575.980 6   -267027.89148  21310362.21548
  23760336.430 5  -1818111.109 5  -1378191.38748  23760336.74248
  22332640.141 6  -1925825.344 6  -1484571.96148  22332636.89548
  23238412.758 6  -2303618.766 6  -1777265.17247  23238411.37947
  21445340.797 6  -1470226.832 6  -1131585.19149  21445342.09849
 20  5 16  5 26 21.0000000  0  9G01G03G07G08G11G17G22G28G30         -0.000391533
  20115374.469 7   -854444.730 7   -659881.17649  20115376.52349
  22879078.117 5  -2552785.281 5  -1939492.46549  22879080.33649
  20971985.859 6   -694062.320 6   -534467.73849  20971984.79749
  23196734.531 4   -465931.316 4   -351800.32047  23196737.34447
  21310191.242 6   -353485.301 6   -267736.45748  21310189.35248
  23759492.555 5  -1822544.895 5  -1381646.27748  23759492.99648
  22331823.117 6  -1930119.031 6  -1487917.69548  22331819.99248
  23237338.859 5  -2309259.156 5  -1781660.28947  23237337.47747
  21444674.391 6  -1473729.168 6  -1134314.28149  21444675.85249
 20  5 16  5 26 22.0000000  0  9G01G03G07G08G11G17G22G28G30         -0.000393488
  20114986.430 7   -856484.348 7   -661470.48849  20114988.13749
  22877989.516 5  -2558502.512 5  -1943947.44949  22877991.94549
  20971691.773 6   -695607.648 6   -535671.88749  20971690.64849
  23196499.586 4   -467168.016 4   -352763.98447  23196502.20747
  21310018.563 6   -354394.816 6   -268445.17248  21310016.16448
  23758648.719 5  -1826978.996 5  -1385101.42248  23758649.41048
  22331006.336 6  -1934412.707 6  -1491263.41848  22331003.10248
  23236265.539 6  -2314900.008 6  -1786055.75847  23236264.18047
  21444008.531 6  -1477231.293 6  -1137043.21549  21444009.34049
 20  5 16  5 26 23.0000000  0  9G01G03G07G08G11G17G22G28G30         -0.000395441
  20114598.180 7   -858523.777 7   -663059.64849  20114600.53549
  22876901.641 5  -2564219.980 5  -1948402.62549  22876904.30149
  20971397.609 6   -697152.824 6   -536875.92249  20971396.60549
  23196264.234 4   -468405.094 4   -353727.94947  23196266.62547
  21309845.164 6   -355304.535 6   -269154.05148  21309843.09448
  23757805.164 5  -1831413.367 5  -1388556.77048  23757805.36348
  22330189.250 6  -1938706.352 6  -1494609.11348  22330185.58248
  23235191.875 6  -2320541.320 6  -1790451.59047  23235190.74647
  21443341.391 6  -1480733.203 6  -1139771.98049  21443343.04749
 20  5 16  5 26 24.0000000  0  9G01G03G07G08G11G17G22G28G30         -0.000397396
  20114210.289 7   -860562.988 7   -664648.64849  20114212.13349
  22875813.148 5  -2569937.699 5  -1952857.98849  22875816.57449
  20971104.133 6   -698697.832 6   -538079.82849  20971102.75049
  23196028.664 4   -469642.676 4   -354692.30547  23196031.40247
  21309672.078 6   -356214.410 6   -269863.04348  21309670.07448
  23756961.289 5  -1835848.066 5  -1392012.38748  23756961.57848
  22329371.734 6  -1942999.934 6  -1497954.76648  22329368.69948
  23234118.094 5  -2326183.094 5  -1794847.77347  23234117.59047
  21442675.359 6  -1484234.871 6  -1142500.55549  21442676.57449
 20  5 16  5 26 25.0000000  0  9G01G03G07G08G11G17G22G28G30         -0.000399349
  20113822.359 7   -862602.129 7   -666237.59049  20113824.27049
  22874725.359 5  -2575655.820 5  -1957313.66849  22874728.41849
  20970809.906 6   -700242.855 6   -539283.73849  20970808.99249
  23195793.742 4   -470880.844 4   -355657.11747  23195795.54747
  21309499.063 6   -357124.656 6   -270572.32448  21309496.93848
  23756117.617 5  -1840283.246 5  -1395468.36748  23756117.70348
  22328554.320 6  -1947293.676 6  -1501300.53548  22328551.60948
  23233044.500 5  -2331825.480 5  -1799244.43047  23233043.48047
  21442009.203 6  -1487736.492 6  -1145229.08649  21442010.32049
 20  5 16  5 26 26.0000000  0  9G01G03G07G08G11G17G22G28G30         -0.000401304
  20113434.375 7   -864641.066 7   -667826.37549  20113435.77349
  22873636.875 5  -2581374.164 5  -1961769.51649  22873640.10949
  20970515.992 6   -701787.703 6   -540487.52349  20970514.76249
  23195558.352 4   -472119.406 4   -356622.22747  23195559.76247
  21309325.156 6   -358035.051 6   -271281.72748  21309323.51648
  23755273.727 5  -1844718.688 5  -1398924.55148  23755273.70348
  22327737.711 6  -1951587.355 6  -1504646.25848  22327734.65648
  23231970.664 5  -2337468.293 5  -1803641.43447  23231969.81347
  21441342.898 6  -1491237.879 6  -1147957.44549  21441343.64549
 20  5 16  5 26 27.0000000  0  9G01G03G07G08G11G17G22G28G30         -0.000403259
  20113046.477 7   -866679.805 7   -669415.00449  20113047.95749
  22872548.859 5  -2587092.820 5  -1966225.60549  22872552.25449
  20970221.805 6   -703332.410 6   -541691.18849  20970220.75449
  23195322.188 4   -473358.410 4   -357587.68047  23195324.17647
  21309152.461 6   -358945.656 6   -271991.28948  21309150.09448
  23754429.188 5  -1849154.441 5  -1402380.98448  23754429.31648
  22326920.484 6  -1955881.004 6  -1507991.96148  22326917.99648
  23230896.984 6  -2343111.570 6  -1808038.78947  23230895.57447
  21440676.531 6  -1494739.051 6  -1150685.63349  21440677.40649
 20  5 16  5 26 28.0000000  0  9G01G03G07G08G11G17G22G28G30         -0.000405216
  20112658.602 7   -868718.422 7   -671003.53149  20112660.43049
  22871460.711 5  -2592811.734 5  -1970681.89849  22871463.59449
  20969928.164 6   -704877.023 6   -542894.78549  20969926.98449
  23195086.141 4   -474597.973 4   -358553.58247  23195088.50047
  21308978.727 6   -359856.504 6   -272701.04348  21308976.98048
  23753585.711 5  -1853590.570 5  -1405837.69948  23753585.05548
  22326103.867 6  -1960174.699 6  -1511337.69948  22326101.02348
  23229822.898 5  -2348755.344 5  -1812436.53147  23229821.97347
  21440010.313 6  -1498240.066 6  -1153413.69549  21440011.53149
 20  5 16  5 26 29.0000000  0  9G01G03G07G08G11G17G22G28G30         -0.000407171
  20112270.992 7   -870756.898 7   -672591.95749  20112272.50849
  22870372.148 5  -2598530.965 5  -1975138.43849  22870375.41049
  20969633.758 6   -706421.547 6   -544098.30949  20969632.85549
  23194850.063 4   -475838.000 4   -359519.83647  23194852.77347
  21308805.492 6   -360767.598 6   -273410.98448  21308803.36748
  23752740.883 5  -1858027.074 5  -1409294.71548  23752740.64848
  22325286.617 6  -1964468.426 6  -1514683.45748  22325283.54748
  23228749.180 5  -2354399.672 5  -1816834.70747  23228748.18847
  21439343.859 6  -1501740.934 6  -1156141.64549  21439345.29749
 20  5 16  5 26 30.0000000  0  9G01G03G07G08G11G17G22G28G30         -0.000409126
  20111882.836 7   -872795.164 7   -674180.21549  20111884.46549
  22869284.172 5  -2604250.449 5  -1979595.18049  22869287.05949
  20969340.000 6   -707965.918 6   -545301.72349  20969338.96949
  23194614.461 4   -477078.512 4   -360486.46947  23194616.60247
  21308632.102 6   -361678.883 6   -274121.07848  21308630.23048
  23751896.938 5  -1862463.910 5  -1412751.98448  23751896.27348
  22324469.430 6  -1968762.105 6  -1518029.17248  22324466.46548
  23227675.055 5  -2360044.426 5  -1821233.21547  23227673.61347
  21438677.953 6  -1505241.598 6  -1158869.43849  21438679.44549
 20  5 16  5 26 31.0000000  0  9G01G03G07G08G11G17G22G28G30         -0.000411083
  20111495.164 7   -874833.375 7   -675768.43449  20111496.34049
  22868195.758 5  -2609970.332 5  -1984052.23449  22868199.02749
  20969046.219 6   -709510.277 6   -546505.11749  20969045.34049
  23194378.227 5   -478319.629 5   -361453.57447  23194380.23447
  21308458.648 6   -362590.469 6   -274831.40248  21308456.40648
  23751052.438 5  -1866901.164 5  -1416209.58248  23751052.27048
  22323652.563 6  -1973055.887 6  -1521374.98048  22323649.66448
  23226600.461 5  -2365689.746 5  -1825632.16447  23226599.28947
  21438011.797 6  -1508742.156 6  -1161597.14549  21438013.05949
 20  5 16  5 26 32.0000000  0  9G01G03G07G08G11G17G22G28G30         -0.000413040
  20111107.117 7   -876871.359 7   -677356.46549  20111108.53149
  22867107.063 5  -2615690.414 5  -1988509.43849  22867110.32849
  20968752.633 6   -711054.480 6   -547708.39149  20968751.38349
  23194141.430 5   -479561.129 5   -362420.98047  23194143.78947
  21308285.297 6   -363502.250 6   -275541.87948  21308282.86348
  23750208.445 5  -1871338.699 5  -1419667.40648  23750207.77048
  22322835.227 6  -1977349.648 6  -1524720.77048  22322832.68448
  23225526.211 5  -2371335.512 5  -1830031.45347  23225525.05947
  21437345.813 6  -1512242.500 6  -1164324.68449  21437347.05549
 20  5 16  5 26 33.0000000  0  9G01G03G07G08G11G17G22G28G30         -0.000414997
  20110719.469 7   -878909.152 7   -678944.35949  20110721.14549
  22866018.734 5  -2621410.785 5  -1992966.86749  22866022.08649
  20968458.836 6   -712598.516 6   -548911.53949  20968457.62549
  23193905.172 5   -480803.094 5   -363388.74647  23193907.16447
  21308111.586 6   -364414.156 6   -276252.45348  21308109.59848
  23749363.164 5  -1875776.551 5  -1423125.47348  23749362.98448
  22322018.375 6  -1981643.375 6  -1528066.52748  22322015.80948
  23224452.344 6  -2376981.750 6  -1834431.12147  23224450.66847
  21436679.938 6  -1515742.621 6  -1167052.05149  21436680.82849
 20  5 16  5 26 34.0000000  0  9G01G03G07G08G11G17G22G28G30         -0.000416954
  20110331.430 7   -880946.770 7   -680532.11349  20110333.23049
  22864929.711 5  -2627131.445 5  -1997424.52349  22864933.28149
  20968165.000 6   -714142.449 6   -550114.60249  20968163.66849
  23193668.258 5   -482045.555 5   -364356.89547  23193670.97347
  21307938.117 6   -365326.289 6   -276963.21148  21307936.13748
  23748518.664 5  -1880214.770 5  -1426583.82848  23748518.56348
  22321201.250 6  -1985937.098 6  -1531412.28948  22321198.16448
  23223377.477 5  -2382628.477 5  -1838831.16847  23223376.07047
  21436013.711 6  -1519242.535 6  -1169779.25849  21436014.77349
 20  5 16  5 26 35.0000000  0  9G01G03G07G08G11G17G22G28G30         -0.000418911
  20109943.906 7   -882984.289 7   -682119.78949  20109945.09049
  22863840.984 5  -2632852.445 5  -2001882.44549  22863844.50049
  20967871.000 6   -715686.316 6   -551317.61749  20967870.04349
  23193431.313 5   -483288.527 5   -365325.44147  23193434.52347
  21307764.211 6   -366238.695 6   -277674.17648  21307762.63748
  23747674.133 5  -1884653.375 5  -1430042.47348  23747673.96548
  22320384.188 6  -1990230.914 6  -1534758.11348  22320381.65248
  23222303.102 6  -2388275.719 6  -1843231.62147  23222301.39147
  21435347.742 6  -1522742.344 6  -1172506.37949  21435348.71949
 20  5 16  5 26 36.0000000  0  9G01G03G07G08G11G17G22G28G30         -0.000420870
  20109555.922 7   -885021.660 7   -683707.35549  20109557.63749
  22862752.508 5  -2638573.746 5  -2006340.59449  22862755.92249
  20967577.492 6   -717230.102 6   -552520.57049  20967576.03549
  23193195.445 5   -484532.051 5   -366294.42647  23193197.87147
  21307590.750 6   -367151.371 6   -278385.35948  21307588.94548
  23746829.391 5  -1889092.352 5  -1433501.41848  23746829.42648
  22319567.063 6  -1994524.738 6  -1538103.94948  22319564.23848
  23221228.320 6  -2393923.512 6  -1847632.49647  23221226.44147
  21434681.328 6  -1526242.027 6  -1175233.40649  21434682.49649
 20  5 16  5 26 37.0000000  0  9G01G03G07G08G11G17G22G28G30         -0.000422827
  20109168.289 7   -887058.930 7   -685294.84449  20109170.36349
  22861663.750 5  -2644295.398 5  -2010799.02749  22861667.24649
  20967283.320 7   -718773.848 7   -553723.48849  20967282.66049
  23192958.195 5   -485776.117 5   -367263.83247  23192960.73447
  21307416.711 6   -368064.309 6   -279096.73448  21307414.80148
  23745984.656 5  -1893531.754 5  -1436960.68848  23745984.32048
  22318749.984 6  -1998818.648 6  -1541449.85548  22318747.27048
  23220153.117 6  -2399571.824 6  -1852033.78147  23220151.75047
  21434015.461 6  -1529741.566 6  -1177960.32049  21434017.01249
 20  5 16  5 26 38.0000000  0  9G01G03G07G08G11G17G22G28G30         -0.000424786
  20108780.547 7   -889096.043 7   -686882.19949  20108782.37549
  22860575.477 5  -2650017.316 5  -2015257.66849  22860578.14549
  20966989.227 6   -720317.438 6   -554926.28949  20966988.43849
  23192721.797 5   -487020.633 5   -368233.59047  23192724.23847
  21307243.188 6   -368977.480 6   -279808.30148  21307240.92248
  23745139.813 5  -1897971.445 5  -1440420.18448  23745139.33248
  22317932.695 6  -2003112.547 6  -1544795.75048  22317930.13748
  23219078.211 6  -2405220.625 6  -1856435.44947  23219076.86347
  21433349.859 6  -1533240.902 6  -1180687.08649  21433350.81649
 20  5 16  5 26 39.0000000  0  9G01G03G07G08G11G17G22G28G30         -0.000426744
  20108392.992 7   -891133.023 7   -688469.46149  20108394.79749
  22859485.984 5  -2655739.586 5  -2019716.57049  22859489.44949
  20966696.023 6   -721860.984 6   -556129.05549  20966694.91449
  23192484.641 5   -488265.699 5   -369203.77347  23192487.26247
  21307069.133 6   -369890.953 6   -280520.10248  21307067.32048
  23744294.398 5  -1902411.602 5  -1443880.04748  23744294.52048
  22317115.805 6  -2007406.500 6  -1548141.68048  22317113.27348
  23218002.891 6  -2410869.984 6  -1860837.55147  23218001.71547
  21432684.367 6  -1536740.133 6  -1183413.75449  21432685.21149
 20  5 16  5 26 40.0000000  0  9G01G03G07G08G11G17G22G28G30         -0.000428703
  20108005.484 7   -893169.770 7   -690056.53549  20108007.33649
  22858396.969 5  -2661462.063 5  -2024175.64149  22858400.50849
  20966402.398 6   -723404.336 6   -557331.66849  20966401.37549
  23192248.078 5   -489511.160 5   -370174.26647  23192250.19547
  21306895.703 6   -370804.531 6   -281231.98448  21306893.45748
  23743449.867 5  -1906851.965 5  -1447340.07348  23743449.53948
  22316298.664 6  -2011700.410 6  -1551487.58648  22316296.01648
  23216928.547 6  -2416519.727 6  -1865239.94147  23216926.66847
  21432018.094 6  -1540239.090 6  -1186140.21549  21432019.46149
 20  5 16  5 26 41.0000000  0  9G01G03G07G08G11G17G22G28G30         -0.000430662
  20107617.953 7   -895206.242 7   -691643.39849  20107619.82049
  22857307.961 5  -2667184.711 5  -2028634.84449  22857311.42649
  20966108.688 6   -724947.461 6   -558534.09849  20966107.54349
  23192010.445 5   -490757.012 5   -371145.05147  23192013.12147
  21306721.766 6   -371718.246 6   -281943.96948  21306719.62548
  23742604.969 5  -1911292.598 5  -1450800.30948  23742604.71548
  22315481.164 6  -2015994.180 6  -1554833.37548  22315478.65648
  23215852.898 6  -2422169.844 6  -1869642.63347  23215851.30947
  21431352.617 6  -1543737.734 6  -1188866.43449  21431353.61349
 20  5 16  5 26 42.0000000  0  9G01G03G07G08G11G17G22G28G30         -0.000432621
  20107230.602 7   -897242.633 7   -693230.19549  20107232.33649
  22856219.289 5  -2672907.738 5  -2033094.34449  22856222.62949
  20965814.859 6   -726490.559 6   -559736.52049  20965814.06349
  23191773.164 5   -492003.438 5   -372116.28947  23191776.24247
  21306547.977 6   -372632.293 6   -282656.21548  21306545.73048
  23741759.813 5  -1915733.668 5  -1454260.88348  23741759.50448
  22314664.727 6  -2020288.059 6  -1558179.24648  22314662.35948
  23214777.789 6  -2427820.570 6  -1874045.79747  23214776.25047
  21430686.633 6  -1547236.301 6  -1191592.59049  21430688.12549
 20  5 16  5 26 43.0000000  0  9G01G03G07G08G11G17G22G28G30         -0.000434582
  20106843.266 7   -899278.883 7   -694816.88749  20106845.08249
  22855129.906 5  -2678631.035 5  -2037554.04749  22855133.21149
  20965521.305 6   -728033.555 6   -560938.84849  20965520.18449
  23191535.805 4   -493250.344 4   -373087.90247  23191538.76247
  21306374.055 6   -373546.543 6   -283368.61348  21306371.29748
  23740914.578 5  -1920175.078 5  -1457721.71948  23740913.91848
  22313847.148 6  -2024581.941 6  -1561525.13748  22313844.84848
  23213702.578 6  -2433471.777 6  -1878449.33647  23213700.75447
  21430020.797 6  -1550734.691 6  -1194318.60949  21430022.01249
 20  5 16  5 26 44.0000000  0  9G01G03G07G08G11G17G22G28G30         -0.000436541
  20106455.609 7   -901314.859 7   -696403.35949  20106457.05549
  22854041.242 6  -2684354.551 6  -2042013.93049  22854044.16049
  20965227.961 6   -729576.363 6   -562141.03949  20965227.13749
  23191298.297 4   -494497.625 4   -374059.80547  23191301.04347
  21306199.656 6   -374460.953 6   -284081.14148  21306197.67248
  23740069.719 5  -1924616.746 5  -1461182.75448  23740069.05148
  22313030.008 6  -2028875.738 6  -1564870.94948  22313027.65648
  23212627.094 6  -2439123.371 6  -1882853.17647  23212625.18447
  21429354.695 6  -1554232.832 6  -1197044.43849  21429356.61349
 20  5 16  5 26 45.0000000  0  9G01G03G07G08G11G17G22G28G30         -0.000438501
  20106068.398 7   -903350.672 7   -697989.71149  20106070.01249
  22852951.477 6  -2690078.344 6  -2046474.02349  22852954.70349
  20964934.539 6   -731119.012 6   -563343.10949  20964933.04349
  23191061.148 5   -495745.387 5   -375032.08247  23191064.07847
  21306025.594 6   -375375.578 6   -284793.83648  21306023.37948
  23739224.297 5  -1929058.750 5  -1464644.05548  23739223.69148
  22312213.000 6  -2033169.559 6  -1568216.78148  22312210.66848
  23211550.922 6  -2444775.457 6  -1887257.40247  23211549.60247
  21428689.609 6  -1557730.770 6  -1199770.09849  21428691.07449
 20  5 16  5 26 46.0000000  0  9G01G03G07G08G11G17G22G28G30         -0.000440462
  20105680.773 7   -905386.180 7   -699575.81349  20105682.33249
  22851861.961 5  -2695802.258 5  -2050934.21549  22851865.70349
  20964640.602 6   -732661.422 6   -564544.98849  20964639.48049
  23190823.648 5   -496993.477 5   -376004.62947  23190826.42647
  21305851.961 6   -376290.273 6   -285506.59048  21305849.66048
  23738378.844 5  -1933500.910 5  -1468105.48048  23738378.23848
  22311396.008 6  -2037463.207 6  -1571562.48048  22311393.36348
  23210475.641 6  -2450427.855 6  -1891661.87547  23210473.88747
  21428023.930 6  -1561228.379 6  -1202495.51649  21428025.03949
 20  5 16  5 26 47.0000000  0  9G01G03G07G08G11G17G22G28G30         -0.000442423
  20105293.438 7   -907421.555 7   -701161.82049  20105295.37949
  22850772.773 5  -2701526.504 5  -2055394.66849  22850776.31649
  20964347.172 6   -734203.738 6   -565746.78949  20964346.15649
  23190586.141 4   -498242.152 4   -376977.62547  23190589.10547
  21305677.805 6   -377205.238 6   -286219.55148  21305675.57048
  23737533.867 5  -1937943.520 5  -1471567.25448  23737532.83248
  22310579.016 6  -2041756.902 6  -1574908.21548  22310576.66048
  23209399.922 6  -2456080.805 6  -1896066.77047  23209398.26647
  21427358.242 6  -1564725.848 6  -1205220.81349  21427359.83649
 20  5 16  5 26 48.0000000  0  9G01G03G07G08G11G17G22G28G30         -0.000444384
  20104906.352 7   -909456.832 7   -702747.75049  20104907.89149
  22849683.734 5  -2707251.133 5  -2059855.41449  22849687.13349
  20964053.484 6   -735746.047 6   -566948.59449  20964052.64849
  23190348.656 5   -499491.348 5   -377951.02747  23190351.55547
  21305503.336 6   -378120.512 6   -286932.75448  21305501.30548
  23736688.031 5  -1942386.539 5  -1475029.34448  23736687.60248
  22309761.781 6  -2046050.695 6  -1578254.03148  22309759.80548
  23208323.969 6  -2461734.313 6  -1900472.09447  23208322.76247
  21426692.922 6  -1568223.223 6  -1207946.03949  21426693.97749
 20  5 16  5 26 49.0000000  0  9G01G03G07G08G11G17G22G28G30         -0.000446344
  20104518.898 7   -911491.891 7   -704333.51249  20104520.77749
  22848594.094 5  -2712975.965 5  -2064316.32049  22848597.88349
  20963760.141 6   -737288.176 6   -568150.26249  20963759.20349
  23190110.750 4   -500740.980 4   -378924.76647  23190113.58647
  21305328.953 6   -379035.957 6   -287646.09448  21305327.05548
  23735842.508 5  -1946829.840 5  -1478491.64848  23735841.63348
  22308944.945 6  -2050344.414 6  -1581599.78948  22308942.71948
  23207248.156 6  -2467388.285 6  -1904877.78147  23207246.73847
  21426027.625 6  -1571720.348 6  -1210671.07449  21426028.85949
 20  5 16  5 26 50.0000000  0  9G01G03G07G08G11G17G22G28G30         -0.000448307
  20104131.617 7   -913526.766 7   -705919.12949  20104133.23849
  22847504.336 5  -2718701.035 5  -2068777.41049  22847508.10549
  20963466.570 6   -738830.152 6   -569351.79749  20963465.96949
  23189873.313 4   -501991.074 4   -379898.86747  23189875.21147
  21305154.977 6   -379951.586 6   -288359.56648  21305152.62548
  23734997.766 5  -1951273.418 5  -1481954.18048  23734996.51648
  22308127.727 6  -2054638.117 6  -1584945.52348  22308125.46548
  23206172.008 5  -2473042.676 5  -1909283.80147  23206170.67247
  21425362.148 6  -1575217.266 6  -1213395.94549  21425363.18849
 20  5 16  5 26 51.0000000  0  9G01G03G07G08G11G17G22G28G30         -0.000450268
  20103744.500 7   -915561.484 7   -707504.62549  20103746.21549
  22846415.133 5  -2724426.418 5  -2073238.74249  22846418.44949
  20963173.461 6   -740372.027 6   -570553.25449  20963172.45349
  23189635.313 5   -503241.637 5   -380873.33647  23189637.75047
  21304980.594 6   -380867.469 6   -289073.23848  21304978.57448
  23734151.031 5  -1955717.379 5  -1485417.00848  23734150.31348
  22307310.563 6  -2058931.836 6  -1588291.28548  22307308.62548
  23205095.914 5  -2478697.547 5  -1913690.19147  23205094.53947
  21424696.711 6  -1578713.996 6  -1216120.67249  21424698.05949
 20  5 16  5 26 52.0000000  0  9G01G03G07G08G11G17G22G28G30         -0.000452230
  20103357.188 7   -917596.043 7   -709089.99649  20103359.01249
  22845326.070 5  -2730152.086 5  -2077700.30149  22845328.94549
  20962880.156 6   -741913.809 6   -571754.64849  20962878.98049
  23189397.070 5   -504492.703 5   -381848.20747  23189399.74647
  21304806.508 6   -381783.578 6   -289787.09048  21304804.35248
  23733305.461 5  -1960161.711 5  -1488880.12148  23733305.03548
  22306493.383 6  -2063225.555 6  -1591637.03148  22306491.53948
  23204019.656 5  -2484352.934 5  -1918096.98847  23204018.31647
  21424031.398 6  -1582210.594 6  -1218845.28949  21424032.41049
 20  5 16  5 26 53.0000000  0  9G01G03G07G08G11G17G22G28G30         -0.000454193
  20102970.219 7   -919630.309 7   -710675.13749  20102972.27349
  22844236.125 5  -2735877.887 5  -2082161.96549  22844239.52049
  20962586.711 6   -743455.313 6   -572955.81649  20962585.59449
  23189158.602 5   -505744.102 5   -382823.32847  23189161.53147
  21304632.000 6   -382699.766 6   -290501.00848  21304629.84848
  23732459.906 5  -1964606.223 5  -1492343.37948  23732459.55148
  22305676.563 6  -2067519.137 6  -1594982.68448  22305674.14848
  23202942.891 5  -2490008.680 5  -1922504.06647  23202941.78147
  21423365.953 6  -1585706.816 6  -1221569.62949  21423366.91849
 20  5 16  5 26 54.0000000  0  9G01G03G07G08G11G17G22G28G30         -0.000456156
  20102583.344 7   -921664.422 7   -712260.16049  20102584.81649
  22843146.570 5  -2741603.996 5  -2086623.86749  22843149.56649
  20962293.492 6   -744996.734 6   -574156.92649  20962292.28149
  23188920.023 5   -506996.035 5   -383798.86347  23188923.09447
  21304457.711 6   -383616.203 6   -291215.10948  21304455.60948
  23731613.750 5  -1969051.098 5  -1495806.92248  23731613.10548
  22304859.547 6  -2071812.777 6  -1598328.38348  22304857.40248
  23201867.336 5  -2495664.922 5  -1926911.53147  23201865.57447
  21422700.703 6  -1589202.922 6  -1224293.86749  21422702.21949
 20  5 16  5 26 55.0000000  0  9G01G03G07G08G11G17G22G28G30         -0.000458118
  20102196.125 7   -923698.344 7   -713845.03549  20102197.87149
  22842056.445 5  -2747330.367 5  -2091085.96549  22842059.95749
  20962000.422 6   -746538.023 6   -575357.93449  20961999.44949
  23188682.047 4   -508248.391 4   -384774.73447  23188684.70347
  21304283.164 6   -384532.855 6   -291929.38748  21304280.77048
  23730767.898 5  -1973496.285 5  -1499270.70348  23730767.77348
  22304042.719 6  -2076106.375 6  -1601674.03948  22304040.26248
  23200790.648 6  -2501321.641 6  -1931319.35247  23200788.89547
  21422035.328 6  -1592698.789 6  -1227017.91849  21422036.52049
 20  5 16  5 26 56.0000000  0  9G01G03G07G08G11G17G22G28G30         -0.000460081
  20101809.094 7   -925732.086 7   -715429.76649  20101810.91449
  22840967.086 5  -2753056.984 5  -2095548.26649  22840969.99649
  20961707.055 6   -748079.164 6   -576558.82449  20961706.04749
  23188443.531 4   -509501.230 4   -385750.96547  23188446.85547
  21304108.711 6   -385449.703 6   -292643.81348  21304106.50448
  23729922.023 5  -1977941.836 5  -1502734.77048  23729921.59048
  22303225.664 6  -2080399.961 6  -1605019.68848  22303223.23848
  23199714.625 6  -2506978.813 6  -1935727.53947  23199712.29747
  21421369.977 6  -1596194.461 6  -1229741.81649  21421371.47749
 20  5 16  5 26 57.0000000  0  9G01G03G07G08G11G17G22G28G30         -0.000462046
  20101422.188 7   -927765.617 7   -717014.34449  20101424.07049
  22839876.922 5  -2758783.883 5  -2100010.78549  22839880.31349
  20961413.617 6   -749620.184 6   -577759.61749  20961412.40649
  23188205.203 5   -510754.523 5   -386727.56347  23188208.04747
  21303933.953 6   -386366.738 6   -293358.39148  21303932.11748
  23729075.836 5  -1982387.695 5  -1506199.06648  23729075.40248
  22302408.398 6  -2084693.527 6  -1608365.32448  22302405.74648
  23198637.773 6  -2512636.445 6  -1940136.09047  23198635.89147
  21420704.828 6  -1599689.926 6  -1232465.55949  21420706.68849
 20  5 16  5 26 58.0000000  0  9G01G03G07G08G11G17G22G28G30         -0.000464008
  20101035.188 7   -929799.074 7   -718598.85249  20101036.86349
  22838787.328 5  -2764511.109 5  -2104473.55949  22838790.57849
  20961120.359 7   -751161.121 7   -578960.35249  20961119.25049
  23187966.766 5   -512008.348 5   -387704.56647  23187969.59047
  21303759.805 6   -387284.063 6   -294073.18448  21303757.52348
  23728230.180 5  -1986833.941 5  -1509663.66448  23728229.42648
  22301591.594 6  -2088987.145 6  -1611710.99648  22301588.88348
  23197560.727 5  -2518294.629 5  -1944545.07047  23197558.99247
  21420039.477 6  -1603185.273 6  -1235189.19949  21420041.09449
 20  5 16  5 26 59.0000000  0  9G01G03G07G08G11G17G22G28G30         -0.000465973
  20100648.477 7   -931832.289 7   -720183.17249  20100650.14549
  22837697.570 5  -2770238.574 5  -2108936.51649  22837700.41449
  20960827.008 6   -752701.926 6   -580160.98449  20960826.03149
  23187727.859 5   -513262.594 5   -388681.90247  23187730.85947
  21303585.258 6   -388201.543 6   -294788.10548  21303582.78548
  23727384.047 5  -1991280.488 5  -1513128.51248  23727383.48848
  22300774.555 6  -2093280.703 6  -1615056.62548  22300771.75848
  23196483.969 5  -2523953.223 5  -1948954.36347  23196481.91047
  21419374.570 6  -1606680.348 6  -1237912.64149  21419376.10949
 20  5 16  5 27  0.0000000  0  9G01G03G07G08G11G17G22G28G30         -0.000467937
  20100261.406 7   -933865.398 7   -721767.41449  20100263.41849
  22836607.609 5  -2775966.344 5  -2113399.70749  22836610.36749
  20960534.156 7   -754242.641 7   -581361.54349  20960533.07049
  23187489.492 5   -514517.402 5   -389659.68447  23187491.87147
  21303410.484 6   -389119.320 6   -295503.25848  21303408.43848
  23726537.203 5  -1995727.449 5  -1516593.67248  23726536.86348
  22299957.602 6  -2097574.309 6  -1618402.28948  22299955.09448
  23195407.375 6  -2529612.371 6  -1953364.09047  23195405.29747
  21418709.953 6  -1610175.344 6  -1240636.01249  21418710.94149
 20  5 16  5 27  1.0000000  0  9G01G03G07G08G11G17G22G28G30         -0.000469902
  20099874.711 7   -935898.320 7   -723351.51249  20099876.49649
  22835517.805 5  -2781694.414 5  -2117863.14149  22835520.51649
  20960240.703 6   -755783.223 6   -582561.99249  20960239.92649
  23187250.492 5   -515772.672 5   -390637.82047  23187253.02047
  21303235.656 6   -390037.301 6   -296218.57448  21303233.73848
  23725691.055 5  -2000174.703 5  -1520059.07048  23725690.94948
  22299140.320 6  -2101867.914 6  -1621747.95348  22299137.98048
  23194330.367 6  -2535271.996 6  -1957774.18847  23194328.13747
  21418044.688 6  -1613670.125 6  -1243359.22349  21418046.04349
 20  5 16  5 27  2.0000000  0  9G01G03G07G08G11G17G22G28G30         -0.000471867
  20099487.969 7   -937931.020 7   -724935.43449  20099489.65649
  22834427.570 5  -2787422.672 5  -2122326.71149  22834430.30149
  20959947.719 6   -757323.648 6   -583762.32449  20959946.55549
  23187012.266 5   -517028.344 5   -391616.27047  23187014.39847
  21303061.258 6   -390955.438 6   -296934.01248  21303058.95348
  23724844.914 5  -2004622.238 5  -1523524.68448  23724844.23848
  22298323.328 6  -2106161.445 6  -1625093.56348  22298320.62148
  23193253.188 6  -2540932.004 6  -1962184.58647  23193251.23447
  21417379.836 6  -1617164.641 6  -1246082.21949  21417380.63749
 20  5 16  5 27  3.0000000  0  9G01G03G07G08G11G17G22G28G30         -0.000473831
  20099101.313 7   -939963.531 7   -726519.21149  20099103.06649
  22833336.867 5  -2793151.207 5  -2126790.50449  22833340.25849
  20959654.586 6   -758863.914 6   -584962.53149  20959653.16849
  23186772.633 5   -518284.480 5   -392595.08247  23186775.44547
  21302886.063 6   -391873.773 6   -297649.59848  21302884.19548
  23723998.602 5  -2009070.105 5  -1526990.55948  23723998.14148
  22297506.219 6  -2110454.957 6  -1628439.15648  22297503.64148
  23192175.328 5  -2546592.512 5  -1966595.37147  23192174.13347
  21416714.555 6  -1620658.988 6  -1248805.08649  21416716.25049
 20  5 16  5 27  4.0000000  0  9G01G03G07G08G11G17G22G28G30         -0.000475798
  20098714.563 7   -941995.910 7   -728102.87949  20098716.33649
  22832246.969 5  -2798880.031 5  -2131254.51649  22832250.24649
  20959361.547 6   -760404.109 6   -586162.68849  20959360.40649
  23186533.672 5   -519541.113 5   -393574.27347  23186535.61347
  21302711.430 6   -392792.367 6   -298365.38348  21302709.36748
  23723152.125 5  -2013518.348 5  -1530456.71948  23723151.58248
  22296689.555 6  -2114748.504 6  -1631784.77748  22296686.47748
  23191098.359 6  -2552253.531 6  -1971006.55947  23191097.06347
  21416049.836 6  -1624153.125 6  -1251527.79749  21416050.90649
 20  5 16  5 27  5.0000000  0  9G01G03G07G08G11G17G22G28G30         -0.000477762
  20098327.625 7   -944028.070 7   -729686.38349  20098329.26249
  22831156.469 5  -2804609.094 5  -2135718.71949  22831160.23049
  20959068.352 6   -761944.129 6   -587362.70349  20959067.31349
  23186294.148 5   -520798.160 5   -394553.79347  23186296.50847
  21302536.539 6   -393711.141 6   -299081.31648  21302534.32048
  23722305.508 5  -2017966.852 5  -1533923.08248  23722304.66848
  22295872.164 6  -2119042.016 6  -1635130.37148  22295869.66848
  23190021.227 6  -2557914.961 6  -1975418.05547  23190019.26247
  21415384.906 6  -1627647.059 6  -1254250.34049  21415386.29749
 20  5 16  5 27  6.0000000  0  9G01G03G07G08G11G17G22G28G30         -0.000479729
  20097940.891 7   -946060.063 7   -731269.75049  20097942.47349
  22830066.266 5  -2810338.449 5  -2140183.14849  22830069.61749
  20958775.336 6   -763484.047 6   -588562.64549  20958774.54749
  23186054.938 5   -522055.715 5   -395533.70747  23186057.27347
  21302361.836 6   -394630.121 6   -299797.40248  21302359.75848
  23721458.656 5  -2022415.773 5  -1537389.77348  23721458.57848
  22295054.938 6  -2123335.516 6  -1638475.96548  22295052.38748
  23188944.195 5  -2563576.863 5  -1979829.92647  23188941.57047
  21414720.086 6  -1631140.793 6  -1256972.73849  21414721.28549
