     2.10           OBSERVATION DATA    GPS(GPS)            RINEX VERSION / TYPE
cnvtToRINEX 3.07.0  convertToRINEX OPR  19-May-20 12:31 UTC PGM / RUN BY / DATE 
----------------------------------------------------------- COMMENT             
AG17                                                        MARKER NAME         
AG17                                                        MARKER NUMBER       
GNSS Observer       Trimble                                 OBSERVER / AGENCY   
0220365401          5700                2.32                REC # / TYPE / VERS 
                    UNKNOWN EXT                             ANT # / TYPE        
 -3050988.7415  4927814.8303  2653599.3784                  APPROX POSITION XYZ 
        0.0000        0.0000        0.0000                  ANTENNA: DELTA H/E/N
     1     1     0                                          WAVELENGTH FACT L1/2
     4    C1    L1    L2    P2                              # / TYPES OF OBSERV 
  2020     5    16     5    13   43.0000000     GPS         TIME OF FIRST OBS   
  2020     5    16     6    23   27.0000000     GPS         TIME OF LAST OBS    
     0                                                      RCV CLOCK OFFS APPL 
    18                                                      LEAP SECONDS        
     9                                                      # OF SATELLITES     
   G01  4185  4185  4185  4185                              PRN / # OF OBS      
   G03  4178  4178  4178  4178                              PRN / # OF OBS      
   G07  4154  4154  4154  4154                              PRN / # OF OBS      
   G08  4185  4185  4184  4184                              PRN / # OF OBS      
   G11  4185  4185  4185  4185                              PRN / # OF OBS      
   G17  4185  4184  4180  4180                              PRN / # OF OBS      
   G22  4185  4184  4180  4180                              PRN / # OF OBS      
   G28  4185  4184  4147  4147                              PRN / # OF OBS      
   G30  4185  4185  4185  4185                              PRN / # OF OBS      
CARRIER PHASE MEASUREMENTS: PHASE SHIFTS REMOVED            COMMENT             
                                                            END OF HEADER       
 20  5 16  5 13 43.0000000  0  7G01G08G11G17G22G28G30                0.000225847
  20185099.75017     -5240.91817     -2566.49259  20185099.09059
  23113571.93815     11867.50815                
  21195515.86716     20380.23416      7916.45758  21195512.21158
  24147311.38315                                
  22714506.49215                                
  23789757.26615                                
  21725954.79716    -21770.75816     -5858.89859  21725954.24659
 20  5 16  5 13 44.0000000  0  7G01G08G11G17G22G28G30                0.000225294
  20185039.133 7     -5557.848 7     -2813.44149  20185038.83649
  23113761.625 4     12864.629 4       117.75057  23113761.54757
  21195726.234 6     21485.414 6      8777.63348  21195722.41048
  24146869.984 4     -7099.538 4                
  22714050.680 5    -10344.105 5                
  23789112.547 5    -15611.730 5                
  21725617.922 6    -23540.102 6     -7237.60949  21725617.35949
 20  5 16  5 13 45.0000000  0  7G01G08G11G17G22G28G30                0.000224756
  20184979.117 7     -5874.551 7     -3060.23049  20184979.15249
  23113950.898 4     13861.293 4       894.39846  23113951.24246
  21195936.992 6     22590.430 6      9638.67248  21195932.96148
  24146428.453 4     -9416.094 4                
  22713594.297 3    -12740.477 3                
  23788466.672 5    -19001.594 5                
  21725281.094 6    -25309.320 6     -8616.23449  21725280.82849
 20  5 16  5 13 46.0000000  0  7G01G08G11G17G22G28G30                0.000224203
  20184918.805 7     -6191.016 7     -3306.82449  20184918.83649
  23114140.875 4     14857.570 4      1670.72746  23114141.21946
  21196147.305 6     23695.363 6     10499.66047  21196143.38747
  24145988.211 5    -11732.934 5                
  22713138.602 3    -15136.879 3                
  23787821.391 4    -22391.934 4                
  21724944.438 6    -27078.297 6     -9994.67649  21724944.18449
 20  5 16  5 13 47.0000000  0  7G01G08G11G17G22G28G30                0.000223650
  20184858.477 7     -6507.113 7     -3553.13349  20184858.60949
  23114330.422 3     15853.457 3      2446.74646  23114330.79746
  21196357.586 6     24800.246 6     11360.61747  21196353.35547
  24145547.320 4    -14049.938 4                
  22712681.813 3    -17533.176 3                
  23787176.078 5    -25782.637 5                
  21724608.000 6    -28846.965 6    -11372.85949  21724607.75449
 20  5 16  5 13 48.0000000  0  7G01G08G11G17G22G28G30                0.000223095
  20184798.438 7     -6822.977 7     -3799.26249  20184798.54349
  23114519.711 3     16848.930 3      3222.41046  23114520.29746
  21196567.813 6     25905.004 6     12221.46547  21196563.64147
  24145105.977 4    -16367.234 4      -362.44558  24145105.19558
  22712225.773 3    -19929.566 3    -10460.57056  22712222.67256
  23786531.086 5    -29173.863 5     -1056.01656  23786527.93856
  21724271.516 6    -30615.441 6    -12750.89549  21724270.85249
 20  5 16  5 13 49.0000000  0  7G01G08G11G17G22G28G30                0.000222540
  20184738.844 7     -7138.473 7     -4045.10549  20184738.31349
  23114709.109 3     17844.016 3      3997.80146  23114709.71546
  21196778.172 6     27009.715 6     13082.28147  21196774.34047
  24144665.227 4    -18684.685 4     -2168.23648  24144664.10948
  22711770.266 3    -22325.871 3    -12327.82846  22711766.65646
  23785885.766 4    -32565.469 4     -3698.88146  23785882.49246
  21723935.125 6    -32383.609 6    -14128.68449  21723934.41449
 20  5 16  5 13 50.0000000  0  8G01G03G08G11G17G22G28G30             0.000221985
  20184678.586 7     -7453.574 7     -4290.63749  20184678.39549
  23446790.81315    -83576.46115    -30831.34858  23446792.01258
  23114898.586 5     18838.871 5      4773.02346  23114899.04346
  21196987.859 6     28114.492 6     13943.14148  21196984.05948
  24144223.695 4    -21002.336 4     -3974.18448  24144222.94948
  22711314.375 5    -24722.137 5    -14195.03946  22711310.39546
  23785240.242 5    -35957.391 5     -6341.97746  23785237.16846
  21723598.891 6    -34151.422 6    -15506.19549  21723598.25049
 20  5 16  5 13 51.0000000  0  8G01G03G08G11G17G22G28G30             0.000221432
  20184618.430 7     -7768.324 7     -4535.89849  20184618.67649
  23446105.656 5    -87177.555 5    -33637.37148  23446107.16848
  23115087.820 5     19833.359 5      5547.94546  23115088.42646
  21197198.164 6     29219.227 6     14803.97348  21197194.10548
  24143783.406 4    -23320.137 4     -5780.24648  24143781.63348
  22710858.461 6    -27118.250 6    -16062.12947  22710854.54747
  23784594.938 5    -39349.715 5     -8985.33646  23784592.15646
  21723262.680 6    -35918.895 6    -16883.43049  21723262.05949
 20  5 16  5 13 52.0000000  0  8G01G03G08G11G17G22G28G30             0.000220877
  20184558.750 7     -8082.754 7     -4780.90249  20184558.69949
  23445420.445 5    -90778.949 5    -36443.64148  23445422.01648
  23115277.227 5     20827.473 5      6322.56647  23115277.30947
  21197408.297 6     30323.883 6     15664.74648  21197404.36748
  24143341.852 4    -25638.086 4     -7586.43448  24143340.42248
  22710402.617 6    -29514.301 6    -17929.17647  22710398.66447
  23783948.617 5    -42742.418 5    -11628.98846  23783946.13746
  21722925.938 6    -37686.094 6    -18260.46149  21722925.50049
 20  5 16  5 13 53.0000000  0  8G01G03G08G11G17G22G28G30             0.000220322
  20184498.742 7     -8396.844 7     -5025.64849  20184498.88749
  23444734.859 5    -94380.590 5    -39250.10948  23444736.39148
  23115466.758 5     21821.195 5      7096.89147  23115466.58647
  21197618.313 6     31428.520 6     16525.50048  21197614.60548
  24142901.211 5    -27956.297 5     -9392.83248  24142899.34048
  22709946.641 6    -31910.309 6    -19796.19147  22709942.60547
  23783303.117 5    -46135.563 5    -14272.98046  23783300.58246
  21722590.219 6    -39453.008 6    -19637.27349  21722589.41449
 20  5 16  5 13 54.0000000  0  8G01G03G08G11G17G22G28G30             0.000219767
  20184439.555 7     -8710.559 7     -5270.09849  20184439.38349
  23444048.906 5    -97982.418 5    -42056.73048  23444051.25848
  23115655.180 5     22814.609 5      7870.98447  23115655.44547
  21197828.547 6     32533.141 6     17386.25048  21197824.79748
  24142460.109 5    -30274.625 5    -11199.32048  24142458.48048
  22709490.422 6    -34306.234 6    -21663.14147  22709486.35247
  23782657.359 5    -49529.070 5    -16917.27746  23782654.67246
  21722253.609 6    -41219.582 6    -21013.82849  21722253.34449
 20  5 16  5 13 55.0000000  0  8G01G03G08G11G17G22G28G30             0.000219212
  20184379.609 7     -9023.660 7     -5514.08249  20184379.91849
  23443363.570 5   -101584.270 5    -44863.36748  23443365.48448
  23115844.313 5     23807.914 5      8644.98447  23115844.97747
  21198038.742 6     33637.969 6     18247.15648  21198035.28548
  24142018.875 5    -32592.883 5    -13005.76248  24142016.67648
  22709035.078 6    -36701.867 6    -23529.87147  22709031.21547
  23782012.070 5    -52922.691 5    -19561.65646  23782008.93046
  21721917.813 6    -42985.605 6    -22389.95349  21721917.22349
 20  5 16  5 13 56.0000000  0  8G01G03G08G11G17G22G28G30             0.000218655
  20184320.211 7     -9336.363 7     -5757.74649  20184320.69149
  23442678.422 5   -105186.250 5    -47670.09848  23442680.61748
  23116033.273 5     24800.953 5      9418.78547  23116033.63347
  21198249.008 6     34742.852 6     19108.10548  21198245.42648
  24141577.695 4    -34911.277 4    -14812.31348  24141575.91048
  22708578.625 6    -39097.340 6    -25396.48047  22708575.15647
  23781366.188 5    -56316.641 5    -22206.29746  23781362.70746
  21721581.766 6    -44751.230 6    -23765.76649  21721581.07049
 20  5 16  5 13 57.0000000  0  8G01G03G08G11G17G22G28G30             0.000218100
  20184260.750 7     -9648.609 7     -6001.05149  20184260.59849
  23441993.141 5   -108788.367 5    -50476.94548  23441994.47748
  23116222.477 5     25793.766 5     10192.40647  23116222.71547
  21198459.305 6     35847.809 6     19969.10948  21198455.90248
  24141136.711 4    -37229.699 4    -16618.87548  24141134.80548
  22708123.078 6    -41492.641 6    -27262.94147  22708119.30947
  23780720.250 5    -59710.836 5    -24851.11346  23780716.87946
  21721245.695 6    -46516.457 6    -25141.27349  21721245.36749
 20  5 16  5 13 58.0000000  0  8G01G03G08G11G17G22G28G30             0.000217545
  20184201.469 7     -9960.410 7     -6244.01649  20184201.66849
  23441306.805 5   -112390.629 5    -53283.91048  23441309.22748
  23116410.891 5     26786.348 5     10965.84447  23116411.62547
  21198669.469 6     36952.832 6     20830.16448  21198666.10948
  24140695.797 4    -39548.258 4    -18425.53948  24140693.88748
  22707667.516 6    -43887.793 6    -29129.29347  22707663.53147
  23780074.773 5    -63105.379 5    -27496.21946  23780070.98046
  21720910.336 6    -48281.262 6    -26516.44949  21720909.75449
 20  5 16  5 13 59.0000000  0  8G01G03G08G11G17G22G28G30             0.000216988
  20184142.102 7    -10271.734 7     -6486.60949  20184142.28149
  23440621.375 5   -115993.027 5    -56090.97748  23440623.61748
  23116599.445 5     27778.633 5     11739.05147  23116600.32847
  21198880.023 6     38057.930 6     21691.27748  21198876.49648
  24140253.633 4    -41866.920 4    -20232.29448  24140252.66848
  22707211.516 6    -46282.762 6    -30995.50447  22707207.80547
  23779427.898 5    -66500.141 5    -30141.49646  23779424.82046
  21720574.305 6    -50045.668 6    -27891.30949  21720573.52049
 20  5 16  5 14  0.0000000  0  8G01G03G08G11G17G22G28G30             0.000216433
  20184082.875 7    -10582.602 7     -6728.84449  20184083.06649
  23439935.461 5   -119595.531 5    -58898.11748  23439938.02348
  23116788.547 5     28770.730 5     12512.10947  23116788.72747
  21199090.633 6     39163.141 6     22552.48048  21199086.83248
  24139813.211 4    -44185.539 4    -22038.99648  24139811.28948
  22706755.664 6    -48677.547 6    -32861.56347  22706752.32447
  23778782.195 5    -69895.219 5    -32787.00046  23778779.00446
  21720238.367 6    -51809.641 6    -29265.83249  21720238.19949
 20  5 16  5 14  1.0000000  0  8G01G03G08G11G17G22G28G30             0.000215876
  20184023.898 7    -10892.906 7     -6970.63749  20184023.97349
  23439250.773 5   -123198.066 5    -61705.28148  23439252.77748
  23116977.516 5     29762.680 5     13285.05947  23116977.41847
  21199300.734 6     40268.492 6     23413.78948  21199297.25448
  24139371.539 4    -46504.262 4    -23845.79548  24139370.28148
  22706299.867 6    -51072.102 6    -34727.45347  22706296.36347
  23778135.820 5    -73290.469 5    -35432.64546  23778132.40646
  21719902.844 6    -53573.102 6    -30639.95349  21719902.53549
 20  5 16  5 14  2.0000000  0  8G01G03G08G11G17G22G28G30             0.000215321
  20183964.922 7    -11202.793 7     -7212.10949  20183965.46549
  23438565.008 5   -126800.766 5    -64512.57448  23438567.05948
  23117166.109 5     30754.391 5     14057.81647  23117166.29747
  21199510.969 6     41373.918 6     24275.15648  21199507.86348
  24138930.563 4    -48822.965 4    -25652.57848  24138928.96948
  22705844.109 6    -53466.445 6    -36593.17647  22705840.64847
  23777489.289 5    -76686.012 5    -38078.51646  23777486.69546
  21719567.414 6    -55336.148 6    -32013.75849  21719566.89849
 20  5 16  5 14  3.0000000  0  8G01G03G08G11G17G22G28G30             0.000214764
  20183905.977 7    -11512.133 7     -7453.15249  20183906.33249
  23437879.633 5   -130403.488 5    -67319.88748  23437881.74648
  23117354.859 5     31745.953 5     14830.46547  23117354.85947
  21199721.336 6     42479.477 6     25136.63748  21199718.40248
  24138488.781 5    -51141.688 5    -27459.35948  24138487.67248
  22705388.664 6    -55860.566 6    -38458.73047  22705385.34447
  23776843.164 5    -80081.750 5    -40724.53946  23776840.25046
  21719232.086 6    -57098.730 6    -33387.20349  21719231.63349
 20  5 16  5 14  4.0000000  0  8G01G03G08G11G17G22G28G30             0.000214209
  20183847.352 7    -11820.918 7     -7693.76249  20183847.76649
  23437194.328 5   -134006.301 5    -70127.27048  23437196.07048
  23117543.844 5     32737.320 5     15602.95347  23117543.75047
  21199932.039 6     43585.230 6     25998.25448  21199928.11748
  24138047.805 4    -53460.395 4    -29266.14848  24138046.30148
  22704933.594 5    -58254.371 5    -40324.03547  22704929.77347
  23776197.813 5    -83477.648 5    -43370.69146  23776194.23846
  21718896.953 6    -58860.766 6    -34760.22349  21718896.07449
 20  5 16  5 14  5.0000000  0  8G01G03G08G11G17G22G28G30             0.000213652
  20183788.430 7    -12129.281 7     -7934.04749  20183788.84449
  23436508.523 4   -137609.238 4    -72934.77348  23436510.52048
  23117731.531 5     33728.414 5     16375.24646  23117732.30946
  21200142.164 6     44690.992 6     26859.87948  21200138.37548
  24137606.055 4    -55779.227 4    -31073.02348  24137605.02748
  22704478.391 5    -60648.031 5    -42189.21547  22704474.39847
  23775550.688 5    -86873.926 5    -46017.13346  23775547.96146
  21718561.242 6    -60622.438 6    -36132.96549  21718561.21949
 20  5 16  5 14  6.0000000  0  8G01G03G08G11G17G22G28G30             0.000213095
  20183729.938 7    -12437.125 7     -8173.93449  20183730.53149
  23435823.547 5   -141212.191 5    -75742.28548  23435824.93448
  23117920.094 2     34719.391 2     17147.43446  23117921.17646
  21200353.102 6     45796.922 6     27721.63748  21200349.22748
  24137165.273 4    -58098.020 4    -32879.87948  24137163.56348
  22704023.117 4    -63041.535 4    -44054.28146  22704019.14546
  23774904.203 5    -90270.324 5    -48663.68846  23774901.19146
  21718226.352 6    -62383.594 6    -37505.29749  21718225.57449
 20  5 16  5 14  7.0000000  0  8G01G03G08G11G17G22G28G30             0.000212538
  20183671.664 7    -12744.367 7     -8413.33649  20183672.14149
  23435137.602 5   -144815.168 5    -78549.80948  23435139.35548
  23118108.469 2     35710.250 2     17919.53946  23118108.92246
  21200563.320 6     46903.070 6     28583.57447  21200559.93847
  24136724.102 5    -60416.773 5    -34686.71148  24136722.31348
  22703566.820 4    -65434.699 4    -45919.08646  22703563.60546
  23774258.281 5    -93666.922 5    -51310.41046  23774255.17646
  21717891.289 6    -64144.227 6    -38877.23449  21717890.89549
 20  5 16  5 14  8.0000000  0  8G01G03G08G11G17G22G28G30             0.000211981
  20183613.109 7    -13051.203 7     -8652.43449  20183613.99249
  23434451.578 5   -148418.316 5    -81357.44948  23434453.82448
  23118296.852 2     36700.848 2     18691.44946  23118298.01646
  21200773.750 6     48009.227 6     29445.51247  21200769.88347
  24136282.492 5    -62735.637 5    -36493.62948  24136281.39548
  22703111.898 4    -67827.766 4    -47783.80946  22703108.39846
  23773611.719 5    -97063.820 5    -53957.35246  23773608.78546
  21717556.813 6    -65904.492 6    -40248.86749  21717556.02049
 20  5 16  5 14  9.0000000  0  8G01G03G08G11G17G22G28G30             0.000211424
  20183555.078 7    -13357.379 7     -8891.00849  20183555.48049
  23433766.039 5   -152021.359 5    -84165.00448  23433768.00448
  23118486.406 5     37691.375 5     19463.27746  23118486.53946
  21200984.227 6     49115.695 6     30307.69947  21200980.36347
  24135841.430 4    -65054.422 4    -38300.48048  24135840.14148
  22702655.836 6    -70220.484 6    -49648.25046  22702652.50446
  23772964.984 5   -100460.844 5    -56604.37546  23772962.26646
  21717221.648 6    -67664.168 6    -41620.03949  21717221.39549
 20  5 16  5 14 10.0000000  0  8G01G03G08G11G17G22G28G30             0.000210869
  20183496.836 7    -13663.078 7     -9129.21949  20183496.96549
  23433080.125 5   -155624.531 5    -86972.64548  23433082.52048
  23118674.898 5     38681.707 5     20234.94146  23118675.43846
  21201194.758 6     50222.270 6     31169.96948  21201191.18048
  24135400.055 4    -67373.215 4    -40107.31648  24135399.35248
  22702200.797 6    -72612.922 6    -51512.49647  22702197.59847
  23772319.070 5   -103858.059 5    -59251.53946  23772315.68446
  21716887.164 6    -69423.340 6    -42990.80549  21716886.57849
 20  5 16  5 14 11.0000000  0  8G01G03G08G11G17G22G28G30             0.000210312
  20183438.422 7    -13968.238 7     -9367.01249  20183439.32449
  23432394.266 5   -159227.727 5    -89780.30548  23432396.62148
  23118862.742 5     39671.863 5     21006.49247  23118863.53547
  21201405.086 6     51328.977 6     32032.34448  21201401.26648
  24134958.680 4    -69691.977 4    -41914.13748  24134957.51248
  22701745.727 6    -75005.137 6    -53376.56647  22701742.09847
  23771672.523 5   -107255.488 5    -61898.88346  23771669.67246
  21716552.344 6    -71182.039 6    -44361.20749  21716551.68049
 20  5 16  5 14 12.0000000  0  8G01G03G08G11G17G22G28G30             0.000209755
  20183380.625 7    -14272.813 7     -9604.33649  20183381.39849
  23431708.828 4   -162830.984 4    -92588.02748  23431711.18048
  23119051.086 5     40661.891 5     21777.94147  23119051.82047
  21201615.930 6     52435.891 6     32894.87148  21201611.87948
  24134517.680 4    -72010.703 4    -43720.93448  24134515.84848
  22701290.406 6    -77397.023 6    -55240.38347  22701287.19147
  23771025.922 5   -110653.090 5    -64546.36346  23771022.66046
  21716217.914 6    -72940.215 6    -45731.21549  21716217.28549
 20  5 16  5 14 13.0000000  0  8G01G03G08G11G17G22G28G30             0.000209198
  20183322.719 7    -14576.895 7     -9841.28949  20183323.09449
  23431022.969 4   -166434.270 4    -95395.77748  23431025.44548
  23119239.633 5     41651.742 5     22549.25447  23119240.66847
  21201826.703 6     53542.891 6     33757.46948  21201823.03948
  24134076.531 4    -74329.500 4    -45527.78548  24134075.05548
  22700835.375 6    -79788.742 6    -57104.05947  22700831.73447
  23770379.328 5   -114050.918 5    -67194.03146  23770376.13346
  21715883.117 6    -74697.906 6    -47100.85249  21715882.74649
 20  5 16  5 14 14.0000000  0  9G01G03G07G08G11G17G22G28G30          0.000208639
  20183264.914 7    -14880.426 7    -10077.80149  20183265.82849
  23430336.961 4   -170037.629 4    -98203.59048  23430339.85248
  20969662.00816      6400.07816      4977.93059  20969658.84859
  23119427.820 5     42641.445 5     23320.45347  23119429.25447
  21202037.117 6     54650.066 6     34620.19948  21202033.58648
  24133635.328 4    -76648.258 4    -47334.61348  24133633.68848
  22700380.250 6    -82180.160 6    -58967.49647  22700376.31647
  23769732.742 5   -117448.938 5    -69841.84046  23769729.64846
  21715548.992 6    -76455.094 6    -48470.09449  21715548.79349
 20  5 16  5 14 15.0000000  0  9G01G03G07G08G11G17G22G28G30          0.000208082
  20183207.563 7    -15183.238 7    -10313.76249  20183208.26249
  23429651.898 5   -173640.855 5   -101011.31348  23429654.17648
  20969704.820 6      6625.805 6      5153.82449  20969702.33249
  23119616.023 5     43631.203 5     24091.69147  23119617.14547
  21202247.305 6     55757.609 6     35483.21948  21202244.11748
  24133194.219 5    -78966.805 5    -49141.27348  24133192.49248
  22699925.352 6    -84571.160 6    -60830.60547  22699921.77347
  23769086.531 5   -120846.938 5    -72489.62946  23769082.96546
  21715214.492 6    -78211.617 6    -49838.82049  21715214.25449
 20  5 16  5 14 16.0000000  0  9G01G03G07G08G11G17G22G28G30          0.000207525
  20183150.086 7    -15485.488 7    -10549.28149  20183150.55949
  23428965.984 5   -177244.027 5   -103818.99248  23428968.50448
  20969747.844 6      6852.012 6      5330.08649  20969744.88349
  23119804.430 5     44620.801 5     24862.79747  23119805.57847
  21202458.727 6     56865.328 6     36346.37148  21202454.73448
  24132753.273 4    -81285.328 4    -50947.91848  24132751.48848
  22699470.422 6    -86961.887 6    -62693.51247  22699466.57847
  23768439.398 5   -124245.121 5    -75137.56346  23768436.32046
  21714880.320 6    -79967.582 6    -51207.10949  21714880.13349
 20  5 16  5 14 17.0000000  0  9G01G03G07G08G11G17G22G28G30          0.000206968
  20183092.539 7    -15787.148 7    -10784.34049  20183093.10949
  23428280.500 5   -180847.242 5   -106626.70748  23428282.87548
  20969791.070 6      7078.766 6      5506.77749  20969788.50849
  23119992.766 5     45610.309 5     25633.84847  23119993.91047
  21202669.711 6     57973.250 6     37209.68848  21202665.80548
  24132311.984 4    -83603.809 4    -52754.52748  24132310.50048
  22699015.680 6    -89352.277 6    -64556.14847  22699011.84447
  23767792.898 5   -127643.477 5    -77785.63346  23767789.48446
  21714546.148 6    -81723.023 6    -52574.98449  21714545.84849
 20  5 16  5 14 18.0000000  0  9G01G03G07G08G11G17G22G28G30          0.000206411
  20183035.102 7    -16088.121 7    -11018.87149  20183035.64549
  23427595.031 4   -184450.352 4   -109434.32848  23427597.25048
  20969834.625 6      7306.164 6      5683.96949  20969831.78149
  23120180.766 5     46599.813 5     26404.89147  23120182.10947
  21202880.523 6     59081.484 6     38073.24648  21202876.83248
  24131870.117 5    -85922.082 5    -54560.97348  24131869.02348
  22698560.797 6    -91742.258 6    -66418.47347  22698557.00447
  23767146.086 5   -131041.840 5    -80433.70746  23767143.24646
  21714212.500 6    -83477.816 6    -53942.35549  21714211.74649
 20  5 16  5 14 19.0000000  0  9G01G03G07G08G11G17G22G28G30          0.000205854
  20182977.969 7    -16388.539 7    -11252.96149  20182978.65249
  23426908.922 5   -188053.480 5   -112241.94148  23426911.84848
  20969877.570 6      7534.082 6      5861.56649  20969875.16049
  23120369.563 5     47589.161 5     27175.80347  23120370.21147
  21203091.680 6     60189.898 6     38936.94548  21203088.13348
  24131428.625 5    -88240.340 5    -56367.40648  24131428.03948
  22698106.008 6    -94131.988 6    -68280.60947  22698102.27347
  23766499.195 5   -134440.410 5    -83081.93846  23766496.16846
  21713878.555 6    -85232.082 6    -55309.30949  21713878.09049
 20  5 16  5 14 20.0000000  0  9G01G03G07G08G11G17G22G28G30          0.000205297
  20182920.813 7    -16688.387 7    -11486.61349  20182921.58649
  23426223.859 4   -191656.613 4   -115049.56648  23426225.84848
  20969921.117 6      7762.527 6      6039.57449  20969918.42249
  23120558.063 5     48578.445 5     27946.68047  23120558.60547
  21203302.164 6     61298.496 6     39800.78548  21203298.76248
  24130988.617 5    -90558.625 5    -58173.85248  24130986.48848
  22697651.492 6    -96521.434 6    -70142.52047  22697647.36347
  23765852.547 5   -137839.141 5    -85730.30146  23765849.48046
  21713544.508 6    -86985.828 6    -56675.86749  21713544.14149
 20  5 16  5 14 21.0000000  0  9G01G03G07G08G11G17G22G28G30          0.000204739
  20182863.930 7    -16987.625 7    -11719.77749  20182864.52349
  23425537.664 5   -195259.723 5   -117857.17648  23425540.38748
  20969964.727 6      7991.535 6      6218.02349  20969961.59049
  23120746.211 5     49567.621 5     28717.46947  23120746.68847
  21203513.563 6     62407.352 6     40664.82848  21203509.82848
  24130547.078 5    -92876.746 5    -59980.17248  24130545.66448
  22697196.742 6    -98910.520 6    -72004.14147  22697193.05547
  23765206.070 5   -141237.973 5    -88378.73446  23765202.75446
  21713211.320 6    -88738.988 6    -58041.96549  21713210.77749
 20  5 16  5 14 22.0000000  0  9G01G03G07G08G11G17G22G28G30          0.000204182
  20182807.242 7    -17286.238 7    -11952.46949  20182807.30549
  23424852.109 4   -198862.832 4   -120664.80148  23424854.62148
  20970008.531 6      8221.102 6      6396.90249  20970005.58249
  23120934.781 5     50556.715 5     29488.18847  23120934.97347
  21203724.586 6     63516.398 6     41529.02048  21203720.89548
  24130106.063 5    -95194.836 5    -61786.48448  24130104.56348
  22696742.016 6   -101299.309 6    -73865.53547  22696738.20347
  23764558.461 5   -144636.945 5    -91027.30146  23764555.96546
  21712877.313 6    -90491.574 6    -59407.62149  21712877.02349
 20  5 16  5 14 23.0000000  0  9G01G03G07G08G11G17G22G28G30          0.000203625
  20182750.484 7    -17584.277 7    -12184.71149  20182751.13349
  23424166.672 4   -202465.898 4   -123472.38748  23424168.62548
  20970052.531 6      8451.215 6      6576.21149  20970049.60249
  23121122.633 5     51545.637 5     30258.75847  23121123.10247
  21203935.594 6     64625.676 6     42393.39148  21203931.81348
  24129665.250 5    -97512.836 5    -63592.71948  24129663.32048
  22696287.656 6   -103687.785 6    -75726.68847  22696283.59447
  23763912.359 5   -148036.043 5    -93675.93846  23763909.08646
  21712544.023 6    -92243.629 6    -60772.86349  21712544.02349
 20  5 16  5 14 24.0000000  0  9G01G03G07G08G11G17G22G28G30          0.000203068
  20182693.961 7    -17881.770 7    -12416.52349  20182694.50449
  23423481.180 5   -206069.016 5   -126280.01248  23423483.46948
  20970095.977 6      8681.840 6      6755.91849  20970093.78949
  23121310.867 5     52534.469 5     31029.28147  23121311.34447
  21204146.906 6     65735.125 6     43257.88748  21204142.93448
  24129223.414 5    -99830.828 5    -65398.95348  24129222.13348
  22695833.555 6   -106075.984 6    -77587.60947  22695829.00447
  23763265.313 5   -151435.355 5    -96324.75446  23763262.62946
  21712211.227 6    -93995.160 6    -62137.69149  21712210.53549
 20  5 16  5 14 25.0000000  0  9G01G03G07G08G11G17G22G28G30          0.000202509
  20182637.227 7    -18178.684 7    -12647.88749  20182638.05549
  23422794.875 4   -209672.156 4   -129087.64148  23422797.59848
  20970139.992 6      8912.977 6      6936.02749  20970137.30549
  23121498.617 5     53523.152 5     31799.68847  23121499.80147
  21204357.984 6     66844.738 6     44122.52348  21204354.28148
  24128782.875 4   -102148.789 4    -67205.15648  24128781.05548
  22695378.773 6   -108463.902 6    -79448.32047  22695374.99247
  23762618.359 5   -154834.840 5    -98973.71146  23762615.44146
  21711877.891 6    -95746.172 6    -63502.11349  21711877.58249
 20  5 16  5 14 26.0000000  0  9G01G03G07G08G11G17G22G28G30          0.000201952
  20182580.977 7    -18474.871 7    -12878.67649  20182581.62949
  23422109.234 5   -213275.113 5   -131895.10948  23422112.22348
  20970184.219 6      9144.828 6      7116.68849  20970181.69549
  23121686.789 5     54511.883 5     32570.13347  23121687.66847
  21204569.180 6     67954.730 6     44987.45348  21204565.62148
  24128341.992 5   -104466.543 5    -69011.18848  24128339.99248
  22694924.586 6   -110851.340 6    -81308.66447  22694920.60947
  23761970.898 5   -158234.266 5   -101622.60946  23761968.57046
  21711544.805 6    -97496.469 6    -64865.98849  21711544.24249
 20  5 16  5 14 27.0000000  0  9G01G03G07G08G11G17G22G28G30          0.000201395
  20182524.656 7    -18770.230 7    -13108.83249  20182525.34049
  23421424.258 4   -216877.871 4   -134702.44148  23421426.51648
  20970228.828 6      9377.418 6      7297.92649  20970225.85549
  23121875.172 5     55500.738 5     33340.67247  23121875.60947
  21204780.094 6     69065.121 6     45852.69948  21204776.60948
  24127900.289 5   -106784.012 5    -70817.00148  24127898.59848
  22694470.375 6   -113238.270 6    -83168.61747  22694466.42647
  23761324.141 5   -161633.664 5   -104271.49546  23761321.42646
  21711211.773 6    -99246.023 6    -66229.27749  21711211.24249
 20  5 16  5 14 28.0000000  0  9G01G03G07G08G11G17G22G28G30          0.000200838
  20182468.656 7    -19064.746 7    -13338.32449  20182469.50049
  23420739.000 4   -220480.293 4   -137509.52348  23420741.22348
  20970272.813 6      9610.859 6      7479.82449  20970270.34849
  23122063.313 5     56489.777 5     34111.35247  23122064.02747
  21204991.984 6     70176.031 6     46718.34448  21204988.33248
  24127459.727 5   -109101.148 5    -72622.55948  24127458.04348
  22694015.961 6   -115624.598 6    -85028.09847  22694012.41447
  23760677.625 5   -165032.906 5   -106920.25046  23760674.89146
  21710878.914 6   -100994.715 6    -67591.89549  21710878.42249
 20  5 16  5 14 29.0000000  0  9G01G03G07G08G11G17G22G28G30          0.000200281
  20182412.836 7    -19358.457 7    -13567.18449  20182413.60949
  23420052.797 4   -224082.539 4   -140316.46548  23420055.33648
  20970317.664 6      9845.020 6      7662.28549  20970314.85549
  23122251.438 5     57478.855 5     34882.07847  23122252.12947
  21205203.266 6     71287.352 6     47584.30148  21205199.43048
  24127019.047 5   -111418.035 5    -74427.92648  24127017.55148
  22693562.008 6   -118010.441 6    -86887.19147  22693558.22347
  23760030.914 5   -168432.109 5   -109568.97346  23760028.19946
  21710546.531 6   -102742.691 6    -68953.95349  21710546.06349
 20  5 16  5 14 30.0000000  0  9G01G03G07G08G11G17G22G28G30          0.000199722
  20182357.078 7    -19651.691 7    -13795.68049  20182357.55549
  23419367.375 5   -227684.883 5   -143123.48848  23419369.64148
  20970362.383 6     10079.637 6      7845.10549  20970359.52749
  23122439.531 5     58467.797 5     35652.67647  23122440.36747
  21205414.688 6     72398.746 6     48450.32448  21205411.07448
  24126578.109 4   -113734.918 4    -76233.29348  24126576.21548
  22693108.188 6   -120396.051 6    -88746.11347  22693104.42647
  23759383.859 5   -171831.551 5   -112217.87946  23759381.08646
  21710213.625 6   -104490.184 6    -70315.64149  21710213.20349
 20  5 16  5 14 31.0000000  0  9G01G03G07G08G11G17G22G28G30          0.000199165
  20182301.352 7    -19944.730 7    -14024.02749  20182301.98849
  23418681.734 4   -231287.586 4   -145930.79348  23418684.82048
  20970407.117 6     10314.410 6      8028.04749  20970404.01249
  23122627.313 5     59456.195 5     36422.84847  23122628.11347
  21205626.000 6     73509.969 6     49316.21148  21205622.05148
  24126137.203 4   -116052.180 4    -78038.95748  24126135.27048
  22692654.500 6   -122781.762 6    -90605.10547  22692650.19947
  23758736.664 5   -175231.504 5   -114867.19146  23758734.25846
  21709881.234 6   -106237.555 6    -71677.22749  21709880.73449
 20  5 16  5 14 32.0000000  0  9G01G03G07G08G11G17G22G28G30          0.000198608
  20182245.891 7    -20237.707 7    -14252.32449  20182245.91049
  23417996.266 4   -234890.836 4   -148738.52748  23417998.62948
  20970451.594 6     10549.176 6      8210.98049  20970448.66849
  23122815.656 5     60443.957 5     37192.52747  23122816.20347
  21205837.164 6     74620.879 6     50181.85248  21205833.27348
  24125696.422 5   -118369.898 5    -79844.98048  24125694.03948
  22692200.328 6   -125167.691 6    -92464.25847  22692196.32447
  23758089.547 5   -178632.152 5   -117517.05146  23758086.55946
  21709548.445 6   -107984.875 6    -73038.77749  21709548.14849
 20  5 16  5 14 33.0000000  0  9G01G03G07G08G11G17G22G28G30          0.000198050
  20182189.672 7    -20530.871 7    -14480.76649  20182190.42249
  23417310.742 4   -238494.876 4   -151546.86548  23417313.09848
  20970496.344 6     10783.727 6      8393.75049  20970493.34849
  23123003.625 5     61430.844 5     37961.53147  23123004.42247
  21206048.594 6     75731.187 6     51047.02548  21206044.63348
  24125254.906 5   -120688.324 5    -81651.54348  24125253.29748
  22691746.680 6   -127554.082 6    -94323.78547  22691742.28147
  23757442.977 5   -182033.774 5   -120167.65846  23757439.71146
  21709216.250 6   -109732.466 6    -74400.53849  21709215.63749
 20  5 16  5 14 34.0000000  0  9G01G03G07G08G11G17G22G28G30          0.000197491
  20182133.953 7    -20823.934 7    -14709.12149  20182134.55949
  23416624.859 4   -242099.313 4   -154355.51648  23416626.75448
  20970540.930 6     11018.336 6      8576.55549  20970537.70749
  23123191.234 5     62417.145 5     38730.07847  23123191.91447
  21206259.945 6     76841.281 6     51912.03948  21206256.11348
  24124813.563 5   -123007.227 5    -83458.47748  24124811.72748
  22691292.102 6   -129940.668 6    -96183.46147  22691288.08247
  23756794.914 5   -185435.906 5   -122818.66446  23756792.48846
  21708883.781 6   -111479.918 6    -75762.18449  21708883.12549
 20  5 16  5 14 35.0000000  0  9G01G03G07G08G11G17G22G28G30          0.000196932
  20182078.445 7    -21116.691 7    -14937.24249  20182078.79749
  23415938.953 4   -245704.066 4   -157164.40648  23415940.99248
  20970585.555 6     11253.211 6      8759.58249  20970582.51649
  23123378.742 5     63403.055 5     39498.31647  23123379.22747
  21206471.516 6     77951.285 6     52776.96948  21206467.62148
  24124371.836 5   -125326.266 5    -85265.51248  24124370.38748
  22690837.633 6   -132327.195 6    -98043.09447  22690833.62147
  23756147.688 5   -188838.543 5   -125470.08246  23756144.60946
  21708550.906 6   -113227.133 6    -77123.64549  21708550.52349
 20  5 16  5 14 36.0000000  0  9G01G03G07G08G11G17G22G28G30          0.000196373
  20182022.969 7    -21409.121 7    -15165.11349  20182023.21949
  23415252.625 5   -249309.055 5   -159973.48848  23415254.77048
  20970630.578 6     11488.359 6      8942.81349  20970627.28149
  23123565.953 5     64388.574 5     40266.25847  23123567.12947
  21206682.516 6     79061.195 6     53641.84048  21206678.56348
  24123931.008 5   -127645.559 5    -87072.75048  24123929.46948
  22690383.523 6   -134713.727 6    -99902.72347  22690379.68447
  23755500.406 5   -192241.574 5   -128121.80146  23755496.97746
  21708218.789 6   -114974.082 6    -78484.90649  21708218.12949
 20  5 16  5 14 37.0000000  0  9G01G03G07G08G11G17G22G28G30          0.000195812
  20181967.367 7    -21701.191 7    -15392.69949  20181967.44949
  23414567.148 4   -252914.316 4   -162782.77748  23414568.97348
  20970675.211 6     11723.832 6      9126.29749  20970672.40649
  23123753.594 5     65373.773 5     41033.93447  23123754.66047
  21206893.867 6     80171.098 6     54506.69148  21206889.97748
  24123489.523 5   -129965.027 5    -88880.12148  24123487.89548
  22689929.211 6   -137100.133 6   -101762.26647  22689925.71947
  23754852.258 5   -195644.996 5   -130773.81646  23754849.14846
  21707886.555 6   -116720.699 6    -79845.91049  21707886.27749
 20  5 16  5 14 38.0000000  0  9G01G03G07G08G11G17G22G28G30          0.000195253
  20181911.914 7    -21992.758 7    -15619.89849  20181912.30549
  23413880.898 5   -256519.602 5   -165592.08248  23413882.93448
  20970719.969 6     11959.766 6      9310.13349  20970717.52049
  23123940.797 5     66358.805 5     41801.48047  23123941.96547
  21207104.805 6     81281.137 6     55371.66048  21207101.37948
  24123048.336 4   -132284.543 4    -90687.53148  24123046.94548
  22689475.469 6   -139486.324 6   -103621.63347  22689471.83247
  23754204.617 5   -199048.625 5   -133425.98446  23754201.61746
  21707553.977 6   -118466.836 6    -81206.54349  21707554.13749
 20  5 16  5 14 39.0000000  0  9G01G03G07G08G11G17G22G28G30          0.000194693
  20181856.383 7    -22283.805 7    -15846.68849  20181856.73849
  23413195.125 4   -260124.953 4   -168401.44548  23413196.50048
  20970764.836 6     12196.180 6      9494.35249  20970762.25049
  23124128.773 5     67343.648 5     42568.89547  23124129.32447
  21207316.516 6     82391.309 6     56236.73048  21207312.53948
  24122606.727 5   -134604.000 5    -92494.90248  24122604.94948
  22689020.914 6   -141872.258 6   -105480.80147  22689017.42247
  23753556.508 5   -202452.473 5   -136078.32446  23753553.69146
  21707222.078 6   -120212.480 6    -82566.78149  21707221.30149
 20  5 16  5 14 40.0000000  0  9G01G03G07G08G11G17G22G28G30          0.000194134
  20181801.016 7    -22574.254 7    -16073.01249  20181801.28149
  23412508.352 5   -263730.270 5   -171210.78148  23412510.74648
  20970810.305 6     12433.129 6      9678.98449  20970807.06349
  23124316.203 5     68328.395 5     43336.23047  23124316.64847
  21207527.750 6     83501.703 6     57101.96948  21207524.00448
  24122165.172 4   -136923.434 4    -94302.25848  24122163.55548
  22688567.242 6   -144257.910 6   -107339.74647  22688563.10547
  23752909.391 5   -205856.434 5   -138730.76646  23752906.24246
  21706890.109 6   -121957.590 6    -83926.61349  21706889.60249
 20  5 16  5 14 41.0000000  0  9G01G03G07G08G11G17G22G28G30          0.000193575
  20181745.766 7    -22864.020 7    -16298.80549  20181746.36749
  23411822.930 5   -267335.512 5   -174020.06648  23411824.73448
  20970855.523 6     12670.738 6      9864.13749  20970852.86749
  23124503.617 5     69313.129 5     44103.55547  23124504.12147
  21207738.875 6     84612.375 6     57967.42248  21207735.34848
  24121723.734 4   -139242.695 4    -96109.48048  24121722.25048
  22688113.859 6   -146643.145 6   -109198.37147  22688109.76647
  23752262.102 5   -209260.457 5   -141383.25046  23752258.57446
  21706558.117 6   -123702.059 6    -85285.93849  21706557.89149
 20  5 16  5 14 42.0000000  0  9G01G03G07G08G11G17G22G28G30          0.000193014
  20181690.695 7    -23153.172 7    -16524.11749  20181691.22749
  23411136.477 5   -270940.730 5   -176829.33248  23411138.31648
  20970900.594 6     12908.918 6     10049.72749  20970897.97749
  23124691.125 5     70297.777 5     44870.81647  23124691.48047
  21207950.406 6     85723.320 6     58833.09448  21207946.95348
  24121282.438 4   -141561.852 4    -97916.61748  24121280.69548
  22687659.469 6   -149028.023 6   -111056.71547  22687655.26247
  23751613.781 5   -212664.578 5   -144035.81646  23751610.75846
  21706226.234 6   -125445.922 6    -86644.79349  21706225.76249
 20  5 16  5 14 43.0000000  0  9G01G03G07G08G11G17G22G28G30          0.000192455
  20181636.008 7    -23441.652 7    -16748.91049  20181636.37949
  23410450.711 5   -274545.805 5   -179638.48448  23410452.33248
  20970946.242 6     13147.723 6     10235.80549  20970943.64549
  23124878.414 5     71282.406 5     45638.05147  23124878.15247
  21208161.859 6     86834.512 6     59698.96148  21208158.32048
  24120841.406 4   -143880.941 4    -99723.69948  24120839.94548
  22687206.180 6   -151412.523 6   -112914.77047  22687201.78547
  23750966.031 5   -216068.793 5   -146688.45746  23750962.83646
  21705894.188 6   -127189.176 6    -88003.17649  21705894.00049
 20  5 16  5 14 44.0000000  0  9G01G03G07G08G11G17G22G28G30          0.000191895
  20181580.922 7    -23729.371 7    -16973.10549  20181581.36749
  23409764.313 5   -278150.750 5   -182447.53148  23409766.33248
  20970991.719 6     13387.223 6     10422.43449  20970989.03549
  23125066.078 5     72267.117 5     46405.36347  23125065.77747
  21208373.430 6     87946.082 6     60565.11748  21208369.62548
  24120399.930 5   -146199.769 5   -101530.56448  24120398.46548
  22686752.070 6   -153796.555 6   -114772.46547  22686747.88747
  23750318.039 5   -219472.965 5   -149341.06346  23750315.08646
  21705562.383 6   -128931.707 6    -89360.98849  21705562.21549
 20  5 16  5 14 45.0000000  0  9G01G03G07G08G11G17G22G28G30          0.000191336
  20181526.617 7    -24016.277 7    -17196.66849  20181527.06649
  23409078.117 5   -281755.422 5   -185256.35548  23409080.79348
  20971036.977 6     13627.504 6     10609.66449  20971034.37149
  23125253.570 5     73251.965 5     47172.78147  23125253.75047
  21208584.984 6     89058.117 6     61431.63748  21208581.36748
  24119959.102 5   -148518.254 5   -103337.17648  24119957.26648
  22686298.914 6   -156180.031 6   -116629.72347  22686295.03547
  23749670.313 5   -222877.031 5   -151993.57846  23749667.68846
  21705231.297 6   -130673.465 6    -90718.20749  21705230.76649
 20  5 16  5 14 46.0000000  0  9G01G03G07G08G11G17G22G28G30          0.000190777
  20181472.180 7    -24302.063 7    -17419.35949  20181472.74649
  23408392.594 5   -285359.574 5   -188064.78548  23408394.11748
  20971083.367 6     13868.871 6     10797.74249  20971080.49649
  23125440.586 5     74237.160 5     47940.46547  23125440.91447
  21208796.773 6     90170.879 6     62298.72348  21208793.12148
  24119518.641 5   -150836.203 5   -105143.37148  24119516.08648
  22685845.109 6   -158562.699 6   -118486.33647  22685841.51647
  23749022.258 5   -226280.742 5   -154645.82446  23749019.56646
  21704899.836 6   -132414.148 6    -92074.58249  21704899.47749
 20  5 16  5 14 47.0000000  0  9G01G03G07G08G11G17G22G28G30          0.000190218
  20181417.766 7    -24587.031 7    -17641.41849  20181418.21949
  23407706.961 5   -288963.496 5   -190873.03148  23407708.48448
  20971129.172 6     14111.004 6     10986.41049  20971126.54749
  23125628.078 5     75222.527 5     48708.29347  23125628.34847
  21209008.414 6     91284.063 6     63166.13348  21209004.92648
  24119077.281 5   -153153.805 5   -106949.29748  24119074.80948
  22685392.289 6   -160944.797 6   -120342.52047  22685387.99247
  23748374.688 5   -229684.359 5   -157297.98846  23748371.64846
  21704568.805 6   -134154.012 6    -93430.32449  21704568.72749
 20  5 16  5 14 48.0000000  0  9G01G03G07G08G11G17G22G28G30          0.000189657
  20181364.047 7    -24870.922 7    -17862.62549  20181364.39549
  23407020.555 5   -292566.902 5   -193680.88748  23407022.23448
  20971175.914 6     14354.156 6     11175.87949  20971172.86749
  23125815.281 5     76208.273 5     49476.41047  23125816.03147
  21209220.344 6     92397.945 6     64034.09448  21209216.99248
  24118636.031 4   -155470.918 4   -108754.84048  24118633.92648
  22684938.586 6   -163326.102 6   -122198.08247  22684934.79747
  23747727.383 5   -233087.613 5   -159949.85946  23747724.42646
  21704238.344 6   -135892.859 6    -94785.26649  21704237.78149
 20  5 16  5 14 49.0000000  0  9G01G03G07G08G11G17G22G28G30          0.000189100
  20181310.250 7    -25153.922 7    -18083.14849  20181310.45349
  23406335.547 5   -296169.977 5   -196488.46948  23406337.00848
  20971222.141 6     14598.152 6     11366.00849  20971219.01249
  23126002.977 5     77194.234 5     50244.68847  23126003.96147
  21209432.383 6     93512.352 6     64902.46148  21209429.12548
  24118194.891 4   -157787.648 4   -110560.09048  24118193.39848
  22684486.000 6   -165706.793 6   -124053.16447  22684482.27747
  23747079.547 5   -236490.707 5   -162601.60546  23747076.53546
  21703907.492 6   -137630.852 6    -96139.54749  21703906.85949
 20  5 16  5 14 50.0000000  0  9G01G03G07G08G11G17G22G28G30          0.000188541
  20181256.570 7    -25435.980 7    -18302.93049  20181257.09049
  23405649.875 4   -299772.684 4   -199295.77748  23405651.53948
  20971268.445 6     14843.082 6     11556.85949  20971265.74649
  23126190.938 5     78180.461 5     51013.17247  23126191.34047
  21209644.711 6     94627.352 6     65771.29748  21209640.80548
  24117754.094 4   -160103.941 4   -112364.98848  24117752.78948
  22684033.023 6   -168086.777 6   -125907.69147  22684028.71147
  23746432.695 5   -239893.574 5   -165253.19946  23746429.32846
  21703576.633 6   -139367.922 6    -97493.11349  21703576.35549
 20  5 16  5 14 51.0000000  0  9G01G03G07G08G11G17G22G28G30          0.000187983
  20181202.820 7    -25717.047 7    -18521.94149  20181203.57449
  23404964.125 5   -303375.008 5   -202102.78148  23404965.94948
  20971315.281 6     15088.941 6     11748.43449  20971312.90649
  23126378.484 5     79166.965 5     51781.87947  23126379.16047
  21209856.648 6     95742.926 6     66640.57448  21209853.24648
  24117314.047 4   -162419.801 4   -114169.55548  24117311.89548
  22683580.039 6   -170466.098 6   -127761.70347  22683576.22347
  23745784.875 5   -243296.174 5   -167904.58646  23745781.75046
  21703246.461 6   -141104.039 6    -98845.93449  21703246.25049
 20  5 16  5 14 52.0000000  0  9G01G03G07G08G11G17G22G28G30          0.000187424
  20181149.781 7    -25997.270 7    -18740.30549  20181150.04749
  23404279.242 4   -306977.027 4   -204909.54748  23404280.58648
  20971362.438 6     15335.590 6     11940.62949  20971359.51649
  23126565.719 5     80153.625 5     52550.69147  23126567.25447
  21210069.477 6     96858.969 6     67510.21948  21210065.56348
  24116872.898 4   -164735.336 4   -115973.86748  24116871.18848
  22683127.945 6   -172844.844 6   -129615.27047  22683123.57847
  23745137.836 5   -246698.730 5   -170555.93446  23745134.08646
  21702916.141 6   -142839.363 6   -100198.13349  21702915.85249
 20  5 16  5 14 53.0000000  0  9G01G03G07G08G11G17G22G28G30          0.000186867
  20181096.570 7    -26276.824 7    -18958.14549  20181096.97349
  23403593.672 5   -310578.984 5   -207716.26648  23403595.34448
  20971409.242 6     15582.871 6     12133.32049  20971406.75449
  23126754.117 5     81140.262 5     53319.50047  23126754.98847
  21210282.047 6     97975.285 6     68380.07448  21210278.03548
  24116432.063 4   -167050.766 4   -117778.09848  24116430.55148
  22682675.227 6   -175223.191 6   -131468.53147  22682670.97347
  23744489.625 5   -250101.316 5   -173207.31346  23744486.90646
  21702586.023 6   -144574.066 6   -101549.85549  21702585.68849
 20  5 16  5 14 54.0000000  0  9G01G03G07G08G11G17G22G28G30          0.000186308
  20181043.438 7    -26555.945 7    -19175.63749  20181043.58649
  23402907.844 5   -314181.063 5   -210523.07448  23402909.73448
  20971456.391 6     15830.543 6     12326.30949  20971453.69549
  23126941.828 5     82126.660 5     54088.11747  23126942.70747
  21210494.211 6     99091.672 6     69249.98048  21210490.85948
  24115991.469 4   -169366.258 4   -119582.37148  24115989.79748
  22682222.242 6   -177601.375 6   -133321.65647  22682218.22747
  23743842.688 5   -253504.188 5   -175858.89846  23743839.11346
  21702255.820 6   -146308.371 6   -102901.26649  21702255.74249
 20  5 16  5 14 55.0000000  0  9G01G03G07G08G11G17G22G28G30          0.000185749
  20180990.500 7    -26834.414 7    -19392.62149  20180990.71549
  23402222.523 5   -317783.070 5   -213329.83248  23402224.27048
  20971503.820 6     16078.809 6     12519.76249  20971500.91049
  23127129.516 5     83113.000 5     54856.69547  23127130.32847
  21210706.438 6    100208.305 6     70120.07848  21210702.72748
  24115550.914 4   -171681.648 4   -121386.57448  24115549.28148
  22681770.172 6   -179979.215 6   -135174.52047  22681766.16447
  23743194.453 5   -256907.164 5   -178510.56646  23743191.69946
  21701926.172 6   -148042.035 6   -104252.17249  21701925.57049
 20  5 16  5 14 56.0000000  0  9G01G03G07G08G11G17G22G28G30          0.000185192
  20180937.422 7    -27112.336 7    -19609.18849  20180937.83249
  23401536.680 5   -321385.105 5   -216136.60248  23401538.96948
  20971551.078 6     16327.590 6     12713.60949  20971548.27049
  23127317.320 5     84099.207 5     55625.17647  23127317.67647
  21210919.656 6    101325.145 6     70990.34848  21210915.66848
  24115110.422 4   -173997.012 4   -123190.75448  24115108.83648
  22681317.539 6   -182356.746 6   -137027.14147  22681313.73047
  23742547.258 5   -260310.289 5   -181162.35246  23742544.03546
  21701596.234 6   -149775.215 6   -105602.70349  21701596.09449
 20  5 16  5 14 57.0000000  0  9G01G03G07G08G11G17G22G28G30          0.000184633
  20180884.633 7    -27389.883 7    -19825.46149  20180884.77749
  23400851.539 4   -324987.355 4   -218943.55548  23400853.09448
  20971598.750 6     16576.703 6     12907.72749  20971595.87149
  23127505.102 5     85085.129 5     56393.42647  23127505.31347
  21211131.758 6    102441.961 6     71860.59048  21211128.34848
  24114669.633 4   -176312.520 4   -124995.04748  24114668.05548
  22680864.961 6   -184734.180 6   -138879.68847  22680860.89147
  23741899.281 5   -263713.770 5   -183814.41846  23741896.45746
  21701266.656 6   -151508.035 6   -106952.94949  21701266.12149
 20  5 16  5 14 58.0000000  0  9G01G03G07G08G11G17G22G28G30          0.000184074
  20180831.898 7    -27666.898 7    -20041.31349  20180832.05149
  23400165.969 5   -328589.637 5   -221750.53148  23400168.02048
  20971645.836 6     16826.324 6     13102.23449  20971643.16849
  23127692.742 5     86070.863 5     57161.52747  23127693.22747
  21211344.195 6    103558.926 6     72730.95748  21211340.32048
  24114229.008 4   -178628.059 4   -126799.36348  24114227.54348
  22680412.922 6   -187111.379 6   -140732.05147  22680408.64547
  23741251.438 5   -267117.457 5   -186466.62546  23741248.64146
  21700937.219 6   -153240.367 6   -108302.82049  21700936.35549
 20  5 16  5 14 59.0000000  0  9G01G03G07G08G11G17G22G28G30          0.000183516
  20180779.430 7    -27943.301 7    -20256.68849  20180779.38349
  23399480.508 5   -332191.887 5   -224557.46548  23399482.53148
  20971693.523 6     17076.484 6     13297.15649  20971690.68049
  23127880.180 5     87056.523 5     57929.55947  23127880.35247
  21211556.805 6    104676.117 6     73601.49648  21211553.23848
  24113788.828 4   -180943.449 4   -128603.56348  24113786.67248
  22679960.250 6   -189488.215 6   -142584.12947  22679956.70747
  23740604.242 5   -270521.281 5   -189118.95346  23740601.27046
  21700607.289 6   -154972.109 6   -109652.23449  21700606.91049
 20  5 16  5 15  0.0000000  0  9G01G03G07G08G11G17G22G28G30          0.000182957
  20180726.922 7    -28219.105 7    -20471.60249  20180727.27349
  23398795.133 5   -335794.102 5   -227364.38348  23398797.02348
  20971741.586 6     17327.223 6     13492.53949  20971738.44149
  23128067.453 5     88042.137 5     58697.56347  23128068.06647
  21211769.445 6    105793.574 6     74472.23848  21211766.01248
  24113347.977 4   -183258.781 4   -130407.71948  24113346.29348
  22679507.930 6   -191864.688 6   -144435.92247  22679504.48447
  23739956.328 5   -273925.199 5   -191771.35246  23739953.23846
  21700278.016 6   -156703.266 6   -111001.18449  21700277.77349
 20  5 16  5 15  1.0000000  0  9G01G03G07G08G11G17G22G28G30          0.000182398
  20180674.375 7    -28494.230 7    -20685.98449  20180674.77749
  23398109.313 5   -339396.195 5   -230171.20748  23398111.28148
  20971789.102 6     17578.598 6     13688.41449  20971786.12549
  23128255.555 5     89027.656 5     59465.48046  23128255.62546
  21211982.414 6    106911.289 6     75343.18048  21211978.83648
  24112907.547 4   -185573.977 4   -132211.76248  24112906.10548
  22679055.688 6   -194240.816 6   -146287.46947  22679051.93047
  23739308.648 5   -277329.176 5   -194423.80546  23739305.16446
  21699948.602 6   -158433.805 6   -112349.65649  21699948.06649
 20  5 16  5 15  2.0000000  0  9G01G03G07G08G11G17G22G28G30          0.000181839
  20180622.422 7    -28768.805 7    -20899.94549  20180622.37149
  23397424.375 4   -342998.359 4   -232978.08648  23397425.85248
  20971837.078 6     17830.453 6     13884.66449  20971834.45749
  23128442.758 5     90013.074 5     60233.34046  23128442.77346
  21212195.078 6    108029.164 6     76214.24648  21212191.34448
  24112467.266 4   -187889.156 4   -134015.80548  24112465.18848
  22678603.633 6   -196616.664 6   -148138.77747  22678599.94547
  23738660.570 5   -280733.352 5   -197076.41046  23738657.53546
  21699619.625 6   -160163.848 6   -113697.74249  21699619.01249
 20  5 16  5 15  3.0000000  0  9G01G03G07G08G11G17G22G28G30          0.000181280
  20180570.094 7    -29042.793 7    -21113.43449  20180570.48049
  23396738.539 4   -346600.469 4   -235784.92248  23396740.17648
  20971885.078 6     18082.875 6     14081.35949  20971882.20749
  23128630.461 4     90998.313 4     61001.06346  23128630.57046
  21212408.039 6    109147.262 6     77085.48448  21212404.07848
  24112026.133 5   -190204.336 5   -135819.84448  24112025.19548
  22678151.227 6   -198992.215 6   -149989.85947  22678148.10247
  23738012.547 5   -284137.648 5   -199729.13346  23738009.50846
  21699290.508 6   -161893.297 6   -115045.36349  21699290.07449
 20  5 16  5 15  4.0000000  0  9G01G03G07G08G11G17G22G28G30          0.000180721
  20180518.094 7    -29316.141 7    -21326.43049  20180518.29349
  23396053.156 5   -350202.551 5   -238591.74648  23396055.27348
  20971933.250 7     18335.859 7     14278.48449  20971930.39549
  23128817.508 5     91983.539 5     61768.77346  23128817.97346
  21212620.797 6    110265.590 6     77956.92647  21212616.65247
  24111585.734 4   -192519.273 4   -137623.68848  24111584.23048
  22677699.891 5   -201367.387 5   -151840.61347  22677696.30147
  23737364.953 5   -287542.121 5   -202382.00446  23737361.85946
  21698961.336 6   -163622.199 6   -116392.56649  21698961.18049
 20  5 16  5 15  5.0000000  0  9G01G03G07G08G11G17G22G28G30          0.000180162
  20180466.367 7    -29588.691 7    -21538.81349  20180466.87949
  23395367.641 5   -353804.434 5   -241398.40248  23395369.49248
  20971981.594 6     18589.586 6     14476.19149  20971979.03149
  23129005.633 5     92968.879 5     62536.56646  23129005.64546
  21212833.852 6    111384.332 6     78828.68047  21212829.25847
  24111145.906 5   -194834.098 5   -139427.45748  24111143.60948
  22677247.438 5   -203742.031 5   -153690.96547  22677244.42247
  23736716.898 5   -290946.516 5   -205034.80546  23736713.59446
  21698632.180 6   -165350.359 6   -117739.20349  21698631.91849
 20  5 16  5 15  6.0000000  0  9G01G03G07G08G11G17G22G28G30          0.000179604
  20180414.555 7    -29860.633 7    -21750.71549  20180414.87949
  23394682.250 4   -357406.199 4   -244204.95348  23394684.20348
  20972030.430 7     18843.902 7     14674.35249  20972027.28549
  23129193.023 2     93954.152 2     63304.31646  23129192.96946
  21213047.313 6    112503.340 6     79700.64847  21213042.48447
  24110705.188 4   -197148.730 4   -141231.07048  24110703.17248
  22676796.008 6   -206116.371 6   -155541.11347  22676792.59447
  23736069.023 5   -294350.922 5   -207687.59846  23736065.98446
  21698303.344 6   -167077.898 6   -119085.34849  21698303.50849
 20  5 16  5 15  7.0000000  0  9G01G03G07G08G11G17G22G28G30          0.000179045
  20180362.828 7    -30131.840 7    -21962.03549  20180363.12949
  23393996.555 3   -361007.840 3   -247011.40647  23393998.65247
  20972078.570 6     19098.918 6     14873.06649  20972075.53149
  23129380.281 2     94939.484 2     64072.14546  23129380.86746
  21213259.242 6    113622.660 6     80572.85547  21213255.38347
  24110264.398 5   -199463.195 5   -143034.54748  24110262.84048
  22676344.203 6   -208490.234 6   -157390.88747  22676340.43047
  23735422.078 5   -297755.422 5   -210340.45346  23735418.22346
  21697975.297 6   -168804.734 6   -120430.92649  21697974.71149
 20  5 16  5 15  8.0000000  0  9G01G03G07G08G11G17G22G28G30          0.000178486
  20180311.266 7    -30402.348 7    -22172.82049  20180311.59449
  23393311.289 4   -364609.344 4   -249817.77048  23393313.42248
  20972127.070 7     19354.633 7     15072.32849  20972123.99649
  23129567.945 3     95924.801 3     64839.92246  23129568.10546
  21213472.156 6    114742.309 6     81445.30947  21213468.73047
  24109824.398 5   -201777.409 5   -144837.83748  24109822.32448
  22675892.688 6   -210863.617 6   -159240.27747  22675888.93447
  23734773.977 5   -301159.840 5   -212993.22746  23734770.37546
  21697646.453 6   -170530.871 6   -121775.96149  21697646.40249
 20  5 16  5 15  9.0000000  0  9G01G03G07G08G11G17G22G28G30          0.000177929
  20180260.203 7    -30672.195 7    -22383.08249  20180260.30549
  23392626.680 4   -368210.762 4   -252624.07848  23392627.91448
  20972175.555 6     19610.895 6     15272.01249  20972173.10949
  23129754.484 2     96910.059 2     65607.64846  23129755.78946
  21213685.453 6    115862.297 6     82318.02347  21213681.94947
  24109383.781 5   -204091.648 5   -146641.14848  24109382.21948
  22675441.023 6   -213236.652 6   -161089.40647  22675437.30947
  23734126.492 5   -304564.438 5   -215646.12146  23734122.62546
  21697318.148 6   -172256.453 6   -123120.55549  21697318.13749
 20  5 16  5 15 10.0000000  0  9G01G03G07G08G11G17G22G28G30          0.000177370
  20180208.875 7    -30941.133 7    -22592.66049  20180208.65649
  23391941.148 4   -371811.902 4   -255430.14848  23391943.03548
  20972224.430 6     19867.996 6     15472.36349  20972222.12549
  23129942.141 2     97895.445 2     66375.46146  23129943.35246
  21213898.453 6    116982.715 6     83191.05947  21213894.70347
  24108943.102 4   -206405.500 4   -148444.14548  24108941.74248
  22674989.227 6   -215609.082 6   -162938.05947  22674986.16047
  23733477.734 5   -307968.855 5   -218298.89846  23733474.73046
  21696989.734 6   -173981.160 6   -124464.47749  21696990.10949
 20  5 16  5 15 11.0000000  0  9G01G03G07G08G11G17G22G28G30          0.000176811
  20180157.734 7    -31209.441 7    -22801.73849  20180158.02049
  23391256.391 4   -375412.922 4   -258236.10948  23391257.92648
  20972274.055 6     20125.734 6     15673.21149  20972271.14849
  23130130.063 3     98880.871 3     67143.32446  23130130.83246
  21214112.102 6    118103.422 6     84064.31647  21214107.74247
  24108503.078 4   -208719.141 4   -150246.96148  24108501.70348
  22674538.258 6   -217981.137 6   -164786.40247  22674534.41047
  23732830.172 5   -311373.297 5   -220951.71946  23732826.96146
  21696662.063 6   -175705.246 6   -125807.91049  21696661.91449
 20  5 16  5 15 12.0000000  0  9G01G03G07G08G11G17G22G28G30          0.000176252
  20180107.102 7    -31477.074 7    -23010.28949  20180107.23049
  23390570.945 4   -379013.859 4   -261042.03548  23390572.37148
  20972322.875 6     20384.102 6     15874.53949  20972320.16849
  23130317.500 3     99866.355 3     67911.21946  23130318.41846
  21214325.578 6    119224.434 6     84937.82847  21214321.58647
  24108062.594 4   -211032.664 4   -152049.69148  24108061.28948
  22674087.063 6   -220352.789 6   -166634.43047  22674083.78947
  23732182.273 4   -314777.820 4   -223604.58246  23732179.31346
  21696333.609 6   -177428.672 6   -127150.84449  21696333.82449
 20  5 16  5 15 13.0000000  0  9G01G03G07G08G11G17G22G28G30          0.000175694
  20180055.836 7    -31743.961 7    -23218.25049  20180056.52049
  23389885.125 5   -382614.609 5   -263847.84048  23389887.45348
  20972372.203 6     20643.176 6     16076.41049  20972369.24649
  23130505.352 3    100851.828 3     68679.12146  23130505.91046
  21214538.758 6    120345.773 6     85811.60947  21214535.17247
  24107622.859 5   -213345.961 5   -153852.25848  24107621.21148
  22673635.680 5   -222723.977 5   -168482.07847  22673632.11747
  23731534.586 5   -318182.324 5   -226257.44146  23731531.60246
  21696006.078 6   -179151.395 6   -128493.23449  21696005.65649
 20  5 16  5 15 14.0000000  0  9G01G03G07G08G11G17G22G28G30          0.000175135
  20180005.313 7    -32009.984 7    -23425.53949  20180005.81649
  23389200.328 5   -386215.086 5   -266653.42648  23389201.99648
  20972421.758 6     20903.059 6     16278.90249  20972418.49649
  23130692.766 3    101837.508 3     69447.18046  23130693.03146
  21214752.688 6    121467.621 6     86685.77747  21214748.68047
  24107183.039 5   -215658.895 5   -155654.55548  24107180.68048
  22673184.375 6   -225094.555 6   -170329.27347  22673181.34447
  23730886.883 5   -321586.680 5   -228910.20746  23730884.08646
  21695678.102 6   -180873.293 6   -129834.99649  21695678.37149
 20  5 16  5 15 15.0000000  0  9G01G03G07G08G11G17G22G28G30          0.000174578
  20179955.102 7    -32275.281 7    -23632.25849  20179955.35949
  23388514.719 5   -389815.398 5   -269458.87148  23388516.87948
  20972471.656 6     21163.590 6     16481.90649  20972468.27349
  23130881.047 2    102823.137 2     70215.20746  23130880.76246
  21214966.188 6    122589.844 6     87560.23847  21214962.21147
  24106742.430 4   -217971.746 4   -157456.78948  24106740.59048
  22672733.664 6   -227464.688 6   -172176.14547  22672729.93447
  23730238.508 5   -324991.074 5   -231562.98046  23730235.90646
  21695351.148 6   -182594.523 6   -131176.21949  21695350.79349
 20  5 16  5 15 16.0000000  0  9G01G03G07G08G11G17G22G28G30          0.000174019
  20179904.727 7    -32539.953 7    -23838.50049  20179904.97749
  23387830.172 5   -393415.664 5   -272264.23048  23387832.14548
  20972521.195 6     21424.750 6     16685.41049  20972518.25449
  23131067.852 2    103808.707 2     70983.16846  23131068.23846
  21215179.578 6    123712.281 6     88434.85547  21215175.95747
  24106301.922 3   -220284.383 3   -159258.82448  24106300.59448
  22672282.797 6   -229834.430 6   -174022.72747  22672278.90247
  23729590.914 4   -328395.523 4   -234215.81346  23729588.10546
  21695022.938 6   -184315.148 6   -132516.95749  21695023.69549
 20  5 16  5 15 17.0000000  0  9G01G03G07G08G11G17G22G28G30          0.000173460
  20179854.289 7    -32803.914 7    -24044.18849  20179854.73849
  23387145.664 5   -397015.793 5   -275069.52347  23387147.04347
  20972571.063 6     21686.578 6     16889.43449  20972568.19149
  23131254.859 3    104794.324 3     71751.19546  23131255.90646
  21215393.516 6    124835.066 6     89309.75447  21215389.25447
  24105861.680 4   -222596.813 4   -161060.72848  24105860.65248
  22671831.969 6   -232203.785 6   -175869.00047  22671828.35947
  23728943.953 3   -331800.031 3   -236868.60945  23728940.32445
  21694695.680 6   -186035.098 6   -133857.16449  21694696.41049
 20  5 16  5 15 18.0000000  0  9G01G03G07G08G11G17G22G28G30          0.000172903
  20179804.195 7    -33067.109 7    -24249.27349  20179804.68849
  23386459.938 4   -400615.672 4   -277874.61347  23386461.67247
  20972620.734 6     21949.109 6     17094.00849  20972618.11749
  23131443.406 3    105780.043 3     72519.32046  23131443.44946
  21215607.125 6    125958.188 6     90184.91047  21215603.11347
  24105422.563 3   -224909.129 3   -162862.52748  24105420.47348
  22671381.305 6   -234572.633 6   -177714.85947  22671377.47747
  23728296.281 3   -335204.430 3   -239521.30945  23728293.23445
  21694368.445 6   -187754.313 6   -135196.80549  21694369.21549
 20  5 16  5 15 19.0000000  0  9G01G03G07G08G11G17G22G28G30          0.000172344
  20179754.508 7    -33329.754 7    -24453.93449  20179754.64849
  23385774.789 5   -404215.641 5   -280679.78148  23385776.33248
  20972670.813 6     22212.160 6     17298.98049  20972667.79749
  23131631.281 2    106765.555 2     73287.27746  23131631.15246
  21215821.117 6    127081.500 6     91060.21947  21215817.10947
  24104982.375 4   -227221.348 4   -164664.25048  24104980.50448
  22670930.594 6   -236941.199 6   -179560.49247  22670926.86347
  23727648.219 4   -338609.074 4   -242174.25845  23727645.19545
  21694042.117 6   -189472.980 6   -136536.02349  21694042.10549
 20  5 16  5 15 20.0000000  0  9G01G03G07G08G11G17G22G28G30          0.000171785
  20179704.227 7    -33591.598 7    -24657.96149  20179704.66849
  23385090.023 5   -407815.355 5   -283484.75847  23385091.78547
  20972721.219 6     22475.945 6     17504.53149  20972717.88749
  23131818.656 3    107751.215 3     74055.32046  23131818.34846
  21216034.281 6    128205.219 6     91935.84447  21216030.44947
  24104542.539 4   -229533.324 4   -166465.77748  24104540.66048
  22670479.969 6   -239309.262 6   -181405.73047  22670475.82847
  23727000.492 3   -342013.625 3   -244827.12945  23726997.28945
  21693714.664 6   -191190.961 6   -137874.70749  21693715.12949
 20  5 16  5 15 21.0000000  0  9G01G03G07G08G11G17G22G28G30          0.000171228
  20179654.953 7    -33852.766 7    -24861.47349  20179654.74249
  23384405.648 4   -411414.949 4   -286289.62948  23384406.50448
  20972770.906 6     22740.391 6     17710.59849  20972768.45349
  23132006.289 2    108736.957 2     74823.41846  23132006.55546
  21216248.938 6    129329.297 6     92811.75447  21216244.60947
  24104102.516 4   -231845.121 4   -168267.18048  24104100.85548
  22670029.844 6   -241676.852 6   -183250.60947  22670025.70747
  23726352.805 3   -345418.207 3   -247480.03945  23726349.27345
  21693387.992 6   -192908.203 6   -139212.80949  21693388.19949
 20  5 16  5 15 22.0000000  0  9G01G03G07G08G11G17G22G28G30          0.000170670
  20179605.281 7    -34113.215 7    -25064.42649  20179605.35549
  23383720.539 5   -415014.434 5   -289094.42248  23383722.27348
  20972821.766 6     23005.496 6     17917.17249  20972819.03149
  23132193.672 2    109722.582 2     75591.43446  23132193.76246
  21216462.219 6    130453.641 6     93687.86747  21216458.65647
  24103662.930 4   -234156.738 4   -170068.44548  24103660.83648
  22669578.625 6   -244044.078 6   -185095.21147  22669575.14147
  23725705.688 3   -348822.871 3   -250133.07445  23725701.52345
  21693061.250 6   -194624.816 6   -140550.42649  21693061.83249
 20  5 16  5 15 23.0000000  0  9G01G03G07G08G11G17G22G28G30          0.000170113
  20179556.203 7    -34372.965 7    -25266.83249  20179556.19549
  23383035.406 5   -418613.770 5   -291899.10548  23383036.80148
  20972872.445 6     23271.242 6     18124.24249  20972869.91849
  23132381.414 2    110708.273 2     76359.50446  23132381.95346
  21216676.969 6    131578.305 6     94564.23447  21216672.60247
  24103223.328 5   -236468.199 5   -171869.58248  24103221.54348
  22669128.164 6   -246410.852 6   -186939.44948  22669124.65248
  23725057.242 4   -352227.480 4                
  21692734.977 6   -196340.785 6   -141887.53949  21692735.19149
 20  5 16  5 15 24.0000000  0  9G01G03G07G08G11G17G22G28G30          0.000169554
  20179506.539 7    -34632.137 7    -25468.77749  20179507.01249
  23382350.555 4   -422213.141 4   -294703.80147  23382351.50847
  20972923.023 6     23537.539 6     18331.75449  20972920.56349
  23132568.930 2    111693.902 2     77127.53145  23132569.25445
  21216890.180 6    132703.207 6     95440.77747  21216886.63747
  24102783.359 4   -238779.605 4   -173670.68448  24102781.19948
  22668677.672 6   -248777.309 6   -188783.43847  22668673.97747
  23724409.430 4   -355632.254 4                
  21692408.430 6   -198056.180 6   -143224.20749  21692408.29749
 20  5 16  5 15 25.0000000  0  9G01G03G07G08G11G17G22G28G30          0.000168995
  20179457.391 7    -34890.492 7    -25670.09449  20179457.84449
  23381665.297 5   -425812.219 5   -297508.26648  23381667.28548
  20972974.109 6     23804.594 6     18539.84849  20972971.08649
  23132756.867 2    112679.586 2     77895.59845  23132756.60545
  21217104.891 6    133828.508 6     96317.64147  21217100.50447
  24102343.438 4   -241090.727 4   -175471.56348  24102341.55148
  22668227.461 6   -251143.238 6   -190627.01247  22668223.78947
  23723761.125 4   -359036.965 4                
  21692081.852 6   -199770.781 6   -144560.26249  21692082.44949
 20  5 16  5 15 26.0000000  0  9G01G03G07G08G11G17G22G28G30          0.000168438
  20179408.469 7    -35148.102 7    -25870.82849  20179408.66449
  23380979.797 4   -429411.148 4   -300312.62148  23380981.87548
  20973025.031 6     24072.352 6     18748.48449  20973022.11349
  23132943.484 2    113665.305 2     78663.68845  23132944.44545
  21217318.508 6    134954.176 6     97194.78147  21217315.15247
  24101903.508 4   -243401.645 4   -177272.28148  24101901.78548
  22667777.445 6   -253508.699 6   -192470.22747  22667773.57447
  23723113.219 4   -362441.637 4                
  21691755.828 6   -201484.711 6   -145895.78949  21691756.16049
 20  5 16  5 15 27.0000000  0  9G01G03G07G08G11G17G22G28G30          0.000167879
  20179359.102 7    -35405.051 7    -26071.05549  20179359.68849
  23380296.219 4   -433009.949 4   -303116.87948  23380297.41848
  20973076.352 6     24340.734 6     18957.61349  20973072.96949
  23133131.422 2    114651.117 2     79431.86345  23133131.65245
  21217533.070 6    136080.152 6     98072.15247  21217529.40647
  24101463.305 4   -245712.402 4   -179072.86748  24101461.78948
  22667327.352 6   -255873.742 6   -194313.11747  22667323.91047
  23722465.516 4   -365846.422 4                
  21691429.813 6   -203197.988 6   -147230.82049  21691430.01649
 20  5 16  5 15 28.0000000  0  9G01G03G07G08G11G17G22G28G30          0.000167322
  20179310.617 7    -35661.332 7    -26270.74649  20179311.19149
  23379610.266 4   -436608.695 4   -305921.09048  23379612.66448
  20973127.328 6     24609.750 6     19167.23449  20973124.39549
  23133319.453 3    115636.824 3     80199.93445  23133319.46145
  21217747.195 6    137206.395 6     98949.74647  21217743.61347
  24101024.180 4   -248023.051 4   -180873.37148  24101022.51648
  22666877.672 6   -258238.414 6   -196155.71147  22666873.71947
  23721817.563 4   -369251.191 4                
  21691104.469 6   -204910.621 6   -148565.34049  21691104.66849
 20  5 16  5 15 29.0000000  0  9G01G03G07G08G11G17G22G28G30          0.000166763
  20179261.836 7    -35916.813 7    -26469.82849  20179262.44149
  23378926.047 5   -440207.185 5   -308725.11148  23378927.59448
  20973178.617 6     24879.523 6     19377.44149  20973175.92249
  23133507.141 2    116622.648 2     80968.09845  23133507.05545
  21217961.227 6    138333.055 6     99827.65647  21217958.18447
  24100584.047 4   -250333.383 4   -182673.63348  24100582.92648
  22666427.695 6   -260602.516 6   -197997.86347  22666423.73047
  23721168.672 4   -372655.914 4                
  21690778.531 6   -206622.484 6   -149899.25049  21690778.99249
 20  5 16  5 15 30.0000000  0  9G01G03G07G08G11G17G22G28G30          0.000166206
  20179213.570 7    -36171.645 7    -26668.39849  20179213.84849
  23378241.328 5   -443805.570 5   -311529.04348  23378242.92248
  20973230.313 6     25149.910 6     19588.13349  20973226.99249
  23133694.133 2    117608.398 2     81736.20745  23133694.85945
  21218176.008 6    139459.973 6    100705.77747  21218172.55547
  24100144.383 4   -252643.582 4   -184473.78948  24100143.15248
  22665977.773 6   -262966.266 6   -199839.75047  22665973.81347
  23720521.305 4   -376060.727 4                
  21690452.805 6   -208333.703 6   -151232.66449  21690452.95749
 20  5 16  5 15 31.0000000  0  9G01G03G07G08G11G17G22G28G30          0.000165648
  20179165.273 7    -36425.762 7    -26866.40649  20179165.59449
  23377556.398 5   -447403.855 5   -314332.90648  23377558.39548
  20973281.594 6     25420.938 6     19799.32049  20973278.68849
  23133882.125 3    118594.289 3     82504.42245  23133882.34845
  21218390.758 6    140587.258 6    101584.17647  21218387.02747
  24099704.914 4   -254953.656 4   -186273.84048  24099703.48448
  22665527.977 5   -265329.602 5   -201681.29747  22665523.98447
  23719873.047 2   -379465.535 2                
  21690126.836 5   -210044.289 5   -152565.60949  21690127.50849
 20  5 16  5 15 32.0000000  0  9G01G03G07G08G11G17G22G28G30          0.000165091
  20179116.703 7    -36679.262 7    -27063.93849  20179117.25049
  23376872.133 5   -451002.055 5   -317136.71148  23376873.62148
  20973333.328 6     25692.578 6     20010.97349  20973330.12949
  23134068.914 2    119579.996 2     83272.49246  23134069.90246
  21218605.336 6    141714.746 6    102462.73447  21218601.99647
  24099265.352 4   -257263.582 4   -188073.77048  24099264.08248
  22665078.719 6   -267692.547 6   -203522.53147  22665074.69947
  23719225.031 2   -382870.449 2                
  21689801.766 6   -211754.258 6   -153898.07449  21689802.07449
 20  5 16  5 15 33.0000000  0  9G01G03G07G08G11G17G22G28G30          0.000164532
  20179068.547 7    -36932.105 7    -27260.95349  20179069.17649
  23376187.117 5   -454600.230 5   -319940.47748  23376188.69948
  20973385.250 6     25964.781 6     20223.07449  20973382.22749
  23134257.813 3    120565.637 3     84040.51645  23134257.55945
  21218820.414 6    142842.516 6    103341.51247  21218816.44147
  24098826.219 4   -259573.414 4   -189873.62948  24098824.67648
  22664629.109 6   -270055.133 6   -205363.50047  22664625.07447
  23718577.375 3   -386275.461 3                
  21689476.570 6   -213463.641 6   -155230.07849  21689476.78949
 20  5 16  5 15 34.0000000  0  9G01G03G07G08G11G17G22G28G30          0.000163975
  20179020.648 7    -37184.348 7    -27457.50449  20179020.99649
  23375503.328 5   -458198.313 5   -322744.16448  23375504.32448
  20973436.773 6     26237.574 6     20435.64549  20973434.05949
  23134444.508 5    121551.234 5     84808.52046  23134445.27346
  21219034.766 6    143970.469 6    104220.44147  21219030.75447
  24098386.313 5   -261883.160 5   -191673.43448  24098384.48048
  22664179.648 6   -272417.344 6   -207204.19547  22664175.77347
  23717929.523 1   -389680.496 1                
  21689151.023 6   -215172.461 6   -156561.60949  21689152.05149
 20  5 16  5 15 35.0000000  0  9G01G03G07G08G11G17G22G28G30          0.000163416
  20178972.883 7    -37435.945 7    -27653.55549  20178973.11749
  23374818.086 5   -461796.352 5   -325547.83248  23374819.48048
  20973488.633 6     26510.969 6     20648.67649  20973486.07049
  23134631.984 5    122536.781 5     85576.46546  23134632.60546
  21219249.102 6    145098.711 6    105099.59447  21219245.44547
  24097946.781 5   -264192.789 5   -193473.16448  24097944.98448
  22663730.133 6   -274779.203 6   -209044.62947  22663725.80947
  23717283.219 1   -393085.742 1                
  21688826.047 6   -216880.625 6   -157892.62548  21688826.95748
 20  5 16  5 15 36.0000000  0  9G01G03G07G08G11G17G22G28G30          0.000162859
  20178925.234 7    -37686.785 7    -27849.01649  20178925.74649
  23374133.227 5   -465394.168 5   -328351.32847  23374134.60247
  20973540.742 6     26785.074 6     20862.27049  20973538.22349
  23134819.305 5    123522.395 5     86344.46546  23134820.32846
  21219463.859 6    146227.352 6    105979.05547  21219460.25847
  24097507.547 5   -266502.168 5   -195272.69148  24097505.66048
  22663281.047 6   -277140.594 6   -210884.68847  22663276.79347
  23716634.031 1   -396490.930 1                
  21688501.609 5   -218588.113 5   -159223.12148  21688501.46548
 20  5 16  5 15 37.0000000  0  9G01G03G07G08G11G17G22G28G30          0.000162302
  20178877.430 7    -37936.855 7    -28043.87949  20178877.59049
  23373448.414 4   -468991.770 4   -331154.64847  23373449.85547
  20973593.172 6     27059.887 6     21076.40249  20973590.39849
  23135006.859 4    124508.090 4     87112.53946  23135007.57046
  21219678.938 6    147356.375 6    106858.80547  21219674.84047
  24097068.164 5   -268811.328 5   -197072.03548  24097066.92648
  22662831.500 6   -279501.465 6   -212724.33647  22662827.39847
  23715985.828 3   -399896.125 3                
  21688176.922 6   -220294.848 6   -160553.04749  21688176.82849
 20  5 16  5 15 38.0000000  0  9G01G03G07G08G11G17G22G28G30          0.000161743
  20178830.086 7    -38186.250 7    -28238.21149  20178830.55149
  23372764.148 4   -472589.316 4   -333957.91847  23372765.55547
  20973645.445 6     27335.371 6     21291.06649  20973642.83649
  23135194.219 4    125493.813 4     87880.63746  23135195.11746
  21219893.719 6    148485.680 6    107738.78147  21219889.76247
  24096628.203 5   -271120.316 5   -198871.24248  24096627.03548
  22662382.250 6   -281861.945 6   -214563.67247  22662378.23447
  23715338.414 1   -403301.238 1                
  21687851.641 6   -222000.910 6   -161882.44549  21687852.21949
 20  5 16  5 15 39.0000000  0  9G01G03G07G08G11G17G22G28G30          0.000161186
  20178782.945 7    -38434.824 7    -28431.91449  20178783.30549
  23372079.391 5   -476186.602 5   -336760.98448  23372080.68848
  20973698.563 6     27611.574 6     21506.28949  20973695.48849
  23135382.680 4    126479.605 4     88648.80146  23135382.83646
  21220108.742 6    149615.395 6    108619.08247  21220104.78147
  24096188.766 5   -273429.051 5   -200670.25848  24096187.47748
  22661932.961 6   -284221.863 6   -216402.57047  22661929.07847
  23714690.211 2   -406706.375 2                
  21687527.688 6   -223706.223 6   -163211.27049  21687527.50049
 20  5 16  5 15 40.0000000  0  9G01G03G07G08G11G17G22G28G30          0.000160629
  20178735.992 7    -38682.645 7    -28625.02049  20178736.20749
  23371395.305 5   -479783.672 5   -339563.88748  23371396.70348
  20973751.492 6     27888.496 6     21722.07449  20973748.03549
  23135569.328 5    127465.477 5     89417.02046  23135570.48046
  21220324.031 6    150745.512 6    109499.68847  21220320.09447
  24095749.641 5   -275737.582 5   -202469.10948  24095748.50448
  22661484.031 6   -286581.328 6   -218241.10947  22661480.43847
  23714041.992 1   -410111.418 1                
  21687203.078 6   -225410.805 6   -164539.52048  21687203.16448
 20  5 16  5 15 41.0000000  0  9G01G03G07G08G11G17G22G28G30          0.000160070
  20178688.742 7    -38929.813 7    -28817.61749  20178688.85249
  23370710.625 5   -483380.695 5   -342366.76248  23370711.84048
  20973804.047 6     28166.051 6     21938.35249  20973800.90249
  23135757.188 5    128451.316 5     90185.20746  23135757.94146
  21220538.961 6    151875.902 6    110380.51647  21220535.24647
  24095310.898 5   -278045.945 5   -204267.84048  24095309.29348
  22661035.070 6   -288940.387 6   -220079.33647  22661031.32847
  23713394.219 1   -413516.660 1                
  21686878.961 5   -227114.777 5   -165867.27348  21686878.71148
 20  5 16  5 15 42.0000000  0  9G01G03G07G08G11G17G22G28G30          0.000159513
  20178641.859 7    -39176.441 7    -29009.79749  20178642.34849
  23370026.484 5   -486977.703 5   -345169.62548  23370027.20748
  20973856.906 6     28444.098 6     22155.01649  20973853.60549
  23135945.391 5    129437.063 5     90953.30546  23135945.75846
  21220754.180 6    153006.430 6    111261.44147  21220750.46147
  24094871.680 4   -280354.297 4   -206066.55548  24094870.05948
  22660586.820 6   -291299.176 6   -221917.34447  22660582.60247
  23712744.969 1   -416921.910 1                
  21686554.836 6   -228818.234 6   -167194.64848  21686554.84448
 20  5 16  5 15 43.0000000  0  9G01G03G07G08G11G17G22G28G30          0.000158955
  20178594.633 7    -39422.340 7    -29201.40649  20178595.48849
  23369341.289 5   -490574.590 5   -347972.39847  23369343.00447
  20973909.945 6     28722.828 6     22372.20349  20973906.89149
  23136132.211 5    130422.770 5     91721.39146  23136133.44146
  21220968.961 6    154137.336 6    112142.66447  21220965.46947
  24094431.813 5   -282662.503 5   -207865.15848  24094430.76248
  22660137.367 6   -293657.512 6   -223755.01247  22660133.93047
  23712097.617 1   -420327.293 1                
  21686230.797 6   -230520.992 6   -168521.46948  21686230.85248
 20  5 16  5 15 44.0000000  0  9G01G03G07G08G11G17G22G28G30          0.000158398
  20178548.367 7    -39667.594 7    -29392.51249  20178549.22749
  23368657.031 5   -494171.340 5   -350775.05948  23368658.21948
  20973963.313 6     29002.156 6     22589.85549  20973959.95749
  23136319.914 4    131408.512 4     92489.49246  23136320.77346
  21221184.641 6    155268.480 6    113024.07047  21221180.73447
  24093992.758 4   -284970.457 4   -209663.55948  24093991.52348
  22659689.188 6   -296015.449 6   -225592.36747  22659685.18847
  23711449.617 1   -423732.668 1                
  21685906.508 6   -232223.133 6   -169847.80948  21685906.81348
 20  5 16  5 15 45.0000000  0  9G01G03G07G08G11G17G22G28G30          0.000157841
  20178501.617 7    -39912.180 7    -29583.09449  20178501.87949
  23367972.531 5   -497768.039 5   -353577.70348  23367973.80148
  20974016.391 6     29282.145 6     22808.02349  20974013.07849
  23136507.375 5    132394.281 5     93257.64146  23136508.60946
  21221399.891 6    156399.906 6    113905.71147  21221396.44147
  24093553.867 4   -287278.313 4   -211461.87948  24093552.22748
  22659239.813 6   -298373.043 6   -227429.44947  22659236.08247
  23710800.984 5   -427138.043 5                
  21685582.422 6   -233924.559 6   -171173.62149  21685582.59849
 20  5 16  5 15 46.0000000  0  9G01G03G07G08G11G17G22G28G30          0.000157282
  20178455.344 7    -40156.066 7    -29773.14149  20178455.34449
  23367287.773 5   -501364.574 5   -356380.23448  23367289.66448
  20974069.523 6     29562.762 6     23026.66449  20974066.79749
  23136695.703 5    133379.973 5     94025.70346  23136695.76246
  21221615.328 6    157531.699 6    114787.62948  21221611.53948
  24093114.477 4   -289586.059 4   -213260.10948  24093113.40248
  22658791.539 6   -300730.133 6   -229266.11747  22658787.87947
  23710152.938 5   -430543.520 5                
  21685259.266 6   -235625.379 6   -172498.96549  21685259.43449
 20  5 16  5 15 47.0000000  0  9G01G03G07G08G11G17G22G28G30          0.000156725
  20178409.195 7    -40399.270 7    -29962.64849  20178409.37549
  23366603.570 5   -504961.016 5   -359182.67648  23366605.05948
  20974123.375 6     29843.973 6     23245.79349  20974120.51249
  23136883.102 5    134365.645 5     94793.76247  23136883.59447
  21221830.539 6    158663.711 6    115669.71548  21221826.49248
  24092675.328 4   -291893.594 4   -215058.17648  24092674.23048
  22658342.703 6   -303086.855 6   -231102.51647  22658339.25847
  23709505.508 5   -433949.066 5                
  21684936.117 6   -237325.578 6   -173823.81349  21684935.69949
 20  5 16  5 15 48.0000000  0  9G01G03G07G08G11G17G22G28G30          0.000156168
  20178362.984 7    -40641.820 7    -30151.64849  20178363.28549
  23365919.688 4   -508557.359 4   -361985.02348  23365920.76648
  20974177.109 6     30125.863 6     23465.44149  20974173.84849
  23137070.719 5    135351.301 5     95561.80547  23137071.19947
  21222045.820 6    159796.047 6    116552.04748  21222042.36748
  24092236.547 4   -294201.066 4   -216856.19948  24092235.00848
  22657894.836 6   -305443.176 6   -232938.61347  22657891.54347
  23708857.047 5   -437354.648 5                
  21684612.164 6   -239025.133 6   -175148.14549  21684612.39849
 20  5 16  5 15 49.0000000  0  9G01G03G07G08G11G17G22G28G30          0.000155609
  20178317.008 7    -40883.707 7    -30340.13349  20178317.03549
  23365234.672 5   -512153.637 5   -364787.32448  23365236.27748
  20974230.570 7     30408.320 7     23685.54349  20974227.60949
  23137258.070 5    136336.898 5     96329.80147  23137258.50447
  21222261.555 6    160928.605 6    117434.55948  21222257.87948
  24091797.609 4   -296508.387 4   -218654.12148  24091795.78548
  22657446.695 6   -307799.105 6   -234774.40247  22657442.92247
  23708208.773 5   -440760.305 5                
  21684289.008 6   -240724.059 6   -176471.97349  21684289.04349
 20  5 16  5 15 50.0000000  0  9G01G03G07G08G11G17G22G28G30          0.000155052
  20178271.375 7    -41124.789 7    -30527.99249  20178271.26249
  23364549.789 5   -515749.617 5   -367589.37948  23364551.91048
  20974284.727 6     30691.559 6     23906.25049  20974281.68449
  23137445.945 5    137322.648 5     97097.91447  23137445.99647
  21222477.203 6    162061.605 6    118317.41448  21222473.33248
  24091358.547 4   -298815.395 4   -220451.78948  24091356.87548
  22656998.922 6   -310154.508 6   -236609.78147  22656994.75847
  23707560.617 5   -444165.879 5                
  21683965.945 6   -242422.223 6   -177795.21149  21683965.60249
 20  5 16  5 15 51.0000000  0  9G01G03G07G08G11G17G22G28G30          0.000154495
  20178225.500 7    -41365.277 7    -30715.39149  20178225.36349
  23363866.547 5   -519345.664 5   -370391.48448  23363868.19148
  20974338.477 6     30975.355 6     24127.39149  20974335.84449
  23137633.102 5    138308.289 5     97865.94147  23137633.14847
  21222692.516 6    163194.844 6    119200.45748  21222688.90248
  24090919.023 4   -301122.363 4   -222249.43048  24090917.78148
  22656550.156 6   -312509.566 6   -238444.89547  22656546.21547
  23706912.523 5   -447571.590 5                
  21683642.648 6   -244119.781 6   -179117.98049  21683642.65249
 20  5 16  5 15 52.0000000  0  9G01G03G07G08G11G17G22G28G30          0.000153938
  20178179.836 7    -41605.137 7    -30902.29349  20178179.64149
  23363181.984 5   -522941.555 5   -373193.46548  23363183.78948
  20974392.539 7     31259.723 7     24348.97749  20974389.24249
  23137820.883 5    139293.867 5     98633.92647  23137820.67647
  21222908.289 6    164328.324 6    120083.68448  21222904.61748
  24090480.445 4   -303429.215 4   -224046.98048  24090478.84848
  22656102.086 6   -314864.270 6   -240279.72747  22656098.25847
  23706264.750 5   -450977.406 5                
  21683319.773 6   -245816.797 6   -180440.32849  21683319.85549
 20  5 16  5 15 53.0000000  0  9G01G03G07G08G11G17G22G28G30          0.000153379
  20178134.141 7    -41844.293 7    -31088.64849  20178134.28149
  23362497.906 5   -526537.387 5   -375995.39848  23362499.55148
  20974446.914 7     31544.754 7     24571.07449  20974443.87949
  23138008.922 5    140279.445 5     99401.91047  23138008.92247
  21223124.383 6    165462.090 6    120967.14148  21223120.58648
  24090041.836 4   -305735.914 4   -225844.40648  24090039.79348
  22655654.313 6   -317218.523 6   -242114.21147  22655650.09847
  23705616.953 5   -454383.246 5                
  21682996.516 6   -247513.152 6   -181762.16449  21682996.52049
 20  5 16  5 15 54.0000000  0  9G01G03G07G08G11G17G22G28G30          0.000152822
  20178088.734 7    -42082.785 7    -31274.48449  20178089.33249
  23361813.773 5   -530133.092 5   -378797.24148  23361815.12148
  20974501.336 7     31830.395 7     24793.65249  20974498.30949
  23138195.742 5    141265.008 5    100169.87547  23138196.14147
  21223340.313 6    166596.164 6    121850.84048  21223335.96548
  24089602.063 4   -308042.441 4   -227641.69548  24089601.24648
  22655206.023 6   -319572.422 6   -243948.41447  22655202.30147
  23704968.734 5   -457789.137 5                
  21682674.195 6   -249208.844 6   -183083.47749  21682674.55149
 20  5 16  5 15 55.0000000  0  9G01G03G07G08G11G17G22G28G30          0.000152266
  20178043.242 7    -42320.594 7    -31459.78549  20178043.77349
  23361129.609 5   -533728.641 5   -381598.97348  23361130.71948
  20974555.750 7     32116.672 7     25016.71949  20974552.80149
  23138383.648 5    142250.566 5    100937.85247  23138383.63747
  21223556.344 6    167730.535 6    122734.75848  21223551.99248
  24089163.766 4   -310348.867 4   -229438.91848  24089161.98848
  22654757.945 6   -321925.898 6   -245782.29347  22654754.39847
  23704320.492 5   -461195.090 5                
  21682351.805 6   -250903.930 6   -184404.32849  21682351.55149
 20  5 16  5 15 56.0000000  0  9G01G03G07G08G11G17G22G28G30          0.000151707
  20177998.359 7    -42557.566 7    -31644.44149  20177998.15249
  23360445.102 5   -537323.938 5   -384400.51248  23360446.57848
  20974610.461 7     32403.750 7     25240.41449  20974607.47749
  23138570.469 5    143236.293 5    101705.94547  23138571.17247
  21223771.875 6    168865.375 6    123619.05148  21223767.84048
  24088725.359 4   -312654.949 4   -231235.86348  24088723.20748
  22654310.508 6   -324278.773 6   -247615.69947  22654306.80947
  23703672.594 6   -464600.887 6   -252255.78956  23703663.63356
  21682028.953 6   -252598.156 6   -185724.50449  21682029.64849
 20  5 16  5 15 57.0000000  0  9G01G03G07G08G11G17G22G28G30          0.000151150
  20177953.313 7    -42793.871 7    -31828.57049  20177953.36749
  23359761.109 5   -540919.117 5   -387201.96148  23359762.66048
  20974664.891 7     32691.473 7     25464.61349  20974662.25849
  23138758.133 5    144222.008 5    102474.03147  23138758.60947
  21223987.742 6    170000.484 6    124503.55148  21223983.81648
  24088285.797 4   -314960.875 4   -233032.68048  24088284.53948
  22653862.961 6   -326631.262 6   -249448.80547  22653858.82047
  23703024.641 6   -468006.766 6   -254909.73047  23703016.28147
  21681707.430 6   -254291.723 6   -187044.17249  21681706.94149
 20  5 16  5 15 58.0000000  0  9G01G03G07G08G11G17G22G28G30          0.000150593
  20177908.344 7    -43029.422 7    -32012.11349  20177908.81349
  23359077.086 5   -544514.156 5   -390003.28148  23359078.64848
  20974720.055 7     32979.867 7     25689.33649  20974717.08649
  23138946.383 5    145207.754 5    103242.15247  23138946.04347
  21224203.992 6    171135.973 6    125388.34448  21224200.25448
  24087846.797 4   -317266.621 4   -234829.36348  24087845.81348
  22653415.672 6   -328983.262 6   -251281.52747  22653411.55947
  23702376.680 5   -471412.613 5   -257563.64547  23702368.96147
  21681384.969 6   -255984.605 6   -188363.30149  21681384.54749
 20  5 16  5 15 59.0000000  0  9G01G03G07G08G11G17G22G28G30          0.000150036
  20177863.797 7    -43264.430 7    -32195.23449  20177864.13749
  23358393.211 5   -548109.188 5   -392804.60248  23358394.69948
  20974774.688 7     33268.770 7     25914.45349  20974772.03149
  23139133.070 5    146193.375 5    104010.16847  23139133.55547
  21224420.125 6    172271.617 6    126273.26248  21224416.58648
  24087408.594 4   -319572.309 4   -236626.00448  24087407.11748
  22652967.609 6   -331335.004 6   -253114.04747  22652964.09847
  23701727.805 5   -474818.629 5   -260217.69146  23701720.99246
  21681063.070 6   -257676.969 6   -189682.02749  21681063.07449
 20  5 16  5 16  0.0000000  0  9G01G03G07G08G11G17G22G28G30          0.000149479
  20177819.383 7    -43498.660 7    -32377.75849  20177819.15249
  23357708.984 5   -551704.012 5   -395605.75848  23357710.22748
  20974830.156 6     33558.414 6     26140.15249  20974827.32849
  23139321.133 5    147179.086 5    104778.25447  23139321.43047
  21224636.227 6    173407.648 6    127158.48448  21224632.23048
  24086970.398 4   -321877.805 4   -238422.49648  24086968.41848
  22652520.328 6   -333686.223 6   -254946.16047  22652516.34047
  23701079.898 5   -478224.629 5   -262871.71947  23701073.34447
  21680741.313 6   -259368.613 6   -191000.19549  21680741.13749
 20  5 16  5 16  1.0000000  0  9G01G03G07G08G11G17G22G28G30          0.000148922
  20177774.914 7    -43732.172 7    -32559.71149  20177775.04349
  23357024.773 5   -555298.680 5   -398406.78948  23357026.35248
  20974885.461 6     33848.719 6     26366.35949  20974882.62949
  23139507.984 5    148164.789 5    105546.32047  23139509.25847
  21224852.719 6    174544.000 6    128043.94948  21224848.52748
  24086531.445 4   -324183.039 4   -240218.77748  24086529.55148
  22652072.719 6   -336036.992 6   -256777.93447  22652069.02347
  23700431.594 5   -481630.613 5   -265525.72747  23700425.60247
  21680419.664 6   -261059.555 6   -192317.81649  21680419.53549
 20  5 16  5 16  2.0000000  0  9G01G03G07G08G11G17G22G28G30          0.000148365
  20177730.609 7    -43965.039 7    -32741.17249  20177730.65249
  23356340.430 5   -558893.246 5   -401207.76248  23356342.13348
  20974940.859 6     34139.637 6     26593.04749  20974938.16849
  23139696.188 5    149150.480 5    106314.39847  23139696.40247
  21225068.672 6    175680.676 6    128929.67248  21225064.49648
  24086092.844 4   -326488.254 4   -242015.04748  24086090.96548
  22651625.820 6   -338387.367 6   -258609.39547  22651621.79347
  23699783.742 5   -485036.668 5   -268179.79747  23699778.10247
  21680097.508 6   -262749.883 6   -193634.94949  21680097.53549
 20  5 16  5 16  3.0000000  0  9G01G03G07G08G11G17G22G28G30          0.000147806
  20177686.398 7    -44197.379 7    -32922.21949  20177686.39849
  23355656.617 5   -562487.887 5   -404008.77348  23355658.30148
  20974996.141 6     34431.051 6     26820.12549  20974992.95349
  23139883.547 5    150136.023 5    107082.35547  23139884.24647
  21225285.258 6    176817.465 6    129815.47748  21225281.47748
  24085654.250 4   -328793.348 4   -243811.22348  24085651.79348
  22651178.648 6   -340737.492 6   -260440.66847  22651174.69547
  23699135.523 5   -488442.914 5   -270834.02046  23699129.78946
  21679776.625 6   -264439.684 6   -194951.68049  21679776.10549
 20  5 16  5 16  4.0000000  0  9G01G03G07G08G11G17G22G28G30          0.000147249
  20177642.117 7    -44428.953 7    -33102.66849  20177642.41049
  23354972.727 5   -566082.313 5   -406809.61748  23354974.60948
  20975051.898 6     34723.148 6     27047.72349  20975048.97349
  23140071.359 5    151121.641 5    107850.36347  23140071.80547
  21225501.586 6    177954.633 6    130701.57847  21225497.89547
  24085215.641 4   -331098.254 4   -245607.25448  24085213.25048
  22650731.852 6   -343087.137 6   -262271.55547  22650727.42247
  23698486.953 5   -491849.125 5   -273488.21146  23698481.75446
  21679454.633 6   -266128.809 6   -196267.87949  21679454.55549
 20  5 16  5 16  5.0000000  0  9G01G03G07G08G11G17G22G28G30          0.000146692
  20177598.320 7    -44659.918 7    -33282.63749  20177598.65249
  23354288.711 5   -569676.672 5   -409610.41048  23354290.53948
  20975107.570 6     35015.840 6     27275.79749  20975104.44549
  23140259.156 5    152107.137 5    108618.27747  23140259.18047
  21225717.578 6    179092.020 6    131587.85948  21225713.86748
  24084776.906 4   -333403.120 4   -247403.25648  24084775.20348
  22650284.539 6   -345436.414 6   -264102.16847  22650280.16047
  23697838.836 5   -495255.461 5   -276142.49647  23697833.94947
  21679133.445 6   -267817.328 6   -197583.60949  21679133.51649
 20  5 16  5 16  6.0000000  0  9G01G03G07G08G11G17G22G28G30          0.000146135
  20177554.383 7    -44890.172 7    -33462.06349  20177554.46549
  23353605.031 5   -573270.930 5   -412411.12948  23353606.35548
  20975163.398 6     35309.191 6     27504.37949  20975160.28949
  23140446.633 5    153092.625 5    109386.19547  23140446.66447
  21225934.477 6    180229.742 6    132474.39548  21225930.71148
  24084338.344 4   -335707.719 4   -249199.05148  24084336.68048
  22649837.555 6   -347785.281 6   -265932.44147  22649833.27747
  23697190.602 5   -498661.809 5   -278796.78947  23697185.98847
  21678812.305 6   -269505.133 6   -198898.77749  21678811.92649
 20  5 16  5 16  7.0000000  0  9G01G03G07G08G11G17G22G28G30          0.000145578
  20177510.844 7    -45119.719 7    -33640.92249  20177510.86749
  23352920.695 5   -576865.020 5   -415211.71948  23352922.48848
  20975219.656 6     35603.180 6     27733.46149  20975216.25049
  23140633.406 5    154078.188 5    110154.16847  23140633.96147
  21226151.164 6    181367.801 6    133361.19148  21226147.06348
  24083899.719 4   -338012.152 4   -250994.71148  24083897.99248
  22649390.789 6   -350133.676 6   -267762.35947  22649386.43047
  23696542.797 5   -502068.180 5   -281451.10546  23696538.26646
  21678490.852 6   -271192.324 6   -200213.47749  21678491.14549
 20  5 16  5 16  8.0000000  0  9G01G03G07G08G11G17G22G28G30          0.000145021
  20177467.438 7    -45348.535 7    -33819.22349  20177467.52049
  23352236.578 5   -580458.941 5   -418012.17648  23352238.45748
  20975275.578 6     35897.902 6     27963.11749  20975272.34049
  23140821.438 5    155063.766 5    110922.15247  23140821.77347
  21226367.672 6    182506.188 6    134248.25048  21226363.44148
  24083461.234 4   -340316.434 4   -252790.25448  24083459.51248
  22648943.813 6   -352481.613 6   -269591.92247  22648939.71147
  23695894.656 5   -505474.520 5   -284105.38346  23695889.94146
  21678170.633 6   -272878.754 6   -201527.57849  21678170.60549
 20  5 16  5 16  9.0000000  0  9G01G03G07G08G11G17G22G28G30          0.000144464
  20177423.742 7    -45576.805 7    -33997.09049  20177423.92249
  23351552.734 5   -584052.887 5   -420812.64848  23351554.67648
  20975331.742 6     36193.082 6     28193.12949  20975328.57449
  23141009.117 5    156049.184 5    111690.00847  23141009.50447
  21226584.398 6    183644.742 6    135135.42648  21226580.40248
  24083022.375 4   -342620.664 4   -254585.75448  24083021.11348
  22648497.008 6   -354829.266 6   -271421.26647  22648493.11747
  23695246.219 5   -508881.063 5   -286759.84046  23695241.62946
  21677849.578 6   -274564.734 6   -202841.33249  21677849.24249
 20  5 16  5 16 10.0000000  0  9G01G03G07G08G11G17G22G28G30          0.000143906
  20177380.430 7    -45804.359 7    -34174.40649  20177380.75849
  23350868.586 5   -587646.668 5   -423612.99248  23350870.95748
  20975387.891 6     36488.957 6     28423.67649  20975384.98049
  23141196.984 5    157034.676 5    112457.92647  23141196.73447
  21226800.688 6    184783.668 6    136022.90648  21226796.76648
  24082584.070 4   -344924.738 4   -256381.13748  24082582.45748
  22648050.273 6   -357176.445 6   -273250.23447  22648046.33247
  23694597.820 5   -512287.590 5   -289414.28546  23694593.55546
  21677529.117 6   -276250.000 6   -204154.52349  21677529.14549
 20  5 16  5 16 11.0000000  0  9G01G03G07G08G11G17G22G28G30          0.000143349
  20177337.375 7    -46031.180 7    -34351.15249  20177336.81649
  23350184.797 5   -591240.277 5   -426413.20748  23350187.00048
  20975444.281 6     36785.520 6     28654.76249  20975441.18049
  23141384.367 5    158020.227 5    113225.88747  23141384.53547
  21227017.641 6    185922.914 6    136910.63348  21227013.87548
  24082145.453 4   -347228.574 4   -258176.33648  24082144.11348
  22647603.680 6   -359523.172 6   -275078.85547  22647599.90247
  23693949.313 5   -515694.105 5   -292068.71546  23693945.18046
  21677208.297 6   -277934.555 6   -205467.16049  21677207.96549
 20  5 16  5 16 12.0000000  0  9G01G03G07G08G11G17G22G28G30          0.000142792
  20177294.297 7    -46257.395 7    -34527.42649  20177294.07849
  23349500.844 5   -594833.828 5   -429213.37548  23349502.95748
  20975500.844 7     37082.645 7     28886.29349  20975497.91049
  23141571.469 5    159005.684 5    113993.77747  23141571.87547
  21227234.727 6    187062.398 6    137798.53948  21227230.80548
  24081707.695 4   -349532.301 4   -259971.44148  24081705.70348
  22647156.703 6   -361869.547 6   -276907.19547  22647153.23447
  23693301.016 5   -519100.750 5   -294723.24646  23693297.52746
  21676887.633 6   -279618.508 6   -206779.32849  21676887.50849
 20  5 16  5 16 13.0000000  0  9G01G03G07G08G11G17G22G28G30          0.000142235
  20177251.102 7    -46483.016 7    -34703.23049  20177251.54349
  23348817.414 5   -598427.367 5   -432013.53548  23348819.46548
  20975557.391 6     37380.332 6     29118.25049  20975554.64549
  23141759.516 5    159991.074 5    114761.60247  23141759.55947
  21227451.430 6    188202.074 6    138686.59848  21227447.66448
  24081268.648 4   -351836.004 4   -261766.53148  24081267.26248
  22646710.641 6   -364215.578 6   -278735.27047  22646706.84847
  23692652.844 5   -522507.488 5   -297377.85246  23692649.52746
  21676567.195 6   -281301.930 6   -208091.08249  21676567.34049
 20  5 16  5 16 14.0000000  0  9G01G03G07G08G11G17G22G28G30          0.000141678
  20177208.609 7    -46707.844 7    -34878.42249  20177208.54349
  23348133.586 5   -602020.660 5   -434813.50048  23348135.28548
  20975614.508 6     37678.738 6     29350.77349  20975611.56649
  23141946.750 5    160976.508 5    115529.46547  23141947.15247
  21227668.469 6    189342.156 6    139574.96948  21227664.42248
  24080830.484 4   -354139.422 4   -263561.39848  24080829.19548
  22646264.664 6   -366561.090 6   -280562.93847  22646260.88347
  23692004.203 5   -525914.180 5   -300032.40247  23692000.71147
  21676247.250 6   -282984.582 6   -209402.24649  21676247.35249
 20  5 16  5 16 15.0000000  0  9G01G03G07G08G11G17G22G28G30          0.000141121
  20177166.016 7    -46931.891 7    -35053.00449  20177166.26649
  23347449.797 5   -605613.723 5   -437613.28548  23347451.52748
  20975671.016 6     37977.875 6     29583.87149  20975667.92649
  23142134.117 5    161962.082 5    116297.43847  23142134.44547
  21227885.594 6    190482.684 6    140463.69548  21227881.57048
  24080391.992 4   -356442.617 4   -265356.09848  24080390.50448
  22645818.508 6   -368906.078 6   -282390.19947  22645814.25847
  23691356.023 5   -529320.809 5   -302686.91046  23691352.72346
  21675927.000 6   -284666.465 6   -210712.80949  21675926.76649
 20  5 16  5 16 16.0000000  0  9G01G03G07G08G11G17G22G28G30          0.000140564
  20177123.344 7    -47155.336 7    -35227.11749  20177123.38749
  23346766.422 5   -609206.820 5   -440413.10248  23346768.00448
  20975728.086 7     38277.590 7     29817.40649  20975725.08249
  23142321.617 5    162947.566 5    117065.34847  23142322.39547
  21228102.688 6    191623.387 6    141352.55148  21228098.76648
  24079954.563 4   -358745.707 4   -267150.70748  24079952.35948
  22645371.984 6   -371250.750 6   -284217.21547  22645368.17247
  23690708.211 5   -532727.582 5   -305341.54746  23690704.19946
  21675607.078 6   -286347.785 6   -212022.93849  21675607.07049
 20  5 16  5 16 17.0000000  0  9G01G03G07G08G11G17G22G28G30          0.000140007
  20177081.219 7    -47378.176 7    -35400.76249  20177081.08249
  23346082.344 5   -612799.805 5   -443212.82848  23346084.29748
  20975785.367 7     38577.867 7     30051.39149  20975782.34049
  23142509.266 5    163932.953 5    117833.18447  23142509.93847
  21228319.508 6    192764.277 6    142241.55148  21228315.55948
  24079515.945 4   -361048.727 4   -268945.27348  24079514.28948
  22644926.164 6   -373595.078 6   -286043.96547  22644921.97747
  23690059.414 5   -536134.457 5   -307996.26246  23690056.26646
  21675287.453 6   -288028.570 6   -213332.63349  21675287.29749
 20  5 16  5 16 18.0000000  0  9G01G03G07G08G11G17G22G28G30          0.000139450
  20177038.563 7    -47600.336 7    -35573.87149  20177038.86749
  23345398.852 5   -616392.672 5   -446012.46548  23345399.99248
  20975842.859 7     38878.758 7     30285.85249  20975839.37149
  23142696.141 5    164918.340 5    118601.01647  23142696.71547
  21228536.875 6    193905.488 6    143130.81348  21228532.75448
  24079077.273 4   -363351.625 4   -270739.73848  24079075.98048
  22644479.680 6   -375938.992 6   -287870.39547  22644475.90247
  23689410.734 5   -539541.387 5   -310651.02347  23689407.72347
  21674967.688 6   -289708.656 6   -214641.79349  21674967.54749
 20  5 16  5 16 19.0000000  0  9G01G03G07G08G11G17G22G28G30          0.000138893
  20176996.641 7    -47821.793 7    -35746.44149  20176996.97349
  23344715.563 5   -619985.465 5   -448812.02748  23344716.78148
  20975899.781 6     39180.293 6     30520.81349  20975897.44949
  23142884.492 5    165903.723 5    119368.85547  23142885.12947
  21228753.961 6    195046.988 6    144020.29348  21228750.08248
  24078638.992 4   -365654.332 4   -272534.05948  24078637.69548
  22644033.672 6   -378282.473 6   -289696.48047  22644030.06647
  23688762.813 5   -542948.332 5   -313305.78546  23688759.16846
  21674648.570 6   -291388.109 6   -215950.45749  21674648.28949
 20  5 16  5 16 20.0000000  0  9G01G03G07G08G11G17G22G28G30          0.000138336
  20176954.609 7    -48042.566 7    -35918.46949  20176954.70349
  23344031.930 5   -623578.074 5   -451611.45748  23344033.10248
  20975957.375 6     39482.496 6     30756.29349  20975954.62549
  23143072.016 5    166889.082 5    120136.66847  23143072.22347
  21228971.086 6    196188.797 6    144910.00848  21228967.55548
  24078200.914 4   -367956.891 4   -274328.25848  24078199.57848
  22643587.539 6   -380625.574 6   -291522.27347  22643584.38347
  23688114.289 5   -546355.344 5   -315960.59446  23688111.10546
  21674329.070 6   -293066.863 6   -217258.57849  21674328.61749
 20  5 16  5 16 21.0000000  0  9G01G03G07G08G11G17G22G28G30          0.000137779
  20176912.688 7    -48262.770 7    -36090.05549  20176912.90249
  23343347.906 5   -627170.707 5   -454410.91848  23343349.28148
  20976015.023 6     39785.195 6     30992.16049  20976012.09449
  23143259.234 5    167874.316 5    120904.37947  23143259.66447
  21229188.695 6    197330.805 6    145799.88748  21229184.92648
  24077763.570 4   -370259.379 4   -276122.40548  24077761.53948
  22643142.023 6   -382968.309 6   -293347.78547  22643138.80147
  23687465.891 5   -549762.488 5   -318615.51246  23687462.64146
  21674009.367 6   -294745.094 6   -218566.29249  21674009.28149
 20  5 16  5 16 22.0000000  0  9G01G03G07G08G11G17G22G28G30          0.000137222
  20176871.016 7    -48482.309 7    -36261.12949  20176870.87149
  23342664.023 5   -630763.242 5   -457210.28948  23342665.96948
  20976073.031 6     40088.512 6     31228.50849  20976069.59049
  23143446.625 5    168859.559 5    121672.09847  23143447.48047
  21229405.977 6    198473.094 6    146689.97748  21229402.12548
  24077325.156 4   -372561.793 4   -277916.48848  24077323.77348
  22642696.578 6   -385310.684 6   -295173.01247  22642693.01247
  23686818.156 5   -553169.707 5   -321270.48046  23686814.64846
  21673690.047 6   -296422.719 6   -219873.52749  21673689.86749
 20  5 16  5 16 23.0000000  0  9G01G03G07G08G11G17G22G28G30          0.000136665
  20176829.234 7    -48701.176 7    -36431.67249  20176829.71549
  23341980.969 5   -634355.613 5   -460009.53948  23341982.50048
  20976130.617 6     40392.508 6     31465.38749  20976127.64149
  23143633.961 5    169844.773 5    122439.79347  23143634.80947
  21229623.555 6    199615.699 6    147580.32048  21229619.24248
  24076886.781 4   -374864.000 4   -279710.41448  24076885.28148
  22642250.836 6   -387652.621 6   -296997.89147  22642247.39547
  23686168.914 5   -556576.945 5   -323925.47346  23686165.97346
  21673371.133 6   -298099.695 6   -221180.26649  21673370.75049
 20  5 16  5 16 24.0000000  0  9G01G03G07G08G11G17G22G28G30          0.000136108
  20176787.773 7    -48919.262 7    -36601.61349  20176787.53549
  23341296.797 5   -637947.785 5   -462808.64148  23341298.48448
  20976188.906 6     40697.219 6     31702.82849  20976185.85949
  23143822.547 5    170830.113 5    123207.59047  23143822.77347
  21229841.102 6    200758.703 6    148470.97348  21229837.09448
  24076449.414 4   -377165.917 4   -281504.12248  24076447.32048
  22641805.133 6   -389994.043 6   -298822.37547  22641801.78547
  23685520.828 5   -559984.105 5   -326580.39846  23685517.60546
  21673051.742 6   -299775.875 6   -222486.38349  21673051.94149
 20  5 16  5 16 25.0000000  0  9G01G03G07G08G11G17G22G28G30          0.000135551
  20176746.367 7    -49136.664 7    -36771.02049  20176746.35549
  23340613.523 5   -641539.840 5   -465607.64548  23340615.23448
  20976246.773 6     41002.535 6     31940.73049  20976244.02349
  23144009.109 5    171815.367 5    123975.31647  23144009.82847
  21230058.016 6    201901.957 6    149361.81648  21230054.91448
  24076011.359 5   -379467.801 5   -283297.79348  24076009.03148
  22641359.836 6   -392335.078 6   -300646.55947  22641356.42247
  23684872.852 5   -563391.363 5   -329235.40246  23684869.42246
  21672733.156 6   -301451.453 6   -223792.02749  21672733.12549
 20  5 16  5 16 26.0000000  0  9G01G03G07G08G11G17G22G28G30          0.000134995
  20176704.875 7    -49353.336 7    -36939.84849  20176704.84449
  23339930.336 5   -645131.742 5   -468406.53148  23339931.71948
  20976304.922 6     41308.586 6     32179.21549  20976301.94149
  23144196.688 5    172800.742 5    124743.14547  23144197.69547
  21230276.039 6    203045.582 6    150252.94947  21230272.23447
  24075572.484 4   -381769.398 4   -285091.24648  24075571.35948
  22640914.742 6   -394675.621 6   -302470.35547  22640910.53547
  23684224.313 5   -566798.578 5   -331890.36746  23684220.71546
  21672414.531 6   -303126.305 6   -225097.10549  21672414.04349
 20  5 16  5 16 27.0000000  0  9G01G03G07G08G11G17G22G28G30          0.000134438
  20176664.039 7    -49569.441 7    -37108.23849  20176664.00049
  23339246.469 5   -648723.637 5   -471205.41448  23339248.43848
  20976363.508 6     41615.125 6     32418.07049  20976360.59049
  23144384.453 5    173785.980 5    125510.85546  23144384.82846
  21230494.453 6    204189.406 6    151144.24647  21230490.37147
  24075135.359 4   -384070.957 4   -286884.66848  24075133.25048
  22640469.375 6   -397015.863 6   -304293.92247  22640465.39147
  23683575.789 5   -570205.934 5   -334545.46946  23683572.69946
  21672095.750 6   -304800.633 6   -226401.77349  21672095.91449
 20  5 16  5 16 28.0000000  0  9G01G03G07G08G11G17G22G28G30          0.000133881
  20176623.039 7    -49784.867 7    -37276.10949  20176622.82449
  23338562.742 5   -652315.383 5   -474004.17648  23338564.47748
  20976421.914 6     41922.324 6     32657.44949  20976419.07849
  23144571.891 5    174771.188 5    126278.54347  23144572.31347
  21230711.961 6    205333.535 6    152035.77348  21230707.96148
  24074696.891 4   -386372.395 4   -288678.00048  24074695.21548
  22640023.641 6   -399355.676 6   -306117.15647  22640020.47747
  23682927.922 5   -573613.336 5   -337200.59846  23682924.11346
  21671776.953 6   -306474.281 6   -227705.91849  21671777.43049
 20  5 16  5 16 29.0000000  0  9G01G03G07G08G11G17G22G28G30          0.000133324
  20176582.148 7    -49999.563 7    -37443.40649  20176582.07049
  23337879.641 5   -655906.992 5   -476802.84048  23337881.09848
  20976480.602 6     42230.172 6     32897.32449  20976477.62149
  23144759.234 5    175756.449 5    127046.27747  23144759.42247
  21230929.813 6    206477.973 6    152927.54348  21230925.95748
  24074258.664 4   -388673.613 4   -290471.15248  24074256.98848
  22639579.500 6   -401695.051 6   -307940.04747  22639574.84447
  23682279.070 5   -577020.754 5   -339855.72346  23682275.87546
  21671458.680 6   -308147.262 6   -229009.53949  21671458.85549
 20  5 16  5 16 30.0000000  0  9G01G03G07G08G11G17G22G28G30          0.000132767
  20176541.461 7    -50213.574 7    -37610.16449  20176541.49249
  23337196.227 5   -659498.441 5   -479601.36348  23337197.59448
  20976539.031 6     42538.691 6     33137.73049  20976536.14549
  23144946.781 5    176741.672 5    127813.98847  23144947.57447
  21231147.297 6    207622.746 6    153819.57048  21231143.51248
  24073821.117 4   -390974.676 4   -292264.18448  24073819.49248
  22639133.617 6   -404033.992 6   -309762.59447  22639129.79347
  23681631.266 5   -580428.195 5   -342510.86746  23681627.81346
  21671140.375 6   -309819.578 6   -230312.64549  21671140.43449
 20  5 16  5 16 31.0000000  0  9G01G03G07G08G11G17G22G28G30          0.000132210
  20176500.484 7    -50426.953 7    -37776.43449  20176500.28149
  23336512.922 5   -663089.820 5   -482399.83648  23336514.65248
  20976597.719 6     42847.805 6     33378.59849  20976594.85949
  23145134.180 5    177726.859 5    128581.66847  23145134.91447
  21231365.633 6    208767.777 6    154711.80148  21231361.91048
  24073383.398 4   -393275.617 4   -294057.12948  24073381.32448
  22638688.625 6   -406372.523 6   -311584.83247  22638684.75047
  23680982.297 5   -583835.691 5   -345166.03946  23680978.97746
  21670822.867 6   -311491.289 6   -231615.28149  21670822.57049
 20  5 16  5 16 32.0000000  0  9G01G03G07G08G11G17G22G28G30          0.000131653
  20176460.398 7    -50639.563 7    -37942.10549  20176460.52049
  23335829.719 5   -666681.031 5   -485198.18048  23335831.32048
  20976656.750 6     43157.605 6     33619.99649  20976653.67649
  23145321.133 5    178712.125 5    129349.40647  23145322.39547
  21231583.234 6    209913.152 6    155604.29348  21231579.25848
  24072945.469 5   -395576.340 5   -295849.89548  24072943.46548
  22638243.281 6   -408710.633 6   -313406.73047  22638240.02047
  23680333.672 5   -587243.234 5   -347821.27046  23680330.19946
  21670504.313 6   -313162.273 6   -232917.34449  21670504.41049
 20  5 16  5 16 33.0000000  0  9G01G03G07G08G11G17G22G28G30          0.000131096
  20176419.930 7    -50851.520 7    -38107.26249  20176420.25849
  23335145.867 5   -670272.137 5   -487996.43848  23335147.90648
  20976715.930 6     43468.031 6     33861.88749  20976712.90649
  23145509.023 5    179697.383 5    130117.13747  23145509.92247
  21231801.164 6    211058.820 6    156497.02748  21231797.46548
  24072507.758 5   -397876.906 5   -297642.54348  24072506.10548
  22637798.930 6   -411048.313 6   -315228.29747  22637795.17247
  23679685.859 5   -590650.773 5   -350476.49246  23679682.34846
  21670186.922 6   -314832.609 6   -234218.91049  21670186.76249
 20  5 16  5 16 34.0000000  0  9G01G03G07G08G11G17G22G28G30          0.000130539
  20176379.609 7    -51062.938 7    -38272.00849  20176379.78949
  23334462.797 5   -673863.219 5   -490794.67248  23334464.37148
  20976775.063 6     43778.980 6     34104.18449  20976771.83649
  23145696.219 5    180682.473 5    130884.73047  23145697.24247
  21232019.414 6    212204.672 6    157389.90248  21232015.07848
  24072069.961 4   -400177.484 4   -299435.20348  24072068.09048
  22637354.273 6   -413385.688 6   -317049.62947  22637350.21947
  23679036.625 5   -594058.480 5   -353131.85946  23679033.53546
  21669869.055 6   -316502.434 6   -235520.07449  21669869.04749
 20  5 16  5 16 35.0000000  0  9G01G03G07G08G11G17G22G28G30          0.000129982
  20176339.734 7    -51273.664 7    -38436.20749  20176339.54749
  23333779.219 5   -677454.195 5   -493592.84048  23333780.71548
  20976834.414 6     44090.547 6     34346.95749  20976831.46949
  23145884.375 5    181667.582 5    131652.34447  23145884.65247
  21232237.078 6    213350.801 6    158282.98848  21232233.58648
  24071631.617 5   -402477.855 5   -301227.69548  24071630.30948
  22636909.141 6   -415722.652 6   -318870.63747  22636905.34447
  23678388.477 5   -597466.230 5   -355787.26246  23678385.37146
  21669550.891 6   -318171.602 6   -236820.71949  21669551.22349
 20  5 16  5 16 36.0000000  0  9G01G03G07G08G11G17G22G28G30          0.000129425
  20176299.445 7    -51483.734 7    -38599.90249  20176299.62949
  23333096.188 5   -681045.074 5   -496390.92648  23333097.63348
  20976893.719 6     44402.730 6     34590.21949  20976890.84049
  23146071.820 5    182652.684 5    132419.95747  23146072.29747
  21232455.195 6    214497.227 6    159176.30548  21232451.27348
  24071195.055 5   -404778.148 5   -303020.13348  24071192.69148
  22636465.078 6   -418059.223 6   -320691.34847  22636460.77047
  23677739.680 5   -600874.051 5   -358442.71146  23677737.02046
  21669234.180 6   -319840.148 6   -238120.88749  21669233.86749
 20  5 16  5 16 37.0000000  0  9G01G03G07G08G11G17G22G28G30          0.000128868
  20176260.141 7    -51693.168 7    -38763.09449  20176259.77049
  23332412.219 5   -684635.832 5   -499188.92248  23332414.25448
  20976952.984 7     44715.480 7     34833.92649  20976950.23849
  23146258.672 5    183637.680 5    133187.48047  23146259.67647
  21232673.820 6    215643.891 6    160069.80548  21232669.76648
  24070756.898 4   -407078.313 4   -304812.46548  24070755.04748
  22636020.492 6   -420395.430 6   -322511.76247  22636016.33647
  23677091.922 5   -604281.973 5   -361098.22746  23677088.37146
  21668916.391 6   -321508.063 6   -239420.56349  21668916.51249
 20  5 16  5 16 38.0000000  0  9G01G03G07G08G11G17G22G28G30          0.000128311
  20176220.297 7    -51901.965 7    -38925.79349  20176220.26649
  23331728.992 5   -688226.574 5   -501986.90248  23331731.19948
  20977012.797 6     45028.871 6     35078.12149  20977009.98049
  23146445.977 5    184622.637 5    133954.98047  23146447.00447
  21232892.039 6    216790.801 6    160963.50048  21232888.21548
  24070319.055 4   -409378.387 4   -306604.72348  24070317.22348
  22635575.773 6   -422731.258 6   -324331.89847  22635571.68447
  23676443.094 5   -607689.949 5   -363753.78946  23676439.79346
  21668599.258 6   -323175.430 6   -240719.80949  21668599.23049
 20  5 16  5 16 39.0000000  0  9G01G03G07G08G11G17G22G28G30          0.000127754
  20176180.453 7    -52110.148 7    -39088.01649  20176180.30549
  23331046.453 5   -691817.277 5   -504784.84048  23331048.23048
  20977072.547 6     45342.824 6     35322.76249  20977070.20349
  23146633.813 5    185607.551 5    134722.44147  23146634.57447
  21233110.211 6    217937.965 6    161857.39548  21233106.57048
  24069881.609 5   -411678.332 5   -308396.88748  24069879.53148
  22635131.313 6   -425066.723 6   -326151.73847  22635127.09847
  23675794.813 5   -611098.023 5   -366409.41846  23675791.24646
  21668282.281 6   -324842.145 6   -242018.54749  21668282.21549
 20  5 16  5 16 40.0000000  0  9G01G03G07G08G11G17G22G28G30          0.000127197
  20176141.250 7    -52317.699 7    -39249.74649  20176140.76649
  23330362.875 5   -695407.871 5   -507582.68848  23330364.55148
  20977132.227 6     45657.340 6     35567.83249  20977129.38349
  23146821.234 5    186592.371 5    135489.82847  23146821.79347
  21233328.453 6    219085.375 6    162751.48848  21233324.77048
  24069444.016 5   -413978.195 5   -310188.99248  24069441.80148
  22634686.805 6   -427401.832 6   -327971.29747  22634682.69147
  23675146.195 5   -614506.227 5   -369065.17646  23675143.05946
  21667965.047 6   -326508.277 6   -243316.82849  21667964.72349
 20  5 16  5 16 41.0000000  0  9G01G03G07G08G11G17G22G28G30          0.000126640
  20176101.547 7    -52524.543 7    -39410.92649  20176101.84049
  23329679.250 5   -698998.270 5   -510380.39148  23329681.09848
  20977192.492 6     45972.539 6     35813.44549  20977189.46549
  23147008.836 5    187577.270 5    136257.28547  23147009.54347
  21233546.578 6    220233.074 6    163645.79348  21233543.35248
  24069006.227 4   -416277.859 4   -311980.93848  24069004.20348
  22634242.695 6   -429736.477 6   -329790.50447  22634238.16447
  23674497.391 5   -617914.410 5   -371720.91446  23674494.67646
  21667648.328 6   -328173.727 6   -244614.58249  21667647.86349
 20  5 16  5 16 42.0000000  0  9G01G03G07G08G11G17G22G28G30          0.000126085
  20176062.414 7    -52730.531 7    -39571.43449  20176062.30549
  23328996.211 5   -702588.398 5   -513177.89848  23328998.00448
  20977252.688 6     46288.555 6     36059.68449  20977249.40649
  23147196.172 5    188562.293 5    137024.84447  23147196.82447
  21233765.070 6    221381.305 6    164540.51648  21233761.57848
  24068568.703 4   -418577.215 4   -313772.64848  24068566.77348
  22633798.438 6   -432070.527 6   -331609.24247  22633794.55147
  23673848.883 5   -621322.477 5   -374376.55546  23673845.73446
  21667331.367 6   -329838.320 6   -245911.67249  21667331.07049
 20  5 16  5 16 43.0000000  0  9G01G03G07G08G11G17G22G28G30          0.000125528
  20176023.539 7    -52935.945 7    -39731.49649  20176023.10249
  23328313.336 5   -706178.527 5   -515975.40248  23328314.88748
  20977312.852 7     46605.082 7     36306.33249  20977309.86749
  23147383.773 5    189547.238 5    137792.33647  23147384.08647
  21233983.672 6    222529.676 6    165435.35248  21233980.00048
  24068131.336 4   -420876.496 4   -315564.29748  24068129.19948
  22633354.078 6   -434404.277 6   -333427.74647  22633350.10547
  23673200.438 5   -624730.684 5   -377032.29746  23673197.57846
  21667014.867 6   -331502.422 6   -247208.37549  21667014.69549
 20  5 16  5 16 44.0000000  0  9G01G03G07G08G11G17G22G28G30          0.000124971
  20175984.594 7    -53140.672 7    -39891.02049  20175984.06349
  23327629.867 5   -709768.496 5   -518772.78948  23327631.25448
  20977373.563 7     46922.258 7     36553.48049  20977370.58649
  23147570.773 5    190532.137 5    138559.79347  23147571.52047
  21234202.391 6    223678.379 6    166330.44948  21234199.05948
  24067694.273 4   -423175.629 4   -317355.82448  24067691.56348
  22632910.367 6   -436737.566 6   -335245.89847  22632906.37547
  23672551.461 5   -628138.914 5   -379688.06346  23672548.89146
  21666698.141 6   -333165.840 6   -248504.54749  21666697.98849
 20  5 16  5 16 45.0000000  0  9G01G03G07G08G11G17G22G28G30          0.000124414
  20175945.742 7    -53344.797 7    -40050.08249  20175945.83649
  23326946.969 5   -713358.457 5   -521570.16448  23326948.24648
  20977433.508 7     47240.000 7     36801.07049  20977430.80949
  23147758.195 5    191516.988 5    139327.19147  23147759.34847
  21234420.477 6    224827.293 6    167225.69948  21234417.12548
  24067255.930 5   -425474.707 5   -319147.30948  24067254.05148
  22632466.297 6   -439070.555 6   -337063.81347  22632462.39147
  23671902.969 5   -631547.277 5   -382343.91846  23671900.41846
  21666381.820 6   -334828.680 6   -249800.26649  21666381.58649
 20  5 16  5 16 46.0000000  0  9G01G03G07G08G11G17G22G28G30          0.000123857
  20175906.719 7    -53547.922 7    -40208.36349  20175907.01649
  23326264.188 5   -716947.953 5   -524367.17648  23326265.44548
  20977494.188 7     47558.676 7     37049.38349  20977491.61749
  23147945.750 5    192502.121 5    140094.82447  23147946.37947
  21234639.813 6    225976.797 6    168121.41448  21234636.20348
  24066818.180 5   -427773.332 5   -320938.44948  24066816.82448
  22632022.828 6   -441402.809 6   -338881.15247  22632018.48447
  23671254.344 5   -634955.344 5   -384999.54346  23671251.41446
  21666065.016 6   -336490.559 6   -251095.23849  21666064.80149
 20  5 16  5 16 47.0000000  0  9G01G03G07G08G11G17G22G28G30          0.000123301
  20175868.406 7    -53750.102 7    -40365.90649  20175868.23849
  23325580.719 5   -720537.090 5   -527163.89548  23325582.74648
  20977555.500 7     47878.273 7     37298.41449  20977552.19549
  23148133.234 5    193487.523 5    140862.67247  23148133.97747
  21234858.531 6    227126.910 6    169017.60548  21234855.17648
  24066381.211 5   -430071.496 5   -322729.22348  24066379.47748
  22631579.273 6   -443734.355 6   -340697.93447  22631574.64147
  23670605.922 5   -638363.215 5   -387655.03146  23670603.12146
  21665749.398 6   -338151.479 6   -252389.46049  21665749.22349
 20  5 16  5 16 48.0000000  0  9G01G03G07G08G11G17G22G28G30          0.000122746
  20175830.094 7    -53951.117 7    -40522.53949  20175830.08649
  23324898.680 5   -724125.598 5   -529960.12948  23324899.62948
  20977616.414 6     48198.957 6     37548.29749  20977613.43849
  23148320.922 5    194473.359 5    141630.85547  23148321.62147
  21235077.758 6    228277.754 6    169914.36748  21235073.96148
  24065943.531 5   -432369.035 5   -324519.51648  24065942.26648
  22631135.430 6   -446065.004 6   -342514.02347  22631131.41047
  23669957.469 5   -641770.594 5   -390310.14546  23669954.38346
  21665433.094 6   -339811.352 6   -253682.86749  21665433.27049
 20  5 16  5 16 49.0000000  0  9G01G03G07G08G11G17G22G28G30          0.000122189
  20175792.227 7    -54150.918 7    -40678.22749  20175792.16849
  23324215.234 5   -727713.457 5   -532755.85948  23324216.86348
  20977677.563 7     48520.828 7     37799.10949  20977674.24249
  23148508.875 5    195459.824 5    142399.53147  23148509.71147
  21235296.922 6    229429.453 6    170811.79748  21235293.19948
  24065507.148 5   -434665.867 5   -326309.24648  24065505.22348
  22630692.164 6   -448394.699 6   -344329.37147  22630688.01247
  23669309.250 5   -645177.496 5   -392964.87146  23669306.50046
  21665117.891 6   -341469.988 6   -254975.31349  21665117.56349
 20  5 16  5 16 50.0000000  0  9G01G03G07G08G11G17G22G28G30          0.000121634
  20175754.367 7    -54349.797 7    -40833.19949  20175754.37949
  23323532.945 5   -731300.973 5   -535551.31648  23323534.35248
  20977738.797 7     48843.578 7     38050.60249  20977735.91449
  23148696.102 5    196446.465 5    143168.34447  23148697.02347
  21235516.328 6    230581.699 6    171709.64848  21235512.35548
  24065070.570 5   -436962.355 5   -328098.71548  24065067.69548
  22630248.820 6   -450723.723 6   -346144.19947  22630244.84847
  23668660.688 5   -648584.203 5   -395619.44146  23668658.21546
  21664802.148 6   -343127.762 6   -256267.09049  21664802.31349
 20  5 16  5 16 51.0000000  0  9G01G03G07G08G11G17G22G28G30          0.000121078
  20175716.672 7    -54547.863 7    -40987.53949  20175716.85949
  23322850.172 5   -734888.172 5   -538346.53148  23322851.78148
  20977800.461 7     49167.117 7     38302.70749  20977797.48449
  23148884.172 5    197433.250 5    143937.26647  23148884.88747
  21235735.578 6    231734.391 6    172607.85248  21235732.11748
  24064632.938 4   -439258.504 4   -329887.92648  24064631.27348
  22629805.992 6   -453052.191 6   -347958.59847  22629801.78547
  23668012.648 5   -651990.793 5   -398273.93446  23668009.44946
  21664487.594 6   -344784.695 6   -257558.20349  21664487.16049
 20  5 16  5 16 52.0000000  0  9G01G03G07G08G11G17G22G28G30          0.000120523
  20175679.430 7    -54745.188 7    -41141.29749  20175679.02049
  23322168.117 5   -738475.203 5   -541141.62148  23322169.20748
  20977862.148 6     49491.348 6     38555.35949  20977859.20349
  23149071.820 5    198420.094 5    144706.23447  23149072.87547
  21235954.531 6    232887.430 6    173506.32848  21235951.48848
  24064195.781 5   -441554.461 5   -331676.98448  24064194.22348
  22629362.766 6   -455380.172 6   -349772.60947  22629359.01247
  23667364.422 5   -655397.359 5   -400928.39546  23667361.44146
  21664172.211 6   -346440.918 6   -258848.77049  21664171.88349
 20  5 16  5 16 53.0000000  0  9G01G03G07G08G11G17G22G28G30          0.000119968
  20175641.688 7    -54941.605 7    -41294.34849  20175641.66849
  23321484.719 5   -742061.906 5   -543936.45348  23321486.64548
  20977923.945 6     49816.406 6     38808.64849  20977920.89149
  23149259.336 5    199407.129 5    145475.35547  23149260.88347
  21236174.453 6    234040.988 6    174405.20348  21236170.76648
  24063758.938 5   -443850.016 5   -333465.73048  24063757.57048
  22628920.234 6   -457707.531 6   -351586.13747  22628915.56347
  23666715.914 5   -658803.758 5   -403582.73046  23666713.46946
  21663857.180 6   -348096.309 6   -260138.68449  21663856.50449
 20  5 16  5 16 54.0000000  0  9G01G03G07G08G11G17G22G28G30          0.000119413
  20175604.547 7    -55137.242 7    -41446.79349  20175604.39849
  23320802.484 5   -745648.375 5   -546731.10548  23320804.03148
  20977986.273 6     50142.219 6     39062.52749  20977983.07849
  23149447.625 5    200394.273 5    146244.55547  23149448.38347
  21236394.031 6    235194.938 6    175304.38348  21236390.55148
  24063322.680 4   -446145.352 4   -335254.30548  24063320.73848
  22628477.422 6   -460034.359 6   -353399.24647  22628472.92647
  23666067.773 5   -662210.098 5   -406237.02046  23666065.04746
  21663541.805 6   -349750.898 6   -261427.97349  21663542.04349
 20  5 16  5 16 55.0000000  0  9G01G03G07G08G11G17G22G28G30          0.000118858
  20175567.320 7    -55332.258 7    -41598.75449  20175566.99249
  23320119.523 5   -749234.770 5   -549525.70348  23320121.64148
  20978048.047 6     50468.617 6     39316.86349  20978045.10549
  23149635.383 5    201381.418 5    147013.75847  23149636.55947
  21236613.406 6    236349.137 6    176203.75448  21236609.91048
  24062885.750 5   -448440.559 5   -337042.77748  24062883.90648
  22628034.570 6   -462360.824 6   -355212.06647  22628030.31647
  23665419.695 5   -665616.570 5   -408891.39846  23665417.12546
  21663227.461 6   -351404.898 6   -262716.80949  21663227.09449
 20  5 16  5 16 56.0000000  0  9G01G03G07G08G11G17G22G28G30          0.000118303
  20175530.203 7    -55526.836 7    -41750.37549  20175530.19949
  23319436.875 5   -752821.332 5   -552320.42648  23319438.87548
  20978110.281 6     50795.383 6     39571.48449  20978107.31649
  23149822.672 5    202368.219 5    147782.68447  23149823.89147
  21236833.227 6    237503.355 6    177103.14148  21236829.34848
  24062448.531 4   -450735.895 4   -338831.35248  24062447.00048
  22627591.305 6   -464687.121 6   -357024.76247  22627587.41447
  23664771.500 5   -669023.293 5   -411545.98846  23664768.55146
  21662912.906 6   -353058.535 6   -264005.35249  21662912.37549
 20  5 16  5 16 57.0000000  0  9G01G03G07G08G11G17G22G28G30          0.000117746
  20175493.453 7    -55720.934 7    -41901.61749  20175493.53149
  23318754.336 5   -756407.887 5   -555115.14148  23318756.48848
  20978172.648 6     51122.594 6     39826.44949  20978169.59849
  23150010.883 5    203354.836 5    148551.46947  23150011.67247
  21237053.266 6    238657.723 6    178002.64848  21237049.55948
  24062011.148 4   -453031.238 4   -340619.92248  24062009.94148
  22627149.133 6   -467013.168 6   -358837.26647  22627144.87547
  23664123.180 5   -672430.199 5   -414200.71946  23664120.36346
  21662598.070 6   -354711.672 6   -265293.51649  21662597.82049
 20  5 16  5 16 58.0000000  0  9G01G03G07G08G11G17G22G28G30          0.000117191
  20175456.633 7    -55914.492 7    -42052.44149  20175456.36349
  23318072.680 5   -759994.488 5   -557909.89148  23318073.89148
  20978234.789 6     51450.309 6     40081.80949  20978231.72349
  23150198.492 5    204341.324 5    149320.15647  23150199.55947
  21237272.625 6    239812.227 6    178902.26248  21237268.96548
  24061575.203 4   -455326.559 4   -342408.48448  24061573.11748
  22626705.898 6   -469338.945 6   -360649.55947  22626701.81347
  23663475.125 5   -675837.332 5   -416855.62546  23663471.89146
  21662283.828 6   -356364.270 6   -266581.25449  21662283.10949
 20  5 16  5 16 59.0000000  0  9G01G03G07G08G11G17G22G28G30          0.000116636
  20175419.883 7    -56107.441 7    -42202.79349  20175419.69549
  23317389.891 5   -763581.023 5   -560704.59448  23317391.27048
  20978297.273 6     51778.586 6     40337.60949  20978294.37149
  23150385.922 5    205327.715 5    150088.77347  23150387.19147
  21237492.320 6    240966.945 6    179802.04347  21237488.69547
  24061138.719 5   -457621.816 5   -344196.99648  24061136.27048
  22626264.141 6   -471664.379 6   -362461.58247  22626259.50447
  23662826.086 5   -679244.578 5   -419510.63346  23662823.67246
  21661969.352 6   -358016.348 6   -267868.59049  21661968.92249
 20  5 16  5 17  0.0000000  0  9G01G03G07G08G11G17G22G28G30          0.000116081
  20175383.469 7    -56299.840 7    -42352.71549  20175383.65649
  23316706.875 5   -767167.609 5   -563499.33648  23316708.98048
  20978360.086 7     52107.375 7     40593.80949  20978357.28549
  23150574.234 5    206313.984 5    150857.29347  23150575.04747
  21237712.156 6    242121.855 6    180701.97348  21237708.26248
  24060701.805 4   -459917.047 4   -345985.48448  24060699.82848
  22625821.281 6   -473989.508 6   -364273.36347  22625817.07447
  23662178.508 5   -682651.953 5   -422165.73046  23662175.55946
  21661654.820 6   -359667.883 6   -269155.50049  21661654.93449
 20  5 16  5 17  1.0000000  0  9G01G03G07G08G11G17G22G28G30          0.000115524
  20175346.836 7    -56491.781 7    -42502.27749  20175346.96549
  23316024.672 5   -770754.281 5   -566294.14148  23316026.32848
  20978422.586 7     52436.570 7     40850.32449  20978419.84849
  23150761.711 5    207300.039 5    151625.65647  23150762.62147
  21237931.742 6    243276.801 6    181601.93847  21237928.46547
  24060265.336 5   -462212.348 5   -347774.03548  24060262.89848
  22625379.125 6   -476314.422 6   -366084.98447  22625374.83647
  23661529.688 5   -686059.621 5   -424821.04746  23661526.69946
  21661340.867 6   -361318.992 6   -270442.07849  21661340.68049
 20  5 16  5 17  2.0000000  0  9G01G03G07G08G11G17G22G28G30          0.000114969
  20175310.219 7    -56683.203 7    -42651.43849  20175310.44149
  23315342.398 5   -774340.961 5   -569088.94148  23315343.89548
  20978485.211 7     52766.227 7     41107.19549  20978482.50849
  23150949.547 5    208285.926 5    152393.87947  23150950.41447
  21238151.563 6    244431.922 6    182502.02348  21238148.41048
  24059828.125 4   -464507.664 4   -349562.59448  24059826.61348
  22624936.633 6   -478639.098 6   -367896.42647  22624932.65647
  23660880.977 5   -689467.480 5   -427476.54346  23660878.56346
  21661026.531 6   -362969.594 6   -271728.25849  21661026.42649
 20  5 16  5 17  3.0000000  0  9G01G03G07G08G11G17G22G28G30          0.000114414
  20175274.242 7    -56874.199 7    -42800.27349  20175274.25049
  23314660.016 5   -777927.773 5   -571883.85548  23314661.61748
  20978548.328 6     53096.277 6     41364.38349  20978545.47749
  23151137.234 5    209271.566 5    153161.90647  23151137.80947
  21238371.602 6    245587.063 6    183402.13348  21238367.77348
  24059391.688 4   -466803.074 4   -351351.21948  24059389.72748
  22624494.539 6   -480963.590 6   -369707.72347  22624490.46147
  23660232.289 5   -692875.613 5   -430132.23446  23660229.89146
  21660712.555 6   -364619.785 6   -273014.12949  21660712.62949
 20  5 16  5 17  4.0000000  0  9G01G03G07G08G11G17G22G28G30          0.000113857
  20175237.867 7    -57064.547 7    -42948.59449  20175238.19149
  23313976.883 5   -781514.488 5   -574678.69948  23313978.89848
  20978611.133 6     53426.934 6     41622.03549  20978608.21149
  23151324.648 5    210257.148 5    153929.89547  23151325.55147
  21238591.383 6    246742.480 6    184302.46148  21238587.62948
  24058954.523 4   -469098.352 4   -353139.74648  24058952.86748
  22624052.305 6   -483287.699 6   -371518.71547  22624048.36347
  23659584.047 5   -696283.848 5   -432787.99646  23659581.54746
  21660399.000 6   -366269.363 6   -274299.51249  21660398.61749
 20  5 16  5 17  5.0000000  0  9G01G03G07G08G11G17G22G28G30          0.000113302
  20175201.938 7    -57254.434 7    -43096.55549  20175201.96149
  23313294.727 5   -785101.305 5   -577473.62148  23313295.83648
  20978674.328 6     53757.988 6     41880.00049  20978671.32049
  23151511.680 5    211242.551 5    154697.73047  23151512.75847
  21238811.461 6    247897.969 6    185202.83248  21238807.66448
  24058517.922 4   -471393.734 4   -354928.35548  24058515.96548
  22623609.852 6   -485611.605 6   -373329.54747  22623605.73847
  23658935.461 5   -699692.348 5   -435443.95746  23658932.62146
  21660084.516 6   -367918.523 6   -275584.57049  21660084.33249
 20  5 16  5 17  6.0000000  0  9G01G03G07G08G11G17G22G28G30          0.000112745
  20175165.906 7    -57443.770 7    -43244.08249  20175165.91049
  23312611.977 5   -788688.074 5   -580268.50848  23312613.70348
  20978736.891 6     54089.574 6     42138.37949  20978733.97749
  23151698.945 5    212227.730 5    155465.40647  23151700.60547
  21239031.070 6    249053.625 6    186103.34448  21239027.93048
  24058081.141 4   -473689.020 4   -356716.89148  24058078.81348
  22623167.375 6   -487935.211 6   -375140.14847  22623163.57047
  23658286.836 5   -703100.957 5   -438100.01646  23658283.82846
  21659770.828 6   -369567.148 6   -276869.21549  21659770.69949
 20  5 16  5 17  7.0000000  0  9G01G03G07G08G11G17G22G28G30          0.000112190
  20175129.867 7    -57632.531 7    -43391.17649  20175130.20349
  23311929.531 5   -792274.895 5   -583063.44148  23311931.16448
  20978800.445 6     54421.676 6     42397.15649  20978797.28149
  23151886.789 5    213212.805 5    156233.00047  23151887.97347
  21239251.500 6    250209.441 6    187003.97748  21239247.78548
  24057644.406 4   -475984.340 4   -358505.44948  24057642.45748
  22622725.297 6   -490258.539 6   -376950.52347  22622721.48447
  23657637.992 5   -706509.789 5   -440756.25446  23657635.18446
  21659457.445 6   -371215.234 6   -278153.43849  21659457.41849
 20  5 16  5 17  8.0000000  0  9G01G03G07G08G11G17G22G28G30          0.000111633
  20175094.164 7    -57820.801 7    -43537.87549  20175093.97749
  23311247.016 5   -795861.738 5   -585858.38748  23311248.54748
  20978863.758 6     54754.230 6     42656.28949  20978860.94949
  23152074.250 5    214197.758 5    157000.49247  23152075.06347
  21239470.992 6    251365.402 6    187904.72748  21239467.78148
  24057207.547 4   -478279.633 4   -360293.99248  24057205.48048
  22622283.336 6   -492581.570 6   -378760.67647  22622279.42247
  23656989.391 5   -709918.781 5   -443412.62146  23656986.57046
  21659144.211 6   -372862.844 6   -279437.28549  21659143.51249
 20  5 16  5 17  9.0000000  0  9G01G03G07G08G11G17G22G28G30          0.000111076
  20175058.109 7    -58008.465 7    -43684.10949  20175058.27749
  23310564.336 5   -799448.570 5   -588653.32448  23310566.00048
  20978927.070 6     55087.320 6     42915.83249  20978924.38749
  23152261.164 5    215182.563 5    157767.87547  23152262.41847
  21239690.922 6    252521.574 6    188805.64148  21239687.52348
  24056771.039 4   -480574.867 4   -362082.48048  24056768.98848
  22621841.742 6   -494904.309 6   -380570.60247  22621837.50047
  23656340.602 5   -713327.902 5   -446069.08246  23656337.76646
  21658830.531 6   -374509.887 6   -280720.69549  21658830.40249
 20  5 16  5 17 10.0000000  0  9G01G03G07G08G11G17G22G28G30          0.000110521
  20175022.320 7    -58195.625 7    -43829.94949  20175022.49649
  23309882.336 5   -803035.406 5   -591448.24648  23309883.40248
  20978990.625 6     55420.926 6     43175.78149  20978987.97349
  23152448.680 5    216167.234 5    158535.14547  23152449.75047
  21239911.023 6    253677.879 6    189706.65648  21239907.62948
  24056334.219 4   -482870.133 4   -363870.99648  24056332.58648
  22621399.570 6   -497226.754 6   -382380.30547  22621395.36747
  23655692.242 5   -716737.234 5   -448725.70346  23655689.31346
  21658517.266 6   -376156.410 6   -282003.70749  21658517.18849
 20  5 16  5 17 11.0000000  0  9G01G03G07G08G11G17G22G28G30          0.000109964
  20174987.102 7    -58382.145 7    -43975.28949  20174987.25849
  23309199.570 5   -806622.176 5   -594243.12948  23309200.86748
  20979054.297 6     55755.074 6     43436.16449  20979051.24649
  23152636.531 5    217151.820 5    159302.35547  23152637.40647
  21240130.891 6    254834.430 6    190607.85948  21240127.44948
  24055897.313 5   -485165.258 5   -365659.40648  24055895.68048
  22620957.453 6   -499548.855 6   -384189.73047  22620953.53947
  23655042.430 5   -720146.660 5   -451382.39146  23655040.23846
  21658204.070 6   -377802.359 6   -283286.26649  21658204.22749
 20  5 16  5 17 12.0000000  0  9G01G03G07G08G11G17G22G28G30          0.000109407
  20174951.813 7    -58568.066 7    -44120.16449  20174951.78149
  23308516.820 5   -810208.898 5   -597037.96948  23308518.44948
  20979117.875 6     56089.805 6     43696.98449  20979114.92649
  23152823.180 5    218136.367 5    160069.53547  23152824.37547
  21240351.484 6    255991.180 6    191509.22348  21240347.76248
  24055460.055 5   -487460.340 5   -367447.77748  24055458.65648
  22620516.234 6   -501870.578 6   -385998.86347  22620511.75847
  23654393.719 5   -723556.211 5   -454039.17646  23654391.78546
  21657890.750 6   -379447.742 6   -284568.37949  21657890.50849
 20  5 16  5 17 13.0000000  0  9G01G03G07G08G11G17G22G28G30          0.000108852
  20174916.352 7    -58753.527 7    -44264.68449  20174916.35249
  23307835.102 5   -813795.688 5   -599832.86748  23307835.43048
  20979181.602 6     56424.957 6     43958.14149  20979178.96549
  23153011.234 5    219120.656 5    160836.51247  23153011.96547
  21240571.359 6    257148.035 6    192410.67248  21240567.63348
  24055023.469 5   -489755.496 5   -369236.20748  24055021.80948
  22620074.008 6   -504192.105 6   -387807.84047  22620069.47347
  23653745.125 5   -726965.969 5   -456696.12546  23653742.40246
  21657578.000 6   -381092.660 6   -285850.13349  21657577.36349
 20  5 16  5 17 14.0000000  0  9G01G03G07G08G11G17G22G28G30          0.000108295
  20174881.344 7    -58938.352 7    -44408.70349  20174881.21949
  23307152.461 5   -817382.438 5   -602627.73448  23307153.26248
  20979245.328 6     56760.664 6     44219.72749  20979242.46149
  23153198.398 5    220104.863 5    161603.43047  23153199.16847
  21240791.352 6    258305.102 6    193312.28948  21240788.03948
  24054586.500 5   -492050.504 5   -371024.52748  24054585.52748
  22619632.313 6   -506513.273 6   -389616.53947  22619628.03147
  23653096.289 5   -730375.828 5   -459353.15646  23653093.63746
  21657265.039 6   -382736.992 6   -287131.43049  21657264.68449
 20  5 16  5 17 15.0000000  0  9G01G03G07G08G11G17G22G28G30          0.000107738
  20174845.555 7    -59122.629 7    -44552.30149  20174846.31649
  23306469.477 5   -820969.164 5   -605422.58648  23306470.64548
  20979309.430 6     57096.922 6     44481.75049  20979306.50849
  23153385.641 5    221088.977 5    162370.27747  23153386.43447
  21241011.734 6    259462.383 6    194214.06348  21241007.96548
  24054150.461 5   -494345.504 5   -372812.84048  24054148.30548
  22619190.961 6   -508834.125 6   -391424.99247  22619186.69147
  23652447.547 5   -733785.867 5   -462010.32446  23652444.99646
  21656952.289 6   -384380.777 6   -288412.29749  21656951.77349
 20  5 16  5 17 16.0000000  0  9G01G03G07G08G11G17G22G28G30          0.000107182
  20174810.977 7    -59306.340 7    -44695.44949  20174811.27749
  23305786.250 5   -824555.895 5   -608217.43848  23305788.11348
  20979373.516 6     57433.641 6     44744.12549  20979370.59049
  23153572.539 5    222072.902 5    163136.96547  23153573.58647
  21241231.617 6    260619.805 6    195115.94548  21241228.44548
  24053713.953 5   -496640.469 5   -374601.12148  24053711.64848
  22618749.438 6   -511154.676 6   -393233.21947  22618744.75447
  23651798.484 5   -737196.078 5   -464667.64146  23651796.10546
  21656639.664 6   -386024.047 6   -289692.76649  21656639.45349
 20  5 16  5 17 17.0000000  0  9G01G03G07G08G11G17G22G28G30          0.000106625
  20174776.320 7    -59489.469 7    -44838.14549  20174776.48849
  23305104.219 5   -828142.574 5   -611012.25448  23305105.43448
  20979437.445 6     57770.957 6     45006.96549  20979435.10549
  23153760.133 5    223056.801 5    163903.63747  23153761.11747
  21241452.211 6    261777.430 6    196017.98448  21241448.78548
  24053276.492 5   -498935.367 5   -376389.35548  24053274.88748
  22618307.750 6   -513474.891 6   -395041.17647  22618303.06347
  23651149.031 5   -740606.402 5   -467325.04346  23651146.91846
  21656326.539 6   -387666.730 6   -290972.78549  21656326.40649
 20  5 16  5 17 18.0000000  0  9G01G03G07G08G11G17G22G28G30          0.000106070
  20174741.523 7    -59671.949 7    -44980.34049  20174741.66049
  23304422.141 5   -831729.191 5   -613807.01648  23304422.97748
  20979502.039 6     58108.816 6     45270.23049  20979499.27049
  23153947.422 5    224040.602 5    164670.23447  23153947.98447
  21241672.813 6    262935.328 6    196920.24648  21241668.92248
  24052840.484 5   -501230.164 5   -378177.50848  24052838.32848
  22617865.609 6   -515794.734 6   -396848.85247  22617861.49647
  23650500.328 5   -744016.785 5   -469982.48446  23650497.91446
  21656014.414 6   -389308.844 6   -292252.35949  21656014.00049
 20  5 16  5 17 19.0000000  0  9G01G03G07G08G11G17G22G28G30          0.000105513
  20174706.703 7    -59853.945 7    -45122.15249  20174707.21149
  23303738.969 5   -835315.852 5   -616601.81348  23303740.65648
  20979566.461 6     58447.129 6     45533.85249  20979563.32849
  23154134.063 5    225024.238 5    165436.70347  23154135.07447
  21241893.234 6    264093.305 6    197822.56348  21241889.39548
  24052403.781 5   -503524.988 5   -379965.68048  24052401.91048
  22617424.609 6   -518114.336 6   -398656.33647  22617420.37547
  23649851.523 5   -747427.391 5   -472640.10546  23649849.07846
  21655702.094 6   -390950.457 6   -293531.53549  21655701.43449
 20  5 16  5 17 20.0000000  0  9G01G03G07G08G11G17G22G28G30          0.000104956
  20174672.547 7    -60035.328 7    -45263.49249  20174672.80549
  23303056.977 5   -838902.441 5   -619396.55948  23303057.67248
  20979630.898 6     58786.016 6     45797.92249  20979628.35949
  23154322.188 5    226007.781 5    166203.09847  23154322.16447
  21242113.297 6    265251.539 6    198725.08248  21242109.81648
  24051966.539 5   -505819.738 5   -381753.79348  24051965.01648
  22616983.320 6   -520433.594 6   -400463.55147  22616978.75447
  23649202.617 5   -750838.145 5   -475297.83246  23649200.00046
  21655389.836 6   -392591.523 6   -294810.28949  21655389.39149
 20  5 16  5 17 21.0000000  0  9G01G03G07G08G11G17G22G28G30          0.000104399
  20174638.281 7    -60216.148 7    -45404.39149  20174638.86749
  23302374.234 5   -842489.035 5   -622191.30548  23302375.18448
  20979695.430 6     59125.445 6     46062.40649  20979692.80549
  23154509.547 5    226991.250 5    166969.44147  23154509.67647
  21242334.109 6    266409.945 6    199627.73848  21242330.38748
  24051530.344 5   -508114.438 5   -383541.86748  24051528.45748
  22616541.922 6   -522752.508 6   -402270.49247  22616537.76247
  23648553.375 5   -754248.980 5   -477955.62546  23648550.82046
  21655077.883 6   -394231.977 6   -296088.56349  21655076.93849
 20  5 16  5 17 22.0000000  0  9G01G03G07G08G11G17G22G28G30          0.000103842
  20174603.844 7    -60396.355 7    -45544.81349  20174603.91049
  23301691.539 5   -846075.535 5   -624985.98048  23301692.77048
  20979760.195 6     59465.414 6     46327.32049  20979757.33249
  23154695.602 5    227974.633 5    167735.70747  23154696.94547
  21242554.508 6    267568.605 6    200530.59048  21242550.96948
  24051094.586 5   -510409.070 5   -385329.89148  24051091.64548
  22616100.961 6   -525071.070 6   -404077.16447  22616096.45747
  23647904.477 5   -757659.965 5   -480613.52746  23647901.64146
  21654765.219 6   -395871.887 6   -297366.41849  21654765.26249
 20  5 16  5 17 23.0000000  0  9G01G03G07G08G11G17G22G28G30          0.000103285
  20174569.711 7    -60575.813 7    -45684.64549  20174569.94949
  23301009.484 5   -849661.848 5   -627780.50848  23301010.76248
  20979824.953 6     59806.113 6     46592.79749  20979822.13349
  23154883.234 5    228958.105 5    168502.05547  23154884.37147
  21242774.852 6    268727.609 6    201433.70348  21242771.25448
  24050657.055 5   -512703.441 5   -387117.71548  24050655.10548
  22615660.063 6   -527389.148 6   -405883.45747  22615655.25447
  23647255.695 5   -761070.879 5   -483271.37546  23647252.95746
  21654453.695 6   -397511.059 6   -298643.69149  21654453.19549
 20  5 16  5 17 24.0000000  0  9G01G03G07G08G11G17G22G28G30          0.000102728
  20174535.563 7    -60754.535 7    -45823.91449  20174535.47349
  23300327.172 5   -853247.984 5   -630574.90248  23300328.25848
  20979890.125 6     60147.465 6     46858.78549  20979887.05549
  23155069.906 5    229941.586 5    169268.40247  23155070.82847
  21242995.406 6    269886.961 6    202337.09048  21242991.75048
  24050220.359 5   -514997.609 5   -388905.37948  24050218.36748
  22615218.805 6   -529706.770 6   -407689.39547  22615214.33247
  23646605.781 5   -764481.816 5   -485929.24646  23646603.87546
  21654141.719 6   -399149.543 6   -299920.43449  21654141.43049
 20  5 16  5 17 25.0000000  0  9G01G03G07G08G11G17G22G28G30          0.000102171
  20174501.719 7    -60932.672 7    -45962.72349  20174501.98449
  23299644.758 5   -856834.066 5   -633369.24648  23299645.70348
  20979954.781 6     60489.379 6     47125.21149  20979951.91049
  23155257.133 5    230924.977 5    170034.68447  23155258.27747
  21243216.531 6    271046.500 6    203240.62948  21243212.84048
  24049784.422 5   -517291.730 5   -390693.00448  24049782.00048
  22614778.016 6   -532024.035 6   -409495.05147  22614773.41447
  23645956.359 5   -767892.863 5   -488587.20346  23645954.53546
  21653830.219 6   -400787.445 6   -301196.72349  21653829.43049
 20  5 16  5 17 26.0000000  0  9G01G03G07G08G11G17G22G28G30          0.000101614
  20174467.875 7    -61110.258 7    -46101.09849  20174468.18049
  23298962.180 5   -860420.188 5   -636163.62948  23298963.46148
  20980020.164 6     60831.797 6     47392.02749  20980017.38349
  23155444.438 5    231908.230 5    170800.84847  23155445.67247
  21243436.898 6    272206.227 6    204144.31648  21243433.46148
  24049347.594 5   -519585.840 5   -392480.62548  24049345.75048
  22614336.703 6   -534341.016 6   -411300.48847  22614332.31647
  23645307.859 5   -771304.086 5   -491245.30146  23645305.50046
  21653518.906 6   -402424.832 6   -302472.61349  21653517.84849
 20  5 16  5 17 27.0000000  0  9G01G03G07G08G11G17G22G28G30          0.000101057
  20174434.055 7    -61287.262 7    -46239.02349  20174434.48449
  23298279.930 5   -864006.234 5   -638957.94948  23298280.98048
  20980085.250 6     61174.746 6     47659.26649  20980082.44949
  23155631.141 5    232891.398 5    171566.94946  23155632.19946
  21243657.727 6    273366.137 6    205048.13748  21243654.41048
  24048910.820 5   -521879.863 5   -394268.18048  24048908.86748
  22613896.313 6   -536657.652 6   -413105.66447  22613891.57047
  23644658.086 5   -774715.434 5   -493903.49646  23644656.25846
  21653206.938 6   -404061.660 6   -303748.06649  21653206.47749
 20  5 16  5 17 28.0000000  0  9G01G03G07G08G11G17G22G28G30          0.000100500
  20174400.938 7    -61463.598 7    -46376.43049  20174400.79349
  23297597.398 5   -867592.199 5   -641752.19548  23297598.61748
  20980150.734 6     61518.320 6     47926.98449  20980147.98449
  23155818.367 5    233874.555 5    172333.03946  23155819.43046
  21243878.438 6    274526.348 6    205952.18848  21243874.59848
  24048474.438 5   -524173.797 5   -396055.65648  24048472.43848
  22613455.719 6   -538973.902 6   -414910.53547  22613451.16047
  23644009.406 5   -778126.844 5   -496561.74646  23644007.16046
  21652895.758 6   -405697.848 6   -305023.02049  21652895.53549
 20  5 16  5 17 29.0000000  0  9G01G03G07G08G11G17G22G28G30          0.000099943
  20174367.195 7    -61639.336 7    -46513.37149  20174367.37949
  23296914.805 5   -871178.105 5   -644546.41048  23296916.06648
  20980216.258 6     61862.453 6     48195.13749  20980213.32449
  23156005.344 5    234857.613 5    173099.06347  23156006.48847
  21244099.688 6    275686.750 6    206856.40248  21244095.55548
  24048037.570 5   -526467.617 5   -397843.05148  24048035.66448
  22613014.813 6   -541289.781 6   -416715.11747  22613010.16047
  23643360.328 5   -781538.336 5   -499220.03546  23643358.22346
  21652584.578 6   -407333.469 6   -306297.52749  21652583.96549
 20  5 16  5 17 30.0000000  0  9G01G03G07G08G11G17G22G28G30          0.000099386
  20174333.680 7    -61814.426 7    -46649.79749  20174334.50049
  23296232.609 5   -874763.898 5   -647340.53548  23296233.84848
  20980281.711 6     62207.180 6     48463.75049  20980278.85249
  23156192.547 5    235840.641 5    173865.05947  23156193.68847
  21244320.453 6    276847.438 6    207760.83648  21244316.49648
  24047600.781 5   -528761.332 5   -399630.35948  24047599.67248
  22612574.125 6   -543605.281 6   -418519.39847  22612569.96547
  23642710.508 5   -784949.941 5   -501878.43446  23642708.79746
  21652273.234 6   -408968.445 6   -307571.52749  21652272.79349
 20  5 16  5 17 31.0000000  0  9G01G03G07G08G11G17G22G28G30          0.000098829
  20174300.648 7    -61988.852 7    -46785.71949  20174301.05949
  23295550.273 5   -878349.574 5   -650134.56348  23295551.55148
  20980347.648 6     62552.527 6     48732.84849  20980344.84849
  23156379.414 5    236823.641 5    174631.02346  23156380.64846
  21244541.289 6    278008.406 6    208665.48448  21244537.14548
  24047165.117 5   -531054.895 5   -401417.54748  24047163.13748
  22612133.383 6   -545920.363 6   -420323.35947  22612129.14847
  23642062.133 5   -788361.543 5   -504536.82046  23642059.72346
  21651962.141 6   -410602.809 6   -308845.05949  21651961.82849
 20  5 16  5 17 32.0000000  0  9G01G03G07G08G11G17G22G28G30          0.000098272
  20174267.594 7    -62162.695 7    -46921.18849  20174267.93849
  23294867.805 5   -881935.227 5   -652928.58248  23294869.19548
  20980413.273 6     62898.418 6     49002.37149  20980410.82449
  23156566.414 5    237806.539 5    175396.92647  23156568.11747
  21244762.047 6    279169.563 6    209570.28148  21244758.38348
  24046728.078 5   -533348.375 5   -403204.67248  24046726.64148
  22611692.469 6   -548235.102 6   -422127.05547  22611688.83247
  23641412.820 5   -791773.313 5   -507195.35246  23641410.39146
  21651651.109 6   -412236.598 6   -310118.14149  21651650.94149
 20  5 16  5 17 33.0000000  0  9G01G03G07G08G11G17G22G28G30          0.000097715
  20174234.727 7    -62335.906 7    -47056.15649  20174234.62949
  23294185.734 5   -885520.797 5   -655722.53148  23294187.01648
  20980479.633 6     63244.875 6     49272.34049  20980477.01649
  23156753.625 5    238789.434 5    176162.82047  23156755.13747
  21244983.055 6    280330.949 6    210475.25448  21244979.40648
  24046292.148 5   -535641.785 5   -404991.73848  24046290.10948
  22611252.164 6   -550549.477 6   -423930.46147  22611248.09447
  23640763.016 5   -795185.180 5   -509853.94146  23640761.20346
  21651340.352 6   -413869.754 6   -311390.73449  21651340.10249
 20  5 16  5 17 34.0000000  0  9G01G03G07G08G11G17G22G28G30          0.000097158
  20174201.766 7    -62508.441 7    -47190.59449  20174201.76249
  23293503.438 5   -889106.223 5   -658516.37148  23293504.62548
  20980545.281 6     63591.980 6     49542.80949  20980542.37549
  23156940.875 5    239772.289 5    176928.68047  23156941.52347
  21245204.320 6    281492.672 6    211380.50048  21245200.19548
  24045855.516 5   -537935.020 5   -406778.67648  24045853.62948
  22610812.023 6   -552863.422 6   -425733.53947  22610808.24247
  23640113.891 5   -798597.043 5   -512512.52746  23640111.98446
  21651029.766 6   -415502.285 6   -312662.83649  21651029.66849
 20  5 16  5 17 35.0000000  0  9G01G03G07G08G11G17G22G28G30          0.000096601
  20174169.320 7    -62680.395 7    -47324.58649  20174169.24249
  23292821.281 5   -892691.605 5   -661310.17248  23292821.96148
  20980611.539 6     63939.621 6     49813.69549  20980608.77349
  23157127.781 5    240755.031 5    177694.44546  23157128.60546
  21245425.617 6    282654.570 6    212285.87148  21245421.75048
  24045419.367 5   -540228.203 5   -408565.57448  24045417.19148
  22610371.719 6   -555177.055 6   -427536.36747  22610367.71947
  23639464.695 5   -802009.063 5   -515171.23846  23639462.50446
  21650719.133 6   -417134.242 6   -313934.49249  21650719.05949
 20  5 16  5 17 36.0000000  0  9G01G03G07G08G11G17G22G28G30          0.000096046
  20174136.625 7    -62851.715 7    -47458.08649  20174136.32449
  23292139.063 5   -896276.961 5   -664103.94948  23292140.03548
  20980677.883 6     64287.836 6     50085.03549  20980674.94949
  23157315.180 5    241737.734 5    178460.18847  23157315.88347
  21245646.289 6    283816.711 6    213191.43448  21245642.83248
  24044982.898 5   -542521.309 5   -410352.41048  24044981.25448
  22609931.688 6   -557490.316 6   -429338.90247  22609927.35247
  23638815.703 5   -805421.207 5   -517830.05146  23638813.41446
  21650408.578 6   -418765.609 6   -315205.69149  21650408.88349
 20  5 16  5 17 37.0000000  0  9G01G03G07G08G11G17G22G28G30          0.000095488
  20174104.148 7    -63022.570 7    -47591.22349  20174104.05549
  23291456.555 5   -899862.344 5   -666897.75048  23291457.85948
  20980744.148 6     64636.492 6     50356.71149  20980741.62949
  23157501.648 5    242720.199 5    179225.73847  23157502.57847
  21245867.398 6    284978.926 6    214097.05948  21245863.79748
  24044546.492 5   -544814.464 5   -412139.28248  24044544.46148
  22609492.156 6   -559803.344 6   -431141.25847  22609487.48847
  23638166.172 5   -808833.555 5   -520489.01646  23638163.69546
  21650098.836 6   -420396.516 6   -316476.52749  21650098.17649
 20  5 16  5 17 38.0000000  0  9G01G03G07G08G11G17G22G28G30          0.000094931
  20174071.492 7    -63192.758 7    -47723.82849  20174072.05149
  23290774.211 5   -903447.656 5   -669691.50048  23290775.67648
  20980810.594 6     64985.758 6     50628.86749  20980807.75849
  23157688.563 5    243702.684 5    179991.30546  23157689.79746
  21246088.992 6    286141.441 6    215002.91848  21246085.02748
  24044110.242 5   -547107.457 5   -413926.02348  24044108.04748
  22609051.742 6   -562115.969 6   -432943.30547  22609047.58647
  23637516.719 5   -812245.957 5   -523148.03146  23637514.35946
  21649788.422 6   -422026.809 6   -317746.88349  21649787.83649
 20  5 16  5 17 39.0000000  0  9G01G03G07G08G11G17G22G28G30          0.000094374
  20174039.211 7    -63362.207 7    -47855.86749  20174039.56349
  23290092.234 5   -907032.703 5   -672485.04748  23290093.31648
  20980877.328 6     65335.723 6     50901.57049  20980874.56649
  23157875.820 5    244685.215 5    180756.91046  23157876.61346
  21246310.586 6    287304.301 6    215909.03548  21246306.57048
  24043673.477 5   -549400.258 5   -415712.62948  24043671.98048
  22608611.805 6   -564428.074 6   -434744.94547  22608607.59447
  23636867.711 5   -815658.272 5   -525806.98046  23636865.34446
  21649478.273 6   -423656.359 6   -319016.66849  21649477.96549
 20  5 16  5 17 40.0000000  0  9G01G03G07G08G11G17G22G28G30          0.000093817
  20174007.523 7    -63531.023 7    -47987.41449  20174007.42649
  23289409.914 5   -910617.738 5   -675278.58248  23289410.76648
  20980943.641 6     65686.266 6     51174.71949  20980941.00849
  23158062.461 5    245667.684 5    181522.46946  23158063.61346
  21246531.281 6    288467.398 6    216815.34448  21246527.82848
  24043237.445 5   -551692.930 5   -417499.12548  24043235.82848
  22608171.563 6   -566739.836 6   -436546.32047  22608167.31647
  23636218.297 5   -819070.777 5   -528466.06646  23636215.82846
  21649168.477 6   -425285.320 6   -320285.98849  21649167.90649
 20  5 16  5 17 41.0000000  0  9G01G03G07G08G11G17G22G28G30          0.000093260
  20173975.094 7    -63699.207 7    -48118.46549  20173975.45349
  23288727.539 5   -914202.664 5   -678072.01248  23288728.66848
  20981010.641 6     66037.402 6     51448.32849  20981007.93049
  23158249.680 5    246650.070 5    182287.97346  23158250.76646
  21246752.969 6    289630.770 6    217721.86348  21246748.96548
  24042801.289 5   -553985.527 5   -419285.56348  24042799.14848
  22607731.711 6   -569051.180 6   -438347.35947  22607727.52347
  23635568.906 5   -822483.289 5   -531125.18446  23635566.38746
  21648858.531 6   -426913.672 6   -321554.83249  21648857.95349
 20  5 16  5 17 42.0000000  0  9G01G03G07G08G11G17G22G28G30          0.000092703
  20173943.492 7    -63866.754 7    -48249.02049  20173943.41049
  23288045.438 5   -917787.523 5   -680865.39548  23288046.65248
  20981077.766 6     66389.141 6     51722.40249  20981074.77349
  23158436.398 5    247632.430 5    183053.44546  23158437.45346
  21246974.398 6    290794.359 6    218628.55948  21246970.71548
  24042365.008 5   -556277.996 5   -421071.89848  24042362.79748
  22607292.195 6   -571362.176 6   -440148.14147  22607287.94547
  23634919.813 5   -825895.953 5   -533784.40646  23634916.89146
  21648549.047 6   -428541.383 6   -322823.18049  21648548.16849
 20  5 16  5 17 43.0000000  0  9G01G03G07G08G11G17G22G28G30          0.000092146
  20173911.570 7    -64033.523 7    -48378.97749  20173911.57049
  23287362.750 5   -921372.109 5   -683658.57048  23287364.76248
  20981144.688 6     66741.586 6     51997.03549  20981141.84849
  23158623.984 5    248614.859 5    183818.98446  23158624.46546
  21247195.758 6    291958.359 6    219535.57448  21247192.08248
  24041929.141 5   -558570.199 5   -422858.02748  24041927.07448
  22606852.531 6   -573672.645 6   -441948.50047  22606848.10947
  23634270.328 5   -829308.469 5   -536443.51246  23634267.43846
  21648238.914 6   -430168.359 6   -324090.95749  21648238.41449
 20  5 16  5 17 44.0000000  0  9G01G03G07G08G11G17G22G28G30          0.000091589
  20173879.758 7    -64199.730 7    -48508.48849  20173880.25449
  23286680.883 5   -924956.707 5   -686451.76648  23286682.55548
  20981211.797 6     67094.609 6     52272.11749  20981208.98449
  23158810.586 5    249597.219 5    184584.45747  23158811.19947
  21247417.242 6    293122.543 6    220442.72748  21247413.52348
  24041492.828 5   -560862.367 5   -424644.13348  24041490.69948
  22606412.914 6   -575982.773 6   -443748.59447  22606408.56347
  23633620.500 5   -832721.148 5   -539102.73846  23633618.42246
  21647929.406 6   -431794.781 6   -325358.30549  21647928.94549
 20  5 16  5 17 45.0000000  0  9G01G03G07G08G11G17G22G28G30          0.000091032
  20173848.703 7    -64365.336 7    -48637.53549  20173848.72749
  23285998.930 5   -928541.242 5   -689244.91048  23286000.36348
  20981279.680 6     67448.105 6     52547.57049  20981276.46949
  23158998.016 5    250579.418 5    185349.80547  23158998.38347
  21247638.742 6    294286.918 6    221350.03548  21247634.96148
  24041056.352 5   -563154.473 5   -426430.19148  24041054.46148
  22605973.344 6   -578292.578 6   -445548.44547  22605969.05947
  23632971.234 5   -836133.996 5   -541762.10546  23632968.29346
  21647620.203 6   -433420.656 6   -326625.21949  21647619.85949
 20  5 16  5 17 46.0000000  0  9G01G03G07G08G11G17G22G28G30          0.000090475
  20173816.789 7    -64530.328 7    -48766.10249  20173817.02749
  23285317.023 5   -932125.711 5   -692038.00048  23285318.44148
  20981346.281 6     67802.191 6     52823.48449  20981343.85249
  23159184.289 5    251561.594 5    186115.14147  23159185.52047
  21247860.742 6    295451.539 6    222257.53548  21247856.73848
  24040619.984 5   -565446.504 5   -428216.18448  24040618.33648
  22605533.727 6   -580602.031 6   -447348.01647  22605529.71147
  23632322.016 5   -839546.906 5   -544421.50446  23632319.11346
  21647311.117 6   -435045.953 6   -327891.68449  21647310.62549
 20  5 16  5 17 47.0000000  0  9G01G03G07G08G11G17G22G28G30          0.000089918
  20173785.867 7    -64694.719 7    -48894.19149  20173786.11349
  23284634.172 5   -935710.121 5   -694831.05148  23284636.16448
  20981413.828 6     68156.883 6     53099.87149  20981411.15649
  23159371.063 5    252543.754 5    186880.45747  23159372.28547
  21248082.055 6    296616.383 6    223165.20748  21248078.22748
  24040183.695 5   -567738.426 5   -430002.09448  24040182.18448
  22605094.289 6   -582911.102 6   -449147.29347  22605090.49247
  23631672.234 5   -842959.922 5   -547081.00046  23631669.69946
  21647001.977 6   -436670.625 6   -329157.66049  21647001.25849
 20  5 16  5 17 48.0000000  0  9G01G03G07G08G11G17G22G28G30          0.000089361
  20173754.375 7    -64858.402 7    -49021.73849  20173754.63749
  23283952.375 5   -939294.379 5   -697623.97748  23283954.28948
  20981481.641 6     68512.184 6     53376.72349  20981478.71949
  23159557.820 5    253525.832 5    187645.70747  23159558.53547
  21248304.094 6    297781.539 6    224073.11748  21248299.89548
  24039748.453 5   -570030.176 5   -431787.86348  24039745.97348
  22604654.641 6   -585219.746 6   -450946.23847  22604651.14847
  23631023.000 5   -846372.973 5   -549740.51246  23631020.41046
  21646693.008 6   -438294.652 6   -330423.12949  21646692.20749
 20  5 16  5 17 49.0000000  0  9G01G03G07G08G11G17G22G28G30          0.000088804
  20173723.555 7    -65021.332 7    -49148.69949  20173723.43849
  23283270.422 5   -942878.414 5   -700416.73848  23283272.08248
  20981549.320 6     68868.215 6     53654.14549  20981546.60249
  23159744.758 5    254508.031 5    188411.06347  23159746.35247
  21248525.773 6    298947.066 6    224981.32048  21248521.97348
  24039312.086 5   -572321.703 5   -433573.47348  24039310.01648
  22604215.813 6   -587527.848 6   -452744.77047  22604211.87947
  23630373.344 5   -849785.953 5   -552399.98046  23630371.03946
  21646383.992 6   -439917.926 6   -331688.02049  21646383.55549
 20  5 16  5 17 50.0000000  0  9G01G03G07G08G11G17G22G28G30          0.000088247
  20173693.102 7    -65183.680 7    -49275.20349  20173692.93449
  23282588.523 5   -946462.430 5   -703209.48448  23282590.29348
  20981617.266 6     69224.781 6     53931.98849  20981614.71549
  23159931.758 5    255490.176 5    189176.36347  23159932.68047
  21248747.531 6    300112.805 6    225889.68848  21248743.74648
  24038875.766 5   -574613.156 5   -435359.01648  24038874.48048
  22603776.938 6   -589835.652 6   -454543.05947  22603772.41447
  23629724.117 5   -853199.055 5   -555059.54346  23629721.36746
  21646075.563 6   -441540.648 6   -332952.48049  21646074.65649
 20  5 16  5 17 51.0000000  0  9G01G03G07G08G11G17G22G28G30          0.000087690
  20173662.023 7    -65345.402 7    -49401.21549  20173661.88349
  23281906.930 5   -950046.320 5   -706002.13348  23281907.96548
  20981685.055 6     69581.930 6     54210.28149  20981682.59049
  23160118.711 5    256472.230 5    189941.59047  23160119.64147
  21248969.281 6    301278.773 6    226798.23048  21248965.30548
  24038439.859 5   -576904.547 5   -437144.51648  24038438.07048
  22603337.320 6   -592143.039 6   -456341.01647  22603333.49247
  23629074.688 5   -856612.270 5   -557719.18846  23629072.14846
  21645766.945 6   -443162.746 6   -334216.45349  21645765.75049
 20  5 16  5 17 52.0000000  0  9G01G03G07G08G11G17G22G28G30          0.000087133
  20173631.344 7    -65506.473 7    -49526.72749  20173631.40649
  23281224.625 5   -953630.156 5   -708794.72348  23281226.02048
  20981752.945 7     69939.699 7     54489.06649  20981750.73849
  23160306.000 5    257454.258 5    190706.81647  23160306.77747
  21249191.336 6    302445.012 6    227706.99248  21249187.19948
  24038003.906 5   -579195.742 5   -438929.86348  24038002.07848
  22602898.742 6   -594450.078 6   -458138.69947  22602894.28147
  23628424.484 5   -860025.504 5   -560378.85246  23628422.13746
  21645458.000 6   -444784.223 6   -335479.94149  21645457.41849
 20  5 16  5 17 53.0000000  0  9G01G03G07G08G11G17G22G28G30          0.000086576
  20173600.719 7    -65666.875 7    -49651.71149  20173601.04749
  23280542.391 5   -957213.836 5   -711587.19548  23280543.79748
  20981821.211 6     70298.090 6     54768.33249  20981818.87549
  23160492.383 5    258436.328 5    191472.05546  23160493.13746
  21249413.688 6    303611.555 6    228615.98048  21249409.62548
  24037568.313 5   -581486.820 5   -440715.12148  24037565.87948
  22602459.867 6   -596756.656 6   -459936.03147  22602455.50447
  23627775.266 5   -863438.809 5   -563038.58246  23627772.53146
  21645149.453 6   -446405.055 6   -336742.93049  21645149.31349
 20  5 16  5 17 54.0000000  0  9G01G03G07G08G11G17G22G28G30          0.000086020
  20173570.375 7    -65826.625 7    -49776.19549  20173570.71949
  23279860.383 5   -960797.457 5   -714379.61748  23279862.16448
  20981889.914 6     70657.051 6     55048.04349  20981887.22749
  23160679.539 5    259418.254 5    192237.18846  23160680.34446
  21249635.789 6    304778.336 6    229525.16048  21249631.41448
  24037132.109 5   -583777.789 5   -442500.28948  24037129.93848
  22602020.359 6   -599062.848 6   -461733.06347  22602016.60947
  23627125.930 5   -866852.203 5   -565698.36346  23627122.99646
  21644841.023 6   -448025.277 6   -338005.44149  21644840.49649
 20  5 16  5 17 55.0000000  0  9G01G03G07G08G11G17G22G28G30          0.000085463
  20173539.930 7    -65985.805 7    -49900.23449  20173539.71949
  23279178.438 5   -964381.008 5   -717171.98848  23279180.26648
  20981958.313 6     71016.570 6     55328.18449  20981955.37149
  23160866.305 5    260400.086 5    193002.25447  23160866.72747
  21249857.742 6    305945.293 6    230434.47748  21249853.55148
  24036695.844 5   -586068.723 5   -444285.42648  24036694.32848
  22601581.664 6   -601368.738 6   -463529.86747  22601577.97347
  23626476.305 5   -870265.699 5   -568358.23447  23626473.43047
  21644532.961 6   -449644.941 6   -339267.52049  21644532.50449
 20  5 16  5 17 56.0000000  0  9G01G03G07G08G11G17G22G28G30          0.000084906
  20173509.984 7    -66144.355 7    -50023.77349  20173509.89849
  23278496.320 5   -967964.500 5   -719964.31648  23278498.22748
  20982026.906 6     71376.652 6     55608.76249  20982024.01649
  23161053.602 5    261381.898 5    193767.30947  23161053.72347
  21250079.398 6    307112.500 6    231343.98848  21250075.57848
  24036259.711 5   -588359.543 5   -446070.48848  24036258.64848
  22601143.156 6   -603674.227 6   -465326.35247  22601139.05147
  23625826.375 5   -873679.289 5   -571018.17646  23625823.48046
  21644224.844 6   -451264.000 6   -340529.12149  21644224.35549
 20  5 16  5 17 57.0000000  0  9G01G03G07G08G11G17G22G28G30          0.000084347
  20173480.102 7    -66302.195 7    -50146.77049  20173479.82849
  23277815.148 5   -971547.801 5   -722756.50448  23277816.35548
  20982095.383 6     71737.430 6     55889.88349  20982092.50449
  23161240.117 5    262363.734 5    194532.37947  23161240.44947
  21250302.133 6    308280.047 6    232253.76648  21250297.99648
  24035824.711 5   -590650.164 5   -447855.39148  24035822.43448
  22600704.547 6   -605979.250 6   -467122.47347  22600700.63747
  23625177.133 5   -877092.895 5   -573678.12147  23625174.16047
  21643916.820 6   -452882.363 6   -341790.18849  21643916.44549
 20  5 16  5 17 58.0000000  0  9G01G03G07G08G11G17G22G28G30          0.000083792
  20173450.102 7    -66459.465 7    -50269.31649  20173450.11349
  23277132.867 5   -975131.098 5   -725548.68448  23277134.75848
  20982164.063 6     72098.707 6     56171.39549  20982161.64849
  23161426.828 5    263345.434 5    195297.33647  23161427.17247
  21250524.055 6    309447.781 6    233163.69548  21250519.85948
  24035388.789 5   -592940.758 5   -449640.26648  24035386.77048
  22600266.102 6   -608283.941 6   -468918.33247  22600262.12947
  23624528.008 5   -880506.625 5   -576338.16446  23624524.71546
  21643608.813 6   -454500.176 6   -343050.82049  21643608.43849
 20  5 16  5 17 59.0000000  0  9G01G03G07G08G11G17G22G28G30          0.000083233
  20173420.500 7    -66615.984 7    -50391.28149  20173419.99649
  23276450.500 4   -978714.160 4   -728340.66448  23276452.94148
  20982233.211 6     72460.676 6     56453.44949  20982230.06649
  23161613.188 5    264327.234 5    196062.37147  23161614.33247
  21250746.727 6    310615.875 6    234073.89148  21250742.40648
  24034952.172 5   -595231.098 5   -451424.94548  24034950.62948
  22599827.875 6   -610588.156 6   -470713.82447  22599823.68047
  23623878.109 5   -883920.340 5   -578998.19947  23623875.19947
  21643300.984 6   -456117.266 6   -344310.89149  21643301.04749
 20  5 16  5 18  0.0000000  0  9G01G03G07G08G11G17G22G28G30          0.000082676
  20173390.516 7    -66771.859 7    -50512.74249  20173390.87949
  23275769.234 4   -982297.141 4   -731132.59448  23275771.12948
  20982301.914 6     72823.309 6     56736.01249  20982299.08249
  23161800.578 5    265308.969 5    196827.36347  23161801.10547
  21250968.633 6    311784.258 6    234984.32048  21250964.75048
  24034516.500 5   -597521.297 5   -453209.51648  24034515.00448
  22599389.211 6   -612891.938 6   -472508.98047  22599385.19547
  23623228.633 5   -887334.102 5   -581658.28146  23623225.25046
  21642993.984 6   -457733.727 6   -345570.47349  21642993.10949
 20  5 16  5 18  1.0000000  0  9G01G03G07G08G11G17G22G28G30          0.000082119
  20173360.914 7    -66927.125 7    -50633.72749  20173360.51649
  23275086.938 4   -985880.070 4   -733924.48448  23275088.88748
  20982370.891 6     73186.461 6     57018.98049  20982367.97749
  23161987.609 5    266290.648 5    197592.30547  23161987.97747
  21251191.008 6    312952.852 6    235894.90648  21251187.12948
  24034080.570 5   -599811.473 5   -454994.07048  24034078.85548
  22598950.969 6   -615195.414 6   -474303.89847  22598946.84047
  23622579.297 5   -890747.953 5   -584318.42246  23622575.62546
  21642686.188 6   -459349.598 6   -346829.59449  21642685.68449
 20  5 16  5 18  2.0000000  0  9G01G03G07G08G11G17G22G28G30          0.000081562
  20173331.539 7    -67081.641 7    -50754.13349  20173331.59449
  23274405.063 5   -989462.813 5   -736716.24248  23274407.27748
  20982440.242 6     73550.293 6     57302.47749  20982437.73049
  23162173.961 5    267272.395 5    198357.30547  23162174.79747
  21251413.164 6    314121.777 6    236805.76248  21251409.73448
  24033645.016 5   -602101.410 5   -456778.43448  24033643.53148
  22598512.781 6   -617498.379 6   -476098.41447  22598508.64147
  23621929.227 5   -894161.820 5   -586978.58246  23621925.92246
  21642378.703 6   -460964.789 6   -348088.18849  21642378.73449
 20  5 16  5 18  3.0000000  0  9G01G03G07G08G11G17G22G28G30          0.000081005
  20173302.031 7    -67235.480 7    -50874.00849  20173302.05149
  23273723.250 4   -993045.418 4   -739507.88748  23273725.89148
  20982510.031 6     73914.789 6     57586.49649  20982507.14849
  23162361.344 5    268254.156 5    199122.31347  23162361.84847
  21251635.969 6    315291.023 6    237716.86748  21251632.36348
  24033209.273 5   -604391.203 5   -458562.69148  24033207.66848
  22598074.141 6   -619800.883 6   -477892.57047  22598070.29747
  23621279.484 5   -897575.688 5   -589638.72746  23621276.89846
  21642071.859 6   -462579.281 6   -349346.22749  21642071.12549
 20  5 16  5 18  4.0000000  0  9G01G03G07G08G11G17G22G28G30          0.000080448
  20173273.109 7    -67388.621 7    -50993.33649  20173273.33649
  23273041.875 5   -996627.805 5   -742299.35548  23273044.15648
  20982579.133 6     74279.910 6     57871.00849  20982576.34049
  23162547.391 5    269235.895 5    199887.30946  23162548.62146
  21251858.492 6    316460.582 6    238628.20748  21251854.69548
  24032773.469 5   -606680.801 5   -460346.79748  24032771.99648
  22597636.086 6   -622102.980 6   -479686.40647  22597632.32847
  23620629.883 5   -900989.570 5   -592298.89146  23620626.81346
  21641764.586 6   -464193.082 6   -350603.73449  21641764.11349
 20  5 16  5 18  5.0000000  0  9G01G03G07G08G11G17G22G28G30          0.000079891
  20173244.172 7    -67541.121 7    -51112.16849  20173243.96149
  23272359.852 5  -1000210.160 5   -745090.80148  23272362.29748
  20982649.313 6     74645.617 6     58155.97749  20982646.11349
  23162734.750 5    270217.586 5    200652.26247  23162735.57047
  21252081.164 6    317630.367 6    239539.72348  21252077.69948
  24032337.836 5   -608970.293 5   -462130.80948  24032336.25448
  22597198.195 6   -624404.660 6   -481479.92647  22597194.54347
  23619980.305 5   -904403.559 5   -594959.14846  23619977.41046
  21641457.383 6   -465806.309 6   -351860.79749  21641457.03149
 20  5 16  5 18  6.0000000  0  9G01G03G07G08G11G17G22G28G30          0.000079334
  20173215.234 7    -67693.008 7    -51230.52049  20173214.92249
  23271678.578 5  -1003792.391 5   -747882.13748  23271680.52748
  20982718.711 6     75011.938 6     58441.42249  20982715.73449
  23162921.508 5    271199.227 5    201417.17646  23162922.37146
  21252303.602 6    318800.426 6    240451.45748  21252300.19148
  24031902.516 5   -611259.707 5   -463914.77048  24031900.52748
  22596760.313 6   -626705.965 6   -483273.15647  22596756.42247
  23619330.641 5   -907817.590 5   -597619.43846  23619327.80946
  21641150.781 6   -467418.914 6   -353117.37149  21641150.17649
 20  5 16  5 18  7.0000000  0  9G01G03G07G08G11G17G22G28G30          0.000078777
  20173186.422 7    -67844.309 7    -51348.41849  20173186.23049
  23270996.953 4  -1007374.621 4   -750673.47748  23270998.82048
  20982788.813 6     75378.773 6     58727.27049  20982785.53149
  23163107.820 5    272180.773 5    202182.00447  23163108.91847
  21252526.156 6    319970.641 6    241363.31648  21252522.81348
  24031466.320 5   -613549.051 5   -465698.67248  24031464.71148
  22596322.672 6   -629006.949 6   -485066.12947  22596318.94147
  23618680.641 5   -911231.754 5   -600279.82446  23618677.81346
  21640843.695 6   -469030.949 6   -354373.50449  21640843.22349
 20  5 16  5 18  8.0000000  0  9G01G03G07G08G11G17G22G28G30          0.000078220
  20173157.414 7    -67994.996 7    -51465.84049  20173157.37949
  23270315.844 4  -1010956.750 4   -753464.74648  23270317.35948
  20982858.219 6     75746.164 6     59013.54749  20982855.71949
  23163294.664 5    273162.250 5    202946.79347  23163295.82047
  21252749.516 6    321141.141 6    242275.39148  21252745.58248
  24031030.938 5   -615838.305 5   -467482.50448  24031029.38348
  22595884.414 6   -631307.551 6   -486858.80947  22595880.85947
  23618031.359 5   -914646.016 5   -602940.28546  23618027.94546
  21640537.656 6   -470642.387 6   -355629.17649  21640536.83249
 20  5 16  5 18  9.0000000  0  9G01G03G07G08G11G17G22G28G30          0.000077663
  20173129.320 7    -68145.074 7    -51582.77749  20173129.42249
  23269633.484 5  -1014538.773 5   -756255.93048  23269635.47348
  20982928.070 6     76114.133 6     59300.27349  20982925.32049
  23163481.531 5    274143.594 5    203711.47747  23163482.28547
  21252971.945 6    322311.820 6    243187.60548  21252968.57048
  24030595.305 5   -618127.461 5   -469266.26248  24030593.98048
  22595447.164 6   -633607.793 6   -488651.19547  22595443.18847
  23617381.570 5   -918060.410 5   -605600.84446  23617378.41446
  21640230.523 6   -472253.266 6   -356884.40649  21640230.25449
 20  5 16  5 18 10.0000000  0  9G01G03G07G08G11G17G22G28G30          0.000077106
  20173100.672 7    -68294.566 7    -51699.27049  20173100.91449
  23268952.148 5  -1018120.828 5   -759047.14148  23268953.81648
  20982998.367 6     76482.672 6     59587.44949  20982995.18049
  23163668.031 5    275124.922 5    204476.15246  23163669.11746
  21253194.672 6    323482.727 6    244100.00048  21253190.97348
  24030159.820 5   -620416.578 5   -471049.98048  24030158.23048
  22595009.031 6   -635907.703 6   -490443.32847  22595005.80147
  23616731.703 5   -921474.875 5   -608261.45746  23616728.78946
  21639924.656 6   -473863.570 6   -358139.19149  21639924.11749
 20  5 16  5 18 11.0000000  0  9G01G03G07G08G11G17G22G28G30          0.000076550
  20173072.500 7    -68443.367 7    -51815.22349  20173072.42649
  23268270.750 5  -1021702.707 5   -761838.21548  23268272.23448
  20983068.953 6     76851.797 6     59875.07049  20983065.93849
  23163854.742 5    276106.195 5    205240.77746  23163855.29746
  21253417.711 6    324653.926 6    245012.61748  21253414.01648
  24029723.789 5   -622705.508 5   -472833.56648  24029722.31648
  22594571.922 6   -638207.195 6   -492235.13747  22594567.73047
  23616082.172 5   -924889.434 5   -610922.15246  23616079.23046
  21639618.125 6   -475473.207 6   -359393.44949  21639617.53149
 20  5 16  5 18 12.0000000  0  9G01G03G07G08G11G17G22G28G30          0.000075993
  20173044.344 7    -68591.457 7    -51930.61749  20173044.57049
  23267589.180 4  -1025284.395 4   -764629.13748  23267590.87548
  20983139.242 6     77221.648 6     60163.26249  20983136.48049
  23164041.500 5    277087.547 5    206005.47347  23164042.08647
  21253640.422 6    325825.469 6    245925.50848  21253636.62948
  24029288.742 5   -624994.215 5   -474616.97348  24029287.35548
  22594134.336 6   -640506.211 6   -494026.57847  22594130.23047
  23615432.305 5   -928303.914 5   -613582.79347  23615428.98447
  21639311.938 6   -477082.125 6   -360647.15649  21639311.40249
 20  5 16  5 18 13.0000000  0  9G01G03G07G08G11G17G22G28G30          0.000075436
  20173015.891 7    -68738.965 7    -52045.55149  20173016.06349
  23266907.523 5  -1028866.059 5   -767420.04748  23266909.03948
  20983209.539 6     77592.004 6     60451.85249  20983206.83649
  23164228.344 5    278068.773 5    206770.06347  23164228.93847
  21253863.320 6    326997.188 6    246838.54348  21253859.96948
  24028853.109 5   -627282.910 5   -476400.37548  24028851.58648
  22593697.375 6   -642804.883 6   -495817.74647  22593693.07047
  23614782.219 5   -931718.586 5   -616243.58246  23614779.65246
  21639005.930 6   -478690.523 6   -361900.44949  21639005.44949
 20  5 16  5 18 14.0000000  0  9G01G03G07G08G11G17G22G28G30          0.000074879
  20172988.258 7    -68885.703 7    -52159.89549  20172988.04749
  23266225.906 5  -1032447.535 5   -770210.80548  23266227.65648
  20983280.133 6     77963.109 6     60741.02749  20983277.16449
  23164415.000 5    279050.113 5    207534.73847  23164415.85547
  21254086.586 6    328169.320 6    247751.88748  21254082.53948
  24028417.664 5   -629571.348 5   -478183.57848  24028416.11748
  22593259.445 6   -645103.004 6   -497608.49247  22593255.51247
  23614132.641 5   -935133.160 5   -618904.28146  23614129.94946
  21638699.688 6   -480298.145 6   -363153.14149  21638699.86749
 20  5 16  5 18 15.0000000  0  9G01G03G07G08G11G17G22G28G30          0.000074322
  20172960.500 7    -69031.848 7    -52273.77049  20172960.63349
  23265544.609 4  -1036028.914 4   -773001.47748  23265546.47348
  20983350.594 6     78334.734 6     61030.60249  20983347.88349
  23164602.156 5    280031.324 5    208299.31647  23164602.57447
  21254309.953 6    329341.637 6    248665.38348  21254305.86748
  24027982.320 5   -631859.688 5   -479966.69148  24027980.18448
  22592822.336 6   -647400.762 6   -499398.94947  22592818.08247
  23613482.273 5   -938547.883 5   -621565.09446  23613479.88746
  21638394.180 6   -481905.199 6   -364405.39149  21638393.70749
 20  5 16  5 18 16.0000000  0  9G01G03G07G08G11G17G22G28G30          0.000073765
  20172932.625 7    -69177.461 7    -52387.23849  20172932.83249
  23264862.547 5  -1039610.352 5   -775792.19548  23264864.56348
  20983421.898 6     78706.828 6     61320.53949  20983418.85249
  23164788.883 5    281012.422 5    209063.80147  23164789.20347
  21254532.891 6    330514.086 6    249578.98048  21254529.05148
  24027546.734 5   -634148.070 5   -481749.84448  24027544.67648
  22592384.875 6   -649698.273 6   -501189.22347  22592381.15247
  23612832.789 5   -941962.777 5   -624226.05546  23612829.59846
  21638088.438 6   -483511.766 6   -365657.26649  21638088.24249
 20  5 16  5 18 17.0000000  0  9G01G03G07G08G11G17G22G28G30          0.000073208
  20172904.984 7    -69322.309 7    -52500.10549  20172905.03149
  23264181.430 4  -1043191.504 4   -778582.69948  23264182.93048
  20983492.680 6     79079.676 6     61611.07049  20983489.68049
  23164975.438 5    281993.566 5    209828.33247  23164976.23447
  21254756.211 6    331686.934 6    250492.88348  21254752.16048
  24027111.469 5   -636436.195 5   -483532.79748  24027109.22348
  22591948.367 6   -651995.250 6   -502979.08247  22591944.06647
  23612182.547 5   -945377.605 5   -626886.96146  23612180.00046
  21637783.086 6   -485117.574 6   -366908.55149  21637782.64149
 20  5 16  5 18 18.0000000  0  9G01G03G07G08G11G17G22G28G30          0.000072651
  20172877.734 7    -69466.449 7    -52612.42649  20172877.71149
  23263500.188 5  -1046772.504 5   -781373.09448  23263501.57448
  20983563.883 6     79453.164 6     61902.09849  20983560.60549
  23165162.195 5    282974.785 5    210592.91847  23165162.51647
  21254979.469 6    332860.094 6    251407.03148  21254975.71948
  24026676.070 5   -638724.109 5   -485315.59048  24026674.35948
  22591511.094 6   -654291.754 6   -504768.55547  22591506.75047
  23611533.063 5   -948792.445 5   -629547.86346  23611530.34446
  21637477.250 6   -486722.707 6   -368159.30149  21637477.02349
 20  5 16  5 18 19.0000000  0  9G01G03G07G08G11G17G22G28G30          0.000072094
  20172850.445 7    -69609.984 7    -52724.27349  20172850.19549
  23262818.484 5  -1050353.488 5   -784163.47748  23262820.14848
  20983634.492 6     79827.211 6     62193.56349  20983631.87949
  23165348.594 5    283955.875 5    211357.41046  23165349.32446
  21255202.734 6    334033.488 6    252321.37148  21255198.82448
  24026239.914 5   -641012.008 5   -487098.36348  24026238.85948
  22591074.047 6   -656587.910 6   -506557.76647  22591069.73047
  23610882.633 5   -952207.395 5   -632208.87546  23610880.10246
  21637172.242 6   -488327.250 6   -369409.59449  21637171.57049
 20  5 16  5 18 20.0000000  0  9G01G03G07G08G11G17G22G28G30          0.000071537
  20172823.133 7    -69752.820 7    -52835.57049  20172823.23049
  23262136.766 5  -1053934.258 5   -786953.68848  23262138.64848
  20983706.273 6     80201.906 6     62485.52749  20983703.30949
  23165535.555 5    284936.992 5    212121.90246  23165536.07446
  21255426.047 6    335207.176 6    253235.92648  21255422.18848
  24025804.945 5   -643299.688 5   -488880.97748  24025803.45348
  22590637.570 6   -658883.637 6   -508346.63747  22590633.29347
  23610233.680 5   -955622.332 5   -634869.86346  23610230.51246
  21636866.867 6   -489931.090 6   -370659.33649  21636866.55549
 20  5 16  5 18 21.0000000  0  9G01G03G07G08G11G17G22G28G30          0.000070980
  20172796.336 7    -69895.082 7    -52946.42649  20172796.09849
  23261455.063 5  -1057514.973 5   -789743.85948  23261457.28948
  20983777.898 6     80577.145 6     62777.92249  20983774.45349
  23165721.547 5    285918.027 5    212886.34446  23165722.73446
  21255649.023 6    336381.094 6    254150.66848  21255645.69148
  24025369.555 5   -645587.293 5   -490663.52748  24025368.37948
  22590200.313 6   -661178.996 6   -510135.22747  22590196.29747
  23609583.516 5   -959037.395 5   -637530.94946  23609580.57046
  21636561.992 6   -491534.383 6   -371908.65249  21636561.23449
 20  5 16  5 18 22.0000000  0  9G01G03G07G08G11G17G22G28G30          0.000070423
  20172769.156 7    -70036.727 7    -53056.80149  20172769.71149
  23260774.367 5  -1061095.691 5   -792534.02748  23260775.82848
  20983849.148 6     80952.941 6     63070.75049  20983846.08249
  23165908.922 5    286898.941 5    213650.69146  23165909.14146
  21255872.625 6    337555.199 6    255065.55548  21255869.41848
  24024934.461 5   -647874.848 5   -492446.03548  24024932.84048
  22589763.922 6   -663474.000 6   -511923.54747  22589759.50047
  23608934.250 5   -962452.590 5   -640192.14546  23608930.75846
  21636256.828 6   -493137.113 6   -373157.53549  21636256.44549
 20  5 16  5 18 23.0000000  0  9G01G03G07G08G11G17G22G28G30          0.000069866
  20172742.523 7    -70177.648 7    -53166.60249  20172742.51649
  23260092.789 5  -1064676.172 5   -795324.00848  23260094.31348
  20983920.750 6     81329.410 6     63364.09849  20983917.92249
  23166095.047 5    287879.934 5    214415.11347  23166095.83247
  21256095.828 6    338729.680 6    255980.73048  21256092.21948
  24024499.320 5   -650162.191 5   -494228.37948  24024497.60548
  22589327.352 6   -665768.543 6   -513711.50047  22589322.93847
  23608283.844 5   -965867.750 5   -642853.30946  23608280.64146
  21635951.914 6   -494739.117 6   -374405.84849  21635951.57449
 20  5 16  5 18 24.0000000  0  9G01G03G07G08G11G17G22G28G30          0.000069309
  20172715.430 7    -70318.023 7    -53275.99249  20172715.61749
  23259411.969 5  -1068256.664 5   -798114.00448  23259412.98048
  20983992.445 6     81706.398 6     63657.85949  20983989.52049
  23166282.039 5    288860.785 5    215179.41047  23166282.12547
  21256319.258 6    339904.305 6    256896.02348  21256316.13348
  24024063.648 5   -652449.520 5   -496010.70748  24024062.69948
  22588890.344 6   -668062.773 6   -515499.21947  22588886.33647
  23607633.906 5   -969283.086 5   -645514.60546  23607630.57046
  21635646.703 6   -496340.563 6   -375653.73049  21635646.27349
 20  5 16  5 18 25.0000000  0  9G01G03G07G08G11G17G22G28G30          0.000068752
  20172688.930 7    -70457.805 7    -53384.91049  20172688.93849
  23258730.445 4  -1071837.074 4   -800903.93048  23258732.00448
  20984064.281 6     82083.953 6     63952.05149  20984061.67249
  23166469.039 5    289841.586 5    215943.67247  23166469.23047
  21256543.172 6    341079.152 6    257811.49248  21256539.33248
  24023628.633 5   -654736.742 5   -497792.95748  24023627.07048
  22588453.828 6   -670356.633 6   -517286.64547  22588449.83247
  23606984.391 5   -972698.516 5   -648175.97746  23606980.80546
  21635342.156 6   -497941.461 6   -376901.18849  21635342.03549
 20  5 16  5 18 26.0000000  0  9G01G03G07G08G11G17G22G28G30          0.000068195
  20172662.867 7    -70596.699 7    -53493.14149  20172662.76249
  23258048.789 5  -1075417.127 5   -803693.56748  23258050.75448
  20984136.305 6     82462.313 6     64246.87549  20984133.65649
  23166655.344 5    290822.555 5    216708.05546  23166655.68446
  21256766.633 6    342254.492 6    258727.34448  21256763.29748
  24023194.078 5   -657023.641 5   -499574.95748  24023191.96548
  22588017.617 6   -672649.895 6   -519073.60247  22588013.66847
  23606334.219 5   -976113.770 5   -650837.22346  23606330.98846
  21635037.523 6   -499541.492 6   -378147.96549  21635037.66849
 20  5 16  5 18 27.0000000  0  9G01G03G07G08G11G17G22G28G30          0.000067638
  20172636.422 7    -70734.969 7    -53600.88349  20172636.54349
  23257368.125 5  -1078997.172 5   -806483.21148  23257369.28148
  20984208.430 6     82841.262 6     64542.16449  20984205.59849
  23166842.344 5    291803.465 5    217472.40646  23166842.37946
  21256990.672 6    343430.039 6    259643.35247  21256986.77347
  24022758.539 5   -659310.438 5   -501356.87948  24022756.85548
  22587581.141 6   -674942.758 6   -520860.25047  22587577.07447
  23605684.773 5   -979529.125 5   -653498.53546  23605680.85246
  21634733.492 6   -501140.957 6   -379394.30149  21634733.21549
 20  5 16  5 18 28.0000000  0  9G01G03G07G08G11G17G22G28G30          0.000067081
  20172610.172 7    -70872.691 7    -53708.20349  20172610.46149
  23256686.063 5  -1082577.172 5   -809272.82048  23256688.34448
  20984280.641 6     83220.727 6     64837.84449  20984277.73849
  23167028.570 5    292784.273 5    218236.66447  23167029.19947
  21257214.031 6    344605.797 6    260559.52748  21257210.39548
  24022323.492 5   -661597.172 5   -503138.74648  24022321.69948
  22587145.156 6   -677235.324 6   -522646.66047  22587141.12947
  23605034.891 5   -982944.633 5   -656159.96946  23605031.12946
  21634428.875 6   -502739.867 6   -380640.21149  21634428.79749
 20  5 16  5 18 29.0000000  0  9G01G03G07G08G11G17G22G28G30          0.000066525
  20172584.016 7    -71009.664 7    -53814.93449  20172583.98849
  23256005.453 5  -1086156.898 5   -812062.21948  23256006.82848
  20984353.164 6     83600.891 6     65134.07849  20984350.14149
  23167215.797 5    293765.148 5    219000.98046  23167215.66846
  21257438.336 6    345781.906 6    261475.97748  21257434.43448
  24021888.570 5   -663883.703 5   -504920.46548  24021886.48848
  22586708.930 6   -679527.348 6   -524432.65247  22586705.03547
  23604384.414 5   -986360.066 5   -658821.34446  23604381.07446
  21634125.289 6   -504338.039 6   -381885.53149  21634124.91849
 20  5 16  5 18 30.0000000  0  9G01G03G07G08G11G17G22G28G30          0.000065968
  20172558.016 7    -71145.938 7    -53921.11749  20172558.05549
  23255323.781 5  -1089736.555 5   -814851.56348  23255325.88348
  20984425.586 6     83981.695 6     65430.80949  20984422.39549
  23167402.258 5    294746.004 5    219765.28547  23167402.44147
  21257662.031 6    346958.336 6    262392.66447  21257658.25847
  24021453.695 5   -666170.059 5   -506702.04348  24021451.27048
  22586272.539 6   -681818.984 6   -526218.34447  22586268.49647
  23603734.508 5   -989775.555 5   -661482.76246  23603730.97746
  21633821.406 6   -505935.535 6   -383130.33649  21633820.97749
 20  5 16  5 18 31.0000000  0  9G01G03G07G08G11G17G22G28G30          0.000065411
  20172532.234 7    -71281.605 7    -54026.83649  20172532.46949
  23254642.969 5  -1093316.113 5   -817640.82848  23254644.48448
  20984497.742 6     84363.066 6     65727.97349  20984495.19149
  23167588.617 5    295726.801 5    220529.53947  23167588.64547
  21257886.063 6    348134.957 6    263309.51648  21257882.17248
  24021018.125 5   -668456.340 5   -508483.56348  24021016.14848
  22585836.508 6   -684110.207 6   -528003.70747  22585832.44147
  23603084.703 5   -993191.141 5   -664144.25846  23603080.83646
  21633517.484 6   -507532.461 6   -384374.68849  21633517.34449
 20  5 16  5 18 32.0000000  0  9G01G03G07G08G11G17G22G28G30          0.000064854
  20172506.523 7    -71416.691 7    -54132.09849  20172506.73449
  23253962.242 5  -1096895.641 5   -820430.06348  23253963.29748
  20984570.648 6     84744.965 6     66025.56349  20984567.71949
  23167775.719 5    296707.488 5    221293.71947  23167776.07047
  21258109.992 6    349311.781 6    264226.52348  21258106.23448
  24020582.594 5   -670742.566 5   -510265.03548  24020581.50848
  22585400.969 6   -686401.117 6   -529788.83647  22585396.84047
  23602434.281 5   -996606.844 5   -666805.84446  23602430.80546
  21633213.688 6   -509128.801 6   -385618.59049  21633213.06649
 20  5 16  5 18 33.0000000  0  9G01G03G07G08G11G17G22G28G30          0.000064297
  20172481.344 7    -71551.094 7    -54236.82449  20172481.05549
  23253281.609 5  -1100475.000 5   -823219.17248  23253282.18048
  20984643.258 6     85127.496 6     66323.63749  20984640.41049
  23167962.383 5    297688.164 5    222057.88347  23167962.82847
  21258333.695 6    350488.914 6    265143.77048  21258330.35548
  24020148.102 5   -673028.645 5   -512046.38748  24020145.87148
  22584965.297 6   -688691.578 6   -531573.61347  22584960.83247
  23601784.648 5  -1000022.586 5   -669467.46546  23601780.89846
  21632910.063 6   -510724.512 6   -386862.00449  21632909.73449
 20  5 16  5 18 34.0000000  0  9G01G03G07G08G11G17G22G28G30          0.000063740
  20172455.367 7    -71685.004 7    -54341.17249  20172456.08249
  23252599.195 5  -1104054.402 5   -826008.31348  23252601.53548
  20984716.250 6     85510.500 6     66622.07449  20984713.73049
  23168148.563 5    298668.699 5    222821.93047  23168148.95347
  21258557.938 6    351666.156 6    266061.10248  21258554.15248
  24019713.227 5   -675314.719 5   -513827.73448  24019711.36748
  22584529.414 6   -690981.797 6   -533358.20747  22584524.82847
  23601134.789 5  -1003438.508 5   -672129.21946  23601130.88346
  21632606.406 6   -512319.719 6   -388105.02349  21632605.82049
 20  5 16  5 18 35.0000000  0  9G01G03G07G08G11G17G22G28G30          0.000063183
  20172430.016 7    -71818.328 7    -54445.05549  20172430.50449
  23251918.914 5  -1107633.762 5   -828797.42648  23251919.84048
  20984789.328 6     85894.031 6     66920.93049  20984786.64149
  23168335.063 5    299649.113 5    223585.88346  23168336.09846
  21258782.141 6    352843.582 6    266978.57848  21258778.71148
  24019277.992 5   -677600.770 5   -515609.07048  24019276.37948
  22584093.359 6   -693271.668 6   -535142.52047  22584089.30147
  23600484.852 5  -1006854.582 5   -674791.09446  23600480.77746
  21632303.016 6   -513914.355 6   -389347.59849  21632302.41849
 20  5 16  5 18 36.0000000  0  9G01G03G07G08G11G17G22G28G30          0.000062626
  20172404.828 7    -71950.941 7    -54548.39549  20172404.80549
  23251237.492 5  -1111212.969 5   -831586.41848  23251238.94948
  20984862.242 6     86278.227 6     67220.30949  20984859.82849
  23168521.523 5    300629.566 5    224349.87547  23168522.16047
  21259005.977 6    354021.375 6    267896.33248  21259002.26648
  24018842.641 5   -679886.586 5   -517390.23048  24018841.46548
  22583657.633 6   -695561.078 6   -536926.46547  22583653.73047
  23599834.688 6  -1010270.625 6   -677452.96146  23599830.82446
  21632000.078 6   -515508.285 6   -390589.62949  21631999.52349
 20  5 16  5 18 37.0000000  0  9G01G03G07G08G11G17G22G28G30          0.000062069
  20172379.398 7    -72082.930 7    -54651.24249  20172380.07449
  23250556.273 5  -1114792.059 5   -834375.32048  23250557.99248
  20984935.391 6     86662.992 6     67520.12549  20984933.27349
  23168709.055 5    301609.938 5    225113.80947  23168708.96547
  21259230.297 6    355199.348 6    268814.23048  21259226.59048
  24018408.164 5   -682172.352 5   -519171.34848  24018406.38348
  22583221.992 6   -697850.125 6   -538710.13747  22583218.10247
  23599184.469 6  -1013686.793 6   -680114.89846  23599180.68846
  21631696.742 6   -517101.672 6   -391831.23449  21631696.50449
 20  5 16  5 18 38.0000000  0  9G01G03G07G08G11G17G22G28G30          0.000061512
  20172354.727 7    -72214.266 7    -54753.58649  20172354.84449
  23249875.156 5  -1118371.047 5   -837164.13748  23249876.96948
  20985008.984 6     87048.371 6     67820.41849  20985006.41049
  23168894.844 5    302590.316 5    225877.73847  23168895.44547
  21259454.602 6    356377.625 6    269732.36348  21259450.74648
  24017972.563 5   -684458.023 5   -520952.38748  24017971.67248
  22582786.203 6   -700138.746 6   -540493.48447  22582782.03147
  23598534.398 5  -1017103.016 5   -682776.89146  23598530.82046
  21631393.695 6   -518694.395 6   -393072.30949  21631393.32049
 20  5 16  5 18 39.0000000  0  9G01G03G07G08G11G17G22G28G30          0.000060955
  20172330.063 7    -72345.047 7    -54855.49249  20172329.87949
  23249193.734 4  -1121950.023 4   -839952.94948  23249195.31648
  20985082.383 6     87434.258 6     68121.10549  20985079.53949
  23169081.875 5    303570.563 5    226641.56347  23169081.72347
  21259678.781 6    357556.074 6    270650.63348  21259675.22348
  24017537.641 5   -686743.578 5   -522733.34048  24017536.55148
  22582350.875 6   -702427.066 6   -542276.58247  22582346.67247
  23597884.570 5  -1020519.355 5   -685438.97746  23597880.82046
  21631090.367 6   -520286.563 6   -394312.96149  21631089.87549
 20  5 16  5 18 40.0000000  0  9G01G03G07G08G11G17G22G28G30          0.000060398
  20172305.063 7    -72475.121 7    -54956.84449  20172305.09849
  23248513.195 5  -1125528.832 5   -842741.62548  23248514.56648
  20985155.602 6     87820.805 6     68422.30949  20985153.43849
  23169268.234 5    304550.813 5    227405.39147  23169268.69547
  21259902.781 6    358734.836 6    271569.15248  21259899.52048
  24017102.703 5   -689028.977 5   -524514.17248  24017101.46948
  22581915.289 6   -704714.902 6   -544059.30147  22581911.60247
  23597234.750 5  -1023935.711 5   -688101.06646  23597230.71946
  21630787.563 6   -521878.070 6   -395553.09849  21630787.15249
 20  5 16  5 18 41.0000000  0  9G01G03G07G08G11G17G22G28G30          0.000059841
  20172280.383 7    -72604.473 7    -55057.63749  20172280.73849
  23247831.813 5  -1129107.453 5   -845530.15648  23247833.44148
  20985229.586 6     88208.031 6     68724.04749  20985227.05549
  23169454.320 5    305531.113 5    228169.25847  23169455.05947
  21260127.008 6    359913.910 6    272487.91448  21260123.73048
  24016668.453 5   -691314.211 5   -526294.87948  24016667.01248
  22581480.438 6   -707002.285 6   -545841.67647  22581476.18447
  23596583.555 5  -1027352.059 5   -690763.15246  23596580.52746
  21630484.742 6   -523468.863 6   -396792.67649  21630484.55949
 20  5 16  5 18 42.0000000  0  9G01G03G07G08G11G17G22G28G30          0.000059284
  20172256.250 7    -72733.180 7    -55157.93049  20172256.28949
  23247151.633 5  -1132685.918 5   -848318.57848  23247152.34848
  20985303.352 6     88595.848 6     69026.24249  20985300.74249
  23169640.750 5    306511.418 5    228933.13347  23169641.41847
  21260351.641 6    361093.273 6    273406.90248  21260348.13748
  24016233.344 5   -693599.301 5   -528075.46548  24016231.73448
  22581045.102 6   -709289.246 6   -547623.73447  22581041.06347
  23595933.680 5  -1030768.441 5   -693425.27046  23595930.25446
  21630182.070 6   -525059.023 6   -398031.76249  21630182.00449
 20  5 16  5 18 43.0000000  0  9G01G03G07G08G11G17G22G28G30          0.000058727
  20172231.859 7    -72861.188 7    -55257.68049  20172232.35249
  23246470.211 5  -1136264.258 5   -851106.89548  23246471.70748
  20985377.422 6     88984.332 6     69328.94949  20985374.72749
  23169827.289 5    307491.676 5    229696.95747  23169827.78547
  21260576.195 6    362272.938 6    274326.11748  21260572.68848
  24015798.906 5   -695884.227 5   -529855.92648  24015796.81648
  22580610.227 6   -711575.742 6   -549405.40647  22580606.58247
  23595283.336 5  -1034184.836 5   -696087.40646  23595280.04746
  21629880.023 6   -526648.523 6   -399270.33649  21629879.36349
 20  5 16  5 18 44.0000000  0  9G01G03G07G08G11G17G22G28G30          0.000058170
  20172207.414 7    -72988.566 7    -55356.93849  20172207.53149
  23245789.625 5  -1139842.516 5   -853895.15248  23245790.64848
  20985451.430 6     89373.387 6     69632.10549  20985448.79349
  23170014.016 5    308471.918 5    230460.78147  23170014.79747
  21260800.594 6    363452.848 6    275245.53148  21260797.23848
  24015363.883 5   -698169.031 5   -531636.28548  24015362.66048
  22580175.469 6   -713861.855 6   -551186.79347  22580170.97347
  23594633.945 5  -1037601.332 5   -698749.60946  23594629.97346
  21629577.336 6   -528237.410 6   -400508.42649  21629577.15249
 20  5 16  5 18 45.0000000  0  9G01G03G07G08G11G17G22G28G30          0.000057613
  20172183.383 7    -73115.383 7    -55455.75449  20172183.56349
  23245108.148 5  -1143420.734 5   -856683.37148  23245109.54348
  20985525.336 6     89762.973 6     69935.68449  20985522.80949
  23170200.750 5    309452.047 5    231224.53547  23170201.21547
  21261025.211 6    364632.965 6    276165.10248  21261021.52348
  24014929.195 5   -700453.785 5   -533416.61348  24014927.40648
  22579740.773 6   -716147.652 6   -552967.93847  22579736.21147
  23593983.297 5  -1041017.945 5   -701411.89846  23593979.89846
  21629275.602 6   -529825.715 6   -401746.06349  21629274.75049
 20  5 16  5 18 46.0000000  0  9G01G03G07G08G11G17G22G28G30          0.000057056
  20172159.336 7    -73241.535 7    -55554.05949  20172159.75449
  23244427.648 5  -1146998.883 5   -859471.52748  23244428.76648
  20985599.570 6     90153.164 6     70239.73449  20985597.27749
  23170387.367 5    310432.145 5    231988.25046  23170387.50846
  21261249.875 6    365813.320 6    277084.85248  21261246.32048
  24014494.328 5   -702738.441 5   -535196.86348  24014492.99648
  22579305.508 6   -718433.039 6   -554748.75847  22579300.98447
  23593333.766 5  -1044434.617 5   -704074.23446  23593329.57446
  21628973.305 6   -531413.406 6   -402983.23049  21628972.65649
 20  5 16  5 18 47.0000000  0  9G01G03G07G08G11G17G22G28G30          0.000056499
  20172135.695 7    -73367.086 7    -55651.89149  20172135.88349
  23243747.242 5  -1150576.895 5   -862259.58648  23243748.49648
  20985674.078 6     90543.926 6     70544.22349  20985671.72749
  23170573.664 5    311412.180 5    232751.92247  23170574.13347
  21261474.656 6    366993.906 6    278004.78948  21261471.14848
  24014060.125 5   -705022.957 5   -536977.01248  24014058.12148
  22578870.656 6   -720718.039 6   -556529.27047  22578866.45747
  23592683.070 6  -1047851.367 6   -706736.63746  23592679.79746
  21628671.047 6   -533000.488 6   -404219.91849  21628670.35249
 20  5 16  5 18 48.0000000  0  9G01G03G07G08G11G17G22G28G30          0.000055943
  20172111.703 7    -73491.930 7    -55749.17649  20172112.03949
  23243065.250 5  -1154154.742 5   -865047.52748  23243067.42648
  20985748.711 6     90935.340 6     70849.21949  20985746.15249
  23170760.586 5    312392.242 5    233515.59446  23170760.46546
  21261699.227 6    368174.793 6    278924.96148  21261695.83648
  24013625.164 5   -707307.352 5   -538757.06348  24013623.41048
  22578436.047 6   -723002.609 6   -558309.44947  22578431.97747
  23592032.531 5  -1051268.129 5   -709399.05546  23592029.18846
  21628368.711 6   -534586.926 6   -405456.10549  21628369.02049
 20  5 16  5 18 49.0000000  0  9G01G03G07G08G11G17G22G28G30          0.000055386
  20172088.344 7    -73616.125 7    -55845.94549  20172088.43849
  23242384.820 5  -1157732.477 5   -867835.37148  23242386.71548
  20985823.273 6     91327.332 6     71154.66849  20985821.11749
  23170946.945 5    313372.234 5    234279.21946  23170947.15246
  21261924.047 6    369355.980 6    279845.36748  21261920.55548
  24013190.328 5   -709591.602 5   -540536.99648  24013188.55548
  22578001.438 6   -725286.754 6   -560089.30947  22577997.25047
  23591382.453 5  -1054684.961 5   -712061.52646  23591379.30946
  21628067.234 6   -536172.691 6   -406691.76649  21628067.18849
 20  5 16  5 18 50.0000000  0  9G01G03G07G08G11G17G22G28G30          0.000054829
  20172064.703 7    -73739.617 7    -55942.17649  20172064.88749
  23241704.109 5  -1161310.039 5   -870623.08248  23241705.87548
  20985898.109 6     91720.020 6     71460.65249  20985895.56349
  23171133.328 5    314352.305 5    235042.89847  23171133.25047
  21262148.516 6    370537.469 6    280766.00448  21262145.07848
  24012755.906 5   -711875.660 5   -542316.78548  24012753.68848
  22577566.563 6   -727570.430 6   -561868.79747  22577562.44147
  23590732.453 5  -1058101.758 5   -714723.96546  23590728.84046
  21627765.992 6   -537757.777 6   -407926.89549  21627765.71149
 20  5 16  5 18 51.0000000  0  9G01G03G07G08G11G17G22G28G30          0.000054272
  20172041.250 7    -73862.543 7    -56037.96149  20172041.12149
  23241023.656 5  -1164887.598 5   -873410.77748  23241025.06648
  20985972.773 6     92113.215 6     71767.03949  20985970.23849
  23171319.398 5    315332.266 5    235806.49646  23171320.00446
  21262373.703 6    371719.137 6    281686.78148  21262370.25448
  24012320.945 5   -714159.684 5   -544096.54348  24012319.56348
  22577131.945 6   -729853.797 6   -563648.04747  22577128.10947
  23590082.438 5  -1061518.715 5   -717386.53146  23590078.96946
  21627464.555 6   -539342.348 6   -409161.62949  21627463.69949
 20  5 16  5 18 52.0000000  0  9G01G03G07G08G11G17G22G28G30          0.000053715
  20172017.914 7    -73984.809 7    -56133.23049  20172017.77349
  23240342.742 5  -1168465.020 5   -876198.37548  23240344.27348
  20986047.742 6     92507.043 6     72073.91449  20986045.19949
  23171506.109 5    316312.176 5    236570.06647  23171506.50047
  21262598.672 6    372901.094 6    282607.79348  21262595.41448
  24011886.711 5   -716443.582 5   -545876.19948  24011884.80148
  22576697.906 6   -732136.719 6   -565426.94547  22576693.86747
  23589431.758 5  -1064935.723 5   -720049.13346  23589428.77046
  21627162.422 6   -540926.219 6   -410395.81649  21627162.68849
 20  5 16  5 18 53.0000000  0  9G01G03G07G08G11G17G22G28G30          0.000053158
  20171994.836 7    -74106.449 7    -56228.01249  20171995.05949
  23239661.727 5  -1172042.359 5   -878985.91448  23239663.68048
  20986122.719 6     92901.406 6     72381.21149  20986120.43049
  23171692.188 5    317292.020 5    237333.57047  23171692.72747
  21262823.406 6    374083.285 6    283528.98048  21262820.02348
  24011452.055 5   -718727.398 5   -547655.78948  24011449.82848
  22576263.281 6   -734419.254 6   -567205.55947  22576259.40647
  23588781.188 5  -1068352.836 5   -722711.81646  23588778.19546
  21626861.445 6   -542509.555 6   -411629.58249  21626860.77049
 20  5 16  5 18 54.0000000  0  9G01G03G07G08G11G17G22G28G30          0.000052601
  20171971.656 7    -74227.461 7    -56322.30949  20171972.18449
  23238981.922 5  -1175619.582 5   -881773.35548  23238982.81348
  20986197.805 6     93296.383 6     72688.97749  20986195.28149
  23171879.070 5    318271.836 5    238097.06347  23171879.43847
  21263048.680 6    375265.719 6    284450.35248  21263044.94548
  24011017.109 5   -721011.078 5   -549435.27348  24011015.28548
  22575828.961 6   -736701.422 6   -568983.86747  22575825.32447
  23588131.688 5  -1071769.988 5   -725374.53546  23588128.24246
  21626560.336 6   -544092.238 6   -412862.84449  21626560.20749
 20  5 16  5 18 55.0000000  0  9G01G03G07G08G11G17G22G28G30          0.000052044
  20171948.719 7    -74347.797 7    -56416.07449  20171949.04349
  23238300.609 5  -1179196.691 5   -884560.71148  23238302.40648
  20986273.367 6     93691.977 6     72997.23449  20986270.81649
  23172065.367 5    319251.633 5    238860.53947  23172065.73047
  21263273.852 6    376448.422 6    285371.93848  21263270.17248
  24010582.594 5   -723294.594 5   -551214.63748  24010580.80548
  22575394.664 6   -738983.164 6   -570761.84047  22575391.19147
  23587481.195 5  -1075187.211 5   -728037.29346  23587478.08246
  21626259.125 6   -545674.262 6   -414095.59049  21626258.97349
 20  5 16  5 18 56.0000000  0  9G01G03G07G08G11G17G22G28G30          0.000051487
  20171925.961 7    -74467.516 7    -56509.36349  20171926.18049
  23237619.867 5  -1182773.715 5   -887348.00448  23237621.84448
  20986348.469 6     94088.137 6     73305.93449  20986345.75849
  23172251.750 5    320231.324 5    239623.93047  23172252.58647
  21263498.703 6    377631.371 6    286293.71548  21263495.08248
  24010147.930 5   -725578.020 5   -552993.93048  24010146.36348
  22574960.656 6   -741264.531 6   -572539.52747  22574956.89847
  23586831.063 5  -1078604.488 5   -730700.10246  23586827.67646
  21625958.297 6   -547255.711 6   -415327.88749  21625958.11349
 20  5 16  5 18 57.0000000  0  9G01G03G07G08G11G17G22G28G30          0.000050930
  20171903.344 7    -74586.633 7    -56602.19149  20171903.66849
  23236939.625 5  -1186350.641 5   -890135.21948  23236940.97348
  20986423.906 6     94484.871 6     73615.07049  20986421.25049
  23172438.484 5    321210.984 5    240387.30547  23172438.99647
  21263724.219 6    378814.551 6    287215.67647  21263720.77047
  24009713.523 5   -727861.371 5   -554773.16448  24009712.01648
  22574526.680 6   -743545.520 6   -574316.91847  22574522.38347
  23586180.633 5  -1082021.875 5   -733363.00446  23586177.79346
  21625657.711 6   -548836.555 6   -416559.71949  21625657.48849
 20  5 16  5 18 58.0000000  0  9G01G03G07G08G11G17G22G28G30          0.000050373
  20171881.008 7    -74705.063 7    -56694.46549  20171881.32849
  23236258.531 5  -1189927.434 5   -892922.33248  23236260.52348
  20986499.969 6     94882.238 6     73924.70749  20986496.75049
  23172625.055 5    322190.668 5    241150.69147  23172625.32047
  21263949.000 6    379998.043 6    288137.87548  21263945.70748
  24009279.648 5   -730144.539 5   -556552.25848  24009277.61348
  22574092.438 6   -745826.051 6   -576093.96147  22574088.36347
  23585530.445 5  -1085439.270 5   -736025.90646  23585527.47746
  21625356.953 6   -550416.723 6   -417791.02049  21625356.37149
 20  5 16  5 18 59.0000000  0  9G01G03G07G08G11G17G22G28G30          0.000049816
  20171858.516 7    -74822.969 7    -56786.34049  20171858.61749
  23235577.656 5  -1193504.250 5   -895709.45348  23235579.70348
  20986575.672 6     95280.066 6     74234.70349  20986572.51649
  23172811.617 5    323170.137 5    241913.91047  23172811.48447
  21264174.172 6    381181.617 6    289060.14548  21264170.75848
  24008844.469 5   -732427.707 5   -558331.35548  24008842.93048
  22573658.273 6   -748106.352 6   -577870.81647  22573654.91847
  23584879.664 5  -1088856.879 5   -738688.98046  23584876.88346
  21625056.352 6   -551996.406 6   -419021.94549  21625055.69149
 20  5 16  5 19  0.0000000  0  9G01G03G07G08G11G17G22G28G30          0.000049259
  20171836.516 7    -74940.188 7    -56877.68449  20171836.21149
  23234897.148 5  -1197080.898 5   -898496.44548  23234898.83248
  20986651.609 6     95678.566 6     74545.22349  20986648.87549
  23172997.727 5    324149.672 5    242677.18847  23172998.48847
  21264400.000 6    382365.527 6    289982.66848  21264396.10548
  24008410.125 5   -734710.738 5   -560110.34048  24008408.37948
  22573224.742 6   -750386.168 6   -579647.28547  22573220.82047
  23584229.914 5  -1092274.453 5   -741352.02346  23584226.60546
  21624755.766 6   -553575.414 6   -420252.34049  21624755.58649
 20  5 16  5 19  1.0000000  0  9G01G03G07G08G11G17G22G28G30          0.000048702
  20171813.906 7    -75056.656 7    -56968.44149  20171814.18449
  23234216.641 5  -1200657.328 5   -901283.27348  23234218.41048
  20986727.445 6     96077.750 6     74856.27049  20986724.69549
  23173183.641 5    325129.258 5    243440.50847  23173184.70347
  21264625.188 6    383549.801 6    290905.47748  21264621.57848
  24007975.789 5   -736993.516 5   -561889.11748  24007974.22348
  22572791.313 6   -752665.469 6   -581423.37147  22572786.96947
  23583579.352 5  -1095691.988 5   -744015.03546  23583576.18846
  21624455.664 6   -555153.688 6   -421482.16449  21624454.94549
 20  5 16  5 19  2.0000000  0  9G01G03G07G08G11G17G22G28G30          0.000048145
  20171791.844 7    -75172.453 7    -57058.66849  20171792.46149
  23233536.344 5  -1204233.617 5   -904069.98848  23233537.99648
  20986803.219 6     96477.559 6     75167.81349  20986800.94949
  23173370.969 5    326108.836 5    244203.81347  23173370.82047
  21264850.078 6    384734.359 6    291828.50848  21264846.60248
  24007540.758 5   -739276.176 5   -563667.81648  24007539.54348
  22572357.188 6   -754944.359 6   -583199.11747  22572353.64847
  23582928.656 5  -1099109.602 5   -746678.11346  23582926.03546
  21624155.219 6   -556731.320 6   -422711.49249  21624154.89549
 20  5 16  5 19  3.0000000  0  9G01G03G07G08G11G17G22G28G30          0.000047588
  20171769.609 7    -75287.535 7    -57148.34449  20171770.21949
  23232855.836 5  -1207809.742 5   -906856.57448  23232857.71548
  20986879.734 6     96878.043 6     75479.87149  20986876.93449
  23173556.805 5    327088.441 5    244967.13747  23173557.26247
  21265075.836 6    385919.254 6    292751.80548  21265072.55548
  24007106.734 5   -741558.633 5   -565446.35248  24007105.25448
  22571923.719 6   -757222.750 6   -584974.48847  22571919.99247
  23582278.711 5  -1102527.176 5   -749341.16046  23582275.58246
  21623855.320 6   -558308.227 6   -423940.24649  21623854.66049
 20  5 16  5 19  4.0000000  0  9G01G03G07G08G11G17G22G28G30          0.000047031
  20171748.133 7    -75402.016 7    -57237.55149  20171748.27049
  23232174.891 5  -1211385.797 5   -909643.10948  23232176.55548
  20986955.734 6     97279.090 6     75792.37949  20986953.21149
  23173743.078 5    328067.969 5    245730.40647  23173743.60547
  21265301.656 6    387104.371 6    293675.27048  21265297.60548
  24006672.945 5   -743840.988 5   -567224.80948  24006670.86348
  22571490.133 6   -759500.809 6   -586749.60247  22571486.46147
  23581628.398 5  -1105944.863 5   -752004.29346  23581625.36346
  21623555.633 6   -559884.578 6   -425168.57449  21623554.92249
 20  5 16  5 19  5.0000000  0  9G01G03G07G08G11G17G22G28G30          0.000046474
  20171726.813 7    -75515.848 7    -57326.25049  20171726.77349
  23231495.492 5  -1214961.719 5   -912429.53948  23231496.66448
  20987032.398 6     97680.738 6     76105.35249  20987029.57449
  23173929.789 5    329047.492 5    246493.66847  23173930.15647
  21265526.711 6    388289.750 6    294598.94148  21265523.34048
  24006238.367 5   -746123.230 5   -569003.18048  24006236.69548
  22571056.617 6   -761778.418 6   -588524.36347  22571053.23047
  23580977.672 5  -1109362.574 5   -754667.44546  23580974.78146
  21623255.125 6   -561460.270 6   -426396.38749  21623254.49249
 20  5 16  5 19  6.0000000  0  9G01G03G07G08G11G17G22G28G30          0.000045918
  20171704.930 7    -75629.035 7    -57414.44949  20171704.77049
  23230814.633 5  -1218537.527 5   -915215.88348  23230815.81348
  20987109.070 6     98082.988 6     76418.78949  20987106.58249
  23174116.367 5    330026.988 5    247256.90647  23174116.46547
  21265752.867 6    389475.395 6    295522.82048  21265748.71548
  24005804.945 5   -748405.363 5   -570781.46148  24005802.78548
  22570623.602 6   -764055.633 6   -590298.82047  22570619.68447
  23580327.305 5  -1112780.363 5   -757330.66446  23580324.46146
  21622955.383 6   -563035.348 6   -427623.71549  21622955.65249
 20  5 16  5 19  7.0000000  0  9G01G03G07G08G11G17G22G28G30          0.000045361
  20171683.461 7    -75741.563 7    -57502.12949  20171683.60949
  23230133.195 5  -1222113.203 5   -918002.12148  23230135.79348
  20987185.617 6     98485.836 6     76732.70349  20987182.65249
  23174302.430 5    331006.430 5    248020.11347  23174302.97747
  21265978.281 6    390661.301 6    296446.90248  21265974.53548
  24005370.352 5   -750687.359 5   -572559.63748  24005368.03148
  22570190.320 6   -766332.473 6   -592072.97747  22570186.79747
  23579677.492 5  -1116198.246 5   -759993.95746  23579673.83246
  21622655.953 6   -564609.770 6   -428850.53949  21622655.41449
 20  5 16  5 19  8.0000000  0  9G01G03G07G08G11G17G22G28G30          0.000044804
  20171662.078 7    -75853.480 7    -57589.34049  20171662.67649
  23229453.664 5  -1225688.824 5   -920788.32048  23229454.80948
  20987262.484 6     98889.238 6     77047.03949  20987259.71549
  23174488.844 5    331985.832 5    248783.27747  23174488.92247
  21266204.273 6    391847.426 6    297371.15248  21266200.54748
  24004935.969 5   -752969.258 5   -574337.74248  24004933.72748
  22569756.602 6   -768608.891 6   -593846.80947  22569753.18847
  23579027.000 5  -1119616.199 5   -762657.29346  23579023.24646
  21622356.695 6   -566183.598 6   -430076.89849  21622356.28149
 20  5 16  5 19  9.0000000  0  9G01G03G07G08G11G17G22G28G30          0.000044247
  20171641.211 7    -75964.711 7    -57676.01249  20171641.18449
  23228773.234 5  -1229264.258 5   -923574.36748  23228774.93048
  20987339.125 6     99293.305 6     77361.89149  20987336.39149
  23174675.164 5    332965.215 5    249546.43047  23174675.72747
  21266430.055 6    393033.875 6    298295.65648  21266426.06348
  24004501.813 5   -755251.012 5   -576115.73448  24004499.93048
  22569324.313 6   -770884.887 6   -595620.30947  22569320.20347
  23578376.414 5  -1123034.168 5   -765320.63346  23578372.89846
  21622057.070 6   -567756.793 6   -431302.76249  21622056.99649
 20  5 16  5 19 10.0000000  0  9G01G03G07G08G11G17G22G28G30          0.000043690
  20171620.031 7    -76075.371 7    -57762.24649  20171620.30149
  23228092.531 5  -1232839.656 5   -926360.38348  23228094.16448
  20987416.234 6     99697.914 6     77677.17649  20987413.81649
  23174861.859 5    333944.551 5    250309.55147  23174862.46147
  21266655.328 6    394220.504 6    299220.30147  21266651.90647
  24004066.750 5   -757532.684 5   -577893.65648  24004065.66848
  22568891.008 6   -773160.535 6   -597393.53947  22568887.26247
  23577725.648 5  -1126452.242 5   -767984.06346  23577722.78546
  21621758.055 6   -569329.395 6   -432528.16849  21621757.71149
 20  5 16  5 19 11.0000000  0  9G01G03G07G08G11G17G22G28G30          0.000043133
  20171598.820 7    -76185.195 7    -57847.81649  20171599.40249
  23227412.352 5  -1236414.781 5   -929146.19148  23227414.34448
  20987492.867 6    100103.273 6     77993.03549  20987490.82849
  23175048.008 5    334924.031 5    251072.78547  23175048.64847
  21266881.477 6    395407.578 6    300145.29748  21266877.71948
  24003632.945 5   -759814.105 5   -579671.38748  24003631.36748
  22568457.773 6   -775435.582 6   -599166.29747  22568454.39147
  23577075.539 5  -1129870.227 5   -770647.43846  23577072.22346
  21621458.578 6   -570901.191 6   -433752.94549  21621458.22349
 20  5 16  5 19 12.0000000  0  9G01G03G07G08G11G17G22G28G30          0.000042576
  20171578.367 7    -76294.363 7    -57932.88749  20171578.62149
  23226732.125 5  -1239989.793 5   -931931.91048  23226733.69948
  20987570.508 6    100509.254 6     78309.37549  20987567.91849
  23175234.250 5    335903.457 5    251835.97747  23175234.74647
  21267107.406 6    396594.895 6    301070.47748  21267103.77048
  24003198.820 5   -762095.359 5   -581448.98448  24003197.22748
  22568025.391 6   -777710.246 6   -600938.77047  22568021.21147
  23576425.047 5  -1133288.289 5   -773310.86746  23576421.81346
  21621159.992 6   -572472.379 6   -434977.25449  21621159.72349
 20  5 16  5 19 13.0000000  0  9G01G03G07G08G11G17G22G28G30          0.000042019
  20171557.906 7    -76402.977 7    -58017.52049  20171557.85249
  23226051.945 5  -1243564.734 5   -934717.57448  23226053.34848
  20987648.039 6    100915.742 6     78626.12149  20987645.30149
  23175420.820 5    336882.793 5    252599.09447  23175421.14547
  21267333.414 6    397782.387 6    301995.80148  21267329.70748
  24002764.742 5   -764376.566 5   -583226.54748  24002763.18448
  22567592.289 6   -779984.539 6   -602710.94147  22567588.69947
  23575774.930 5  -1136706.438 5   -775974.35246  23575771.42246
  21620860.969 6   -574042.980 6   -436201.09849  21620860.59449
 20  5 16  5 19 14.0000000  0  9G01G03G07G08G11G17G22G28G30          0.000041462
  20171537.273 7    -76510.914 7    -58101.62949  20171537.28549
  23225372.016 5  -1247139.570 5   -937503.16048  23225373.15648
  20987725.367 6    101322.852 6     78943.35249  20987722.74249
  23175606.781 5    337862.102 5    253362.18847  23175607.32047
  21267559.344 6    398970.207 6    302921.37948  21267555.82048
  24002330.430 5   -766657.641 5   -585004.00848  24002328.90248
  22567159.805 6   -782258.430 6   -604482.80147  22567156.17247
  23575124.070 5  -1140124.656 5   -778637.90247  23575120.65247
  21620562.039 6   -575612.922 6   -437424.43049  21620561.90249
 20  5 16  5 19 15.0000000  0  9G01G03G07G08G11G17G22G28G30          0.000040905
  20171516.594 7    -76618.277 7    -58185.28549  20171517.30549
  23224691.305 5  -1250714.340 5   -940288.69148  23224692.81648
  20987803.219 6    101730.508 6     79261.01249  20987799.94149
  23175793.523 5    338841.320 5    254125.23447  23175793.83247
  21267785.883 6    400158.172 6    303847.06648  21267781.69948
  24001897.023 5   -768938.680 5   -586781.43848  24001894.86748
  22566727.484 6   -784531.977 6   -606254.39847  22566723.20747
  23574473.742 5  -1143542.980 5   -781301.53946  23574470.68446
  21620263.883 6   -577182.328 6   -438647.34849  21620263.34049
 20  5 16  5 19 16.0000000  0  9G01G03G07G08G11G17G22G28G30          0.000040348
  20171496.211 7    -76724.965 7    -58268.42249  20171496.37549
  23224011.109 5  -1254288.938 5   -943074.09448  23224012.43848
  20987880.500 6    102138.797 6     79579.15649  20987877.36349
  23175978.734 5    339820.563 5    254888.27747  23175980.10947
  21268011.922 6    401346.441 6    304772.98448  21268008.19548
  24001462.570 5   -771219.527 5   -588558.72748  24001460.94148
  22566294.844 6   -786805.082 6   -608025.65247  22566290.93847
  23573823.383 5  -1146961.344 5   -783965.20746  23573819.81346
  21619965.047 6   -578751.082 6   -439869.75449  21619964.69149
 20  5 16  5 19 17.0000000  0  9G01G03G07G08G11G17G22G28G30          0.000039791
  20171476.117 7    -76831.145 7    -58351.16049  20171476.41449
  23223331.031 5  -1257863.609 5   -945859.55548  23223332.56348
  20987958.516 6    102547.566 6     79897.67649  20987955.76649
  23176166.000 5    340799.609 5    255651.16847  23176166.42247
  21268237.773 6    402534.844 6    305699.00848  21268234.39848
  24001029.000 5   -773500.395 5   -590336.02748  24001027.21948
  22565862.328 6   -789077.906 6   -609796.68047  22565857.94947
  23573172.695 5  -1150379.891 5   -786629.00046  23573169.66446
  21619666.602 6   -580319.313 6   -441091.74649  21619666.16049
 20  5 16  5 19 18.0000000  0  9G01G03G07G08G11G17G22G28G30          0.000039234
  20171456.273 7    -76936.684 7    -58433.39549  20171456.59049
  23222650.539 5  -1261438.137 5   -948644.90248  23222652.14548
  20988036.297 6    102956.891 6     80216.62549  20988033.71949
  23176352.813 5    341778.551 5    256413.98847  23176352.85947
  21268464.000 6    403723.469 6    306625.21148  21268460.21148
  24000594.078 5   -775781.176 5   -592113.25848  24000593.17648
  22565430.156 6   -791350.352 6   -611567.41847  22565425.70347
  23572522.258 5  -1153798.527 5   -789292.87146  23572518.62146
  21619368.039 6   -581886.957 6   -442313.28549  21619367.74649
 20  5 16  5 19 19.0000000  0  9G01G03G07G08G11G17G22G28G30          0.000038677
  20171435.938 7    -77041.555 7    -58515.11749  20171436.42249
  23221970.633 5  -1265012.588 5   -951430.18748  23221971.99248
  20988114.117 6    103366.855 6     80536.07449  20988111.77749
  23176538.891 5    342757.539 5    257176.82847  23176539.46147
  21268690.359 6    404912.395 6    307551.65248  21268687.08248
  24000160.328 5   -778061.801 5   -593890.36748  24000158.97348
  22564997.695 6   -793622.363 6   -613337.81647  22564993.36747
  23571871.672 5  -1157217.191 5   -791956.75446  23571868.24646
  21619069.891 6   -583453.926 6   -443534.30549  21619069.36349
 20  5 16  5 19 20.0000000  0  9G01G03G07G08G11G17G22G28G30          0.000038120
  20171416.406 7    -77145.887 7    -58596.41449  20171416.73849
  23221290.047 5  -1268586.973 5   -954215.41848  23221291.73848
  20988192.445 6    103777.277 6     80855.87949  20988189.48849
  23176724.977 5    343736.355 5    257939.53547  23176726.03147
  21268916.477 6    406101.453 6    308478.18448  21268912.60948
  23999726.320 5   -780342.422 5   -595667.47748  23999725.06348
  22564565.250 6   -795894.082 6   -615107.98047  22564560.93847
  23571220.859 5  -1160636.059 5   -794620.80946  23571217.50046
  21618772.359 6   -585020.410 6   -444754.94549  21618771.25849
 20  5 16  5 19 21.0000000  0  9G01G03G07G08G11G17G22G28G30          0.000037563
  20171396.500 7    -77249.520 7    -58677.16449  20171396.69949
  23220610.352 5  -1272161.211 5   -957000.53148  23220611.89848
  20988270.656 6    104188.367 6     81176.19949  20988268.02749
  23176911.313 5    344715.191 5    258702.25847  23176911.68047
  21269142.773 6    407290.867 6    309405.00048  21269139.28148
  23999293.047 5   -782622.855 5   -597444.44548  23999291.18448
  22564132.453 6   -798165.313 6   -616877.77347  22564128.44547
  23570570.086 5  -1164054.875 5   -797284.84046  23570566.59046
  21618474.078 6   -586586.184 6   -445975.02749  21618473.48049
 20  5 16  5 19 22.0000000  0  9G01G03G07G08G11G17G22G28G30          0.000037006
  20171376.891 7    -77352.555 7    -58757.44949  20171377.21149
  23219929.648 5  -1275735.371 5   -959785.59048  23219931.09048
  20988348.914 6    104600.031 6     81496.98449  20988346.06349
  23177097.773 5    345693.988 5    259464.96147  23177098.28547
  21269369.188 6    408480.477 6    310331.97348  21269365.46548
  23998859.141 5   -784903.211 5   -599221.34448  23998857.62948
  22563700.148 6   -800436.180 6   -618647.28547  22563696.53147
  23569919.523 5  -1167473.793 5   -799948.93046  23569915.98046
  21618176.039 6   -588151.359 6   -447194.65249  21618175.77749
 20  5 16  5 19 23.0000000  0  9G01G03G07G08G11G17G22G28G30          0.000036449
  20171357.617 7    -77455.000 7    -58837.28549  20171357.68849
  23219249.414 5  -1279309.480 5   -962570.60548  23219251.37948
  20988427.391 6    105012.246 6     81818.19149  20988424.71949
  23177283.641 5    346672.688 5    260227.57047  23177283.97747
  21269595.313 6    409670.273 6    311259.08248  21269592.21948
  23998424.672 5   -787183.500 5   -600998.18848  23998423.39548
  22563268.602 6   -802706.688 6   -620416.52347  22563265.04347
  23569268.695 5  -1170892.879 5   -802613.14846  23569265.58646
  21617878.313 6   -589715.984 6   -448413.83649  21617877.86349
 20  5 16  5 19 24.0000000  0  9G01G03G07G08G11G17G22G28G30          0.000035892
  20171338.125 7    -77556.738 7    -58916.55949  20171338.18449
  23218570.141 5  -1282883.358 5   -965355.44448  23218571.07448
  20988506.195 6    105425.051 6     82139.85249  20988503.35549
  23177469.852 5    347651.348 5    260990.17246  23177470.30946
  21269822.039 6    410860.406 6    312186.46148  21269818.44148
  23997990.938 5   -789463.609 5   -602774.89148  23997989.76248
  22562836.180 6   -804976.762 6   -622185.41047  22562832.76247
  23568617.930 5  -1174311.945 5   -805277.35546  23568614.63346
  21617580.703 6   -591279.922 6   -449632.49249  21617580.44149
 20  5 16  5 19 25.0000000  0  9G01G03G07G08G11G17G22G28G30          0.000035336
  20171318.961 7    -77657.879 7    -58995.37149  20171319.09449
  23217889.352 5  -1286457.242 5   -968140.29348  23217891.07448
  20988584.383 6    105838.480 6     82462.01649  20988581.67249
  23177656.773 5    348630.016 5    261752.76646  23177656.39846
  21270048.750 6    412050.738 6    313113.99248  21270045.04348
  23997556.898 5   -791743.676 5   -604551.56348  23997555.47348
  22562404.461 6   -807246.453 6   -623954.00047  22562400.41047
  23567967.984 5  -1177731.098 5   -807941.62546  23567963.98446
  21617283.578 6   -592843.270 6   -450850.68049  21617282.58649
 20  5 16  5 19 26.0000000  0  9G01G03G07G08G11G17G22G28G30          0.000034779
  20171299.586 7    -77758.180 7    -59073.52749  20171299.76249
  23217209.594 5  -1290030.777 5   -970924.85548  23217211.44948
  20988663.531 6    106252.695 6     82784.77049  20988660.62949
  23177842.336 5    349608.773 5    262515.43446  23177842.49246
  21270275.109 6    413241.535 6    314041.89148  21270271.61348
  23997123.234 5   -794023.352 5   -606327.93048  23997121.47748
  22561972.625 6   -809515.527 6   -625722.10947  22561968.71147
  23567317.250 5  -1181150.098 5   -810605.77746  23567314.06346
  21616985.977 6   -594405.766 6   -452068.20749  21616985.43849
 20  5 16  5 19 27.0000000  0  9G01G03G07G08G11G17G22G28G30          0.000034222
  20171280.766 7    -77857.805 7    -59151.15649  20171281.10549
  23216528.820 5  -1293604.188 5   -973709.32048  23216531.03548
  20988742.758 6    106667.520 6     83108.00449  20988739.48049
  23178028.516 5    350587.578 5    263278.13346  23178029.04346
  21270501.883 6    414432.613 6    314970.00048  21270498.18048
  23996689.500 5   -796302.922 5   -608104.21948  23996687.79748
  22561541.242 6   -811784.164 6   -627489.88747  22561536.98447
  23566666.391 5  -1184569.133 5   -813269.95346  23566663.27046
  21616688.789 6   -595967.609 6   -453285.23049  21616688.17249
 20  5 16  5 19 28.0000000  0  9G01G03G07G08G11G17G22G28G30          0.000033665
  20171262.047 7    -77956.777 7    -59228.27749  20171262.23049
  23215849.172 5  -1297177.449 5   -976493.68048  23215851.02348
  20988821.531 6    107082.953 6     83431.72349  20988818.53149
  23178215.039 5    351566.344 5    264040.80546  23178215.38346
  21270728.570 6    415623.961 6    315898.31648  21270724.79348
  23996255.797 5   -798582.348 5   -609880.39148  23996254.04348
  22561109.117 6   -814052.410 6   -629257.34847  22561105.42647
  23566016.367 5  -1187988.223 5   -815934.18846  23566012.58246
  21616391.930 6   -597528.844 6   -454501.78149  21616391.10249
 20  5 16  5 19 29.0000000  0  9G01G03G07G08G11G17G22G28G30          0.000033108
  20171243.188 7    -78055.242 7    -59305.00449  20171243.47349
  23215168.656 5  -1300750.754 5   -979278.07048  23215171.09448
  20988900.547 6    107498.855 6     83755.80149  20988897.87149
  23178401.031 5    352544.906 5    264803.31646  23178402.27046
  21270955.109 6    416815.434 6    316826.74248  21270951.41448
  23995821.938 5   -800861.824 5   -611656.60948  23995820.64148
  22560677.906 6   -816320.379 6   -631024.58647  22560673.58647
  23565365.070 5  -1191407.512 5   -818598.56646  23565361.75446
  21616095.219 6   -599089.582 6   -455717.94149  21616094.18049
 20  5 16  5 19 30.0000000  0  9G01G03G07G08G11G17G22G28G30          0.000032551
  20171224.734 7    -78153.152 7    -59381.30149  20171224.65249
  23214489.164 5  -1304323.992 5   -982062.41448  23214490.90648
  20988979.766 6    107915.266 6     84080.27049  20988977.07449
  23178587.039 5    353523.359 5    265565.75846  23178587.78546
  21271181.852 6    418007.070 6    317755.28948  21271178.17648
  23995388.086 5   -803141.246 5   -613432.78148  23995386.40248
  22560246.305 6   -818588.020 6   -632791.58247  22560242.09047
  23564714.242 5  -1194826.953 5   -821263.07446  23564710.96146
  21615797.969 6   -600649.785 6   -456933.68849  21615797.50049
 20  5 16  5 19 31.0000000  0  9G01G03G07G08G11G17G22G28G30          0.000031994
  20171206.055 7    -78250.340 7    -59457.03549  20171206.64549
  23213809.281 4  -1307897.051 4   -984846.62548  23213811.17648
  20989059.133 6    108332.371 6     84405.28549  20989056.32449
  23178773.500 5    354501.883 5    266328.24646  23178774.16846
  21271408.875 6    419199.070 6    318684.12148  21271405.12548
  23994954.469 5   -805420.426 5   -615208.75848  23994952.91448
  22559814.953 6   -820855.156 6   -634558.18447  22559811.19547
  23564063.219 5  -1198246.340 5   -823927.52746  23564060.72746
  21615501.234 6   -602209.242 6   -458148.84849  21615500.75849
 20  5 16  5 19 32.0000000  0  9G01G03G07G08G11G17G22G28G30          0.000031439
  20171187.789 7    -78346.914 7    -59532.28949  20171187.92249
  23213129.047 4  -1311470.078 4   -987630.80948  23213131.14548
  20989138.750 6    108749.973 6     84730.69549  20989136.02349
  23178959.758 5    355480.305 5    267090.65646  23178960.30946
  21271635.625 6    420391.250 6    319613.09048  21271632.37548
  23994521.148 5   -807699.555 5   -616984.70348  23994519.24648
  22559384.047 6   -823121.945 6   -636324.51247  22559379.45347
  23563412.656 5  -1201665.859 5   -826592.09046  23563409.97746
  21615204.430 6   -603768.152 6   -459363.57849  21615203.65249
 20  5 16  5 19 33.0000000  0  9G01G03G07G08G11G17G22G28G30          0.000030880
  20171169.250 7    -78442.895 7    -59607.07449  20171169.45349
  23212449.594 4  -1315042.965 4   -990414.86748  23212451.48048
  20989218.133 6    109168.195 6     85056.57449  20989215.55949
  23179145.602 5    356458.711 5    267853.03946  23179146.91446
  21271862.523 6    421583.715 6    320542.27747  21271859.01647
  23994087.469 5   -809978.598 5   -618760.57848  23994085.50048
  22558952.531 6   -825388.344 6   -638090.53947  22558948.09047
  23562762.547 5  -1205085.430 5   -829256.68446  23562759.23446
  21614907.930 6   -605326.441 6   -460577.82849  21614907.73049
 20  5 16  5 19 34.0000000  0  9G01G03G07G08G11G17G22G28G30          0.000030325
  20171151.281 7    -78538.215 7    -59681.35249  20171151.67649
  23211770.047 4  -1318615.766 4   -993198.86348  23211771.15248
  20989297.984 6    109587.043 6     85382.95349  20989294.90249
  23179331.570 5    357437.059 5    268615.38747  23179332.76647
  21272089.484 6    422776.422 6    321471.65247  21272085.42647
  23993653.766 5   -812257.504 5   -620536.34448  23993652.09448
  22558521.281 6   -827654.332 6   -639856.25047  22558516.77047
  23562111.141 5  -1208505.086 5   -831921.34847  23562108.57447
  21614611.188 6   -606884.102 6   -461791.59049  21614611.10549
 20  5 16  5 19 35.0000000  0  9G01G03G07G08G11G17G22G28G30          0.000029766
  20171133.195 7    -78632.898 7    -59755.12949  20171133.34449
  23211090.313 4  -1322188.473 4   -995982.78548  23211091.54348
  20989377.867 6    110006.438 6     85709.75449  20989375.09449
  23179518.125 5    358415.387 5    269377.71146  23179519.14846
  21272317.070 6    423969.363 6    322401.21947  21272312.96547
  23993219.977 5   -814536.281 5   -622312.02048  23993218.39548
  22558089.891 6   -829919.918 6   -641621.64147  22558085.62547
  23561460.633 5  -1211924.789 5   -834586.05146  23561457.97746
  21614315.078 6   -608441.133 6   -463004.86749  21614314.50049
 20  5 16  5 19 36.0000000  0  9G01G03G07G08G11G17G22G28G30          0.000029209
  20171115.523 7    -78726.965 7    -59828.43049  20171115.64149
  23210409.883 4  -1325761.012 4   -998766.57848  23210411.79748
  20989457.820 6    110426.434 6     86037.02049  20989454.70349
  23179704.883 5    359393.637 5    270139.97746  23179705.05546
  21272543.781 6    425162.555 6    323330.98047  21272539.88347
  23992786.023 5   -816815.004 5   -624087.64848  23992784.66048
  22557659.133 6   -832185.121 6   -643386.73047  22557654.79347
  23560809.742 5  -1215344.574 5   -837250.81346  23560806.65646
  21614019.234 6   -609997.563 6   -464217.66849  21614018.33649
 20  5 16  5 19 37.0000000  0  9G01G03G07G08G11G17G22G28G30          0.000028652
  20171097.609 7    -78820.266 7    -59901.12949  20171097.67249
  23209729.773 4  -1329333.383 4  -1001550.24248  23209731.55148
  20989537.648 6    110847.129 6     86364.83649  20989534.98849
  23179890.898 5    360372.020 5    270902.34846  23179891.46946
  21272770.742 6    426356.105 6    324261.02047  21272767.09847
  23992352.336 5   -819093.457 5   -625863.06348  23992351.26248
  22557228.336 6   -834449.801 6   -645151.41447  22557223.61347
  23560159.695 5  -1218764.309 5   -839915.54346  23560156.59046
  21613723.164 6   -611553.242 6   -465429.89149  21613722.62549
 20  5 16  5 19 38.0000000  0  9G01G03G07G08G11G17G22G28G30          0.000028095
  20171079.906 7    -78912.992 7    -59973.38749  20171080.24249
  23209050.867 4  -1332905.668 4  -1004333.83648  23209051.75448
  20989617.672 6    111268.359 6     86693.06349  20989614.72749
  23180077.063 5    361350.238 5    271664.60246  23180077.46946
  21272998.156 6    427549.852 6    325191.21547  21272994.07447
  23991918.367 5   -821371.852 5   -627638.43848  23991917.20748
  22556797.047 6   -836714.125 6   -646915.82047  22556792.56347
  23559508.586 5  -1222184.156 5   -842580.36346  23559505.56646
  21613427.180 6   -613108.363 6   -466641.67249  21613426.58649
 20  5 16  5 19 39.0000000  0  9G01G03G07G08G11G17G22G28G30          0.000027538
  20171062.258 7    -79005.043 7    -60045.11349  20171062.76649
  23208370.586 4  -1336477.852 4  -1007117.35948  23208372.35948
  20989698.141 6    111690.223 6     87021.78549  20989695.62549
  23180262.203 5    362328.512 5    272426.90246  23180263.60546
  21273225.055 6    428743.879 6    326121.62148  21273221.13748
  23991485.180 5   -823650.121 5   -629413.71148  23991484.02748
  22556366.203 6   -838978.023 6   -648679.89847  22556361.84447
  23558857.742 5  -1225604.027 5   -845245.19546  23558854.77346
  21613131.563 6   -614662.824 6   -467852.94149  21613130.95349
 20  5 16  5 19 40.0000000  0  9G01G03G07G08G11G17G22G28G30          0.000026983
  20171045.359 7    -79096.441 7    -60116.32849  20171045.34049
  23207691.023 4  -1340049.887 4  -1009900.76648  23207692.48848
  20989778.617 6    112112.684 6     87350.97349  20989775.43449
  23180448.883 5    363306.707 5    273189.12946  23180449.56646
  21273452.977 6    429938.191 6    327052.25447  21273448.65247
  23991051.641 5   -825928.227 5   -631188.85948  23991050.53548
  22555935.453 6   -841241.504 6   -650443.64847  22555931.12147
  23558207.000 5  -1229023.969 5   -847910.08246  23558203.91046
  21612835.547 6   -616216.645 6   -469063.70749  21612834.61749
 20  5 16  5 19 41.0000000  0  9G01G03G07G08G11G17G22G28G30          0.000026424
  20171028.109 7    -79187.129 7    -60187.00049  20171028.16049
  23207010.945 4  -1343621.723 4  -1012684.01248  23207012.24248
  20989859.164 6    112535.801 6     87680.67649  20989856.18049
  23180635.367 5    364284.977 5    273951.41046  23180635.70746
  21273679.719 6    431132.805 6    327983.12948  21273676.10548
  23990618.266 5   -828206.195 5   -632963.89848  23990616.73048
  22555505.109 6   -843504.520 6   -652207.03547  22555500.72347
  23557556.094 5  -1232443.898 5   -850574.96946  23557552.97346
  21612540.148 6   -617769.801 6   -470273.96549  21612539.43049
 20  5 16  5 19 42.0000000  0  9G01G03G07G08G11G17G22G28G30          0.000025869
  20171010.984 7    -79277.180 7    -60257.16849  20171010.75449
  23206331.320 5  -1347193.453 5  -1015467.17248  23206332.74648
  20989939.586 6    112959.527 6     88010.85249  20989937.02049
  23180821.102 5    365263.188 5    274713.65646  23180822.03946
  21273907.328 6    432327.676 6    328914.19547  21273903.23047
  23990184.547 5   -830483.980 5   -634738.79748  23990183.43848
  22555074.438 6   -845767.102 6   -653970.09047  22555069.76247
  23556905.055 5  -1235863.855 5   -853239.86546  23556902.34446
  21612245.141 6   -619322.309 6   -471483.70749  21612244.26649
 20  5 16  5 19 43.0000000  0  9G01G03G07G08G11G17G22G28G30          0.000025312
  20170993.828 7    -79366.660 7    -60326.89149  20170993.89149
  23205651.766 4  -1350765.156 4  -1018250.31648  23205653.37548
  20990020.547 6    113383.723 6     88341.38749  20990018.02049
  23181007.469 5    366241.316 5    275475.83647  23181008.04347
  21274134.672 6    433522.738 6    329845.41447  21274130.85947
  23989751.875 5   -832761.754 5   -636513.68448  23989750.04748
  22554644.336 6   -848029.371 6   -655732.89547  22554639.60247
  23556254.555 5  -1239284.008 5   -855904.91846  23556251.17246
  21611949.453 6   -620874.266 6   -472693.02749  21611948.77749
 20  5 16  5 19 44.0000000  0  9G01G03G07G08G11G17G22G28G30          0.000024755
  20170976.906 7    -79455.496 7    -60396.11749  20170976.80949
  23204972.094 5  -1354336.730 5  -1021033.35548  23204973.81348
  20990101.297 6    113808.578 6     88672.44549  20990098.50449
  23181193.500 5    367219.414 5    276237.99246  23181194.41446
  21274361.930 6    434718.066 6    330776.83647  21274358.57847
  23989318.500 5   -835039.426 5   -638288.49248  23989316.66448
  22554213.891 6   -850291.215 6   -657495.36347  22554209.29347
  23555603.602 5  -1242704.156 5   -858569.97346  23555600.53546
  21611654.203 6   -622425.586 6   -473901.85249  21611653.64149
 20  5 16  5 19 45.0000000  0  9G01G03G07G08G11G17G22G28G30          0.000024199
  20170959.766 7    -79543.730 7    -60464.87149  20170960.04349
  23204292.695 5  -1357908.219 5  -1023816.33248  23204294.35948
  20990182.367 6    114233.957 6     89003.91449  20990179.42649
  23181380.172 5    368197.398 5    277000.06346  23181380.46946
  21274589.930 6    435913.605 6    331708.41847  21274586.00847
  23988884.516 5   -837316.977 5   -640063.20348  23988883.19948
  22553783.758 6   -852552.703 6   -659257.55147  22553778.80947
  23554953.398 5  -1246124.438 5   -861235.11746  23554949.62146
  21611359.289 6   -623976.297 6   -475110.19949  21611357.98449
 20  5 16  5 19 46.0000000  0  9G01G03G07G08G11G17G22G28G30          0.000023642
  20170943.094 7    -79631.285 7    -60533.09449  20170943.56649
  23203613.664 5  -1361479.535 5  -1026599.17248  23203615.05948
  20990263.500 6    114660.008 6     89335.90249  20990260.18449
  23181566.078 5    369175.426 5    277762.16447  23181566.52747
  21274817.063 6    437109.449 6    332640.25447  21274813.52047
  23988450.609 5   -839594.391 5   -641837.80948  23988449.69948
  22553352.828 6   -854813.719 6   -661019.38347  22553348.64847
  23554302.203 5  -1249544.684 5   -863900.23846  23554298.99646
  21611064.250 6   -625526.367 6   -476318.05149  21611063.38349
 20  5 16  5 19 47.0000000  0  9G01G03G07G08G11G17G22G28G30          0.000023085
  20170926.664 7    -79718.285 7    -60600.88749  20170926.75849
  23202933.938 5  -1365050.855 5  -1029382.02048  23202935.00848
  20990344.641 6    115086.535 6     89668.25449  20990341.88349
  23181751.875 5    370153.313 5    278524.16046  23181752.99646
  21275044.383 6    438305.445 6    333572.19147  21275041.04747
  23988017.922 5   -841871.773 5   -643612.38748  23988016.45748
  22552922.586 6   -857074.430 6   -662780.97347  22552918.64847
  23553651.219 5  -1252965.141 5   -866565.53146  23553647.84446
  21610768.977 6   -627075.891 6   -477525.47349  21610768.71149
 20  5 16  5 19 48.0000000  0  9G01G03G07G08G11G17G22G28G30          0.000022528
  20170910.352 7    -79804.551 7    -60668.10949  20170910.52349
  23202254.633 5  -1368621.988 5  -1032164.71148  23202255.57048
  20990425.797 6    115513.758 6     90001.15249  20990422.87149
  23181937.898 5    371131.258 5    279286.18446  23181938.39146
  21275272.250 6    439501.797 6    334504.40647  21275268.85947
  23987584.461 5   -844148.941 5   -645386.80948  23987583.32848
  22552492.828 6   -859334.629 6   -664542.17247  22552488.84047
  23553000.273 5  -1256385.535 5   -869230.77046  23552996.94546
  21610474.930 6   -628624.699 6   -478732.33649  21610474.12149
 20  5 16  5 19 49.0000000  0  9G01G03G07G08G11G17G22G28G30          0.000021971
  20170893.922 7    -79890.129 7    -60734.78549  20170894.18449
  23201575.102 5  -1372192.887 5  -1034947.23048  23201575.98848
  20990507.266 6    115941.605 6     90334.53949  20990504.40649
  23182124.086 5    372109.215 5    280048.21546  23182124.58646
  21275499.859 6    440698.426 6    335436.84847  21275496.50847
  23987151.641 5   -846425.961 5   -647161.11748  23987149.98848
  22552062.703 6   -861594.379 6   -666303.01247  22552058.46147
  23552350.023 5  -1259805.965 5   -871896.05946  23552346.28146
  21610180.039 6   -630172.836 6   -479938.67649  21610179.53549
 20  5 16  5 19 50.0000000  0  9G01G03G07G08G11G17G22G28G30          0.000021414
  20170877.898 7    -79975.176 7    -60801.05949  20170877.93849
  23200894.625 5  -1375763.852 5  -1037729.80148  23200896.95348
  20990588.859 6    116369.973 6     90668.33249  20990585.58249
  23182310.125 5    373087.016 5    280810.14147  23182310.82847
  21275727.414 6    441895.230 6    336369.41847  21275724.40247
  23986718.125 5   -848702.949 5   -648935.39148  23986716.43848
  22551632.836 6   -863853.844 6   -668063.62547  22551628.57847
  23551698.469 5  -1263226.543 5   -874561.44546  23551695.33646
  21609885.836 6   -631720.445 6   -481144.60249  21609884.89849
 20  5 16  5 19 51.0000000  0  9G01G03G07G08G11G17G22G28G30          0.000020857
  20170861.641 7    -80059.613 7    -60866.85549  20170862.05949
  23200215.555 5  -1379334.680 5  -1040512.25848  23200216.96548
  20990670.523 6    116798.852 6     91002.52049  20990667.44549
  23182495.883 5    374064.766 5    281572.02347  23182497.02347
  21275955.727 6    443092.230 6    337302.14547  21275951.63747
  23986284.445 5   -850979.852 5   -650709.60248  23986283.61748
  22551202.680 6   -866112.914 6   -669823.94547  22551198.43847
  23551047.719 5  -1266647.242 5   -877226.92246  23551044.53946
  21609591.203 6   -633267.469 6   -482350.07449  21609590.37949
 20  5 16  5 19 52.0000000  0  9G01G03G07G08G11G17G22G28G30          0.000020300
  20170845.844 7    -80143.391 7    -60932.13749  20170845.73849
  23199536.313 5  -1382905.395 5  -1043294.63348  23199537.75848
  20990752.070 6    117228.359 6     91337.19549  20990749.43049
  23182682.375 5    375042.500 5    282333.88747  23182682.76247
  21276183.492 6    444289.523 6    338235.09847  21276179.66447
  23985851.602 5   -853256.648 5   -652483.72748  23985850.19148
  22550773.398 6   -868371.566 6   -671583.94147  22550768.96547
  23550396.531 5  -1270067.953 5   -879892.41446  23550393.37946
  21609297.086 6   -634813.844 6   -483555.04749  21609296.37549
 20  5 16  5 19 53.0000000  0  9G01G03G07G08G11G17G22G28G30          0.000019743
  20170830.266 7    -80226.539 7    -60996.92649  20170830.33649
  23198856.102 5  -1386476.004 5  -1046076.93048  23198858.10948
  20990834.219 6    117658.484 6     91672.36749  20990831.33649
  23182868.477 5    376020.203 5    283095.73446  23182868.95746
  21276411.188 6    445487.066 6    339168.25447  21276407.52047
  23985418.211 5   -855533.305 5   -654257.74248  23985416.45348
  22550343.125 6   -870629.805 6   -673343.60947  22550339.20747
  23549745.648 5  -1273488.734 5   -882557.95746  23549742.30946
  21609002.891 6   -636359.598 6   -484759.52749  21609002.04349
 20  5 16  5 19 54.0000000  0  9G01G03G07G08G11G17G22G28G30          0.000019186
  20170814.773 7    -80308.996 7    -61061.18449  20170814.87949
  23198177.109 5  -1390046.461 5  -1048859.10548  23198178.36748
  20990916.078 6    118089.215 6     92008.00049  20990912.86349
  23183054.531 5    376997.898 5    283857.57447  23183055.10547
  21276639.305 6    446684.883 6    340101.61747  21276635.62947
  23984984.719 5   -857809.793 5   -656031.62548  23984984.05948
  22549913.836 6   -872887.598 6   -675102.91847  22549909.66847
  23549094.813 5  -1276909.523 5   -885223.50446  23549091.31346
  21608708.422 6   -637904.691 6   -485963.50049  21608708.09449
 20  5 16  5 19 55.0000000  0  9G01G03G07G08G11G17G22G28G30          0.000018629
  20170799.031 7    -80390.805 7    -61124.93049  20170798.91049
  23197497.508 5  -1393616.746 5  -1051641.14548  23197499.66448
  20990998.094 6    118520.566 6     92344.10549  20990995.07049
  23183240.586 5    377975.559 5    284619.38746  23183241.07446
  21276867.289 6    447882.969 6    341035.19147  21276863.52047
  23984551.594 5   -860086.191 5   -657805.43448  23984550.44548
  22549484.250 6   -875144.992 6   -676861.91847  22549480.00047
  23548443.516 5  -1280330.402 5   -887889.11346  23548440.30546
  21608414.672 6   -639449.133 6   -487166.96549  21608414.00449
 20  5 16  5 19 56.0000000  0  9G01G03G07G08G11G17G22G28G30          0.000018072
  20170783.641 7    -80471.961 7    -61188.16449  20170783.32449
  23196818.563 5  -1397186.941 5  -1054423.11348  23196820.06648
  20991080.516 6    118952.496 6     92680.67649  20991077.42649
  23183426.922 5    378953.176 5    285381.18047  23183427.24247
  21277095.305 6    449081.340 6    341968.98847  21277091.98447
  23984118.906 5   -862362.418 5   -659579.11748  23984116.95748
  22549054.555 6   -877401.961 6   -678620.59447  22549050.78547
  23547792.883 5  -1283751.297 5   -890554.73446  23547789.19146
  21608121.094 6   -640992.938 6   -488369.93049  21608120.49249
 20  5 16  5 19 57.0000000  0  9G01G03G07G08G11G17G22G28G30          0.000017515
  20170768.547 7    -80552.457 7    -61250.89149  20170768.63749
  23196139.578 5  -1400756.977 5  -1057204.95748  23196140.69148
  20991162.500 6    119385.066 6     93017.74649  20991160.03949
  23183612.758 5    379930.848 5    286142.98847  23183612.91447
  21277323.477 6    450279.973 6    342902.98447  21277319.63747
  23983685.578 5   -864638.527 5   -661352.71148  23983684.01648
  22548625.086 6   -879658.473 6   -680378.91447  22548621.25447
  23547141.797 5  -1287172.262 5   -893220.41846  23547138.37546
  21607826.961 6   -642536.102 6   -489572.39849  21607826.61349
 20  5 16  5 19 58.0000000  0  9G01G03G07G08G11G17G22G28G30          0.000016958
  20170752.813 7    -80632.270 7    -61313.08249  20170752.98449
  23195460.164 5  -1404326.887 5  -1059986.69548  23195461.32448
  20991245.086 6    119818.254 6     93355.29349  20991241.98849
  23183798.898 5    380908.492 5    286904.78946  23183799.12146
  21277551.547 6    451478.895 6    343837.20347  21277547.60247
  23983252.594 5   -866914.484 5   -663126.18448  23983250.77748
  22548195.688 6   -881914.574 6   -682136.91447  22548191.99247
  23546491.023 5  -1290593.227 5   -895886.10246  23546486.88346
  21607533.461 6   -644078.621 6   -490774.35949  21607532.94149
 20  5 16  5 19 59.0000000  0  9G01G03G07G08G11G17G22G28G30          0.000016401
  20170737.898 7    -80711.500 7    -61374.82049  20170737.82049
  23194781.094 5  -1407896.660 5  -1062768.33248  23194782.31648
  20991327.516 6    120252.004 6     93693.28149  20991324.30549
  23183984.563 5    381886.051 5    287666.52047  23183984.93847
  21277779.820 6    452678.035 6    344771.59847  21277776.21947
  23982819.078 5   -869190.340 5   -664899.58248  23982817.75848
  22547766.461 6   -884170.285 6   -683894.61347  22547762.77347
  23545839.914 5  -1294014.285 5   -898551.87546  23545836.13746
  21607239.977 6   -645620.520 6   -491975.84449  21607239.40649
 20  5 16  5 20  0.0000000  0  9G01G03G07G08G11G17G22G28G30          0.000015844
  20170723.156 7    -80790.082 7    -61436.05549  20170722.91449
  23194100.672 5  -1411466.410 5  -1065549.95748  23194102.66048
  20991410.117 6    120686.340 6     94031.72349  20991407.53149
  23184170.281 5    382863.594 5    288428.23047  23184171.16447
  21278007.648 6    453877.410 6    345706.17647  21278004.23847
  23982386.234 5   -871466.102 5   -666672.89848  23982384.85548
  22547337.398 6   -886425.594 6   -685652.00447  22547333.66447
  23545188.539 5  -1297435.398 5   -901217.68046  23545185.09846
  21606946.641 6   -647161.805 6   -493176.84449  21606946.24249
 20  5 16  5 20  1.0000000  0  9G01G03G07G08G11G17G22G28G30          0.000015287
  20170708.422 7    -80867.965 7    -61496.74249  20170708.42649
  23193421.992 5  -1415035.938 5  -1068331.40248  23193423.12948
  20991492.852 6    121121.324 6     94370.66849  20991490.48449
  23184356.867 5    383841.156 5    289189.95747  23184357.05547
  21278236.516 6    455077.125 6    346641.01247  21278232.52347
  23981953.445 5   -873741.676 5   -668446.07048  23981951.88748
  22546908.227 6   -888680.457 6   -687409.04747  22546904.24647
  23544537.805 5  -1300856.547 5   -903883.52046  23544534.12546
  21606653.539 6   -648702.410 6   -494377.32049  21606653.09049
 20  5 16  5 20  2.0000000  0  9G01G03G07G08G11G17G22G28G30          0.000014730
  20170693.648 7    -80945.227 7    -61556.94149  20170693.41449
  23192742.664 5  -1418605.344 5  -1071112.75848  23192743.73048
  20991576.180 6    121556.906 6     94710.07849  20991573.08249
  23184542.828 5    384818.645 5    289951.64547  23184543.32047
  21278464.563 6    456277.051 6    347576.02347  21278460.88347
  23981520.633 5   -876017.129 5   -670219.14548  23981518.58648
  22546479.508 6   -890934.883 6   -689165.73847  22546475.17647
  23543886.703 5  -1304277.719 5   -906549.35946  23543883.46546
  21606360.617 6   -650242.402 6   -495577.31349  21606360.04749
 20  5 16  5 20  3.0000000  0  9G01G03G07G08G11G17G22G28G30          0.000014174
  20170678.711 7    -81021.777 7    -61616.59449  20170678.55949
  23192063.516 5  -1422174.590 5  -1073893.99248  23192064.74248
  20991658.656 6    121993.121 6     95049.98449  20991655.85249
  23184728.125 5    385796.172 5    290713.36347  23184729.17247
  21278693.367 6    457477.332 6    348511.30548  21278689.69548
  23981087.172 5   -878292.441 5   -671992.11748  23981085.66848
  22546050.609 6   -893188.867 6   -690922.09047  22546046.50047
  23543235.477 5  -1307698.934 5   -909215.24246  23543232.32046
  21606067.750 6   -651781.676 6   -496776.75049  21606067.13349
 20  5 16  5 20  4.0000000  0  9G01G03G07G08G11G17G22G28G30          0.000013617
  20170664.164 7    -81097.859 7    -61675.88349  20170664.47749
  23191383.992 5  -1425743.910 5  -1076675.27348  23191385.42248
  20991742.141 6    122429.773 6     95390.23849  20991739.32849
  23184914.477 5    386773.465 5    291474.89547  23184914.96947
  21278921.688 6    458677.660 6    349446.62948  21278917.62548
  23980654.508 5   -880567.762 5   -673765.09048  23980652.43848
  22545621.492 6   -895442.582 6   -692678.23047  22545617.53147
  23542584.570 5  -1311120.344 5   -911881.27046  23542581.16046
  21605775.023 6   -653320.516 6   -497975.84049  21605774.11749
 20  5 16  5 20  5.0000000  0  9G01G03G07G08G11G17G22G28G30          0.000013060
  20170650.266 7    -81173.359 7    -61734.70749  20170649.99249
  23190705.031 5  -1429313.180 5  -1079456.52548  23190706.58248
  20991825.281 6    122866.965 6     95730.90649  20991822.21549
  23185100.211 5    387750.699 5    292236.38747  23185101.04347
  21279149.805 6    459878.211 6    350382.11347  21279146.14847
  23980221.625 5   -882843.043 5   -675538.03948  23980220.00048
  22545192.625 6   -897695.988 6   -694434.13347  22545188.92647
  23541933.375 5  -1314541.875 5   -914547.39546  23541930.12146
  21605482.180 6   -654858.773 6   -499174.48449  21605481.58249
 20  5 16  5 20  6.0000000  0  9G01G03G07G08G11G17G22G28G30          0.000012503
  20170636.055 7    -81248.098 7    -61792.94949  20170635.80149
  23190026.242 5  -1432882.141 5  -1082237.53148  23190027.83648
  20991908.727 6    123304.855 6     96072.11749  20991905.76649
  23185286.422 5    388728.016 5    292997.92647  23185287.19947
  21279378.555 6    461079.121 6    351317.89148  21279374.48848
  23979788.102 5   -885118.082 5   -677310.80148  23979786.78948
  22544764.023 6   -899948.863 6   -696189.61347  22544760.31647
  23541282.000 5  -1317963.371 5   -917213.49246  23541278.94146
  21605189.977 6   -656396.293 6   -500372.55149  21605189.36349
 20  5 16  5 20  7.0000000  0  9G01G03G07G08G11G17G22G28G30          0.000011946
  20170621.461 7    -81322.172 7    -61850.66849  20170621.56649
  23189346.445 5  -1436451.027 5  -1085018.47748  23189348.14548
  20991991.883 6    123743.398 6     96413.83649  20991989.33649
  23185472.641 5    389705.355 5    293759.47747  23185473.00447
  21279606.992 6    462280.309 6    352253.87548  21279603.19148
  23979356.008 5   -887392.977 5   -679083.44548  23979354.21948
  22544335.234 6   -902201.293 6   -697944.74647  22544331.40247
  23540631.422 5  -1321384.875 5   -919879.60246  23540628.15246
  21604897.516 6   -657933.180 6   -501570.12949  21604896.76649
 20  5 16  5 20  8.0000000  0  9G01G03G07G08G11G17G22G28G30          0.000011389
  20170607.453 7    -81395.703 7    -61907.96549  20170607.73849
  23188667.445 5  -1440019.840 5  -1087799.35548  23188668.93448
  20992075.469 6    124182.418 6     96755.93049  20992072.52749
  23185658.023 5    390682.516 5    294520.88346  23185658.88346
  21279835.508 6    463481.668 6    353189.99248  21279831.87148
  23978922.586 5   -889667.832 5   -680856.05948  23978921.30548
  22543906.641 6   -904453.391 6   -699699.62947  22543902.91847
  23539979.680 5  -1324806.512 5   -922545.82046  23539977.03546
  21604604.898 6   -659469.508 6   -502767.27049  21604604.53149
 20  5 16  5 20  9.0000000  0  9G01G03G07G08G11G17G22G28G30          0.000010832
  20170593.570 7    -81468.621 7    -61964.78949  20170593.93449
  23187988.555 5  -1443588.598 5  -1090580.20748  23187989.70348
  20992159.148 6    124621.977 6     97098.44549  20992156.47349
  23185844.328 5    391659.621 5    295282.26646  23185844.89146
  21280064.500 6    464683.242 6    354126.28948  21280060.45748
  23978489.250 5   -891942.629 5   -682628.62548  23978488.15248
  22543478.164 6   -906705.125 6   -701454.21547  22543474.60547
  23539328.773 5  -1328228.277 5   -925212.12546  23539325.92246
  21604312.703 6   -661005.270 6   -503963.96949  21604311.98049
 20  5 16  5 20 10.0000000  0  9G01G03G07G08G11G17G22G28G30          0.000010275
  20170580.141 7    -81540.832 7    -62021.05949  20170579.98449
  23187309.094 5  -1447157.164 5  -1093360.90648  23187310.68048
  20992242.906 6    125062.215 6     97441.48049  20992239.80549
  23186030.453 5    392636.715 5    296043.64146  23186031.08646
  21280292.766 6    465885.125 6    355062.82047  21280289.05147
  23978057.383 5   -894217.254 5   -684401.06348  23978055.51248
  22543050.039 6   -908956.387 6   -703208.44147  22543045.82847
  23538678.016 5  -1331650.035 5   -927878.43046  23538674.71146
  21604020.391 6   -662540.309 6   -505160.10249  21604019.83649
 20  5 16  5 20 11.0000000  0  9G01G03G07G08G11G17G22G28G30          0.000009718
  20170566.477 7    -81612.395 7    -62076.82049  20170566.77749
  23186629.938 4  -1450725.566 4  -1096141.47748  23186631.71948
  20992326.859 6    125503.063 6     97785.00449  20992324.11349
  23186216.469 5    393613.816 5    296805.01646  23186216.91846
  21280521.750 6    467087.305 6    355999.57848  21280518.08648
  23977624.016 5   -896491.719 5   -686173.36348  23977622.80148
  22542621.367 6   -911207.215 6   -704962.33647  22542617.48047
  23538027.016 5  -1335071.848 5   -930544.77046  23538023.46946
  21603728.367 6   -664074.723 6   -506355.75449  21603728.06349
 20  5 16  5 20 12.0000000  0  9G01G03G07G08G11G17G22G28G30          0.000009161
  20170553.141 7    -81683.266 7    -62132.04349  20170553.06649
  23185951.250 5  -1454293.852 5  -1098921.96148  23185952.73048
  20992410.922 6    125944.535 6     98129.00449  20992408.10249
  23186402.570 5    394590.934 5    297566.40246  23186403.16046
  21280750.922 6    468289.785 6    356936.58648  21280746.85548
  23977191.844 5   -898766.039 5   -687945.55948  23977189.80148
  22542193.086 6   -913457.566 6   -706715.85947  22542189.21547
  23537375.695 5  -1338493.621 5   -933211.08246  23537372.58646
  21603436.531 6   -665608.430 6   -507550.84449  21603435.91449
 20  5 16  5 20 13.0000000  0  9G01G03G07G08G11G17G22G28G30          0.000008604
  20170539.688 7    -81753.645 7    -62186.87949  20170539.70749
  23185272.141 5  -1457862.137 5  -1101702.44548  23185273.61348
  20992494.836 7    126386.473 7     98473.36749  20992492.29349
  23186588.375 5    395567.883 5    298327.65846  23186588.67646
  21280979.758 6    469492.348 6    357873.63748  21280975.60248
  23976758.234 5   -901040.359 5   -689717.75848  23976756.77348
  22541765.078 6   -915707.676 6   -708469.19547  22541761.36747
  23536724.875 5  -1341915.641 5   -935877.59446  23536721.07846
  21603144.516 6   -667141.699 6   -508745.60549  21603144.43049
 20  5 16  5 20 14.0000000  0  9G01G03G07G08G11G17G22G28G30          0.000008047
  20170525.914 7    -81823.355 7    -62241.20349  20170526.72349
  23184592.422 5  -1461430.250 5  -1104482.78948  23184594.80548
  20992579.672 6    126829.020 6     98818.20749  20992576.07049
  23186774.500 5    396544.777 5    299088.87547  23186775.08247
  21281208.117 6    470695.195 6    358810.92247  21281204.58647
  23976325.867 5   -903314.566 5   -691489.86748  23976324.24648
  22541337.219 6   -917957.348 6   -710222.19547  22541333.38747
  23536073.227 5  -1345337.656 5   -938544.09046  23536070.15646
  21602853.297 6   -668674.293 6   -509939.82849  21602852.90249
 20  5 16  5 20 15.0000000  0  9G01G03G07G08G11G17G22G28G30          0.000007490
  20170513.211 7    -81892.348 7    -62294.96549  20170513.30149
  23183914.523 4  -1464998.211 4  -1107263.01248  23183915.62948
  20992663.703 6    127272.246 6     99163.57849  20992660.73049
  23186959.898 5    397521.734 5    299850.15246  23186960.73046
  21281437.344 6    471898.387 6    359748.48847  21281433.46547
  23975892.984 5   -905588.547 5   -693261.80148  23975891.72348
  22540909.414 6   -920206.520 6   -711974.79747  22540905.13347
  23535421.656 5  -1348759.688 5   -941210.60546  23535419.00446
  21602561.516 6   -670206.188 6   -511133.51249  21602561.35949
 20  5 16  5 20 16.0000000  0  9G01G03G07G08G11G17G22G28G30          0.000006933
  20170500.078 7    -81960.742 7    -62348.27049  20170500.23449
  23183235.297 4  -1468566.051 4  -1110043.14848  23183236.71148
  20992747.867 6    127716.016 6     99509.37149  20992744.97349
  23187145.320 5    398498.637 5    300611.37546  23187146.69946
  21281666.305 6    473101.789 6    360686.20347  21281662.68047
  23975459.875 5   -907862.449 5   -695033.67648  23975458.78548
  22540481.391 6   -922455.313 6   -713727.09847  22540477.44547
  23534771.063 5  -1352181.781 5   -943877.17646  23534768.11746
  21602270.125 6   -671737.469 6   -512326.72349  21602269.34049
 20  5 16  5 20 17.0000000  0  9G01G03G07G08G11G17G22G28G30          0.000006376
  20170487.211 7    -82028.418 7    -62400.99649  20170487.49649
  23182556.383 5  -1472133.727 5  -1112823.14848  23182557.74248
  20992832.461 6    128160.477 6     99855.71149  20992829.46549
  23187332.328 5    399475.605 5    301372.64147  23187332.35947
  21281895.453 6    474305.531 6    361624.18447  21281891.61747
  23975027.469 5   -910136.148 5   -696805.38748  23975026.05148
  22540053.898 6   -924703.617 6   -715479.03547  22540049.19947
  23534119.875 5  -1355603.863 5   -946543.72746  23534116.47746
  21601978.961 6   -673268.039 6   -513519.37149  21601977.96549
 20  5 16  5 20 18.0000000  0  9G01G03G07G08G11G17G22G28G30          0.000005819
  20170474.406 7    -82095.414 7    -62453.19949  20170474.84049
  23181877.094 4  -1475701.215 4  -1115603.00448  23181878.82848
  20992917.344 6    128605.527 6    100202.49649  20992914.23449
  23187517.898 5    400452.523 5    302133.86347  23187518.54347
  21282124.703 6    475509.551 6    362562.36747  21282120.74647
  23974594.891 5   -912409.703 5   -698576.98848  23974593.36748
  22539625.453 6   -926951.492 6   -717230.60947  22539621.73847
  23533469.156 5  -1359025.969 5   -949210.29746  23533465.48846
  21601687.773 6   -674797.988 6   -514711.54349  21601687.41849
 20  5 16  5 20 19.0000000  0  9G01G03G07G08G11G17G22G28G30          0.000005262
  20170461.852 7    -82161.762 7    -62504.89849  20170462.10549
  23181198.664 5  -1479268.602 5  -1118382.78348  23181199.96148
  20993002.148 6    129051.211 6    100549.78149  20992999.10549
  23187703.836 5    401429.461 5    302895.10547  23187704.05147
  21282353.703 6    476713.828 6    363500.76647  21282349.97347
  23974161.930 5   -914683.117 5   -700348.48448  23974160.95748
  22539198.156 6   -929198.930 6   -718981.86347  22539193.97347
  23532817.469 5  -1362448.125 5   -951876.90646  23532814.39846
  21601396.750 6   -676327.254 6   -515903.17649  21601396.72349
 20  5 16  5 20 20.0000000  0  9G01G03G07G08G11G17G22G28G30          0.000004705
  20170449.133 7    -82227.457 7    -62556.08249  20170449.48449
  23180519.430 5  -1482835.840 5  -1121162.44548  23180520.75048
  20993087.016 6    129497.504 6    100897.54349  20993084.24249
  23187889.781 5    402406.398 5    303656.35547  23187890.16447
  21282583.133 6    477918.383 6    364439.37947  21282579.00047
  23973729.063 5   -916956.422 5   -702119.89148  23973728.07048
  22538770.352 6   -931445.934 6   -720732.77047  22538766.33647
  23532165.828 5  -1365870.336 5   -954543.56646  23532163.30146
  21601106.008 6   -677855.887 6   -517094.32449  21601105.58249
 20  5 16  5 20 21.0000000  0  9G01G03G07G08G11G17G22G28G30          0.000004150
  20170437.102 7    -82292.516 7    -62606.78549  20170437.16049
  23179840.672 5  -1486402.938 5  -1123942.00048  23179842.53948
  20993171.859 6    129944.367 6    101245.75049  20993169.09449
  23188075.117 5    403383.258 5    304417.54347  23188075.58247
  21282812.188 6    479123.191 6    365378.19547  21282808.33647
  23973297.383 5   -919229.602 5   -703891.19148  23973295.82048
  22538342.469 6   -933692.535 6   -722483.37147  22538338.74647
  23531515.039 5  -1369292.586 5   -957210.26246  23531511.93046
  21600814.930 6   -679383.910 6   -518284.99249  21600814.64149
 20  5 16  5 20 22.0000000  0  9G01G03G07G08G11G17G22G28G30          0.000003593
  20170424.688 7    -82356.969 7    -62657.01249  20170424.69549
  23179161.961 5  -1489969.965 5  -1126721.49648  23179163.48848
  20993257.219 6    130391.816 6    101594.40649  20993254.21949
  23188261.484 5    404360.082 5    305178.69547  23188261.89147
  21283041.711 6    480328.219 6    366317.16847  21283037.81347
  23972864.094 5   -921502.719 5   -705662.44548  23972862.99648
  22537914.789 6   -935938.750 6   -724233.66447  22537911.10947
  23530863.484 5  -1372714.918 5   -959877.02046  23530860.80146
  21600524.500 6   -680911.332 6   -519475.19149  21600524.19149
 20  5 16  5 20 23.0000000  0  9G01G03G07G08G11G17G22G28G30          0.000003036
  20170412.477 7    -82420.836 7    -62706.77349  20170412.62149
  23178483.445 4  -1493536.949 4  -1129500.96148  23178485.24648
  20993342.461 6    130839.789 6    101943.46949  20993339.25049
  23188447.000 5    405336.801 5    305939.78147  23188447.41047
  21283270.898 6    481533.430 6    367256.29747  21283267.28147
  23972432.539 5   -923775.758 5   -707433.64548  23972430.69548
  22537487.766 6   -938184.641 6   -725983.71547  22537483.89547
  23530212.000 5  -1376137.410 5   -962543.89146  23530209.20346
  21600233.734 6   -682438.199 6   -520664.95749  21600233.56649
 20  5 16  5 20 24.0000000  0  9G01G03G07G08G11G17G22G28G30          0.000002480
  20170400.609 7    -82484.152 7    -62756.11349  20170400.65649
  23177804.883 5  -1497103.906 5  -1132280.41048  23177806.22748
  20993427.938 6    131288.258 6    102292.93049  20993425.12549
  23188633.172 5    406313.359 5    306700.73447  23188633.31647
  21283500.188 6    482738.813 6    368195.55947  21283496.36347
  23971999.430 5   -926048.734 5   -709204.78948  23971998.09448
  22537060.391 6   -940430.188 6   -727733.49247  22537056.72347
  23529561.211 5  -1379560.000 5   -965210.85546  23529557.92246
  21599943.633 6   -683964.508 6   -521854.28949  21599943.29349
 20  5 16  5 20 25.0000000  0  9G01G03G07G08G11G17G22G28G30          0.000001923
  20170388.594 7    -82546.879 7    -62804.98849  20170388.75049
  23177125.898 5  -1500670.762 5  -1135059.77748  23177127.39548
  20993513.289 6    131737.281 6    102642.81649  20993510.45749
  23188818.781 5    407289.891 5    307461.66847  23188819.27747
  21283729.664 6    483944.395 6    369134.97347  21283725.38347
  23971566.922 5   -928321.703 5   -710975.93848  23971565.32848
  22536633.445 6   -942675.383 6   -729482.99647  22536629.32047
  23528909.195 5  -1382982.738 5   -967877.92246  23528907.04746
  21599652.906 6   -685490.230 6   -523043.16449  21599652.50049
 20  5 16  5 20 26.0000000  0  9G01G03G07G08G11G17G22G28G30          0.000001366
  20170377.008 7    -82608.945 7    -62853.35249  20170377.03549
  23176446.688 5  -1504237.527 5  -1137839.07448  23176448.48048
  20993598.727 6    132186.918 6    102993.18449  20993595.85249
  23189004.766 5    408266.387 5    308222.56647  23189005.00847
  21283958.930 6    485150.246 6    370074.59447  21283955.11747
  23971134.203 5   -930594.488 5   -712746.94948  23971132.97748
  22536206.273 6   -944920.125 6   -731232.14147  22536202.23447
  23528257.820 5  -1386405.484 5   -970544.99646  23528255.30946
  21599362.453 6   -687015.340 6   -524231.56649  21599362.43449
 20  5 16  5 20 27.0000000  0  9G01G03G07G08G11G17G22G28G30          0.000000809
  20170364.938 7    -82670.426 7    -62901.25849  20170365.59849
  23175768.195 5  -1507804.141 5  -1140618.25448  23175770.06648
  20993684.203 6    132637.090 6    103343.96149  20993681.28949
  23189189.922 5    409242.797 5    308983.41847  23189190.61347
  21284188.781 6    486356.316 6    371014.39147  21284184.77047
  23970702.852 5   -932867.254 5   -714517.94148  23970700.55948
  22535779.148 6   -947164.531 6   -732981.02347  22535775.35547
  23527607.344 5  -1389828.352 5   -973212.17246  23527603.88746
  21599072.383 6   -688539.836 6   -525419.48049  21599072.34849
 20  5 16  5 20 28.0000000  0  9G01G03G07G08G11G17G22G28G30          0.000000252
  20170353.531 7    -82731.207 7    -62948.62149  20170354.11349
  23175089.727 5  -1511370.598 5  -1143397.30948  23175091.35248
  20993770.070 6    133087.914 6    103695.25449  20993767.44949
  23189376.133 5    410219.238 5    309744.27747  23189376.64147
  21284418.211 6    487562.703 6    371954.43847  21284414.22347
  23970269.789 5   -935139.797 5   -716288.74648  23970268.25048
  22535352.383 6   -949408.438 6   -734729.52347  22535348.25847
  23526955.609 5  -1393251.199 5   -975879.31347  23526952.58247
  21598782.844 6   -690063.633 6   -526606.85549  21598782.34049
 20  5 16  5 20 29.0000000  0  9G01G03G07G08G11G17G22G28G30         -0.000000305
  20170341.875 7    -82791.254 7    -62995.41449  20170342.75049
  23174410.906 5  -1514936.867 5  -1146176.21148  23174412.77048
  20993856.094 6    133539.418 6    104047.07849  20993853.14549
  23189562.070 5    411195.699 5    310505.15247  23189562.53147
  21284648.016 6    488769.406 6    372894.72347  21284643.89147
  23969836.836 5   -937412.164 5   -718059.41848  23969836.03548
  22534925.281 6   -951651.867 6   -736477.66047  22534920.98847
  23526303.914 5  -1396674.066 5   -978546.47747  23526301.43447
  21598493.016 6   -691586.766 6   -527793.71149  21598492.50449
 20  5 16  5 20 30.0000000  0  9G01G03G07G08G11G17G22G28G30         -0.000000862
  20170330.516 7    -82850.754 7    -63041.77749  20170331.30949
  23173731.906 4  -1518503.117 4  -1148955.10248  23173734.03948
  20993942.133 7    133991.418 7    104399.28549  20993939.42649
  23189748.398 5    412172.051 5    311265.95747  23189748.70747
  21284877.445 6    489976.270 6    373835.13348  21284873.68848
  23969404.898 5   -939684.480 5   -719830.03948  23969403.54348
  22534498.414 6   -953894.957 6   -738225.52047  22534494.38747
  23525652.961 5  -1400097.059 5   -981213.74246  23525650.14546
  21598203.164 6   -693109.313 6   -528980.11749  21598203.10249
 20  5 16  5 20 31.0000000  0  9G01G03G07G08G11G17G22G28G30         -0.000001419
  20170319.648 7    -82909.547 7    -63087.59449  20170319.86749
  23173053.891 5  -1522069.176 5  -1151733.84848  23173055.19548
  20994028.203 6    134444.098 6    104752.02049  20994025.63749
  23189933.688 5    413148.453 5    312026.78947  23189934.05947
  21285107.289 6    491183.465 6    374775.79747  21285103.29347
  23968972.305 5   -941956.609 5   -721600.52348  23968971.02348
  22534071.977 6   -956137.563 6   -739973.00047  22534067.42247
  23525001.133 5  -1403520.008 5   -983880.97346  23524998.46946
  21597913.875 6   -694631.172 6   -530165.97749  21597913.29749
 20  5 16  5 20 32.0000000  0  9G01G03G07G08G11G17G22G28G30         -0.000001976
  20170308.430 7    -82967.789 7    -63132.97349  20170309.00849
  23172374.844 4  -1525635.172 4  -1154512.53948  23172376.99248
  20994114.477 6    134897.285 6    105105.15249  20994111.36349
  23190119.938 5    414124.699 5    312787.50047  23190119.83247
  21285336.805 6    492390.828 6    375716.60247  21285332.89547
  23968540.102 5   -944228.730 5   -723371.00848  23968538.71548
  22533645.117 6   -958379.871 6   -741720.25447  22533640.94147
  23524350.008 5  -1406943.141 5   -986548.35546  23524347.18846
  21597623.688 6   -696152.500 6   -531351.43449  21597623.59849
 20  5 16  5 20 33.0000000  0  9G01G03G07G08G11G17G22G28G30         -0.000002533
  20170297.406 7    -83025.324 7    -63177.81349  20170298.00849
  23171696.367 5  -1529200.980 5  -1157291.09048  23171698.69948
  20994200.906 6    135351.141 6    105458.79749  20994198.18449
  23190305.336 5    415101.027 5    313548.26646  23190305.78546
  21285567.234 6    493598.527 6    376657.66847  21285562.89147
  23968107.695 5   -946500.648 5   -725141.33648  23968106.50848
  22533218.375 6   -960621.676 6   -743467.11347  22533214.13347
  23523698.641 5  -1410366.246 5   -989215.70746  23523695.77746
  21597334.969 6   -697673.121 6   -532536.33249  21597334.41449
 20  5 16  5 20 34.0000000  0  9G01G03G07G08G11G17G22G28G30         -0.000003090
  20170286.789 7    -83082.121 7    -63222.07049  20170287.34449
  23171018.281 4  -1532766.594 4  -1160069.48848  23171020.26248
  20994287.375 6    135805.660 6    105812.97349  20994284.87949
  23190491.211 5    416077.387 5    314309.07447  23190491.52747
  21285796.641 6    494806.547 6    377598.97748  21285792.71948
  23967675.203 5   -948772.348 5   -726911.49248  23967674.01248
  22532791.883 6   -962862.977 6   -745213.57847  22532787.77047
  23523046.961 5  -1413789.281 5   -991882.99646  23523044.41446
  21597045.680 6   -699193.016 6   -533720.66449  21597045.34849
 20  5 16  5 20 35.0000000  0  9G01G03G07G08G11G17G22G28G30         -0.000003647
  20170275.953 7    -83138.230 7    -63265.78949  20170276.85549
  23170339.367 5  -1536332.027 5  -1162847.74648  23170341.24648
  20994373.852 6    136260.844 6    106167.65649  20994370.79749
  23190676.852 5    417053.758 5    315069.87547  23190676.69547
  21286026.844 6    496014.887 6    378540.54347  21286022.73847
  23967243.594 5   -951043.875 5   -728681.50848  23967241.61748
  22532365.719 6   -965103.840 6   -746959.69947  22532361.20747
  23522395.859 5  -1417212.367 5   -994550.33646  23522392.76246
  21596756.828 6   -700712.246 6   -534904.47749  21596756.23449
 20  5 16  5 20 36.0000000  0  9G01G03G07G08G11G17G22G28G30         -0.000004204
  20170265.602 7    -83193.762 7    -63309.05949  20170266.23049
  23169661.133 5  -1539897.383 5  -1165625.93848  23169663.41848
  20994460.461 6    136716.559 6    106522.75849  20994457.83249
  23190862.672 5    418030.020 5    315830.59447  23190863.05547
  21286256.406 6    497223.430 6    379482.26647  21286252.60247
  23966811.391 5   -953315.363 5   -730451.49648  23966809.75848
  22531939.109 6   -967344.309 6   -748705.52047  22531934.62947
  23521744.648 5  -1420635.535 5   -997217.73847  23521741.38747
  21596467.695 6   -702230.906 6   -536087.85549  21596467.11749
 20  5 16  5 20 37.0000000  0  9G01G03G07G08G11G17G22G28G30         -0.000004761
  20170255.414 7    -83248.621 7    -63351.80949  20170255.81649
  23168983.094 5  -1543462.602 5  -1168404.03548  23168984.86348
  20994547.563 6    137172.867 6    106878.32049  20994544.63749
  23191048.531 5    419006.336 5    316591.36747  23191049.04747
  21286486.523 6    498432.215 6    380424.17247  21286482.55547
  23966378.406 5   -955586.707 5   -732221.37948  23966377.51248
  22531512.883 6   -969584.352 6   -750451.00447  22531508.15647
  23521092.984 5  -1424058.758 5   -999885.17646  23521089.89146
  21596178.961 6   -703748.906 6   -537270.71149  21596178.31349
 20  5 16  5 20 38.0000000  0  9G01G03G07G08G11G17G22G28G30         -0.000005318
  20170244.641 7    -83302.898 7    -63394.10549  20170244.94549
  23168304.289 5  -1547027.734 5  -1171182.05148  23168306.30548
  20994634.500 6    137629.734 6    107234.32049  20994631.28949
  23191234.102 5    419982.520 5    317352.02747  23191234.78547
  21286716.289 6    499641.234 6    381366.27047  21286712.72347
  23965945.969 5   -957857.961 5   -733991.19148  23965945.18848
  22531086.875 6   -971824.039 6   -752196.22347  22531082.03947
  23520441.648 5  -1427482.051 5  -1002552.68046  23520438.91446
  21595890.047 6   -705266.320 6   -538453.10949  21595889.55149
 20  5 16  5 20 39.0000000  0  9G01G03G07G08G11G17G22G28G30         -0.000005875
  20170234.266 7    -83356.508 7    -63435.87549  20170234.78149
  23167625.703 5  -1550592.723 5  -1173959.96148  23167628.03148
  20994721.422 6    138087.219 6    107590.80149  20994718.60949
  23191419.867 5    420958.703 5    318112.69147  23191420.73447
  21286946.758 6    500850.527 6    382308.57847  21286942.69947
  23965514.359 5   -960129.105 5   -735760.91448  23965512.96548
  22530660.594 6   -974063.242 6   -753941.05947  22530655.86747
  23519790.039 5  -1430905.379 5  -1005220.20346  23519786.95746
  21595600.844 6   -706783.059 6   -539634.98849  21595600.87149
 20  5 16  5 20 40.0000000  0  9G01G03G07G08G11G17G22G28G30         -0.000006432
  20170224.336 7    -83409.473 7    -63477.15249  20170224.84449
  23166947.461 5  -1554157.586 5  -1176737.77748  23166949.43448
  20994808.789 6    138545.277 6    107947.73049  20994805.87149
  23191605.727 5    421934.852 5    318873.32047  23191605.90647
  21287177.047 6    502060.055 6    383251.06647  21287172.87147
  23965082.492 5   -962400.098 5   -737530.51248  23965080.87148
  22530234.852 6   -976302.078 6   -755685.60247  22530230.32447
  23519138.758 5  -1434328.793 5  -1007887.81646  23519135.71946
  21595312.477 6   -708299.219 6   -540816.40649  21595312.46149
 20  5 16  5 20 41.0000000  0  9G01G03G07G08G11G17G22G28G30         -0.000006989
  20170214.219 7    -83461.844 7    -63517.96149  20170214.94549
  23166268.898 5  -1557722.406 5  -1179515.55948  23166270.96148
  20994896.211 6    139003.891 6    108305.09049  20994893.33249
  23191791.453 5    422910.914 5    319633.88747  23191791.66447
  21287407.188 6    503269.801 6    384193.71948  21287403.14148
  23964649.922 5   -964671.035 5   -739300.07048  23964648.81648
  22529808.242 6   -978540.527 6   -757429.84447  22529804.18447
  23518487.047 5  -1437752.289 5  -1010555.47746  23518484.20746
  21595024.102 6   -709814.793 6   -541997.37149  21595023.87149
 20  5 16  5 20 42.0000000  0  9G01G03G07G08G11G17G22G28G30         -0.000007545
  20170204.563 7    -83513.590 7    -63558.27349  20170205.18849
  23165591.000 5  -1561287.020 5  -1182293.18048  23165592.93048
  20994983.703 6    139463.094 6    108662.91049  20994980.31649
  23191976.641 5    423886.945 5    320394.43446  23191977.54346
  21287637.461 6    504479.797 6    385136.58248  21287633.37148
  23964217.773 5   -966941.820 5   -741069.51648  23964216.60248
  22529382.813 6   -980778.574 6   -759173.78147  22529378.02347
  23517835.281 5  -1441175.836 5  -1013223.17646  23517832.76246
  21594736.117 6   -711329.707 6   -543177.82849  21594735.39149
 20  5 16  5 20 43.0000000  0  9G01G03G07G08G11G17G22G28G30         -0.000008102
  20170195.250 7    -83564.703 7    -63598.10549  20170195.81349
  23164913.203 5  -1564851.586 5  -1185070.76648  23164914.50048
  20995070.664 6    139922.859 6    109021.16849  20995068.02749
  23192162.641 5    424862.918 5    321154.91847  23192163.48047
  21287868.047 6    505690.008 6    386079.60548  21287863.78948
  23963785.656 5   -969212.547 5   -742838.91448  23963784.38348
  22528957.531 6   -983016.238 6   -760917.41847  22528952.42247
  23517184.078 5  -1444599.496 5  -1015890.94946  23517180.94546
  21594447.852 6   -712844.039 6   -544357.82449  21594447.53149
 20  5 16  5 20 44.0000000  0  9G01G03G07G08G11G17G22G28G30         -0.000008659
  20170185.227 7    -83615.188 7    -63637.44549  20170185.58649
  23164234.555 5  -1568416.063 5  -1187848.28148  23164236.01648
  20995158.273 6    140383.238 6    109379.89849  20995155.45349
  23192348.828 5    425838.871 5    321915.39847  23192349.22747
  21288098.164 6    506900.477 6    387022.82848  21288093.56648
  23963353.422 5   -971483.137 5   -744608.19948  23963352.25448
  22528531.250 6   -985253.469 6   -762660.70347  22528526.35547
  23516532.844 5  -1448023.168 5  -1018558.75046  23516529.65246
  21594159.766 6   -714357.711 6   -545537.30949  21594159.57849
 20  5 16  5 20 45.0000000  0  9G01G03G07G08G11G17G22G28G30         -0.000009216
  20170175.680 7    -83664.980 7    -63676.24249  20170176.38349
  23163556.188 5  -1571980.301 5  -1190625.60948  23163557.73448
  20995246.328 6    140844.254 6    109739.13349  20995243.22749
  23192533.727 5    426814.840 5    322675.88747  23192535.16847
  21288329.023 6    508111.262 6    387966.29747  21288324.50447
  23962921.086 5   -973753.547 5   -746377.34848  23962920.35548
  22528105.914 6   -987490.238 6   -764403.64547  22528100.68447
  23515881.117 5  -1451446.848 5  -1021226.54747  23515877.92647
  21593871.797 6   -715870.727 6   -546716.28549  21593871.73449
 20  5 16  5 20 46.0000000  0  9G01G03G07G08G11G17G22G28G30         -0.000009773
  20170166.273 7    -83714.141 7    -63714.55549  20170166.96149
  23162878.070 5  -1575544.441 5  -1193402.85248  23162879.87148
  20995334.031 6    141305.840 6    110098.80949  20995331.01649
  23192719.875 5    427790.710 5    323436.31147  23192720.34447
  21288559.094 6    509322.297 6    388909.95748  21288554.78548
  23962489.367 5   -976023.867 5   -748146.42248  23962488.37948
  22527679.898 6   -989726.625 6   -766146.28547  22527675.66447
  23515229.820 5  -1454870.605 5  -1023894.41447  23515226.62947
  21593584.305 6   -717383.109 6   -547894.76649  21593584.23449
 20  5 16  5 20 47.0000000  0  9G01G03G07G08G11G17G22G28G30         -0.000010330
  20170157.164 7    -83762.688 7    -63752.37949  20170157.59049
  23162199.438 5  -1579108.551 5  -1196180.07648  23162201.34448
  20995421.813 6    141768.016 6    110458.95349  20995419.33249
  23192905.008 5    428766.590 5    324196.74247  23192905.93847
  21288789.547 6    510533.555 6    389853.78947  21288785.22747
  23962057.523 5   -978294.051 5   -749915.40248  23962056.16848
  22527254.352 6   -991962.578 6   -767888.59447  22527249.63347
  23514578.836 5  -1458294.434 5  -1026562.34447  23514575.14847
  21593296.445 6   -718894.895 6   -549072.78949  21593296.34449
 20  5 16  5 20 48.0000000  0  9G01G03G07G08G11G17G22G28G30         -0.000010887
  20170148.055 7    -83810.723 7    -63789.81349  20170148.48449
  23161521.195 5  -1582672.563 5  -1198957.20748  23161523.08248
  20995510.094 6    142230.629 6    110819.42649  20995506.98049
  23193091.180 5    429742.273 5    324957.01247  23193091.76247
  21289020.328 6    511744.926 6    390797.71547  21289016.05947
  23961625.547 5   -980564.305 5   -751684.43048  23961623.89148
  22526829.227 6   -994198.270 6   -769630.69147  22526824.62147
  23513926.766 5  -1461718.453 5  -1029230.41846  23513923.57446
  21593009.078 6   -720406.180 6   -550250.41449  21593008.60249
 20  5 16  5 20 49.0000000  0  9G01G03G07G08G11G17G22G28G30         -0.000011442
  20170139.266 7    -83858.098 7    -63826.72749  20170139.53549
  23160843.703 5  -1586236.453 5  -1201734.25848  23160844.81648
  20995598.367 6    142693.891 6    111180.40249  20995595.18449
  23193276.898 5    430717.977 5    325717.30547  23193277.39547
  21289250.648 6    512956.590 6    391741.86748  21289246.54748
  23961193.461 5   -982834.352 5   -753453.30148  23961192.14548
  22526404.031 6   -996433.500 6   -771372.43447  22526399.46547
  23513275.172 5  -1465142.484 5  -1031898.48846  23513272.00846
  21592721.453 6   -721916.789 6   -551427.51249  21592721.11349
 20  5 16  5 20 50.0000000  0  9G01G03G07G08G11G17G22G28G30         -0.000011999
  20170130.000 7    -83904.734 7    -63863.06649  20170130.60249
  23160165.031 5  -1589800.129 5  -1204511.14148  23160166.55948
  20995686.750 6    143157.805 6    111541.89549  20995683.71549
  23193462.438 5    431693.723 5    326477.61747  23193462.64147
  21289481.094 6    514168.570 6    392686.27048  21289477.02348
  23960761.688 5   -985104.250 5   -755222.05548  23960760.31348
  22525978.227 6   -998668.254 6   -773113.78947  22525973.75447
  23512623.836 5  -1468566.480 5  -1034566.52746  23512620.73846
  21592433.953 6   -723426.699 6   -552604.05949  21592433.77749
 20  5 16  5 20 51.0000000  0  9G01G03G07G08G11G17G22G28G30         -0.000012556
  20170121.492 7    -83950.758 7    -63898.93849  20170121.87949
  23159486.875 5  -1593363.711 5  -1207287.96548  23159488.62548
  20995774.750 6    143622.309 6    111903.84449  20995771.81649
  23193648.516 5    432669.410 5    327237.89147  23193648.34847
  21289711.852 6    515380.824 6    393630.88348  21289707.60948
  23960329.633 5   -987374.027 5   -756990.71148  23960328.06348
  22525552.953 6  -1000902.570 6   -774854.80547  22525548.68447
  23511972.133 5  -1471990.559 5  -1037234.64546  23511968.56646
  21592147.258 6   -724935.988 6   -553780.12949  21592147.05949
 20  5 16  5 20 52.0000000  0  9G01G03G07G08G11G17G22G28G30         -0.000013113
  20170112.898 7    -83996.215 7    -63934.35549  20170113.41049
  23158808.898 5  -1596927.254 5  -1210064.75848  23158810.47748
  20995863.359 6    144087.328 6    112266.19149  20995860.48049
  23193834.148 5    433644.984 5    327998.07847  23193834.62147
  21289942.633 6    516593.238 6    394575.62148  21289938.39848
  23959897.648 5   -989643.730 5   -758759.30548  23959896.35548
  22525128.211 6  -1003136.547 6   -776595.55947  22525123.66847
  23511320.039 5  -1475414.754 5  -1039902.84846  23511317.23446
  21591859.875 6   -726444.727 6   -554955.77349  21591859.83649
 20  5 16  5 20 53.0000000  0  9G01G03G07G08G11G17G22G28G30         -0.000013670
  20170104.070 7    -84041.063 7    -63969.30149  20170104.84849
  23158131.109 5  -1600490.711 5  -1212841.47748  23158132.75048
  20995951.680 6    144552.898 6    112628.97349  20995948.84449
  23194019.648 5    434620.496 5    328758.22347  23194019.95347
  21290173.625 6    517805.855 6    395520.51648  21290169.42248
  23959465.672 5   -991913.406 5   -760527.88348  23959464.57048
  22524702.789 6  -1005370.184 6   -778336.05947  22524698.57047
  23510668.664 5  -1478839.066 5  -1042571.14546  23510665.67646
  21591573.086 6   -727952.871 6   -556130.94949  21591572.78549
 20  5 16  5 20 54.0000000  0  9G01G03G07G08G11G17G22G28G30         -0.000014227
  20170095.328 7    -84085.289 7    -64003.76249  20170096.00849
  23157453.078 5  -1604054.045 5  -1215618.09748  23157454.49248
  20996040.398 6    145019.078 6    112992.23449  20996037.66449
  23194205.328 5    435595.957 5    329518.32447  23194205.60947
  21290404.055 6    519018.719 6    396465.61348  21290400.16848
  23959033.445 5   -994182.922 5   -762296.33648  23959032.30148
  22524277.953 6  -1007603.391 6   -780076.22347  22524273.39547
  23510017.609 5  -1482263.438 5  -1045239.48446  23510014.02046
  21591286.016 6   -729460.402 6   -557305.65649  21591285.72349
 20  5 16  5 20 55.0000000  0  9G01G03G07G08G11G17G22G28G30         -0.000014784
  20170087.539 7    -84128.898 7    -64037.74249  20170087.97749
  23156775.203 5  -1607617.223 5  -1218394.60548  23156776.37548
  20996129.367 6    145485.793 6    113355.91049  20996126.68049
  23194391.016 5    436571.375 5    330278.38747  23194391.28947
  21290634.813 6    520231.813 6    397410.88348  21290631.12548
  23958601.633 5   -996452.371 5   -764064.73848  23958600.60248
  22523852.875 6  -1009836.207 6   -781816.07847  22523848.15247
  23509365.469 5  -1485687.891 5  -1047907.89146  23509362.63346
  21590998.992 6   -730967.309 6   -558479.86749  21590998.91049
 20  5 16  5 20 56.0000000  0  9G01G03G07G08G11G17G22G28G30         -0.000015341
  20170079.305 7    -84171.836 7    -64071.20349  20170079.63749
  23156097.258 5  -1611180.281 5  -1221171.01248  23156098.12148
  20996218.563 6    145953.145 6    113720.07449  20996215.58249
  23194576.477 5    437546.805 5    331038.44947  23194576.75047
  21290865.734 6    521445.203 6    398356.37947  21290861.91447
  23958170.039 5   -998721.641 5   -765833.00048  23958168.80148
  22523428.492 6  -1012068.586 6   -783555.59447  22523423.60547
  23508714.031 5  -1489112.340 5  -1050576.29746  23508710.72346
  21590712.453 6   -732473.559 6   -559653.57049  21590712.43849
 20  5 16  5 20 57.0000000  0  9G01G03G07G08G11G17G22G28G30         -0.000015898
  20170071.219 7    -84214.105 7    -64104.13749  20170071.67649
  23155419.008 5  -1614743.195 5  -1223947.31348  23155420.11348
  20996307.344 6    146421.133 6    114084.74249  20996304.68849
  23194761.930 5    438522.195 5    331798.49646  23194762.35246
  21291097.031 6    522658.883 6    399302.10547  21291092.66847
  23957738.406 5  -1000990.785 5   -767601.16848  23957737.13348
  22523003.719 6  -1014300.492 6   -785294.74247  22522999.28147
  23508061.719 5  -1492536.816 5  -1053244.71547  23508058.98847
  21590426.234 6   -733979.148 6   -560826.75049  21590426.23449
 20  5 16  5 20 58.0000000  0  9G01G03G07G08G11G17G22G28G30         -0.000016455
  20170063.609 7    -84255.680 7    -64136.53149  20170063.75849
  23154740.727 5  -1618305.906 5  -1226723.45748  23154742.09448
  20996396.828 6    146889.738 6    114449.88749  20996393.89149
  23194947.828 5    439497.629 5    332558.57446  23194948.10246
  21291327.742 6    523872.855 6    400248.05148  21291324.00048
  23957306.328 5  -1003259.762 5   -769369.19948  23957305.44948
  22522578.797 6  -1016531.961 6   -787033.54347  22522574.51247
  23507410.328 5  -1495961.332 5  -1055913.16046  23507407.45746
  21590139.773 6   -735484.055 6   -561999.40649  21590139.41849
 20  5 16  5 20 59.0000000  0  9G01G03G07G08G11G17G22G28G30         -0.000017012
  20170055.539 7    -84296.566 7    -64168.39849  20170056.13749
  23154062.516 5  -1621868.480 5  -1229499.48048  23154063.90648
  20996485.758 6    147358.984 6    114815.52749  20996482.85949
  23195133.367 5    440473.070 5    333318.66846  23195133.79746
  21291558.586 6    525087.133 6    401194.24248  21291554.68048
  23956874.836 5  -1005528.582 5   -771137.09848  23956873.25048
  22522154.313 6  -1018762.953 6   -788771.98047  22522150.26247
  23506758.625 5  -1499385.809 5  -1058581.58246  23506756.03546
  21589853.477 6   -736988.301 6   -563171.54349  21589853.28149
 20  5 16  5 21  0.0000000  0  9G01G03G07G08G11G17G22G28G30         -0.000017569
  20170048.008 7    -84336.824 7    -64199.76649  20170048.62549
  23153384.633 5  -1625430.918 5  -1232275.40648  23153386.30948
  20996575.313 6    147828.840 6    115181.64849  20996572.17249
  23195318.773 5    441448.477 5    334078.72747  23195319.30547
  21291789.766 6    526301.656 6    402140.62948  21291786.25848
  23956442.898 5  -1007797.285 5   -772904.91448  23956441.98448
  22521729.930 6  -1020993.512 6   -790510.07847  22521725.54747
  23506107.211 5  -1502810.371 5  -1061250.07846  23506104.29346
  21589567.500 6   -738491.914 6   -564343.19149  21589567.30549
 20  5 16  5 21  1.0000000  0  9G01G03G07G08G11G17G22G28G30         -0.000018126
  20170040.492 7    -84376.410 7    -64230.61349  20170040.53949
  23152706.820 5  -1628993.188 5  -1235051.19548  23152708.35548
  20996664.680 6    148299.297 6    115548.24649  20996662.07849
  23195504.906 5    442423.906 5    334838.79746  23195505.16446
  21292020.828 6    527516.457 6    403087.22348  21292017.22748
  23956012.070 5  -1010065.805 5   -774672.58648  23956010.37948
  22521305.906 6  -1023223.660 6   -792247.85247  22521301.27047
  23505455.328 5  -1506234.934 5  -1063918.57046  23505452.61346
  21589281.211 6   -739994.859 6   -565514.31649  21589281.32849
 20  5 16  5 21  2.0000000  0  9G01G03G07G08G11G17G22G28G30         -0.000018682
  20170032.852 7    -84415.473 7    -64261.05549  20170033.49649
  23152029.031 5  -1632555.465 5  -1237826.98848  23152030.72348
  20996754.344 6    148770.238 6    115915.20749  20996751.55149
  23195690.047 5    443399.172 5    335598.74247  23195690.53147
  21292252.195 6    528731.406 6    404033.93048  21292248.64148
  23955579.734 5  -1012334.344 5   -776440.28548  23955578.66048
  22520881.031 6  -1025453.484 6   -793985.38347  22520877.07047
  23504803.688 5  -1509659.680 5  -1066587.21146  23504801.10246
  21588995.391 6   -741497.285 6   -566685.04349  21588995.00849
 20  5 16  5 21  3.0000000  0  9G01G03G07G08G11G17G22G28G30         -0.000019239
  20170025.969 7    -84453.973 7    -64291.05549  20170025.82849
  23151351.438 5  -1636117.645 5  -1240602.71548  23151352.86348
  20996843.875 6    149241.695 6    116282.57049  20996841.25849
  23195875.453 5    444374.332 5    336358.60547  23195876.19947
  21292483.281 6    529946.512 6    404980.76248  21292479.71548
  23955148.500 5  -1014602.852 5   -778207.95348  23955146.91448
  22520457.320 6  -1027682.973 6   -795722.64547  22520452.52747
  23504151.805 5  -1513084.599 5  -1069255.98046  23504149.29346
  21588709.531 6   -742999.184 6   -567855.35549  21588709.51649
 20  5 16  5 21  4.0000000  0  9G01G03G07G08G11G17G22G28G30         -0.000019796
  20170018.375 7    -84491.910 7    -64320.61749  20170018.44549
  23150673.758 5  -1639679.805 5  -1243378.42648  23150674.66048
  20996934.195 6    149713.680 6    116650.35249  20996931.32849
  23196060.875 5    445349.387 5    337118.39547  23196061.69547
  21292714.859 6    531161.797 6    405927.73447  21292711.05547
  23954717.430 5  -1016871.285 5   -779975.55948  23954715.44148
  22520033.023 6  -1029912.102 6   -797459.61747  22520028.57047
  23503500.477 5  -1516509.582 5  -1071924.79346  23503497.33646
  21588423.844 6   -744500.488 6   -569025.20349  21588423.73049
 20  5 16  5 21  5.0000000  0  9G01G03G07G08G11G17G22G28G30         -0.000020353
  20170011.078 7    -84529.230 7    -64349.69949  20170011.72749
  23149995.383 5  -1643241.867 5  -1246154.06648  23149997.16848
  20997023.656 6    150186.238 6    117018.57849  20997020.83649
  23196246.672 5    446324.430 5    337878.16047  23196246.94547
  21292946.180 6    532377.324 6    406874.90647  21292942.37547
  23954285.547 5  -1019139.629 5   -781743.10248  23954283.64548
  22519608.727 6  -1032140.855 6   -799196.31347  22519604.51247
  23502848.477 5  -1519934.652 5  -1074593.67246  23502845.53946
  21588138.320 6   -746001.199 6   -570194.59049  21588138.01249
 20  5 16  5 21  6.0000000  0  9G01G03G07G08G11G17G22G28G30         -0.000020910
  20170004.453 7    -84565.859 7    -64378.23449  20170005.19149
  23149317.539 5  -1646803.723 5  -1248929.54348  23149319.15248
  20997113.734 6    150659.414 6    117387.28549  20997110.67649
  23196431.883 5    447299.441 5    338637.91447  23196432.47347
  21293177.375 6    533593.152 6    407822.30148  21293173.98848
  23953853.789 5  -1021407.836 5   -783510.53148  23953852.14848
  22519184.367 6  -1034369.156 6   -800932.64847  22519179.93447
  23502196.727 5  -1523359.742 5  -1077262.56646  23502193.73446
  21587852.992 6   -747501.238 6   -571363.45349  21587852.94149
 20  5 16  5 21  7.0000000  0  9G01G03G07G08G11G17G22G28G30         -0.000021467
  20169997.469 7    -84601.781 7    -64406.22749  20169997.84849
  23148640.250 5  -1650365.469 5  -1251704.92248  23148641.69948
  20997204.102 6    151133.262 6    117756.51249  20997201.17649
  23196618.031 5    448274.512 5    339397.70347  23196618.06347
  21293409.008 6    534809.293 6    408769.94948  21293405.02348
  23953422.828 5  -1023675.809 5   -785277.78548  23953420.45348
  22518760.523 6  -1036596.953 6   -802668.59847  22518756.53547
  23501545.359 5  -1526784.809 5  -1079931.44146  23501542.06346
  21587567.797 6   -749000.559 6   -572531.75449  21587567.46949
 20  5 16  5 21  8.0000000  0  9G01G03G07G08G11G17G22G28G30         -0.000022024
  20169991.156 7    -84637.074 7    -64433.72749  20169990.98049
  23147962.414 5  -1653927.004 5  -1254480.13748  23147964.14548
  20997294.500 7    151607.695 7    118126.20749  20997291.43449
  23196803.344 5    449249.531 5    340157.45747  23196803.27047
  21293640.508 6    536025.680 6    409717.77747  21293636.42647
  23952991.063 5  -1025943.703 5   -787044.96948  23952988.81348
  22518337.055 6  -1038824.328 6   -804404.20747  22518332.70347
  23500892.773 5  -1530209.918 5  -1082600.37146  23500889.71546
  21587282.492 6   -750499.277 6   -573699.58249  21587282.51649
 20  5 16  5 21  9.0000000  0  9G01G03G07G08G11G17G22G28G30         -0.000022581
  20169984.383 7    -84671.680 7    -64460.69149  20169984.40649
  23147284.367 5  -1657488.414 5  -1257255.25048  23147286.41448
  20997384.852 6    152082.734 6    118496.36349  20997382.05949
  23196989.125 5    450224.523 5    340917.19147  23196989.37947
  21293871.891 6    537242.344 6    410665.82448  21293868.00448
  23952558.602 5  -1028211.434 5   -788812.03148  23952557.09448
  22517912.820 6  -1041051.258 6   -806139.47747  22517908.93447
  23500241.281 5  -1533635.070 5  -1085269.31646  23500238.07446
  21586997.352 6   -751997.316 6   -574866.89149  21586997.46149
 20  5 16  5 21 10.0000000  0  9G01G03G07G08G11G17G22G28G30         -0.000023138
  20169978.008 7    -84705.645 7    -64487.15649  20169977.77349
  23146606.680 5  -1661049.652 5  -1260030.24248  23146608.50848
  20997475.609 6    152558.422 6    118867.02749  20997472.35949
  23197174.695 5    451199.566 5    341676.97347  23197174.67247
  21294103.773 6    538459.289 6    411614.09847  21294099.98847
  23952127.125 5  -1030479.043 5   -790578.99648  23952125.81648
  22517488.914 6  -1043277.754 6   -807874.41047  22517485.19947
  23499589.391 5  -1537060.246 5  -1087938.28946  23499586.44146
  21586712.672 6   -753494.695 6   -576033.67649  21586712.19549
 20  5 16  5 21 11.0000000  0  9G01G03G07G08G11G17G22G28G30         -0.000023695
  20169971.094 7    -84738.984 7    -64513.13749  20169971.98849
  23145929.617 5  -1664610.789 5  -1262805.15648  23145931.19948
  20997566.016 6    153034.652 6    119238.10949  20997562.94549
  23197360.227 5    452174.520 5    342436.66447  23197360.28947
  21294334.969 6    539676.453 6    412562.53148  21294331.23848
  23951695.477 5  -1032746.520 5   -792345.86748  23951694.35948
  22517065.852 6  -1045503.844 6   -809609.02747  22517061.55147
  23498937.625 5  -1540485.488 5  -1090607.31346  23498934.85246
  21586427.586 6   -754991.484 6   -577200.00849  21586427.14149
 20  5 16  5 21 12.0000000  0  9G01G03G07G08G11G17G22G28G30         -0.000024252
  20169965.203 7    -84771.684 7    -64538.61749  20169965.65649
  23145251.313 5  -1668171.844 5  -1265580.01248  23145252.92248
  20997656.805 6    153511.496 6    119609.67649  20997654.29749
  23197545.273 5    453149.430 5    343196.34447  23197545.98447
  21294566.867 6    540893.887 6    413511.18847  21294563.12147
  23951264.461 5  -1035013.902 5   -794112.66048  23951262.44548
  22516642.477 6  -1047729.492 6   -811343.29747  22516637.87547
  23498285.742 5  -1543910.785 5  -1093276.37147  23498282.46547
  21586142.891 6   -756487.637 6   -578365.84049  21586142.81349
 20  5 16  5 21 13.0000000  0  9G01G03G07G08G11G17G22G28G30         -0.000024809
  20169958.859 7    -84803.777 7    -64563.62549  20169959.40249
  23144573.281 5  -1671732.754 5  -1268354.73848  23144575.76648
  20997747.516 6    153988.867 6    119981.65249  20997744.44549
  23197730.961 5    454124.262 5    343955.95747  23197731.23447
  21294798.609 6    542111.512 6    414459.98848  21294794.75048
  23950832.602 5  -1037281.207 5   -795879.39148  23950831.05548
  22516218.906 6  -1049954.816 6   -813077.31347  22516214.87547
  23497634.250 5  -1547336.199 5  -1095945.52346  23497630.57846
  21585858.438 6   -757983.180 6   -579531.19549  21585858.15249
