     2.10           OBSERVATION DATA    GPS(GPS)            RINEX VERSION / TYPE
cnvtToRINEX 3.07.0  convertToRINEX OPR  19-May-20 12:29 UTC PGM / RUN BY / DATE 
----------------------------------------------------------- COMMENT             
GBA0                                                        MARKER NAME         
GBA0                                                        MARKER NUMBER       
GNSS Observer       Trimble                                 OBSERVER / AGENCY   
0220247377          TRIMBLE 5700        2.32                REC # / TYPE / VERS 
                    UNKNOWN EXT                             ANT # / TYPE        
 -3051023.8675  4927493.4203  2654157.4855                  APPROX POSITION XYZ 
        0.0000        0.0000        0.0000                  ANTENNA: DELTA H/E/N
     1     1     0                                          WAVELENGTH FACT L1/2
     4    C1    L1    L2    P2                              # / TYPES OF OBSERV 
  2020     5    16     3    31   29.0000000     GPS         TIME OF FIRST OBS   
  2020     5    16     5     1   10.0000000     GPS         TIME OF LAST OBS    
     0                                                      RCV CLOCK OFFS APPL 
    18                                                      LEAP SECONDS        
    12                                                      # OF SATELLITES     
   G01  5382  5382  5382  5382                              PRN / # OF OBS      
   G03  1167  1161  1161  1161                              PRN / # OF OBS      
   G04    25    16     0     0                              PRN / # OF OBS      
   G07  5382  5382  5382  5382                              PRN / # OF OBS      
   G08  5382  5382  5382  5382                              PRN / # OF OBS      
   G11  5382  5382  5382  5382                              PRN / # OF OBS      
   G16  4014  4014  4014  4014                              PRN / # OF OBS      
   G17   252   248   249   249                              PRN / # OF OBS      
   G22  2074  2054  1882  1882                              PRN / # OF OBS      
   G27  1861  1819  1752  1752                              PRN / # OF OBS      
   G28  1072  1072  1072  1072                              PRN / # OF OBS      
   G30  5361  5361  5361  5361                              PRN / # OF OBS      
CARRIER PHASE MEASUREMENTS: PHASE SHIFTS REMOVED            COMMENT             
                                                            END OF HEADER       
 20  5 16  3 31 29.0000000  0  5G01G07G08G11G16                      0.000004217
  21824521.70316   -121744.36316    -42228.89159  21824523.74259
  21909963.99216    -89200.19916    -38811.17659  21909963.11359
  20923054.10917    -43731.72717    -15350.49259  20923054.21959
  20323057.67216    -84331.78516    -29149.71559  20323055.53559
  23263812.04715    -28577.27015     -4332.68057  23263809.43857
 20  5 16  3 31 30.0000000  0  5G01G07G08G11G16                      0.000001572
  21823128.273 6   -129067.035 6    -47934.87549  21823130.53149
  21908682.258 6    -95935.992 6    -44059.85249  21908681.11349
  20922544.664 7    -46407.984 7    -17435.88749  20922545.14149
  20322091.961 6    -89407.160 6    -33104.54749  20322089.68049
  23263327.117 5    -31129.043 5     -6321.08547  23263323.56647
 20  5 16  3 31 31.0000000  0  5G01G07G08G11G16                     -0.000001072
  21821734.328 6   -136392.074 6    -53642.69949  21821736.43049
  21907400.344 6   -102674.125 6    -49310.34849  21907398.75049
  20922035.117 7    -49086.750 7    -19523.24249  20922035.43849
  20321126.023 6    -94484.715 6    -37061.08649  20321123.67649
  23262840.664 5    -33683.422 5     -8311.47247  23262838.10247
 20  5 16  3 31 32.0000000  0  5G01G07G08G11G16                     -0.000003723
  21820340.219 6   -143719.379 6    -59352.29349  21820342.21549
  21906117.477 6   -109414.492 6    -54562.58649  21906116.04749
  20921524.742 7    -51767.910 7    -21612.46549  20921525.00849
  20320159.484 6    -99564.336 6    -41019.22349  20320157.12949
  23262354.023 6    -36240.293 6    -10303.87147  23262351.38747
 20  5 16  3 31 33.0000000  0  5G01G07G08G11G16                     -0.000006371
  21818945.453 6   -151048.941 6    -65063.64149  21818947.30949
  21904834.609 6   -116157.070 6    -59816.54749  21904833.33649
  20921014.063 7    -54451.438 7    -23703.53149  20921014.17249
  20319192.023 6   -104646.012 6    -44978.97348  20319190.06348
  23261866.984 6    -38799.711 6    -12298.21147  23261864.61347
 20  5 16  3 31 34.0000000  0  5G01G07G08G11G16                     -0.000009024
  21817550.398 6   -158380.480 6    -70776.53549  21817552.65249
  21903550.906 6   -122901.625 6    -65072.04749  21903549.95749
  20920503.297 7    -57137.094 7    -25796.25049  20920503.54349
  20318225.367 6   -109729.465 6    -48940.10248  20318222.38748
  23261379.641 6    -41361.332 6    -14294.28146  23261376.92246
 20  5 16  3 31 35.0000000  0  5G01G07G08G11G16                     -0.000011673
  21816154.352 6   -165713.977 6    -76490.94549  21816156.65249
  21902267.125 6   -129648.039 6    -70329.00449  21902265.98849
  20919991.563 7    -59824.824 7    -27890.58649  20919991.94149
  20317257.148 6   -114814.660 6    -52902.59848  20317254.64848
  23260891.758 6    -43925.188 6    -16292.09847  23260889.13347
 20  5 16  3 31 36.0000000  0  5G01G07G08G11G16                     -0.000014332
  21814758.891 6   -173049.367 6    -82206.83249  21814761.21149
  21900982.961 6   -136396.352 6    -75587.43049  21900982.03949
  20919479.859 7    -62514.613 7    -29986.52349  20919479.89149
  20316289.156 6   -119901.563 6    -56866.41448  20316286.89848
  23260403.234 6    -46491.203 6    -18291.59047  23260400.98047
 20  5 16  3 31 37.0000000  0  5G01G07G08G11G16                     -0.000016985
  21813362.086 6   -180386.512 6    -87924.08649  21813365.05949
  21899698.039 6   -143146.410 6    -80847.22349  21899697.62549
  20918967.539 7    -65206.285 7    -32083.92249  20918967.66049
  20315321.148 6   -124990.035 6    -60831.45748  20315318.52348
  23259914.773 6    -49059.230 6    -20292.64847  23259912.23447
 20  5 16  3 31 38.0000000  0  5G01G07G08G11G16                     -0.000019644
  21811966.211 6   -187725.367 6    -93642.67249  21811968.23849
  21898413.625 6   -149898.121 6    -86108.29349  21898412.73049
  20918455.125 7    -67899.805 7    -34182.77349  20918455.34849
  20314351.922 6   -130079.988 6    -64797.65248  20314349.95748
  23259426.109 6    -51629.223 6    -22295.24247  23259423.20347
 20  5 16  3 31 39.0000000  0  5G01G07G08G11G16                     -0.000022299
  21810569.328 6   -195065.789 6    -99362.47749  21810571.38349
  21897127.906 6   -156651.371 6    -91370.55549  21897127.47749
  20917941.789 7    -70594.984 7    -36282.91449  20917942.41849
  20313383.523 6   -135171.313 6    -68764.92648  20313380.93448
  23258935.961 6    -54201.043 6    -24299.25847  23258933.61747
 20  5 16  3 31 40.0000000  0  5G01G07G08G11G16                     -0.000024961
  21809171.977 6   -202407.629 6   -105083.39549  21809174.16449
  21895843.352 6   -163406.008 6    -96633.90649  21895842.28949
  20917429.039 7    -73291.746 7    -38384.29349  20917429.23049
  20312414.320 6   -140263.879 6    -72733.15648  20312411.88348
  23258446.664 6    -56774.535 6    -26304.57847  23258444.01647
 20  5 16  3 31 41.0000000  0  5G01G07G08G11G16                     -0.000027618
  21807774.625 6   -209750.906 6   -110805.43049  21807776.50449
  21894557.234 6   -170162.059 6   -101898.36349  21894556.49249
  20916915.523 7    -75990.102 7    -40486.90649  20916915.41849
  20311445.047 6   -145357.652 6    -76702.32448  20311442.68048
  23257956.234 6    -59349.738 6    -28311.22747  23257953.64147
 20  5 16  3 31 42.0000000  0  5G01G07G08G11G16                     -0.000030283
  21806377.234 6   -217095.465 6   -116528.46549  21806379.05549
  21893271.039 6   -176919.324 6   -107163.76649  21893270.59449
  20916401.766 7    -78689.848 7    -42590.60249  20916402.21149
  20310475.203 6   -150452.520 6    -80672.35548  20310473.20348
  23257466.102 6    -61926.477 6    -30319.07047  23257463.45747
 20  5 16  3 31 43.0000000  0  5G01G07G08G11G16                     -0.000032944
  21804979.406 6   -224441.293 6   -122252.48449  21804980.97349
  21891985.414 6   -183677.844 6   -112430.14549  21891984.55549
  20915887.563 7    -81390.984 7    -44695.38349  20915887.64849
  20309505.547 6   -155548.473 6    -84643.22748  20309503.46948
  23256975.617 6    -64504.715 6    -32328.09047  23256972.89147
 20  5 16  3 31 44.0000000  0  5G01G07G08G11G16                     -0.000035610
  21803581.344 6   -231788.297 6   -127977.41849  21803583.18049
  21890698.789 6   -190437.512 6   -117697.41849  21890698.29349
  20915373.594 7    -84093.449 7    -46801.19949  20915373.59449
  20308535.727 6   -160645.395 6    -88614.85548  20308533.43048
  23256484.438 6    -67084.418 6    -34338.25847  23256481.88747
 20  5 16  3 31 45.0000000  0  5G01G07G08G11G16                     -0.000038271
  21802183.148 6   -239136.379 6   -133703.19549  21802184.86349
  21889412.469 6   -197198.230 6   -122965.50849  21889411.83649
  20914858.945 7    -86797.109 7    -48907.94949  20914859.15249
  20307565.508 6   -165743.172 6    -92587.15248  20307563.16848
  23255993.297 6    -69665.461 6    -36349.46147  23255990.76647
 20  5 16  3 31 46.0000000  0  5G01G07G08G11G16                     -0.000040939
  21800784.766 6   -246485.512 6   -139429.79749  21800786.37549
  21888125.766 6   -203959.949 6   -128234.37549  21888125.07049
  20914344.180 7    -89501.957 7    -51015.62549  20914344.37949
  20306595.461 6   -170841.805 6    -96560.10948  20306593.00048
  23255502.133 6    -72247.805 6    -38361.67647  23255499.60547
 20  5 16  3 31 47.0000000  0  5G01G07G08G11G16                     -0.000043604
  21799385.766 6   -253835.531 6   -145157.08249  21799387.60949
  21886838.789 6   -210722.520 6   -133503.91049  21886837.90249
  20913829.305 7    -92207.859 7    -53124.12549  20913829.83649
  20305624.836 6   -175941.160 6   -100533.63748  20305622.76248
  23255010.922 6    -74831.293 6    -40374.78547  23255007.87547
 20  5 16  3 31 48.0000000  0  5G01G07G08G11G16                     -0.000046272
  21797987.086 6   -261186.395 6   -150885.03149  21797988.93049
  21885551.859 6   -217485.902 6   -138774.08649  21885551.02049
  20913313.813 7    -94914.723 7    -55233.36749  20913314.25049
  20304654.625 6   -181041.125 6   -104507.63348  20304652.46548
  23254518.398 6    -77415.898 6    -42388.76247  23254516.13347
 20  5 16  3 31 49.0000000  0  5G01G07G08G11G16                     -0.000048937
  21796588.172 6   -268538.043 6   -156613.57849  21796589.96949
  21884264.414 6   -224250.027 6   -144044.83249  21884263.85549
  20912799.039 7    -97622.523 7    -57343.34449  20912799.23049
  20303683.602 6   -186141.684 6   -108482.09448  20303681.82048
  23254026.531 6    -80001.551 6    -44403.55147  23254023.78547
 20  5 16  3 31 50.0000000  0  7G01G07G08G11G16G27G30               -0.000051609
  21795189.008 6   -275890.438 6   -162342.72349  21795190.88349
  21882977.117 6   -231014.887 6   -149316.14849  21882976.22749
  20912283.563 7   -100331.176 7    -59453.98449  20912283.67249
  20302713.219 6   -191242.805 6   -112456.99648  20302711.08648
  23253534.344 6    -82588.207 6    -46419.13747  23253531.41047
  22656355.63316    -48461.91416    -33183.14159  22656355.18059
  24447317.73414   -190085.62114    -98278.23857  24447317.79357
 20  5 16  3 31 51.0000000  0  7G01G07G08G11G16G27G30               -0.000054277
  21793789.820 6   -283243.469 6   -168072.35549  21793791.93449
  21881689.516 6   -237780.336 6   -154587.92649  21881689.10549
  20911767.844 7   -103040.590 7    -61565.21149  20911768.42249
  20301742.430 6   -196344.348 6   -116432.22348  20301740.23048
  23253041.875 6    -85175.746 6    -48435.39547  23253038.93447
  22656074.852 6    -49933.098 6    -34329.52349  22656074.67649
  24445869.594 4   -197693.984 4   -104206.83647  24445869.86747
 20  5 16  3 31 52.0000000  0  7G01G07G08G11G16G27G30               -0.000056948
  21792390.273 6   -290597.102 6   -173802.46149  21792392.16049
  21880401.938 6   -244546.402 6   -159860.18449  21880401.34849
  20911251.977 7   -105750.777 7    -63677.05149  20911252.37549
  20300771.625 6   -201446.320 6   -120407.78948  20300769.41448
  23252549.461 6    -87764.168 6    -50452.34446  23252546.64546
  22655795.320 6    -51405.219 6    -35476.63749  22655794.73049
  24444422.023 4   -205303.176 4   -110136.07047  24444421.50447
 20  5 16  3 31 53.0000000  0  7G01G07G08G11G16G27G30               -0.000059614
  21790990.922 6   -297951.293 6   -179533.00049  21790992.85949
  21879114.492 6   -251312.949 6   -165132.82449  21879113.77749
  20910736.234 6   -108461.641 6    -65789.41049  20910736.72749
  20299800.859 6   -206548.637 6   -124383.61348  20299798.41048
  23252056.672 6    -90353.398 6    -52469.93046  23252053.79746
  22655514.938 6    -52878.262 6    -36624.46549  22655514.17649
  24442973.555 4   -212913.176 4   -116065.93847  24442973.59047
 20  5 16  3 31 54.0000000  0  7G01G07G08G11G16G27G30               -0.000062288
  21789590.922 6   -305306.031 6   -185263.96949  21789593.02349
  21877826.805 6   -258080.000 6   -170405.84849  21877826.16849
  20910220.320 7   -111173.148 7    -67902.27749  20910221.04349
  20298829.758 6   -211651.273 6   -128359.69948  20298827.57848
  23251564.203 6    -92943.410 6    -54488.11747  23251560.92247
  22655234.000 6    -54352.121 6    -37772.93449  22655234.12549
  24441525.180 4   -220523.953 4   -121996.41447  24441525.65247
 20  5 16  3 31 55.0000000  0  7G01G07G08G11G16G27G30               -0.000064957
  21788191.945 6   -312661.242 6   -190995.29349  21788193.55949
  21876538.766 6   -264847.512 6   -175679.23049  21876538.31649
  20909704.359 7   -113885.289 7    -70015.63349  20909704.49249
  20297858.500 6   -216754.246 6   -132336.03948  20297856.45748
  23251070.633 6    -95534.191 6    -56506.91446  23251067.60946
  22654953.594 6    -55826.863 6    -38922.08649  22654953.27349
  24440075.195 4   -228135.441 4   -127927.44147  24440076.83247
 20  5 16  3 31 56.0000000  0  7G01G07G08G11G16G27G30               -0.000067631
  21786791.906 6   -320016.941 6   -196727.00449  21786793.89849
  21875251.297 6   -271615.469 6   -180952.96149  21875250.30149
  20909187.797 7   -116598.008 7    -72129.44549  20909188.57049
  20296887.508 6   -221857.457 6   -136312.56648  20296885.10548
  23250577.344 6    -98125.727 6    -58526.29747  23250575.05147
  22654672.719 6    -57302.406 6    -40071.85949  22654673.06349
  24438627.156 4   -235747.652 4   -133859.03147  24438628.26647
 20  5 16  3 31 57.0000000  0  7G01G07G08G11G16G27G30               -0.000070301
  21785392.195 6   -327373.055 6   -202459.04349  21785394.21549
  21873962.617 6   -278383.824 6   -186227.00449  21873962.15249
  20908671.703 7   -119311.324 7    -74243.72349  20908671.75049
  20295916.172 6   -226960.922 6   -140289.29348  20295914.10248
  23250084.234 6   -100717.922 6    -60546.17646  23250081.58646
  22654391.914 6    -58778.723 6    -41222.23049  22654391.98049
  24437179.250 4   -243360.516 4   -139791.12948  24437179.93448
 20  5 16  3 31 58.0000000  0  7G01G07G08G11G16G27G30               -0.000072977
  21783992.102 6   -334729.566 6   -208191.38749  21783994.50849
  21872675.227 6   -285152.527 6   -191501.32449  21872673.87549
  20908155.500 7   -122025.141 7    -76358.38349  20908155.35249
  20294945.031 6   -232064.563 6   -144266.15248  20294942.65248
  23249590.852 6   -103310.777 6    -62566.58246  23249588.29746
  22654110.773 6    -60255.746 6    -42373.16049  22654110.56649
  24435730.406 4   -250973.969 4   -145723.68048  24435731.01648
 20  5 16  3 31 59.0000000  0  7G01G07G08G11G16G27G30               -0.000075647
  21782592.328 6   -342086.313 6   -213923.91449  21782594.42249
  21871387.266 6   -291921.418 6   -196775.78149  21871386.25849
  20907638.633 7   -124739.320 7    -78473.33649  20907639.43449
  20293973.984 6   -237168.219 6   -148243.03548  20293971.84448
  23249097.453 6   -105904.090 6    -64587.34847  23249094.62947
  22653829.586 6    -61733.340 6    -43524.53949  22653829.48049
  24434281.367 4   -258587.930 4   -151656.63348  24434282.52748
 20  5 16  3 32  0.0000000  0  7G01G07G08G11G16G27G30               -0.000078323
  21781192.086 6   -349443.344 6   -219656.66049  21781194.21549
  21870098.625 6   -298690.555 6   -202050.43049  21870097.91449
  20907121.852 7   -127453.934 7    -80588.61749  20907122.57849
  20293002.867 6   -242272.020 6   -152220.02348  20293000.68048
  23248603.531 6   -108497.988 6    -66608.58247  23248601.46547
  22653548.438 6    -63211.543 6    -44676.38349  22653548.29349
  24432832.227 3   -266202.434 3   -157590.00847  24432833.08647
 20  5 16  3 32  1.0000000  0  7G01G07G08G11G16G27G30               -0.000080996
  21779792.109 6   -356800.637 6   -225389.60549  21779794.51249
  21868810.188 6   -305459.945 6   -207325.29349  21868810.05149
  20906605.672 7   -130168.992 7    -82704.25449  20906606.14149
  20292031.797 6   -247375.840 6   -156197.01248  20292029.68048
  23248110.281 6   -111092.430 6    -68630.25046  23248107.65646
  22653266.875 6    -64690.410 6    -45828.77349  22653266.91849
  24431382.695 3   -273817.348 3   -163523.69947  24431383.99647
 20  5 16  3 32  2.0000000  0  7G01G07G08G11G16G27G30               -0.000083672
  21778391.781 6   -364158.086 6   -231122.67649  21778393.82049
  21867523.250 6   -312229.527 6   -212600.28949  21867522.02049
  20906088.352 7   -132884.383 7    -84820.14149  20906088.91849
  20291060.516 6   -252479.668 6   -160174.01248  20291058.40248
  23247616.109 5   -113687.313 5    -70652.27346  23247614.02046
  22652984.953 6    -66169.828 6    -46981.57449  22652985.83649
  24429934.039 5   -281432.797 5   -169457.84847  24429934.12147
 20  5 16  3 32  3.0000000  0  7G01G07G08G11G16G27G30               -0.000086344
  21776991.750 6   -371515.836 6   -236855.97749  21776994.04749
  21866234.172 6   -318999.254 6   -217875.39849  21866233.21149
  20905571.813 7   -135600.137 7    -86936.31649  20905572.53949
  20290089.242 6   -257583.539 6   -164151.05948  20290086.99248
  23247121.961 5   -116282.656 5    -72674.63346  23247120.43446
  22652703.055 6    -67649.766 6    -48134.76649  22652704.61749
  24428485.383 5   -289048.656 5   -175392.27348  24428484.84848
 20  5 16  3 32  4.0000000  0  7G01G07G08G11G16G27G30               -0.000089022
  21775591.609 6   -378873.746 6   -242589.40249  21775593.75049
  21864946.148 6   -325769.219 6   -223150.68849  21864944.82849
  20905055.234 7   -138316.246 7    -89052.75849  20905055.35249
  20289118.141 6   -262687.441 6   -168128.12948  20289115.61348
  23246628.742 5   -118878.516 5    -74697.37146  23246626.52746
  22652421.922 6    -69130.246 6    -49288.37949  22652422.81649
  24427035.961 5   -296664.992 5   -181327.05548  24427035.64848
 20  5 16  3 32  5.0000000  0  7G01G07G08G11G16G27G30               -0.000091694
  21774191.391 6   -386231.922 6   -248323.04349  21774193.81349
  21863657.695 6   -332539.340 6   -228426.10249  21863656.33249
  20904538.227 7   -141032.730 7    -91169.50049  20904538.11349
  20288146.977 6   -267791.363 6   -172105.22348  20288144.54348
  23246134.547 5   -121474.836 5    -76720.46146  23246132.86746
  22652139.938 6    -70611.340 6    -50442.46549  22652141.11349
  24425586.766 5   -304281.770 5   -187262.18447  24425587.10947
 20  5 16  3 32  6.0000000  0  7G01G07G08G11G16G27G30               -0.000094374
  21772791.070 6   -393590.254 6   -254056.80949  21772793.40249
  21862369.109 6   -339309.590 6   -233701.62549  21862368.44949
  20904021.391 7   -143749.512 7    -93286.47349  20904021.58249
  20287175.375 6   -272895.250 6   -176082.27748  20287173.12548
  23245640.219 5   -124071.590 5    -78743.89846  23245638.17246
  22651858.023 6    -72092.895 6    -51596.92249  22651858.87149
  24424136.953 5   -311898.938 5   -193197.63748  24424137.71148
 20  5 16  3 32  7.0000000  0  7G01G07G08G11G16G27G30               -0.000097048
  21771390.969 6   -400948.684 6   -259790.65249  21771392.98449
  21861080.781 6   -346079.906 6   -238977.19949  21861079.72749
  20903504.063 7   -146466.539 7    -95403.64549  20903504.50849
  20286203.977 6   -277999.063 6   -180059.26248  20286201.95748
  23245146.398 5   -126668.691 5    -80767.61346  23245144.35246
  22651576.203 6    -73574.910 6    -52751.74649  22651576.68049
  24422687.883 5   -319516.453 5   -199133.37948  24422688.48048
 20  5 16  3 32  8.0000000  0  7G01G07G08G11G16G27G30               -0.000099726
  21769990.930 6   -408307.203 6   -265524.56649  21769992.58649
  21859792.852 6   -352850.266 6   -244252.80949  21859791.50049
  20902987.109 7   -149183.781 7    -97520.98049  20902987.23849
  20285232.914 6   -283102.727 6   -184036.13748  20285230.98848
  23244651.563 5   -129266.133 5    -82791.60546  23244650.12546
  22651294.039 6    -75057.344 6    -53906.89849  22651295.09449
  24421237.961 5   -327134.277 5   -205069.34848  24421238.77748
 20  5 16  3 32  9.0000000  0  7G01G07G08G11G16G27G30               -0.000102400
  21768590.180 6   -415665.785 6   -271258.52749  21768592.53149
  21858504.367 6   -359620.707 6   -249528.47749  21858502.92249
  20902470.180 7   -151901.246 7    -99638.48849  20902470.57049
  20284261.469 6   -288206.277 6   -188012.93048  20284259.89848
  23244157.617 5   -131863.949 5    -84815.88346  23244155.95746
  22651011.531 6    -76540.219 6    -55062.39149  22651012.81649
  24419788.328 5   -334752.469 5   -211005.60248  24419789.01248
 20  5 16  3 32 10.0000000  0  7G01G07G08G11G16G27G30               -0.000105080
  21767190.359 6   -423024.344 6   -276992.47349  21767192.25849
  21857215.781 6   -366391.051 6   -254804.07049  21857214.34849
  20901952.820 7   -154618.813 7   -101756.06649  20901953.27049
  20283290.734 6   -293309.621 6   -191989.55548  20283288.68848
  23243662.742 5   -134461.969 5    -86840.31346  23243661.39146
  22650729.617 6    -78023.352 6    -56218.09449  22650730.65249
  24418337.547 5   -342370.793 5   -216941.97748  24418339.38348
 20  5 16  3 32 11.0000000  0  7G01G07G08G11G16G27G30               -0.000107754
  21765790.148 6   -430382.953 6   -282726.44949  21765791.87949
  21855927.547 6   -373161.418 6   -260079.67649  21855926.25049
  20901435.414 7   -157336.570 7   -103873.79749  20901436.05949
  20282319.742 6   -298412.832 6   -195966.08648  20282317.25048
  23243168.344 6   -137060.320 6    -88865.00846  23243167.12146
  22650447.586 6    -79506.910 6    -57374.12949  22650448.07849
  24416888.648 5   -349989.406 5   -222878.56648  24416889.55548
 20  5 16  3 32 12.0000000  0  7G01G07G08G11G16G27G30               -0.000110435
  21764389.148 6   -437741.695 6   -288460.53549  21764391.69549
  21854639.070 6   -379931.859 6   -265355.34449  21854637.39849
  20900918.523 7   -160054.551 7   -105991.71549  20900918.96149
  20281348.492 6   -303515.938 6   -199942.52748  20281346.04348
  23242673.563 6   -139659.012 6    -90889.94546  23242672.70346
  22650165.586 6    -80990.918 6    -58530.50449  22650164.99249
  24415438.617 4   -357608.418 4   -228815.47748  24415439.55548
 20  5 16  3 32 13.0000000  0  7G01G07G08G11G16G27G30               -0.000113110
  21762989.422 6   -445100.398 6   -294194.60249  21762991.24249
  21853350.273 6   -386702.223 6   -270630.95349  21853349.40249
  20900401.133 7   -162772.672 7   -108109.73049  20900401.88349
  20280376.938 6   -308618.797 6   -203918.80148  20280375.10248
  23242179.164 6   -142257.961 6    -92915.05546  23242177.75446
  22649882.961 6    -82475.234 6    -59687.09449  22649882.62149
  24413989.414 5   -365227.582 5   -234752.48848  24413990.07448
 20  5 16  3 32 14.0000000  0  7G01G07G08G11G16G27G30               -0.000115791
  21761588.852 6   -452459.012 6   -299928.59449  21761590.91049
  21852062.383 6   -393472.488 6   -275906.48849  21852061.48849
  20899883.969 7   -165490.871 7   -110227.79749  20899884.43849
  20279406.617 6   -313721.402 6   -207894.87148  20279404.15248
  23241684.336 6   -144857.105 6    -94940.33646  23241683.15646
  22649599.906 6    -83959.824 6    -60843.90249  22649599.32049
  24412539.508 5   -372846.906 5   -240689.62948  24412540.29348
 20  5 16  3 32 15.0000000  0  7G01G07G08G11G16G27G30               -0.000118465
  21760188.719 6   -459817.582 6   -305662.54749  21760191.48849
  21850773.898 6   -400242.680 6   -281181.96549  21850772.81649
  20899366.563 7   -168209.156 7   -112345.94149  20899367.23849
  20278435.523 6   -318823.762 6   -211870.75048  20278433.50848
  23241189.758 5   -147456.453 5    -96965.79347  23241188.37947
  22649317.766 6    -85444.719 6    -62000.96149  22649317.32049
  24411089.070 4   -380466.453 4   -246626.93848  24411090.41848
 20  5 16  3 32 16.0000000  0  7G01G07G08G11G16G27G30               -0.000121147
  21758788.008 6   -467176.180 6   -311396.51649  21758790.48849
  21849485.516 6   -407012.879 6   -286457.44549  21849484.19949
  20898848.969 7   -170927.621 7   -114464.23049  20898849.77349
  20277464.383 6   -323925.969 6   -215846.49248  20277462.30948
  23240694.961 5   -150056.113 5    -98991.50046  23240693.72746
  22649035.109 6    -86929.996 6    -63158.32049  22649034.68449
  24409639.063 4   -388086.270 4   -252564.44548  24409640.34848
 20  5 16  3 32 17.0000000  0  7G01G07G08G11G16G27G30               -0.000123823
  21757387.805 6   -474534.730 6   -317130.44549  21757390.44949
  21848197.570 6   -413782.988 6   -291732.86349  21848195.62149
  20898332.023 7   -173646.160 7   -116582.57449  20898332.65249
  20276493.578 6   -329027.934 6   -219822.04748  20276491.56648
  23240200.406 5   -152655.973 5   -101017.37546  23240199.23846
  22648751.875 5    -88415.547 5    -64315.89549  22648752.00849
  24408188.633 4   -395706.234 4   -258502.07848  24408190.09448
 20  5 16  3 32 18.0000000  0  7G01G07G08G11G16G27G30               -0.000126505
  21755987.570 6   -481893.195 6   -322864.31349  21755989.78549
  21846908.758 6   -420552.980 6   -297008.18049  21846907.67249
  20897814.617 7   -176364.754 7   -118700.96149  20897815.27349
  20275522.508 6   -334129.602 6   -223797.35948  20275520.44948
  23239705.484 5   -155256.008 5   -103043.37946  23239704.05546
  22648468.711 6    -89901.363 6    -65473.68049  22648469.27049
  24406738.969 4   -403326.371 4   -264439.83648  24406740.67248
 20  5 16  3 32 19.0000000  0  7G01G07G08G11G16G27G30               -0.000129181
  21754586.836 6   -489251.605 6   -328598.13749  21754589.64549
  21845620.617 6   -427322.887 6   -302283.43049  21845619.08249
  20897297.445 7   -179083.434 7   -120819.41049  20897298.33249
  20274552.094 6   -339231.027 6   -227772.50048  20274549.99248
  23239210.547 5   -157856.242 5   -105069.54746  23239209.39846
  22648186.508 5    -91387.445 5    -66631.66849  22648186.28149
  24405288.375 4   -410946.688 4   -270377.75048  24405290.77748
 20  5 16  3 32 20.0000000  0  7G01G07G08G11G16G27G30               -0.000131863
  21753187.328 6   -496609.941 6   -334331.90649  21753189.36749
  21844332.352 6   -434092.672 6   -307558.59449  21844330.85549
  20896779.922 7   -181802.176 7   -122937.91849  20896780.84449
  20273581.547 6   -344332.195 6   -231747.43848  20273579.14148
  23238715.461 5   -160456.672 5   -107095.86346  23238714.71146
  22647903.719 5    -92873.852 5    -67789.91049  22647903.79749
  24403837.766 4   -418567.164 4   -276315.78148  24403840.67648
 20  5 16  3 32 21.0000000  0  7G01G07G08G11G16G27G30               -0.000134539
  21751787.047 6   -503968.238 6   -340065.64149  21751788.97749
  21843044.039 6   -440862.391 6   -312833.69549  21843042.41449
  20896262.469 7   -184521.000 7   -125056.48449  20896263.16849
  20272610.500 6   -349433.105 6   -235722.16448  20272608.56348
  23238220.508 5   -163057.355 5   -109122.37946  23238219.46946
  22647620.633 5    -94360.523 5    -68948.35549  22647620.89849
  24402387.016 4   -426187.813 4   -282253.95348  24402390.62948
 20  5 16  3 32 22.0000000  0  7G01G07G08G11G16G27G30               -0.000137222
  21750386.984 6   -511326.422 6   -345799.28949  21750389.38349
  21841756.313 6   -447631.988 6   -318108.70749  21841754.41449
  20895745.031 7   -187239.879 7   -127175.08649  20895745.76649
  20271640.477 6   -354533.734 6   -239696.69548  20271637.73448
  23237725.914 5   -165658.172 5   -111148.98446  23237724.73846
  22647337.703 5    -95847.453 5    -70107.00449  22647337.84449
  24400937.711 4   -433808.676 4   -288192.29348  24400940.46548
 20  5 16  3 32 23.0000000  0  7G01G07G08G11G16G27G30               -0.000139898
  21748986.555 6   -518684.566 6   -351532.90649  21748989.00049
  21840467.828 6   -454401.465 6   -323383.62549  21840466.28149
  20895227.805 7   -189958.836 7   -129293.75849  20895228.50449
  20270669.531 6   -359634.098 6   -243671.00048  20270667.11348
  23237230.680 5   -168259.207 5   -113175.77346  23237229.74646
  22647054.656 5    -97334.637 5    -71265.84849  22647054.84449
  24399487.266 4   -441429.621 4   -294130.69148  24399490.38748
 20  5 16  3 32 24.0000000  0  7G01G07G08G11G16G27G30               -0.000142582
  21747586.563 6   -526042.605 6   -357266.44549  21747588.85549
  21839179.625 6   -461170.852 6   -328658.48049  21839177.80949
  20894710.609 7   -192677.848 7   -131412.46549  20894711.05949
  20269699.125 6   -364734.199 6   -247645.10948  20269696.84448
  23236735.977 5   -170860.391 5   -115202.66046  23236734.62946
  22646771.766 5    -98822.094 5    -72424.91049  22646771.85549
  24398037.797 4   -449050.738 4   -300069.22748  24398039.69948
 20  5 16  3 32 25.0000000  0  7G01G07G08G11G16G27G30               -0.000145258
  21746185.961 6   -533400.578 6   -362999.92649  21746188.38349
  21837891.336 6   -467940.109 6   -333933.22349  21837889.84049
  20894192.969 7   -195396.887 7   -133531.19549  20894194.03549
  20268728.852 6   -369834.008 6   -251618.98048  20268726.55948
  23236240.727 5   -173461.762 5   -117229.70346  23236239.34846
  22646488.891 5   -100309.801 5    -73584.15649  22646488.81349
  24396587.570 4   -456672.031 4   -306007.89848  24396589.51248
 20  5 16  3 32 26.0000000  0  7G01G07G08G11G16G27G30               -0.000147942
  21744785.734 6   -540758.496 6   -368733.36749  21744788.33249
  21836602.852 6   -474709.281 6   -339207.91049  21836601.39149
  20893675.516 7   -198116.035 7   -135650.01649  20893676.41449
  20267757.984 6   -374933.566 6   -255592.66048  20267755.41448
  23235745.953 5   -176063.355 5   -119256.90646  23235744.81346
  22646205.445 6   -101797.828 6    -74743.66849  22646205.73449
  24395136.703 4   -464293.516 4   -311946.71948  24395139.23448
 20  5 16  3 32 27.0000000  0  7G01G07G08G11G16G27G30               -0.000150620
  21743385.594 6   -548116.301 6   -374466.71949  21743387.84449
  21835315.359 6   -481478.328 6   -344482.48849  21835313.50449
  20893158.383 7   -200835.230 7   -137768.87549  20893158.90649
  20266787.883 6   -380032.824 6   -259566.11748  20266785.50448
  23235250.750 5   -178665.109 5   -121284.24246  23235249.42246
  22645922.328 5   -103286.105 5    -75903.35949  22645922.25449
  24393686.313 4   -471915.109 4   -317885.62148  24393689.30948
 20  5 16  3 32 28.0000000  0  7G01G07G08G11G16G27G30               -0.000153303
  21741985.906 6   -555474.055 6   -380200.03149  21741987.93849
  21834027.305 6   -488247.277 6   -349757.00449  21834025.32049
  20892640.453 7   -203554.523 7   -139887.79749  20892641.35949
  20265817.609 6   -385131.855 6   -263539.38748  20265814.98848
  23234755.195 5   -181267.059 5   -123311.74646  23234754.51246
  22645639.313 5   -104774.609 5    -77063.23049  22645639.04749
  24392236.742 4   -479536.848 4   -323824.63748  24392238.84848
 20  5 16  3 32 29.0000000  0  7G01G07G08G11G16G27G30               -0.000155981
  21740585.727 6   -562831.719 6   -385933.27749  21740587.69949
  21832738.734 6   -495016.098 6   -355031.40649  21832737.42649
  20892123.117 7   -206273.863 7   -142006.75849  20892123.74649
  20264847.305 6   -390230.543 6   -267512.38748  20264844.94148
  23234260.063 5   -183869.191 5   -125339.39146  23234259.17646
  22645355.844 6   -106263.453 6    -78223.37149  22645355.48449
  24390785.734 4   -487158.757 4   -329763.78348  24390788.11748
 20  5 16  3 32 30.0000000  0  7G01G07G08G11G16G27G30               -0.000158665
  21739185.563 6   -570189.262 6   -391666.42649  21739187.47749
  21831450.617 6   -501784.789 6   -360305.71149  21831449.37549
  20891605.867 7   -208993.281 7   -144125.79749  20891606.47749
  20263876.914 6   -395329.004 6   -271485.21548  20263874.53548
  23233765.422 5   -186471.484 5   -127367.15246  23233764.20746
  22645072.211 5   -107752.473 5    -79383.64549  22645072.59449
  24389335.148 4   -494780.832 4   -335703.06348  24389337.63748
 20  5 16  3 32 31.0000000  0  7G01G07G08G11G16G27G30               -0.000161343
  21737785.828 6   -577546.750 6   -397399.53149  21737787.82049
  21830162.445 6   -508553.375 6   -365579.94149  21830161.25049
  20891087.961 7   -211712.750 7   -146244.85949  20891088.77749
  20262906.828 6   -400427.172 6   -275457.81648  20262904.66848
  23233270.000 5   -189073.992 5   -129395.08646  23233269.44546
  22644788.680 5   -109241.801 5    -80544.16049  22644789.30149
  24387884.305 4   -502403.082 4   -341642.48448  24387887.17248
 20  5 16  3 32 32.0000000  0  7G01G07G08G11G16G27G30               -0.000164028
  21736385.219 6   -584904.051 6   -403132.49249  21736387.00049
  21828874.672 6   -515321.758 6   -370854.00849  21828873.04349
  20890570.609 7   -214432.172 7   -148363.89149  20890571.13749
  20261936.609 6   -405524.965 6   -279430.12548  20261934.54348
  23232775.008 5   -191676.543 5   -131423.05546  23232774.10546
  22644505.273 5   -110731.293 5    -81704.80549  22644505.81649
  24386433.852 4   -510025.332 4   -347581.90248  24386436.74248
 20  5 16  3 32 33.0000000  0  7G01G07G08G11G16G27G30               -0.000166706
  21734985.180 6   -592261.223 6   -408865.35949  21734987.15649
  21827586.891 6   -522089.957 6   -376127.92649  21827585.34049
  20890053.383 7   -217151.590 7   -150482.91849  20890053.83249
  20260966.797 6   -410622.430 6   -283402.17248  20260964.56648
  23232278.523 5   -194279.223 5   -133451.11346  23232278.39546
  22644221.750 6   -112220.965 6    -82865.58649  22644222.38749
  24384983.633 4   -517647.691 4   -353521.39548  24384986.14148
 20  5 16  3 32 34.0000000  0  7G01G07G08G11G16G27G30               -0.000169392
  21733584.977 6   -599618.375 6   -414598.20349  21733587.24249
  21826298.719 6   -528858.129 6   -381401.82849  21826297.24249
  20889535.820 7   -219871.148 7   -152602.05949  20889536.52049
  20259996.805 6   -415719.680 6   -287374.05548  20259994.75448
  23231783.422 5   -196882.145 5   -135479.36346  23231783.19946
  22643938.430 6   -113710.988 6    -84026.64549  22643938.72349
  24383533.000 4   -525270.297 4   -359461.08648  24383535.56348
 20  5 16  3 32 35.0000000  0  7G01G07G08G11G16G27G30               -0.000172070
  21732185.414 6   -606975.297 6   -420330.87549  21732187.39149
  21825010.820 6   -535626.027 6   -386675.51649  21825009.43049
  20889018.164 7   -222590.621 7   -154721.12549  20889019.04349
  20259026.742 6   -420816.512 6   -291345.60948  20259024.82048
  23231288.594 5   -199485.117 5   -137507.65646  23231288.07846
  22643654.750 6   -115201.141 6    -85187.80149  22643655.03149
  24382082.641 4   -532892.918 4   -365400.78548  24382085.09448
 20  5 16  3 32 36.0000000  0  7G01G07G08G11G16G27G30               -0.000174755
  21730785.406 6   -614332.168 6   -426063.50449  21730787.51649
  21823722.898 6   -542393.836 6   -391949.12949  21823721.35249
  20888500.797 7   -225310.180 7   -156840.26649  20888501.62549
  20258056.867 6   -425913.066 6   -295316.95748  20258054.95348
  23230792.609 5   -202088.301 5   -139536.10946  23230792.86346
  22643370.844 5   -116691.574 5    -86349.18049  22643371.44949
  24380631.719 4   -540515.648 4   -371340.58248  24380634.77348
 20  5 16  3 32 37.0000000  0  7G01G07G08G11G16G27G30               -0.000177435
  21729385.820 6   -621688.824 6   -431795.96149  21729387.51249
  21822434.961 6   -549161.387 6   -397222.55549  21822433.70349
  20887983.047 7   -228029.684 7   -158959.35249  20887984.02049
  20257087.453 6   -431009.273 6   -299288.02748  20257085.06348
  23230297.672 4   -204691.516 4   -141564.60547  23230297.03947
  22643087.375 6   -118182.133 6    -87510.66449  22643087.93449
  24379182.102 5   -548138.441 5   -377280.42248  24379184.10548
 20  5 16  3 32 38.0000000  0  7G01G07G08G11G16G27G30               -0.000180119
  21727985.539 6   -629045.313 6   -437528.28949  21727987.43449
  21821147.188 6   -555928.742 6   -402495.81649  21821145.70749
  20887465.750 7   -230749.148 7   -161078.41849  20887466.24649
  20256117.773 6   -436105.066 6   -303258.77048  20256115.52748
  23229802.297 4   -207294.855 4   -143593.19146  23229801.68046
  22642804.461 6   -119672.855 6    -88672.27349  22642804.32049
  24377731.297 4   -555761.344 4   -383220.34448  24377733.66048
 20  5 16  3 32 39.0000000  0  7G01G07G08G11G16G27G30               -0.000182800
  21726585.648 6   -636401.688 6   -443260.52749  21726587.93049
  21819859.266 6   -562695.965 6   -407768.98049  21819857.78949
  20886948.055 7   -233468.633 7   -163197.50049  20886949.12549
  20255148.102 6   -441200.582 6   -307229.29748  20255145.44148
  23229307.258 4   -209898.313 4   -145621.85246  23229306.31646
  22642520.219 5   -121163.797 5    -89834.04349  22642520.44549
  24376280.164 4   -563384.313 4   -389160.30148  24376283.43848
 20  5 16  3 32 40.0000000  0  7G01G07G08G11G16G27G30               -0.000185484
  21725185.875 6   -643757.926 6   -448992.66049  21725187.93849
  21818571.695 6   -569463.008 6   -413042.00449  21818570.71149
  20886430.797 7   -236188.125 7   -165316.59449  20886431.45349
  20254177.961 6   -446295.758 6   -311199.56348  20254176.21548
  23228811.852 5   -212501.918 5   -147650.64847  23228811.19947
  22642236.563 6   -122655.020 6    -90996.03549  22642236.53949
  24374829.789 4   -571007.402 4   -395100.36748  24374832.45748
 20  5 16  3 32 41.0000000  0  7G01G07G08G11G16G27G30               -0.000188164
  21723785.828 6   -651113.930 6   -454724.60949  21723788.07049
  21817283.602 6   -576229.824 6   -418314.85249  21817282.62549
  20885912.977 7   -238907.574 7   -167435.64549  20885914.20749
  20253208.664 6   -451390.543 6   -315169.52348  20253206.54748
  23228315.977 4   -215105.594 4   -149679.49646  23228315.47346
  22641952.625 5   -124146.332 5    -92158.09849  22641953.00049
  24373378.961 4   -578630.547 4   -401040.47748  24373382.05548
 20  5 16  3 32 42.0000000  0  7G01G07G08G11G16G27G30               -0.000190849
  21722386.297 6   -658469.859 6   -460456.49649  21722388.09449
  21815996.266 6   -582996.473 6   -423587.56649  21815995.23049
  20885395.695 7   -241627.055 7   -169554.71949  20885396.48049
  20252239.188 6   -456484.996 6   -319139.22748  20252236.97348
  23227820.281 4   -217709.422 4   -151708.44146  23227819.47346
  22641668.984 5   -125637.906 5    -93320.35949  22641668.67249
  24371928.648 4   -586253.762 4   -406980.64148  24371930.98848
 20  5 16  3 32 43.0000000  0  7G01G07G08G11G16G27G30               -0.000193531
  21720986.898 6   -665825.594 6   -466188.23449  21720988.49649
  21814709.094 6   -589762.938 6   -428860.14149  21814707.65249
  20884878.211 7   -244346.504 7   -171673.76249  20884878.90249
  20251270.008 6   -461579.109 6   -323108.67248  20251267.49248
  23227325.289 5   -220313.305 5   -153737.43846  23227324.32846
  22641385.156 6   -127129.633 6    -94482.73849  22641385.02349
  24370478.031 4   -593877.074 4   -412920.89148  24370480.20748
 20  5 16  3 32 44.0000000  0  7G01G07G08G11G16G27G30               -0.000196217
  21719586.656 6   -673181.207 6   -471919.88749  21719588.78949
  21813420.953 6   -596529.223 6   -434132.55949  21813420.18049
  20884360.930 7   -247065.965 7   -173792.82849  20884361.36749
  20250300.688 6   -466672.910 6   -327077.86748  20250298.27048
  23226829.953 4   -222917.348 4   -155766.57046  23226828.95746
  22641101.133 6   -128621.586 6    -95645.30149  22641101.33649
  24369027.242 4   -601500.523 4   -418861.25448  24369029.84048
 20  5 16  3 32 45.0000000  0  7G01G07G08G11G16G27G30               -0.000198896
  21718186.672 6   -680536.676 6   -477651.42249  21718189.00449
  21812133.539 6   -603295.316 6   -439404.83649  21812132.78149
  20883843.398 7   -249785.398 7   -175911.86349  20883843.84449
  20249331.648 6   -471766.348 6   -331046.77748  20249329.28548
  23226334.492 4   -225521.473 4   -157795.78146  23226333.30146
  22640817.266 5   -130113.727 5    -96808.01649  22640817.02749
  24367576.430 4   -609124.004 4   -424801.62948  24367578.85248
 20  5 16  3 32 46.0000000  0  7G01G07G08G11G16G27G30               -0.000201584
  21716787.750 6   -687892.004 6   -483382.84849  21716789.58649
  21810846.523 6   -610061.246 6   -444676.98049  21810845.59049
  20883325.828 7   -252504.879 7   -178030.93849  20883326.48849
  20248362.164 6   -476859.441 6   -335015.41848  20248359.55548
  23225838.672 5   -228125.797 5   -159825.12147  23225837.28947
  22640533.227 5   -131606.113 5    -97970.92249  22640533.41049
  24366125.125 4   -616747.570 4   -430742.06648  24366128.38748
 20  5 16  3 32 47.0000000  0  7G01G07G08G11G16G27G30               -0.000204264
  21715387.773 6   -695247.277 6   -489114.23049  21715390.05949
  21809558.680 6   -616827.098 6   -449949.07449  21809557.58249
  20882808.336 7   -255224.410 7   -180150.05549  20882809.16049
  20247392.938 6   -481952.293 6   -338983.87548  20247390.50048
  23225343.086 5   -230730.258 5   -161854.56647  23225342.15247
  22640248.898 5   -133098.746 5    -99134.01649  22640249.39849
  24364674.953 4   -624371.328 4   -436682.64848  24364677.62948
 20  5 16  3 32 48.0000000  0  7G01G07G08G11G16G27G30               -0.000206951
  21713988.227 6   -702602.332 6   -494845.43849  21713990.41849
  21808271.344 6   -623592.699 6   -455220.97349  21808270.09449
  20882290.711 7   -257943.941 7   -182269.17249  20882291.84049
  20246424.188 6   -487044.762 6   -342952.03148  20246421.69948
  23224847.883 5   -233334.824 5   -163884.10246  23224846.15246
  22639965.078 5   -134591.551 5   -100297.24649  22639965.31349
  24363224.297 4   -631995.168 4   -442623.30148  24363226.34048
 20  5 16  3 32 49.0000000  0  7G01G07G08G11G16G27G30               -0.000209631
  21712588.445 6   -709957.258 6   -500576.55549  21712590.56349
  21806983.828 6   -630358.152 6   -460492.76249  21806982.61349
  20881773.016 7   -260663.426 7   -184388.24649  20881773.60249
  20245454.742 6   -492136.891 6   -346919.92248  20245452.36348
  23224352.398 5   -235939.496 5   -165913.71547  23224350.69147
  22639680.938 5   -136084.527 5   -101460.59849  22639681.42649
  24361773.195 4   -639619.063 4   -448564.00448  24361775.85548
 20  5 16  3 32 50.0000000  0  7G01G07G08G11G16G27G30               -0.000212318
  21711189.094 6   -717312.043 6   -506307.55549  21711191.53149
  21805696.406 6   -637123.426 6   -465764.40649  21805695.37549
  20881255.930 7   -263382.934 7   -186507.34449  20881256.25849
  20244486.125 6   -497228.695 6   -350887.55948  20244483.53948
  23223856.906 5   -238544.324 5   -167943.44546  23223855.23046
  22639397.375 6   -137577.762 6   -102624.16049  22639397.55549
  24360322.992 4   -647243.082 4   -454504.78148  24360325.14548
 20  5 16  3 32 51.0000000  0  7G01G07G08G11G16G27G30               -0.000215000
  21709789.289 6   -724666.637 6   -512038.39849  21709791.32049
  21804409.297 6   -643888.453 6   -471035.85549  21804408.19549
  20880738.188 7   -266102.391 7   -188626.40249  20880738.19949
  20243517.133 6   -502320.109 6   -354854.89848  20243514.94548
  23223360.492 5   -241149.215 5   -169973.25046  23223359.08246
  22639112.836 6   -139071.148 6   -103787.83649  22639113.17249
  24358871.500 4   -654867.129 4   -460445.58248  24358874.18848
 20  5 16  3 32 52.0000000  0  7G01G07G08G11G16G27G30               -0.000217688
  21708389.992 6   -732021.090 6   -517769.13749  21708391.92249
  21803121.445 6   -650653.355 6   -476307.20349  21803121.47749
  20880220.508 7   -268821.871 7   -190745.47349  20880221.17649
  20242548.188 6   -507411.211 6   -358821.98848  20242545.94148
  23222865.422 5   -243754.203 5   -172003.12946  23222863.25446
  22638828.617 5   -140564.777 5   -104951.70349  22638829.16049
  24357420.250 4   -662491.273 4   -466386.47348  24357423.42248
 20  5 16  3 32 53.0000000  0  7G01G07G08G11G16G27G30               -0.000220369
  21706990.359 6   -739375.457 6   -523499.81349  21706992.69149
  21801834.625 6   -657418.086 6   -481578.42649  21801833.85249
  20879703.234 7   -271541.391 7   -192864.58649  20879703.69149
  20241579.914 6   -512502.016 6   -362788.85249  20241577.43049
  23222369.492 5   -246359.414 5   -174033.16047  23222368.34447
  22638544.539 5   -142058.594 5   -106115.70749  22638545.06349
  24355970.328 4   -670115.527 4   -472327.46148  24355972.98848
 20  5 16  3 32 54.0000000  0  7G01G07G08G11G16G27G30               -0.000223057
  21705590.773 6   -746729.742 6   -529230.42249  21705593.02049
  21800546.883 6   -664182.691 6   -486849.54349  21800545.81649
  20879185.555 7   -274260.969 7   -194983.73849  20879186.25849
  20240610.883 6   -517592.512 6   -366755.47749  20240608.64149
  23221874.094 5   -248964.777 5   -176063.29347  23221872.38347
  22638260.297 6   -143552.676 6   -107279.92649  22638259.94149
  24354518.922 4   -677739.949 4   -478268.59048  24354521.42248
 20  5 16  3 32 55.0000000  0  7G01G07G08G11G16G27G30               -0.000225739
  21704191.594 6   -754083.887 6   -534960.92649  21704193.83649
  21799260.141 6   -670947.129 6   -492120.53149  21799259.12549
  20878668.266 7   -276980.574 7   -197102.91049  20878668.71949
  20239642.242 6   -522682.715 6   -370721.85948  20239640.16848
  23221377.484 5   -251570.234 5   -178093.50847  23221376.64147
  22637975.547 6   -145046.980 6   -108444.33249  22637975.95349
  24353067.477 4   -685364.488 4   -484209.80148  24353070.80948
 20  5 16  3 32 56.0000000  0  7G01G07G08G11G16G27G30               -0.000228426
  21702792.195 6   -761437.781 6   -540691.23849  21702794.12549
  21797972.742 6   -677711.320 6   -497391.32849  21797971.91049
  20878150.641 7   -279700.082 7   -199222.00449  20878151.14549
  20238673.703 6   -527772.461 6   -374687.89548  20238671.47748
  23220881.734 5   -254175.762 5   -180123.78546  23220880.80546
  22637691.484 6   -146541.398 6   -109608.82449  22637691.73449
  24351616.570 3   -692989.023 3   -490151.00048  24351620.20348
 20  5 16  3 32 57.0000000  0  7G01G07G08G11G16G27G30               -0.000231108
  21701392.836 6   -768791.543 6   -546421.44149  21701394.93049
  21796685.727 6   -684475.352 6   -502662.00449  21796684.67649
  20877633.242 7   -282419.605 7   -201341.11749  20877633.76249
  20237705.227 6   -532861.910 6   -378653.69948  20237702.80548
  23220385.836 5   -256781.395 5   -182154.15246  23220385.30146
  22637406.859 6   -148036.039 6   -110773.48049  22637407.23449
  24350166.086 4   -700613.668 4   -496092.28148  24350169.03948
 20  5 16  3 32 58.0000000  0  7G01G07G08G11G16G27G30               -0.000233795
  21699993.352 6   -776145.094 6   -552151.48049  21699995.87949
  21795398.672 6   -691239.121 6   -507932.47349  21795397.46149
  20877115.766 7   -285139.082 7   -203460.19149  20877116.53149
  20236736.680 6   -537950.941 6   -382619.18048  20236734.51648
  23219890.133 5   -259387.113 5   -184184.59046  23219888.95346
  22637122.438 6   -149530.820 6   -111938.24649  22637122.42249
  24348714.805 3   -708238.270 3   -502033.53148  24348718.10248
 20  5 16  3 32 59.0000000  0  7G01G07G08G11G16G27G30               -0.000236479
  21698594.023 6   -783498.516 6   -557881.42249  21698596.12149
  21794111.570 6   -698002.723 6   -513202.82049  21794110.18849
  20876598.016 7   -287858.539 7   -205579.24249  20876598.95749
  20235768.492 6   -543039.656 6   -386584.41848  20235766.21148
  23219394.023 5   -261992.957 5   -186215.12146  23219393.13746
  22636837.633 5   -151025.824 5   -113103.18849  22636838.38749
  24347264.203 3   -715863.031 3   -507974.89148  24347266.63748
 20  5 16  3 33  0.0000000  0  7G01G07G08G11G16G27G30               -0.000239166
  21697194.953 6   -790851.676 6   -563611.15249  21697196.99249
  21792824.664 6   -704766.023 6   -518472.92649  21792823.58649
  20876081.000 7   -290577.875 7   -207698.19549  20876081.37149
  20234800.398 6   -548127.906 6   -390549.28148  20234797.81348
  23218898.242 5   -264598.785 5   -188245.64147  23218896.58647
  22636553.727 5   -152520.898 5   -114268.17249  22636553.80949
  24345813.617 3   -723487.770 3   -513916.22348  24345815.93448
 20  5 16  3 33  1.0000000  0  7G01G07G08G11G16G27G30               -0.000241850
  21695795.539 6   -798204.672 6   -569340.75849  21695798.03949
  21791537.914 6   -711529.160 6   -523742.90249  21791536.07449
  20875563.328 6   -293297.258 6   -209817.19149  20875563.91049
  20233832.336 6   -553215.824 6   -394513.89548  20233829.75448
  23218402.141 4   -267204.734 4   -190276.26646  23218400.94946
  22636269.094 5   -154016.207 5   -115433.34449  22636269.17249
  24344362.539 3   -731112.574 3   -519857.61348  24344365.01648
 20  5 16  3 33  2.0000000  0  7G01G07G08G11G16G27G30               -0.000244537
  21694396.313 6   -805557.473 6   -575070.20749  21694398.43449
  21790250.906 6   -718292.070 6   -529012.70749  21790249.36349
  20875046.117 7   -296016.574 7   -211936.13349  20875046.78549
  20232864.164 6   -558303.352 6   -398478.19948  20232861.75848
  23217906.320 5   -269810.762 5   -192306.93446  23217904.77346
  22635984.406 6   -155511.629 6   -116598.60549  22635984.93849
  24342912.039 4   -738737.418 4   -525799.04748  24342913.72348
 20  5 16  3 33  3.0000000  0  7G01G07G08G11G16G27G30               -0.000247221
  21692997.438 6   -812910.156 6   -580799.57449  21692999.87549
  21788963.453 6   -725054.816 6   -534282.37149  21788962.46949
  20874528.422 7   -298735.926 7   -214055.11749  20874529.00049
  20231896.250 6   -563390.559 6   -402442.26248  20231893.57848
  23217410.547 5   -272416.926 5   -194337.72346  23217409.32846
  22635700.109 6   -157007.293 6   -117764.06349  22635699.70749
  24341461.195 5   -746362.430 5   -531740.63348  24341462.96548
 20  5 16  3 33  4.0000000  0  7G01G07G08G11G16G27G30               -0.000249910
  21691598.125 6   -820262.578 6   -586528.73449  21691600.26649
  21787677.172 6   -731817.277 6   -539551.82049  21787675.88749
  20874010.828 7   -301455.152 7   -216174.00449  20874011.31649
  20230928.266 6   -568477.324 6   -406405.99249  20230925.77749
  23216914.742 5   -275023.109 5   -196368.51646  23216913.59446
  22635415.203 6   -158503.063 6   -118929.61349  22635415.36749
  24340010.906 5   -753987.359 5   -537682.13748  24340012.05548
 20  5 16  3 33  5.0000000  0  7G01G07G08G11G16G27G30               -0.000252594
  21690199.063 6   -827614.879 6   -592257.80549  21690201.12549
  21786390.211 6   -738579.574 6   -544821.14549  21786389.44149
  20873493.234 7   -304174.375 7   -218292.87549  20873494.32049
  20229960.273 6   -573563.785 6   -410369.48049  20229957.45349
  23216418.555 6   -277629.438 6   -198399.42646  23216417.44946
  22635130.352 6   -159999.035 6   -120095.31349  22635130.85549
  24338558.633 4   -761612.402 4   -543623.73848  24338560.59848
 20  5 16  3 33  6.0000000  0  7G01G07G08G11G16G27G30               -0.000255281
  21688800.484 6   -834966.914 6   -597986.65649  21688801.89849
  21785103.531 6   -745341.617 6   -550090.26649  21785101.85249
  20872975.984 7   -306893.551 7   -220411.71149  20872976.50849
  20228992.805 6   -578649.813 6   -414332.61348  20228989.56348
  23215922.695 6   -280235.809 6   -200430.37946  23215921.30146
  22634845.711 6   -161495.129 6   -121261.09849  22634846.38749
  24337107.258 3   -769237.430 3   -549565.29348  24337109.20348
 20  5 16  3 33  7.0000000  0  7G01G07G08G11G16G27G30               -0.000257965
  21687401.219 6   -842318.777 6   -603715.37949  21687403.25449
  21783817.102 6   -752103.414 6   -555359.19949  21783815.10949
  20872458.406 7   -309612.641 7   -222530.48449  20872459.49649
  20228024.984 6   -583735.461 6   -418295.44548  20228021.98448
  23215425.891 5   -282842.191 5   -202461.34846  23215425.73046
  22634560.141 6   -162991.371 6   -122427.01249  22634561.53549
  24335656.953 3   -776862.465 3   -555506.87948  24335658.33648
 20  5 16  3 33  8.0000000  0  7G01G07G08G11G16G27G30               -0.000260654
  21686001.820 6   -849670.422 6   -609443.92249  21686004.32049
  21782530.758 6   -758864.938 6   -560627.91449  21782528.54749
  20871940.859 7   -312331.656 7   -224649.20749  20871941.85949
  20227056.688 6   -588820.691 6   -422257.95748  20227054.48048
  23214930.125 5   -285448.652 5   -204492.37546  23214929.41846
  22634276.391 6   -164487.773 6   -123593.03949  22634276.79749
  24334206.469 3   -784487.559 3   -561448.52048  24334207.89848
 20  5 16  3 33  9.0000000  0  7G01G07G08G11G16G27G30               -0.000263338
  21684603.227 6   -857021.953 6   -615172.37949  21684604.95349
  21781244.188 6   -765626.355 6   -565896.55149  21781241.55149
  20871423.734 7   -315050.734 7   -226767.97749  20871424.30949
  20226089.406 6   -593905.586 6   -426220.20748  20226086.70748
  23214433.914 5   -288055.250 5   -206523.47746  23214433.57446
  22633991.273 6   -165984.395 6   -124759.23049  22633991.75449
  24332755.844 5   -792112.770 5   -567390.25448  24332756.59048
 20  5 16  3 33 10.0000000  0  7G01G07G08G11G16G27G30               -0.000266027
  21683204.023 6   -864373.234 6   -620900.64149  21683206.05149
  21779957.789 6   -772387.488 6   -571164.96549  21779955.39849
  20870906.555 7   -317769.734 7   -228886.67649  20870907.33649
  20225121.586 6   -598990.109 6   -430182.16448  20225119.47348
  23213938.156 5   -290661.910 5   -208554.62946  23213937.33246
  22633706.539 6   -167481.164 6   -125925.55549  22633707.06349
  24331304.602 4   -799738.016 4   -573332.02048  24331305.79748
 20  5 16  3 33 11.0000000  0  7G01G07G08G11G16G27G30               -0.000268711
  21681805.758 6   -871724.262 6   -626628.70749  21681807.71149
  21778671.063 6   -779148.332 6   -576433.16449  21778668.87149
  20870388.727 7   -320488.602 7   -231005.27349  20870389.62149
  20224154.313 6   -604074.133 6   -434143.74248  20224152.18448
  23213442.367 5   -293268.563 5   -210585.76646  23213441.40646
  22633422.102 6   -168977.965 6   -127091.89149  22633422.37549
  24329853.625 4   -807363.230 4   -579273.75048  24329854.53148
 20  5 16  3 33 12.0000000  0  7G01G07G08G11G16G27G30               -0.000271400
  21680406.375 6   -879075.180 6   -632356.69949  21680408.60249
  21777384.961 6   -785909.035 6   -581701.24649  21777382.18849
  20869871.461 7   -323207.559 7   -233123.94549  20869872.19149
  20223187.133 6   -609157.875 6   -438105.09848  20223185.02348
  23212946.570 4   -295875.387 4   -212617.04746  23212945.37146
  22633136.641 6   -170475.074 6   -128258.47749  22633137.41049
  24328403.164 5   -814988.559 5   -585215.56348  24328403.46548
 20  5 16  3 33 13.0000000  0  7G01G07G08G11G16G27G30               -0.000274086
  21679007.813 6   -886425.844 6   -638084.48449  21679009.52749
  21776098.180 6   -792669.457 6   -586969.09849  21776095.69149
  20869354.102 7   -325926.375 7   -235242.49649  20869355.30949
  20222219.570 6   -614241.176 6   -442066.11748  20222217.37148
  23212450.453 4   -298482.211 4   -214648.34046  23212448.66846
  22632851.766 6   -171972.250 6   -129425.10549  22632852.66449
  24326952.133 5   -822613.883 5   -591157.35948  24326952.36748
 20  5 16  3 33 14.0000000  0  7G01G07G08G11G16G27G30               -0.000276775
  21677608.609 6   -893776.313 6   -643812.11349  21677611.12149
  21774811.367 6   -799429.648 6   -592236.77349  21774808.98849
  20868836.852 7   -328645.160 7   -237361.03549  20868837.92249
  20221252.516 6   -619324.113 6   -446026.85548  20221250.43448
  23211954.289 4   -301089.129 4   -216679.71146  23211952.56646
  22632566.992 6   -173469.602 6   -130591.86749  22632568.04349
  24325500.203 5   -830239.234 5   -597099.17248  24325501.65248
 20  5 16  3 33 15.0000000  0  7G01G07G08G11G16G27G30               -0.000279459
  21676210.297 6   -901126.656 6   -649539.65649  21676212.18049
  21773525.461 6   -806189.637 6   -597504.29749  21773522.94949
  20868319.570 7   -331363.934 7   -239479.55549  20868320.50849
  20220285.164 6   -624406.684 6   -449987.30548  20220282.98448
  23211458.188 4   -303696.129 4   -218711.13346  23211457.16846
  22632282.227 6   -174967.125 6   -131758.76649  22632282.81649
  24324048.969 5   -837864.707 5   -603041.09448  24324050.35948
 20  5 16  3 33 16.0000000  0  7G01G07G08G11G16G27G30               -0.000282150
  21674811.633 6   -908476.715 6   -655266.97749  21674814.00049
  21772239.164 6   -812949.348 6   -602771.60549  21772236.59449
  20867802.063 7   -334082.590 7   -241597.98849  20867803.15249
  20219318.289 6   -629488.816 6   -453947.40648  20219316.09448
  23210962.438 5   -306303.152 5   -220742.58246  23210960.53946
  22631997.508 6   -176464.758 6   -132925.75449  22631997.23849
  24322597.867 4   -845490.094 4   -608982.96148  24322599.12148
 20  5 16  3 33 17.0000000  0  7G01G07G08G11G16G27G30               -0.000284834
  21673412.508 6   -915826.582 6   -660994.14549  21673415.03949
  21770952.938 6   -819708.793 6   -608038.69949  21770950.14149
  20867284.648 7   -336801.176 7   -243716.36749  20867285.91049
  20218351.406 6   -634570.563 6   -457907.20748  20218348.79348
  23210466.445 5   -308910.223 5   -222774.06646  23210464.66446
  22631712.117 6   -177962.496 6   -134092.82049  22631712.71949
  24321146.406 3   -853115.484 3   -614924.83248  24321148.53948
 20  5 16  3 33 18.0000000  0  7G01G07G08G11G16G27G30               -0.000287523
  21672014.367 6   -923176.246 6   -666721.16049  21672016.83649
  21769666.547 6   -826468.047 6   -613305.65249  21769664.21149
  20866767.234 7   -339519.754 7   -245834.74249  20866767.89849
  20217384.234 6   -639651.910 6   -461866.69948  20217381.87548
  23209970.578 5   -311517.387 5   -224805.62146  23209968.48046
  22631427.898 6   -179460.445 6   -135260.06349  22631427.85549
  24319694.727 3   -860740.996 3   -620866.79348  24319697.23848
 20  5 16  3 33 19.0000000  0  7G01G07G08G11G16G27G30               -0.000290209
  21670615.914 6   -930525.656 6   -672447.96949  21670618.20349
  21768380.391 6   -833227.000 6   -618572.37549  21768377.84449
  20866250.156 7   -342238.234 7   -247953.03949  20866250.93449
  20216417.172 6   -644732.828 6   -465825.84848  20216414.84048
  23209474.156 5   -314124.551 5   -226837.18446  23209472.21546
  22631141.992 6   -180958.477 6   -136427.36749  22631142.40649
  24318244.328 3   -868366.434 3   -626808.69548  24318246.19948
 20  5 16  3 33 20.0000000  0  7G01G07G08G11G16G27G30               -0.000292900
  21669217.359 6   -937874.891 6   -678174.64149  21669219.64549
  21767094.055 6   -839985.758 6   -623838.94549  21767091.82049
  20865732.828 7   -344956.699 7   -250071.32449  20865733.83249
  20215450.320 6   -649813.355 6   -469784.69948  20215448.21948
  23208977.813 5   -316731.813 5   -228868.81646  23208975.86346
  22630857.211 6   -182456.707 6   -137594.82049  22630857.47749
  24316793.039 3   -875991.992 3   -632750.68448  24316795.25048
 20  5 16  3 33 21.0000000  0  7G01G07G08G11G16G27G30               -0.000295586
  21667818.773 6   -945223.980 6   -683901.20749  21667820.99249
  21765808.313 6   -846744.344 6   -629105.37549  21765805.68849
  20865215.227 7   -347675.148 7   -252189.59449  20865216.39849
  20214483.531 6   -654893.598 6   -473743.32048  20214481.60948
  23208481.891 5   -319339.203 5   -230900.55546  23208480.12146
  22630571.867 6   -183955.152 6   -138762.43849  22630572.07049
  24315341.078 2   -883617.602 2   -638692.71148  24315344.01248
 20  5 16  3 33 22.0000000  0  7G01G07G08G11G16G27G30               -0.000298275
  21666420.586 6   -952572.836 6   -689627.57449  21666422.60949
  21764522.055 6   -853502.660 6   -634371.59049  21764519.10549
  20864698.422 7   -350393.523 7   -254307.80149  20864698.75449
  20213517.484 6   -659973.375 6   -477701.59448  20213514.71948
  23207985.813 5   -321946.629 5   -232932.32846  23207984.33646
  22630286.563 6   -185453.699 6   -139930.12949  22630286.86749
  24313890.359 1   -891243.285 1   -644634.79347  24313893.05147
 20  5 16  3 33 23.0000000  0  7G01G07G08G11G16G27G30               -0.000300961
  21665022.133 6   -959921.551 6   -695353.85549  21665024.29749
  21763236.211 6   -860260.797 6   -639637.66849  21763233.10249
  20864181.070 7   -353111.887 7   -256425.99649  20864182.18049
  20212550.578 6   -665052.824 6   -481659.60948  20212548.14848
  23207489.594 5   -324554.172 5   -234964.17646  23207487.75846
  22630001.594 6   -186952.457 6   -141097.98849  22630001.81649
  24312438.891 1   -898869.039 1   -650576.92247  24312441.98047
 20  5 16  3 33 24.0000000  0  7G01G07G08G11G16G27G30               -0.000303652
  21663623.898 6   -967269.988 6   -701079.91449  21663625.70349
  21761950.039 6   -867018.605 6   -644903.49649  21761947.18049
  20863663.781 7   -355830.105 7   -258544.08649  20863664.50849
  20211583.914 6   -670131.797 6   -485617.25448  20211581.27048
  23206993.469 5   -327161.684 5   -236996.00846  23206991.35546
  22629716.016 6   -188451.273 6   -142265.89849  22629716.52049
  24310987.758 1   -906494.691 1   -656518.98447  24310990.42647
 20  5 16  3 33 25.0000000  0  7G01G07G08G11G16G27G30               -0.000306337
  21662224.836 6   -974618.211 6   -706805.79749  21662227.72349
  21760664.281 6   -873776.211 6   -650169.15649  21760661.50849
  20863146.391 7   -358548.340 7   -260662.19149  20863147.01249
  20210617.781 6   -675210.395 6   -489574.60248  20210615.00048
  23206497.164 5   -329769.313 5   -239027.93847  23206494.83647
  22629430.398 6   -189950.293 6   -143433.96549  22629430.85549
  24309535.984 1   -914120.422 1   -662461.09447  24309539.61347
 20  5 16  3 33 26.0000000  0  7G01G07G08G11G16G27G30               -0.000309029
  21660826.961 6   -981966.246 6   -712531.53949  21660829.05549
  21759378.211 6   -880533.578 6   -655434.63349  21759375.21949
  20862629.133 7   -361266.469 7   -262780.21149  20862630.46949
  20209651.078 6   -680288.578 6   -493531.63748  20209648.80948
  23206000.734 5   -332376.977 5   -241059.88346  23205998.69146
  22629145.352 6   -191449.410 6   -144602.10249  22629145.87949
  24308085.750 1   -921746.246 1   -668403.27047  24308088.28147
 20  5 16  3 33 27.0000000  0  7G01G07G08G11G16G27G30               -0.000311714
  21659428.586 6   -989314.078 6   -718257.12149  21659431.15249
  21758092.445 6   -887290.715 6   -660699.93849  21758089.32849
  20862112.031 7   -363984.570 7   -264898.21549  20862112.83249
  20208684.875 6   -685366.387 6   -497488.37148  20208682.33648
  23205504.328 5   -334984.719 5   -243091.88746  23205502.94146
  22628860.164 6   -192948.691 6   -145770.37549  22628860.81649
  24306634.727 1   -929371.969 1   -674345.36747  24306637.02747
 20  5 16  3 33 28.0000000  0  7G01G07G08G11G16G27G30               -0.000314405
  21658030.414 6   -996661.742 6   -723982.56649  21658032.90649
  21756807.133 6   -894047.625 6   -665965.06649  21756803.66849
  20861594.594 7   -366702.641 7   -267016.19149  20861595.32449
  20207718.586 6   -690443.828 6   -501444.81348  20207716.21148
  23205008.500 5   -337592.543 5   -245123.95346  23205006.96546
  22628575.008 5   -194448.168 5   -146938.80549  22628575.58249
  24305183.336 1   -936997.840 1   -680287.61347  24305186.15647
 20  5 16  3 33 29.0000000  0  7G01G07G08G11G16G27G30               -0.000317091
  21656632.492 6  -1004009.168 6   -729707.83249  21656634.49649
  21755520.961 6   -900804.281 6   -671229.99249  21755517.73849
  20861077.297 7   -369420.652 7   -269134.12549  20861078.40649
  20206752.328 6   -695520.840 6   -505400.92248  20206749.96948
  23204511.734 5   -340200.426 5   -247156.07047  23204510.34447
  22628288.695 5   -195947.793 5   -148107.34449  22628289.55549
  24303732.727 2   -944623.738 2   -686229.87947  24303734.53147
 20  5 16  3 33 30.0000000  0  7G01G07G08G11G16G27G30               -0.000319782
  21655234.070 6  -1011356.414 6   -735432.95749  21655236.46949
  21754235.180 6   -907560.742 6   -676494.76649  21754231.96149
  20860560.461 7   -372138.668 7   -271252.06649  20860561.23449
  20205786.164 6   -700597.516 6   -509356.77748  20205784.29348
  23204015.758 5   -342808.418 5   -249188.27747  23204014.17247
  22628003.844 5   -197447.582 5   -149276.00849  22628004.74649
  24302281.914 2   -952249.621 2   -692172.11347  24302283.79347
 20  5 16  3 33 31.0000000  0  7G01G07G08G11G16G27G30               -0.000322470
  21653835.711 6  -1018703.477 6   -741157.93849  21653838.37949
  21752949.836 6   -914316.977 6   -681759.36349  21752946.16049
  20860043.117 7   -374856.664 7   -273369.98449  20860043.74249
  20204820.352 6   -705673.820 6   -513312.34448  20204817.98448
  23203519.391 5   -345416.492 5   -251220.54746  23203517.99646
  22627718.516 6   -198947.555 6   -150444.81649  22627719.43049
  24300830.328 2   -959875.574 2   -698114.42247  24300832.46147
 20  5 16  3 33 32.0000000  0  7G01G07G08G11G16G27G30               -0.000325161
  21652437.688 6  -1026050.344 6   -746882.75849  21652440.46549
  21751664.125 7   -921073.035 7   -687023.84449  21751661.03149
  20859525.625 7   -377574.625 7   -275487.87949  20859526.48049
  20203854.289 6   -710749.723 6   -517267.58248  20203852.44548
  23203022.469 4   -348024.648 4   -253252.86746  23203021.37946
  22627433.602 6   -200447.715 6   -151613.77749  22627433.21549
  24299381.492 5   -967501.617 5   -704056.83248  24299381.35248
 20  5 16  3 33 33.0000000  0  7G01G07G08G11G16G27G30               -0.000327848
  21651039.859 6  -1033396.977 6   -752607.40249  21651042.07449
  21750378.180 7   -927828.816 7   -692288.09849  21750375.35249
  20859008.430 7   -380292.523 7   -277605.72349  20859009.60249
  20202888.523 6   -715825.227 6   -521222.50848  20202885.97348
  23202526.523 4   -350632.809 4   -255285.20346  23202525.36746
  22627147.773 6   -201948.008 6   -152782.83649  22627148.42249
  24297930.258 5   -975127.668 5   -709999.22348  24297930.49248
 20  5 16  3 33 34.0000000  0  7G01G07G08G11G16G27G30               -0.000330540
  21649641.414 6  -1040743.465 6   -758331.93049  21649644.56349
  21749092.359 6   -934584.395 6   -697552.18049  21749089.75849
  20858491.422 7   -383010.395 7   -279723.53949  20858492.27349
  20201922.758 6   -720900.359 6   -525177.15248  20201920.49648
  23202030.039 4   -353241.109 4   -257317.64546  23202028.97346
  22626861.875 6   -203448.445 6   -153951.99649  22626862.74649
  24296479.313 5   -982753.809 5   -715941.66048  24296479.23448
 20  5 16  3 33 35.0000000  0  7G01G07G08G11G16G27G30               -0.000333227
  21648243.836 6  -1048089.703 6   -764056.27049  21648246.35549
  21747807.359 7   -941339.695 7   -702816.03949  21747803.82449
  20857974.398 7   -385728.164 7   -281841.27049  20857975.36349
  20200956.891 6   -725975.109 6   -529131.50448  20200954.76248
  23201533.766 3   -355849.426 3   -259350.10246  23201532.84846
  22626576.500 6   -204949.008 6   -155121.25849  22626576.85949
  24295027.680 5   -990379.895 5   -721884.04748  24295028.56648
 20  5 16  3 33 36.0000000  0  7G01G07G08G11G16G27G30               -0.000335918
  21646845.813 6  -1055435.664 6   -769780.39849  21646848.61749
  21746521.938 7   -948094.664 7   -708079.64149  21746518.46949
  20857457.203 7   -388445.797 7   -283958.89849  20857457.82449
  20199991.320 6   -731049.352 6   -533085.45348  20199989.05548
  23201036.789 4   -358457.719 4   -261382.55146  23201036.34446
  22626290.852 6   -206449.652 6   -156290.60249  22626291.58249
  24293575.711 5   -998005.957 5   -727826.41848  24293577.48448
 20  5 16  3 33 37.0000000  0  7G01G07G08G11G16G27G30               -0.000338606
  21645448.344 6  -1062781.324 6   -775504.29749  21645450.55549
  21745236.289 7   -954849.340 7   -713343.02049  21745233.30149
  20856939.789 7   -391163.332 7   -286076.46549  20856940.89849
  20199025.992 6   -736123.129 6   -537039.05148  20199023.94148
  23200541.289 4   -361066.004 4   -263414.98846  23200539.94546
  22626005.781 6   -207950.379 6   -157460.00049  22626005.77349
  24292124.281 5  -1005631.965 5   -733768.75048  24292125.93848
 20  5 16  3 33 38.0000000  0  7G01G07G08G11G16G27G30               -0.000341297
  21644050.188 6  -1070126.793 6   -781228.03949  21644052.84849
  21743951.867 7   -961603.762 7   -718606.21149  21743948.00449
  20856423.047 7   -393880.762 7   -288193.95349  20856423.99649
  20198060.336 6   -741196.477 6   -540992.31648  20198058.18448
  23200044.250 4   -363674.375 4   -265447.47746  23200043.98846
  22625720.148 6   -209451.223 6   -158629.48849  22625720.24249
  24290673.594 5  -1013257.965 5   -739711.08248  24290675.40248
 20  5 16  3 33 39.0000000  0  7G01G07G08G11G16G27G30               -0.000343985
  21642652.492 5  -1077472.113 5   -786951.66849  21642655.26249
  21742666.344 7   -968358.098 7   -723869.33249  21742662.34449
  20855905.984 7   -396598.301 7   -290311.51249  20855906.83649
  20197095.211 6   -746269.578 6   -544945.39548  20197092.72348
  23199547.875 3   -366282.902 3   -267480.08646  23199547.22746
  22625434.617 6   -210952.348 6   -159799.19949  22625434.33649
  24289222.609 5  -1020884.168 5   -745653.58248  24289224.60248
 20  5 16  3 33 40.0000000  0  7G01G07G08G11G16G27G30               -0.000346678
  21641254.359 5  -1084817.070 5   -792675.01649  21641256.80549
  21741381.023 7   -975111.918 7   -729132.02349  21741377.28949
  20855388.492 7   -399315.539 7   -292428.83649  20855389.82849
  20196130.234 6   -751342.070 6   -548897.99648  20196127.38748
  23199052.156 3   -368891.238 3   -269512.55946  23199051.52046
  22625149.086 6   -212453.430 6   -160968.87149  22625148.57049
  24287771.719 5  -1028510.148 5   -751595.91048  24287773.69148
 20  5 16  3 33 41.0000000  0  7G01G07G08G11G16G27G30               -0.000349363
  21639857.164 5  -1092161.773 5   -798398.16449  21639859.80149
  21740095.773 7   -981865.473 7   -734394.52049  21740092.19149
  20854871.500 7   -402032.715 7   -294546.11349  20854873.00449
  20195164.914 6   -756414.098 6   -552850.22348  20195162.19948
  23198555.773 3   -371499.645 3   -271545.09046  23198554.99646
  22624863.016 6   -213954.578 6   -162138.59849  22624862.87549
  24286320.234 5  -1036136.113 5   -757538.23048  24286322.39148
 20  5 16  3 33 42.0000000  0  7G01G07G08G11G16G27G30               -0.000352057
  21638459.711 6  -1099506.246 6   -804121.12949  21638461.97349
  21738811.125 7   -988618.770 7   -739656.83249  21738807.08249
  20854355.039 7   -404749.777 7   -296663.30949  20854355.47749
  20194199.891 6   -761485.738 6   -556802.14548  20194197.05948
  23198059.555 3   -374108.086 3   -273577.62146  23198058.82046
  22624577.266 6   -215455.887 6   -163308.44149  22624577.26249
  24284868.852 5  -1043762.090 5   -763480.54348  24284871.19148
 20  5 16  3 33 43.0000000  0  7G01G07G08G11G16G27G30               -0.000354744
  21637062.242 6  -1106850.375 6   -809843.82449  21637064.76249
  21737525.727 7   -995371.680 7   -744918.85549  21737522.23849
  20853837.641 7   -407466.703 7   -298780.39549  20853838.32849
  20193234.344 6   -766556.863 6   -560753.66848  20193232.04748
  23197563.961 4   -376716.391 4   -275610.05546  23197562.37546
  22624291.281 6   -216957.188 6   -164478.28949  22624291.76649
  24283416.938 5  -1051387.984 5   -769422.80548  24283419.77348
 20  5 16  3 33 44.0000000  0  7G01G07G08G11G16G27G30               -0.000357437
  21635664.688 6  -1114194.316 6   -815566.37549  21635666.77749
  21736240.438 7  -1002124.395 7   -750180.71149  21736237.29349
  20853320.203 7   -410183.625 7   -300897.48449  20853321.57049
  20192269.867 6   -771627.574 6   -564704.87548  20192267.12148
  23197066.938 3   -379324.875 3   -277642.67246  23197066.00046
  22624006.109 6   -218458.680 6   -165648.28149  22624006.26649
  24281966.391 5  -1059013.934 5   -775365.10948  24281968.53548
 20  5 16  3 33 45.0000000  0  7G01G07G08G11G16G27G30               -0.000360125
  21634267.477 6  -1121538.156 6   -821288.85249  21634269.68849
  21734955.352 7  -1008876.965 7   -755442.44949  21734952.19549
  20852803.594 7   -412900.539 7   -303014.55549  20852804.66049
  20191304.695 6   -776698.008 6   -568655.85948  20191302.48448
  23196570.813 3   -381933.453 3   -279675.36746  23196569.43446
  22623720.125 6   -219960.406 6   -166818.46149  22623720.42649
  24280515.469 5  -1066639.980 5   -781307.48848  24280516.89848
 20  5 16  3 33 46.0000000  0  7G01G07G08G11G16G27G30               -0.000362818
  21632870.289 5  -1128881.563 5   -827010.98049  21632872.59449
  21733670.813 7  -1015629.066 7   -760703.82049  21733667.52049
  20852286.469 7   -415617.203 7   -305131.42249  20852287.81649
  20190340.000 6   -781767.840 6   -572606.37548  20190337.66448
  23196074.117 3   -384541.902 3   -281707.93846  23196072.83646
  22623434.648 6   -221462.070 6   -167988.59049  22623434.57449
  24279063.727 5  -1074265.863 5   -787249.73048  24279065.69148
 20  5 16  3 33 47.0000000  0  7G01G07G08G11G16G27G30               -0.000365505
  21631472.586 5  -1136224.828 5   -832733.00049  21631475.10549
  21732385.727 6  -1022381.004 6   -765965.07849  21732382.23049
  20851769.586 7   -418333.887 7   -307248.32049  20851770.84049
  20189375.695 6   -786837.320 6   -576556.62148  20189372.70748
  23195578.063 3   -387150.465 3   -283740.59446  23195576.57846
  22623148.398 6   -222963.969 6   -169158.90249  22623148.68049
  24277613.031 5  -1081891.836 5   -793192.03548  24277614.90248
 20  5 16  3 33 48.0000000  0  7G01G07G08G11G16G27G30               -0.000368198
  21630075.492 5  -1143567.742 5   -838454.75049  21630077.71149
  21731100.836 7  -1029132.547 7   -771226.02049  21731097.70349
  20851252.617 7   -421050.379 7   -309365.06649  20851254.07049
  20188410.867 6   -791906.301 6   -580506.48848  20188408.01248
  23195081.359 3   -389758.949 3   -285773.18046  23195080.21946
  22622862.047 6   -224465.887 6   -170329.23049  22622862.88749
  24276162.125 5  -1089517.715 5   -799134.26248  24276163.71948
 20  5 16  3 33 49.0000000  0  7G01G07G08G11G16G27G30               -0.000370886
  21628678.047 5  -1150910.516 5   -844176.39549  21628680.23049
  21729815.930 7  -1035883.980 7   -776486.88349  21729812.81649
  20850735.734 7   -423766.898 7   -311481.83249  20850736.74249
  20187446.711 6   -796974.969 6   -584456.10248  20187443.68048
  23194585.453 3   -392367.582 3   -287805.89546  23194583.66446
  22622576.992 6   -225968.016 6   -171499.71949  22622577.07449
  24274710.477 5  -1097143.664 5   -805076.54348  24274712.71148
 20  5 16  3 33 50.0000000  0  7G01G07G08G11G16G27G30               -0.000373579
  21627280.766 5  -1158252.918 5   -849897.75049  21627283.21949
  21728531.156 7  -1042634.926 7   -781747.36349  21728528.24249
  20850218.891 7   -426483.168 7   -313598.40249  20850220.06349
  20186482.234 6   -802043.012 6   -588405.23048  20186479.37948
  23194089.391 4   -394976.094 4   -289838.50046  23194087.07846
  22622291.313 6   -227470.094 6   -172670.17249  22622291.35549
  24273259.930 5  -1104769.461 5   -811018.72748  24273261.26248
 20  5 16  3 33 51.0000000  0  7G01G07G08G11G16G27G30               -0.000376268
  21625883.438 5  -1165595.152 5   -855618.97749  21625886.15649
  21727246.914 7  -1049385.715 7   -787007.71149  21727243.36749
  20849702.586 7   -429199.434 7   -315714.98049  20849703.02749
  20185518.031 6   -807110.781 6   -592354.13748  20185514.93848
  23193592.930 4   -397584.746 4   -291871.22346  23193590.80946
  22622005.359 6   -228972.406 6   -173840.80949  22622005.41849
  24271808.891 5  -1112395.340 5   -816960.97348  24271810.31348
 20  5 16  3 33 52.0000000  0  7G01G07G08G11G16G27G30               -0.000378962
  21624486.273 6  -1172937.195 6   -861340.05149  21624488.95349
  21725962.023 7  -1056136.270 7   -792267.88349  21725958.83649
  20849185.328 7   -431915.672 7   -317831.52749  20849186.00849
  20184553.555 6   -812178.113 6   -596302.70748  20184550.68848
  23193096.242 4   -400193.406 4   -293903.93846  23193094.62546
  22621719.055 6   -230474.879 6   -175011.56649  22621719.51249
  24270357.406 5  -1120021.262 5   -822903.25048  24270359.07848
 20  5 16  3 33 53.0000000  0  7G01G07G08G11G16G27G30               -0.000381649
  21623089.625 6  -1180278.934 6   -867060.89149  21623091.60949
  21724677.523 7  -1062886.531 7   -797527.82449  21724674.63349
  20848668.477 7   -434631.789 7   -319947.98449  20848669.02049
  20183589.453 6   -817245.000 6   -600250.93448  20183586.71548
  23192599.953 4   -402802.094 4   -295936.68046  23192598.09846
  22621432.922 6   -231977.414 6   -176182.37149  22621433.86349
  24268906.367 5  -1127647.145 5   -828845.50448  24268907.64548
 20  5 16  3 33 54.0000000  0  7G01G07G08G11G16G27G30               -0.000384342
  21621692.773 5  -1187620.281 5   -872781.42649  21621694.80549
  21723393.539 7  -1069636.328 7   -802787.40649  21723390.09849
  20848151.484 7   -437347.664 7   -322064.25049  20848152.10949
  20182625.641 6   -822311.285 6   -604198.68448  20182622.35948
  23192103.359 4   -405410.676 4   -297969.33646  23192102.07846
  22621147.563 6   -233479.918 6   -177353.16049  22621147.53549
  24267454.680 5  -1135272.875 5   -834787.62148  24267456.69948
 20  5 16  3 33 55.0000000  0  7G01G07G08G11G16G27G30               -0.000387032
  21620295.477 6  -1194961.516 6   -878501.87549  21620297.63749
  21722108.945 7  -1076385.906 7   -808046.82049  21722105.42249
  20847634.867 7   -440063.453 7   -324180.46949  20847635.50449
  20181660.938 6   -827377.258 6   -608146.19548  20181658.26248
  23191607.203 4   -408019.336 4   -300002.03546  23191605.17246
  22620861.477 6   -234982.559 6   -178524.04749  22620861.18049
  24266002.891 5  -1142898.551 5   -840729.71148  24266005.32848
 20  5 16  3 33 56.0000000  0  7G01G07G08G11G16G27G30               -0.000389725
  21618898.664 6  -1202302.391 6   -884222.03149  21618900.52749
  21720824.875 7  -1083135.168 7   -813305.98449  21720821.00449
  20847118.164 7   -442779.164 7   -326296.62949  20847118.34849
  20180696.734 6   -832442.715 6   -612093.28948  20180694.29748
  23191110.898 5   -410627.969 5   -302034.70346  23191108.71546
  22620575.492 6   -236485.281 6   -179695.01249  22620575.66449
  24264552.070 4  -1150524.250 4   -846671.82848  24264553.77748
 20  5 16  3 33 57.0000000  0  7G01G07G08G11G16G27G30               -0.000392414
  21617501.781 6  -1209643.063 6   -889942.02749  21617503.73049
  21719540.570 7  -1089884.176 7   -818564.95749  21719536.60949
  20846601.570 7   -445494.773 7   -328412.69949  20846601.30949
  20179733.109 6   -837507.754 6   -616040.06348  20179730.47348
  23190614.766 5   -413236.641 5   -304067.41846  23190612.57846
  22620289.484 6   -237988.172 6   -180866.10549  22620289.88349
  24263100.328 4  -1158149.949 4   -852613.93848  24263102.66048
 20  5 16  3 33 58.0000000  0  7G01G07G08G11G16G27G30               -0.000395107
  21616104.820 6  -1216983.434 6   -895661.79749  21616106.79349
  21718256.242 7  -1096632.875 7   -823823.69149  21718252.29349
  20846084.430 7   -448210.313 7   -330528.71149  20846084.93449
  20178769.492 6   -842572.332 6   -619986.48048  20178767.02748
  23190118.406 5   -415845.309 5   -306100.14546  23190115.93446
  22620003.570 6   -239491.121 6   -182037.23849  22620003.81349
  24261648.969 4  -1165775.648 4   -858556.04348  24261651.34048
 20  5 16  3 33 59.0000000  0  7G01G07G08G11G16G27G30               -0.000397797
  21614707.750 6  -1224323.613 6   -901381.41449  21614709.92649
  21716972.336 7  -1103381.359 7   -829082.25449  21716968.53949
  20845567.711 7   -450925.797 7   -332644.66849  20845568.16449
  20177805.758 6   -847636.500 6   -623932.59448  20177802.97748
  23189620.664 4   -418454.047 4   -308132.93446  23189619.44146
  22619717.781 6   -240994.250 6   -183208.50049  22619718.07849
  24260199.211 5  -1173401.402 5   -864498.17648  24260200.41848
 20  5 16  3 34  0.0000000  0  7G01G07G08G11G16G27G30               -0.000400490
  21613311.461 6  -1231663.477 6   -907100.78949  21613313.12549
  21715688.031 7  -1110129.496 7   -834340.53949  21715683.99249
  20845050.961 7   -453641.176 7   -334760.53949  20845051.70749
  20176842.266 6   -852700.199 6   -627878.34848  20176839.62548
  23189124.563 5   -421062.762 5   -310165.71546  23189123.07046
  22619431.453 6   -242497.430 6   -184379.80949  22619432.49649
  24258748.078 5  -1181027.023 5   -870440.21948  24258749.91448
 20  5 16  3 34  1.0000000  0  7G01G07G08G11G16G27G30               -0.000403179
  21611915.141 6  -1239002.977 6   -912819.87549  21611916.78949
  21714403.484 7  -1116877.250 7   -839598.53549  21714400.27349
  20844534.336 7   -456356.348 7   -336876.25449  20844534.38349
  20175879.133 6   -857763.391 6   -631823.69948  20175876.01248
  23188628.609 5   -423671.383 5   -312198.41446  23188626.35946
  22619145.438 6   -244000.656 6   -185551.15649  22619145.69549
  24257296.820 5  -1188652.621 5   -876382.26248  24257298.91448
 20  5 16  3 34  2.0000000  0  7G01G07G08G11G16G27G30               -0.000405874
  21610518.289 6  -1246342.258 6   -918538.79749  21610520.14549
  21713120.133 7  -1123624.770 7   -844856.34849  21713116.24249
  20844017.242 7   -459071.434 7   -338991.89149  20844017.83249
  20174915.555 6   -862826.137 6   -635768.69948  20174912.63348
  23188131.766 4   -426280.078 4   -314231.16846  23188129.70746
  22618859.438 6   -245504.008 6   -186722.59449  22618859.58249
  24255845.344 5  -1196278.164 5   -882324.25448  24255847.76248
 20  5 16  3 34  3.0000000  0  7G01G07G08G11G16G27G30               -0.000408562
  21609121.805 6  -1253681.270 6   -924257.50849  21609123.88749
  21711835.797 7  -1130371.957 7   -850113.87949  21711832.30549
  20843500.922 7   -461786.402 7   -341107.44149  20843501.39849
  20173952.266 6   -867888.434 6   -639713.35248  20173949.35548
  23187635.375 4   -428888.730 4   -316263.90646  23187633.74646
  22618573.359 6   -247007.418 6   -187894.06349  22618573.44949
  24254394.297 5  -1203903.707 5   -888266.23848  24254396.68048
 20  5 16  3 34  4.0000000  0  7G01G07G08G11G16G27G30               -0.000411257
  21607725.313 6  -1261020.137 6   -929976.11349  21607727.05549
  21710551.742 7  -1137118.980 7   -855371.29349  21710548.77749
  20842984.398 7   -464501.410 7   -343223.02049  20842984.45749
  20172989.383 6   -872950.426 6   -643657.75848  20172986.25048
  23187139.297 4   -431497.535 4   -318296.77046  23187136.83246
  22618287.445 6   -248511.070 6   -189065.73449  22618287.04749
  24252943.289 5  -1211529.332 5   -894208.27048  24252945.69548
 20  5 16  3 34  5.0000000  0  7G01G07G08G11G16G27G30               -0.000413946
  21606328.477 6  -1268358.754 6   -935694.51249  21606330.59449
  21709268.258 7  -1143865.672 7   -860628.45749  21709264.94949
  20842467.703 7   -467216.285 7   -345338.50849  20842468.17649
  20172025.633 6   -878011.918 6   -647601.77348  20172023.12948
  23186642.961 4   -434106.336 4   -320329.61346  23186640.73846
  22618001.273 6   -250014.762 6   -190237.44549  22618001.18049
  24251492.422 5  -1219154.902 5   -900150.24248  24251494.62948
 20  5 16  3 34  6.0000000  0  7G01G07G08G11G16G27G30               -0.000416641
  21604931.969 6  -1275696.980 6   -941412.60949  21604934.27049
  21707984.289 7  -1150612.004 7   -865885.35549  21707981.42249
  20841951.000 7   -469930.965 7   -347453.85549  20841951.39149
  20171062.742 6   -883072.883 6   -651545.38348  20171059.96148
  23186146.336 4   -436715.066 4   -322362.36746  23186144.33246
  22617714.711 6   -251518.492 6   -191409.18849  22617715.20749
  24250041.813 4  -1226780.344 4   -906092.10548  24250043.66448
 20  5 16  3 34  7.0000000  0  7G01G07G08G11G16G27G30               -0.000419329
  21603535.773 6  -1283034.973 6   -947130.52349  21603537.69949
  21706700.766 7  -1157358.016 7   -871142.00049  21706698.06649
  20841434.438 7   -472645.543 7   -349569.11749  20841434.91449
  20170099.930 6   -888133.406 6   -655488.64848  20170097.21548
  23185650.234 4   -439323.762 4   -324395.10946  23185647.98846
  22617429.086 6   -253022.328 6   -192581.00849  22617428.46149
  24248590.734 4  -1234405.770 4   -912033.98448  24248592.56348
 20  5 16  3 34  8.0000000  0  7G01G07G08G11G16G27G30               -0.000422024
  21602139.000 6  -1290372.688 6   -952848.21949  21602141.46549
  21705416.648 7  -1164103.754 7   -876398.42249  21705414.18849
  20840918.000 7   -475360.016 7   -351684.29349  20840918.49249
  20169136.867 6   -893193.500 6   -659431.57048  20169134.41048
  23185153.820 5   -441932.488 5   -326427.87546  23185151.46546
  22617142.578 6   -254526.246 6   -193752.89549  22617142.39149
  24247138.984 4  -1242031.195 4   -917975.87948  24247141.23848
 20  5 16  3 34  9.0000000  0  7G01G07G08G11G16G27G30               -0.000424713
  21600742.859 6  -1297710.227 6   -958565.77349  21600745.28549
  21704133.164 7  -1170849.281 7   -881654.68449  21704130.55949
  20840401.273 7   -478074.457 7   -353799.44549  20840401.64549
  20168173.414 6   -898253.219 6   -663374.21148  20168171.51248
  23184657.484 5   -444541.324 5   -328460.72346  23184655.14846
  22616855.875 6   -256030.355 6   -194924.93849  22616856.40649
  24245687.875 5  -1249656.660 5   -923917.80548  24245690.27348
 20  5 16  3 34 10.0000000  0  7G01G07G08G11G16G27G30               -0.000427408
  21599346.547 6  -1305047.430 6   -964283.07049  21599348.92249
  21702849.984 7  -1177594.434 7   -886910.65249  21702846.91449
  20839885.188 7   -480788.734 7   -355914.47349  20839885.18449
  20167211.422 6   -903312.410 6   -667316.43048  20167208.61748
  23184160.734 5   -447150.078 5   -330493.50046  23184159.10946
  22616570.039 6   -257534.508 6   -196097.02049  22616570.54349
  24244237.563 5  -1257282.008 5   -929859.62948  24244239.19948
 20  5 16  3 34 11.0000000  0  7G01G07G08G11G16G27G30               -0.000430098
  21597950.203 6  -1312384.383 6   -970000.17649  21597952.76249
  21701566.383 7  -1184339.328 7   -892166.40649  21701563.08249
  20839368.398 7   -483502.969 7   -358029.44949  20839368.95349
  20166248.375 6   -908371.195 6   -671258.34448  20166245.88348
  23183664.156 5   -449758.887 5   -332526.34846  23183662.25846
  22616284.070 6   -259038.777 6   -197269.17649  22616283.68849
  24242785.523 5  -1264907.395 5   -935801.52048  24242787.96948
 20  5 16  3 34 12.0000000  0  7G01G07G08G11G16G27G30               -0.000432793
  21596554.313 6  -1319721.063 6   -975717.07049  21596556.57849
  21700282.945 7  -1191083.910 7   -897421.91449  21700279.99649
  20838852.281 7   -486217.098 7   -360144.35249  20838852.09049
  20165286.047 6   -913429.504 6   -675199.87948  20165283.35548
  23183167.891 4   -452367.680 4   -334559.17646  23183165.99646
  22615997.305 6   -260543.137 6   -198441.39549  22615997.75049
  24241335.164 5  -1272532.742 5   -941743.34848  24241337.09448
 20  5 16  3 34 13.0000000  0  7G01G07G08G11G16G27G30               -0.000435482
  21595158.477 6  -1327057.539 6   -981433.80549  21595160.08249
  21698999.633 7  -1197828.254 7   -902677.24249  21698996.46149
  20838335.227 7   -488931.152 7   -362259.19949  20838335.91049
  20164323.406 6   -918487.414 6   -679141.10248  20164320.93848
  23182671.078 4   -454976.535 4   -336592.07046  23182669.33646
  22615711.109 6   -262047.641 6   -199613.73449  22615711.74249
  24239883.734 4  -1280158.094 4   -947685.17248  24239886.00848
 20  5 16  3 34 14.0000000  0  7G01G07G08G11G16G27G30               -0.000438177
  21593762.172 6  -1334393.684 6   -987150.28149  21593764.35249
  21697715.969 7  -1204572.199 7   -907932.26649  21697713.22749
  20837819.234 7   -491645.035 7   -364373.90649  20837819.30549
  20163360.859 6   -923544.816 6   -683081.93848  20163358.69148
  23182174.805 4   -457585.324 4   -338624.91446  23182172.59046
  22615424.906 6   -263552.164 6   -200786.09049  22615424.67249
  24238432.758 5  -1287783.352 5   -953626.92648  24238434.89148
 20  5 16  3 34 15.0000000  0  7G01G07G08G11G16G27G30               -0.000440868
  21592365.992 6  -1341729.555 6   -992866.53949  21592368.39149
  21696432.922 7  -1211315.867 7   -913187.07449  21696430.21149
  20837302.617 7   -494358.813 7   -366488.53949  20837302.97749
  20162398.617 6   -928601.773 6   -687022.42648  20162396.24648
  23181678.508 4   -460194.133 4   -340657.75046  23181676.06346
  22615138.938 6   -265056.781 6   -201958.51649  22615138.77749
  24236981.797 5  -1295408.609 5   -959568.68048  24236983.92648
 20  5 16  3 34 16.0000000  0  7G01G07G08G11G16G27G30               -0.000443563
  21590970.492 6  -1349065.223 6   -998582.64149  21590972.44949
  21695149.539 7  -1218059.246 7   -918441.66449  21695146.84449
  20836786.383 7   -497072.496 7   -368603.10549  20836786.78549
  20161436.500 6   -933658.320 6   -690962.59848  20161434.19148
  23181181.703 4   -462802.973 4   -342690.60546  23181179.58646
  22614851.813 6   -266561.547 6   -203131.06349  22614852.38349
  24235530.742 5  -1303033.820 5   -965510.39148  24235532.92248
 20  5 16  3 34 17.0000000  0  7G01G07G08G11G16G27G30               -0.000446253
  21589574.336 6  -1356400.648 6  -1004298.55949  21589576.41449
  21693866.516 7  -1224802.324 7   -923696.01649  21693863.50849
  20836269.977 7   -499786.105 7   -370717.60949  20836270.24249
  20160474.469 6   -938714.480 6   -694902.46148  20160472.05548
  23180684.977 4   -465411.852 4   -344723.49646  23180683.32846
  22614565.383 6   -268066.375 6   -204303.66449  22614566.11749
  24234079.094 5  -1310658.949 5   -971452.04348  24234081.80548
 20  5 16  3 34 18.0000000  0  7G01G07G08G11G16G27G30               -0.000448950
  21588178.609 6  -1363735.867 6  -1010014.31349  21588180.19949
  21692583.727 7  -1231545.215 7   -928950.19149  21692580.18049
  20835753.563 7   -502499.676 7   -372832.09449  20835754.15249
  20159512.234 6   -943770.191 6   -698841.98448  20159510.08248
  23180188.195 4   -468020.727 4   -346756.33246  23180187.06646
  22614279.711 5   -269571.453 5   -205476.44549  22614280.39549
  24232627.773 4  -1318284.246 4   -977393.84048  24232630.50448
 20  5 16  3 34 19.0000000  0  7G01G07G08G11G16G27G30               -0.000451639
  21586783.125 6  -1371070.855 6  -1015729.89849  21586784.46949
  21691300.547 7  -1238287.871 7   -934204.20349  21691296.89549
  20835236.977 7   -505213.238 7   -374946.57049  20835237.86349
  20158550.555 6   -948825.543 6   -702781.22748  20158547.83648
  23179691.930 4   -470629.742 4   -348789.32446  23179690.38746
  22613993.492 5   -271076.648 5   -206649.32449  22613994.24249
  24231176.289 4  -1325909.543 4   -983335.62948  24231178.55148
 20  5 16  3 34 20.0000000  0  7G01G07G08G11G16G27G30               -0.000454334
  21585387.055 6  -1378405.566 6  -1021445.26249  21585389.05949
  21690017.219 7  -1245030.219 7   -939457.97349  21690014.10249
  20834720.836 7   -507926.680 7   -377060.93849  20834721.60249
  20157587.867 6   -953880.453 6   -706720.11748  20157585.59048
  23179195.500 4   -473238.750 4   -350822.31346  23179194.01246
  22613706.586 6   -272581.945 6   -207822.28149  22613707.58249
  24229725.625 4  -1333534.820 4   -989277.40648  24229727.44948
 20  5 16  3 34 21.0000000  0  7G01G07G08G11G16G27G30               -0.000457026
  21583991.188 6  -1385740.063 6  -1027160.45749  21583993.20749
  21688734.289 7  -1251772.305 7   -944711.54749  21688731.50849
  20834204.328 7   -510640.043 7   -379175.24249  20834204.97349
  20156626.602 6   -958934.906 6   -710658.64548  20156624.12948
  23178699.297 4   -475847.836 4   -352855.37946  23178697.49646
  22613419.766 6   -274087.375 6   -208995.34849  22613421.10549
  24228274.305 4  -1341160.098 4   -995219.18448  24228275.96148
 20  5 16  3 34 22.0000000  0  7G01G07G08G11G16G27G30               -0.000459721
  21582595.664 6  -1393074.258 6  -1032875.41049  21582597.96149
  21687451.203 6  -1258514.082 6   -949964.88349  21687448.36349
  20833688.172 7   -513353.293 7   -381289.46549  20833688.75049
  20155664.641 6   -963988.910 6   -714596.83248  20155661.91448
  23178202.727 4   -478456.855 4   -354888.38746  23178201.19946
  22613133.766 6   -275592.910 6   -210168.49249  22613134.69949
  24226823.375 4  -1348785.324 4  -1001160.91448  24226825.61348
 20  5 16  3 34 23.0000000  0  7G01G07G08G11G16G27G30               -0.000462412
  21581200.141 6  -1400408.262 6  -1038590.21149  21581201.88749
  21686168.445 7  -1265255.629 7   -955218.04349  21686165.41049
  20833171.773 7   -516066.512 7   -383403.65649  20833172.63349
  20154702.945 6   -969042.527 6   -718534.71548  20154700.27748
  23177706.602 3   -481065.945 3   -356921.45746  23177704.69546
  22612847.359 6   -277098.582 6   -211341.75049  22612848.31649
  24225372.063 4  -1356410.566 4  -1007102.66448  24225374.04348
 20  5 16  3 34 24.0000000  0  7G01G07G08G11G16G27G30               -0.000465107
  21579804.547 6  -1407741.945 6  -1044304.76249  21579806.25849
  21684885.531 6  -1271996.793 6   -960470.89849  21684882.38349
  20832655.461 7   -518779.547 7   -385517.70749  20832655.78149
  20153741.484 6   -974095.633 6   -722472.19948  20153739.21548
  23177209.805 3   -483675.020 3   -358954.50446  23177207.92246
  22612560.711 6   -278604.293 6   -212515.03149  22612561.59049
  24223921.305 4  -1364035.711 4  -1013044.33248  24223923.17248
 20  5 16  3 34 25.0000000  0  7G01G07G08G11G16G27G30               -0.000467798
  21578409.078 6  -1415075.371 6  -1050019.10949  21578410.75049
  21683602.602 6  -1278737.723 6   -965723.57449  21683600.28549
  20832139.297 7   -521492.551 7   -387631.73849  20832139.84849
  20152779.984 6   -979148.348 6   -726409.37948  20152777.35548
  23176713.070 4   -486284.145 4   -360987.59446  23176711.68446
  22612273.930 6   -280110.129 6   -213688.41849  22612274.79349
  24222470.617 4  -1371660.902 4  -1018986.04348  24222472.26248
 20  5 16  3 34 26.0000000  0  7G01G07G08G11G16G27G30               -0.000470495
  21577013.563 6  -1422408.555 6  -1055733.28949  21577015.28149
  21682320.164 6  -1285478.371 6   -970976.02049  21682317.26249
  20831622.891 7   -524205.465 7   -389745.69949  20831623.25449
  20151818.539 6   -984200.613 6   -730346.20748  20151815.69148
  23176216.648 4   -488893.277 4   -363020.67246  23176215.04346
  22611987.914 6   -281616.109 6   -214861.90649  22611988.67249
  24221019.844 4  -1379286.063 4  -1024927.72348  24221021.35248
 20  5 16  3 34 27.0000000  0  7G01G07G08G11G16G27G30               -0.000473137
  21575618.430 6  -1429741.535 6  -1061447.30549  21575619.92249
  21681037.742 7  -1292218.766 7   -976228.27349  21681034.58649
  20831106.984 7   -526918.336 7   -391859.62549  20831107.21549
  20150857.156 6   -989252.469 6   -734282.71948  20150854.83248
  23175719.852 4   -491502.438 4   -365053.78946  23175718.52746
  22611700.648 6   -283122.266 6   -216035.52749  22611701.32449
  24219567.727 4  -1386911.230 4  -1030869.41848  24219570.01248
 20  5 16  3 34 28.0000000  0  7G01G07G08G11G16G27G30               -0.000475882
  21574222.789 6  -1437074.316 6  -1067161.15649  21574224.30149
  21679754.742 7  -1298958.934 7   -981480.35249  21679751.67249
  20830590.719 7   -529631.152 7   -393973.51249  20830591.19949
  20149896.141 6   -994303.980 6   -738218.96948  20149893.19948
  23175224.094 4   -494111.707 4   -367086.98446  23175222.24246
  22611414.156 6   -284628.527 6   -217209.23449  22611414.90249
  24218116.930 4  -1394536.457 4  -1036811.14548  24218119.12548
 20  5 16  3 34 29.0000000  0  7G01G07G08G11G16G27G30               -0.000478573
  21572827.641 6  -1444406.871 6  -1072874.83649  21572829.13349
  21678472.391 7  -1305698.832 7   -986732.21949  21678469.44149
  20830074.492 7   -532343.902 7   -396087.34049  20830074.98049
  20148934.922 6   -999355.059 6   -742154.87148  20148931.87948
  23174727.234 3   -496721.020 3   -369120.22746  23174726.04746
  22611127.773 6   -286134.949 6   -218383.07849  22611128.85549
  24216666.063 4  -1402161.703 4  -1042752.88748  24216667.95748
 20  5 16  3 34 30.0000000  0  7G01G07G08G11G16G27G30               -0.000481270
  21571432.398 6  -1451739.145 6  -1078588.29749  21571434.20749
  21677190.055 7  -1312438.441 7   -991983.85949  21677186.89149
  20829558.328 7   -535056.551 7   -398201.08649  20829558.85249
  20147973.508 6  -1004405.695 6   -746090.42648  20147971.35948
  23174231.023 4   -499330.324 4   -371153.45346  23174228.73046
  22610840.984 6   -287641.469 6   -219556.98449  22610841.61749
  24215215.367 4  -1409786.871 4  -1048694.56648  24215216.87148
 20  5 16  3 34 31.0000000  0  7G01G07G08G11G16G27G30               -0.000483961
  21570036.758 6  -1459071.117 6  -1084301.52349  21570039.03549
  21675907.289 6  -1319177.750 6   -997235.27049  21675904.56349
  20829042.078 7   -537769.094 7   -400314.75849  20829042.36349
  20147012.398 6  -1009455.863 6   -750025.62948  20147009.99248
  23173734.133 4   -501939.656 4   -373186.71146  23173732.59846
  22610554.391 6   -289148.086 6   -220730.97749  22610555.05949
  24213764.414 4  -1417412.055 4  -1054636.27748  24213765.78148
 20  5 16  3 34 32.0000000  0  7G01G07G08G11G16G27G30               -0.000486658
  21568641.648 6  -1466402.914 6  -1090014.60549  21568643.81649
  21674624.914 7  -1325916.777 7  -1002486.46149  21674622.26649
  20828525.844 7   -540481.559 7   -402428.36349  20828525.96949
  20146051.563 6  -1014505.609 6   -753960.49248  20146049.06648
  23173237.563 4   -504548.980 4   -375219.95346  23173235.66446
  22610267.578 6   -290654.816 6   -221905.05549  22610268.35249
  24212313.641 4  -1425037.246 4  -1060577.97748  24212315.11748
 20  5 16  3 34 33.0000000  0  7G01G07G08G11G16G27G30               -0.000489294
  21567246.539 6  -1473734.258 6  -1095727.34449  21567248.85549
  21673342.609 7  -1332655.391 7  -1007737.32849  21673339.70349
  20828009.430 7   -543193.805 7   -404541.80549  20828010.14849
  20145090.883 6  -1019554.801 6   -757894.92648  20145088.33648
  23172740.875 4   -507158.246 4   -377253.14546  23172739.21546
  22609981.867 6   -292161.504 6   -223079.09849  22609981.80549
  24210862.195 4  -1432662.238 4  -1066519.52748  24210864.02748
 20  5 16  3 34 34.0000000  0  7G01G07G08G11G16G27G30               -0.000492044
  21565851.602 6  -1481065.445 6  -1101439.95749  21565854.02049
  21672060.273 7  -1339393.781 7  -1012988.03149  21672057.68449
  20827493.648 7   -545906.035 7   -406655.23049  20827494.06649
  20144130.281 6  -1024603.598 6   -761829.05948  20144127.62148
  23172244.594 4   -509767.559 4   -379286.37146  23172242.79346
  22609694.242 6   -293668.414 6   -224253.30949  22609694.87549
  24209411.336 4  -1440287.285 4  -1072461.12148  24209412.56648
 20  5 16  3 34 35.0000000  0  7G01G07G08G11G16G27G30               -0.000494738
  21564456.148 6  -1488396.344 6  -1107152.33249  21564458.47749
  21670778.063 7  -1346131.867 7  -1018238.48049  21670775.13349
  20826977.117 7   -548618.129 7   -408768.55149  20826977.37149
  20143169.539 6  -1029651.941 6   -765762.83248  20143167.07448
  23171747.898 4   -512376.836 4   -381319.57446  23171746.11346
  22609407.570 6   -295175.395 6   -225427.58249  22609408.21549
  24207960.234 4  -1447912.309 4  -1078402.70348  24207961.77048
 20  5 16  3 34 36.0000000  0  7G01G07G08G11G16G27G30               -0.000497435
  21563061.578 6  -1495726.906 6  -1112864.45749  21563063.65649
  21669495.992 7  -1352869.578 7  -1023488.64549  21669493.39849
  20826461.523 7   -551330.074 7   -410881.75449  20826461.95749
  20142208.742 6  -1034699.770 6   -769696.21148  20142206.29748
  23171252.148 4   -514986.113 4   -383352.77346  23171250.17246
  22609120.508 6   -296682.434 6   -226601.89549  22609120.95749
  24206509.766 4  -1455537.230 4  -1084344.20348  24206510.99648
 20  5 16  3 34 37.0000000  0  7G01G07G08G11G16G27G30               -0.000500126
  21561666.805 6  -1503057.309 6  -1118576.46949  21561668.92649
  21668213.789 7  -1359607.082 7  -1028738.63749  21668211.01649
  20825945.555 7   -554041.984 7   -412994.93449  20825945.84849
  20141248.102 6  -1039747.234 6   -773629.28948  20141245.84448
  23170755.094 4   -517595.434 4   -385386.01646  23170753.21946
  22608833.609 6   -298189.598 6   -227776.31349  22608834.11349
  24205058.211 4  -1463162.211 4  -1090285.75448  24205060.18448
 20  5 16  3 34 37.9990000  0  7G01G07G08G11G16G27G30                0.000497179
  21560273.394 6  -1510379.977 6  -1124282.44149  21560275.53449
  21666933.120 7  -1366337.465 7  -1033983.09449  21666930.48049
  20825429.683 7   -556751.008 7   -415105.85949  20825430.37449
  20140288.792 6  -1044789.105 6   -777558.02748  20140286.55448
  23170259.144 4   -520202.113 4   -387417.19946  23170257.26146
  22608547.433 6   -299695.293 6   -228949.59049  22608547.89049
  24203609.456 4  -1470779.449 4  -1096221.27048  24203610.50748
 20  5 16  3 34 38.9990000  0  7G01G07G08G11G16G27G30                0.000494486
  21558877.987 6  -1517709.676 6  -1129993.89849  21558880.36649
  21665651.011 7  -1373074.211 7  -1039232.50849  21665648.50749
  20824913.683 7   -559462.590 7   -417218.77749  20824913.73349
  20139328.409 6  -1049835.512 6   -781490.28948  20139325.52648
  23169762.659 4   -522811.344 4   -389450.36746  23169760.96846
  22608260.448 6   -301202.539 6   -230124.06649  22608261.26949
  24202158.362 4  -1478404.195 4  -1102162.62548  24202159.55848
 20  5 16  3 34 39.9990000  0  7G01G07G08G11G16G27G30                0.000491789
  21557483.440 6  -1525038.918 6  -1135705.00049  21557485.67149
  21664369.206 7  -1379810.500 7  -1044481.56349  21664367.00349
  20824398.011 7   -562173.883 7   -419331.47349  20824398.40549
  20138368.651 6  -1054881.301 6   -785422.07448  20138365.92148
  23169266.136 4   -525420.355 4   -391483.36746  23169264.23046
  22607973.901 6   -302709.715 6   -231298.49249  22607974.44049
  24200707.073 4  -1486028.746 4  -1108103.82848  24200708.80448
 20  5 16  3 34 40.9990000  0  7G01G07G08G11G16G27G30                0.000489098
  21556088.737 6  -1532367.887 6  -1141415.87949  21556091.12449
  21663087.237 7  -1386546.449 7  -1049730.35249  21663084.64749
  20823881.815 7   -564885.047 7   -421444.06649  20823882.51949
  20137408.058 6  -1059926.641 6   -789353.50848  20137405.84748
  23168769.683 4   -528029.398 4   -393516.37946  23168768.22646
  22607686.667 6   -304216.953 6   -232472.96149  22607687.13649
  24199255.894 4  -1493653.258 4  -1114045.00448  24199257.96448
 20  5 16  3 34 41.9990000  0  7G01G07G08G11G16G27G30                0.000486401
  21554694.542 6  -1539696.590 6  -1147126.55949  21554696.75749
  21661805.823 6  -1393282.109 6  -1054978.92249  21661802.76949
  20823365.933 7   -567596.105 7   -423556.58249  20823366.23349
  20136448.120 6  -1064971.527 6   -793284.59448  20136445.84748
  23168272.651 5   -530638.418 5   -395549.39146  23168271.42546
  22607399.855 6   -305724.332 6   -233647.54349  22607400.65149
  24197804.675 4  -1501277.719 4  -1119986.14848  24197807.02648
 20  5 16  3 34 42.9990000  0  7G01G07G08G11G16G27G30                0.000483707
  21553299.472 6  -1547025.215 6  -1152837.16849  21553302.10549
  21660524.050 7  -1400017.699 7  -1060227.43449  21660520.95249
  20822849.847 7   -570307.289 7   -425669.19549  20822850.48749
  20135488.347 6  -1070016.184 6   -797215.48848  20135485.48348
  23167776.347 4   -533247.672 4   -397582.58647  23167775.58147
  22607113.198 6   -307231.992 6   -234822.34449  22607113.58949
  24196354.933 4  -1508902.398 4  -1125927.45748  24196356.10848
 20  5 16  3 34 43.9990000  0  7G01G07G08G11G16G27G30                0.000481010
  21551905.378 6  -1554353.492 6  -1158547.51249  21551907.37849
  21659242.167 7  -1406752.879 7  -1065475.62549  21659239.43349
  20822334.198 7   -573018.293 7   -427781.66049  20822334.79249
  20134528.714 6  -1075060.309 6   -801145.97748  20134525.94848
  23167279.792 4   -535856.867 4   -399615.72346  23167278.74146
  22606826.815 6   -308739.703 6   -235997.18849  22606827.02249
  24194903.526 4  -1516526.969 4  -1131868.68048  24194905.23048
 20  5 16  3 34 44.9990000  0  7G01G07G08G11G16G27G30                0.000478319
  21550510.886 6  -1561681.355 6  -1164257.54349  21550513.12049
  21657960.495 7  -1413487.633 7  -1070723.48849  21657957.67149
  20821818.089 7   -575729.023 7   -429893.91849  20821818.55449
  20133568.644 6  -1080103.797 6   -805075.95748  20133566.09748
  23166783.636 4   -538465.910 4   -401648.74646  23166782.28846
  22606539.308 6   -310247.336 6   -237171.96949  22606539.86249
  24193452.776 4  -1524151.324 4  -1137809.73848  24193454.08548
 20  5 16  3 34 45.9990000  0  7G01G07G08G11G16G27G30                0.000475620
  21549116.448 6  -1569008.926 6  -1169967.33649  21549118.50349
  21656678.878 7  -1420222.043 7  -1075971.08249  21656676.42949
  20821302.300 7   -578439.645 7   -432006.09049  20821303.09349
  20132609.058 6  -1085146.824 6   -809005.59848  20132606.57748
  23166287.058 4   -541074.938 4   -403681.75046  23166286.20246
  22606252.956 6   -311755.035 6   -238346.80149  22606253.19049
  24192002.042 4  -1531775.621 4  -1143750.73848  24192003.14448
 20  5 16  3 34 46.9990000  0  7G01G07G08G11G16G27G30                0.000472929
  21547722.065 6  -1576336.133 6  -1175676.84449  21547724.43749
  21655397.690 6  -1426956.051 6  -1081218.36749  21655394.97649
  20820786.776 7   -581150.055 7   -434118.10249  20820787.14049
  20131649.409 6  -1090189.313 6   -812934.80548  20131646.67548
  23165790.300 4   -543683.863 4   -405714.67646  23165789.25346
  22605965.159 6   -313262.766 6   -239521.65649  22605965.77249
  24190550.784 4  -1539399.816 4  -1149691.66848  24190552.58148
 20  5 16  3 34 47.9990000  0  7G01G07G08G11G16G27G30                0.000470232
  21546327.808 6  -1583663.078 6  -1181386.16049  21546329.93749
  21654116.159 6  -1433689.789 6  -1086465.42649  21654113.40549
  20820270.808 7   -583860.414 7   -436230.06649  20820271.06249
  20130689.972 6  -1095231.383 6   -816863.69148  20130687.44048
  23165294.019 4   -546292.805 4   -407747.61747  23165293.11247
  22605678.480 6   -314770.559 6   -240696.55549  22605679.27649
  24189099.823 4  -1547024.012 4  -1155632.59048  24189101.56548
 20  5 16  3 34 48.9990000  0  7G01G07G08G11G16G27G30                0.000467539
  21544933.878 6  -1590989.758 6  -1187095.26249  21544935.87449
  21652835.050 7  -1440423.207 7  -1091712.25049  21652832.04249
  20819755.097 6   -586570.652 6   -438341.94149  20819755.56549
  20129730.511 6  -1100272.961 6   -820792.19548  20129728.12448
  23164797.534 5   -548901.758 5   -409780.56647  23164796.39747
  22605391.714 6   -316278.508 6   -241871.58249  22605392.24549
  24187649.019 4  -1554648.102 4  -1161573.43448  24187651.20248
 20  5 16  3 34 49.9990000  0  7G01G07G08G11G16G27G30                0.000464840
  21543539.487 6  -1598316.145 6  -1192804.12949  21543541.66749
  21651553.581 7  -1447156.328 7  -1096958.83649  21651551.03449
  20819239.417 7   -589280.813 7   -440453.75849  20819240.07349
  20128771.440 6  -1105314.129 6   -824720.38348  20128768.22648
  23164301.011 5   -551510.727 5   -411813.53146  23164300.00746
  22605104.870 6   -317786.504 6   -243046.64149  22605105.37849
  24186198.355 4  -1562272.227 4  -1167514.31348  24186199.73348
 20  5 16  3 34 50.9990000  0  7G01G07G08G11G16G27G30                0.000462149
  21542145.167 6  -1605642.238 6  -1198512.77349  21542147.43349
  21650272.081 6  -1453889.098 6  -1102205.14549  21650269.91749
  20818723.761 7   -591990.777 7   -442565.41849  20818724.12049
  20127812.237 6  -1110354.754 6   -828648.13748  20127809.68748
  23163804.620 5   -554119.617 5   -413846.43447  23163803.82747
  22604817.425 6   -319294.602 6   -244221.78149  22604817.95249
  24184747.144 4  -1569896.203 4  -1173455.07448  24184749.03848
 20  5 16  3 34 51.9990000  0  7G01G07G08G11G16G27G30                0.000459450
  21540751.511 6  -1612968.023 6  -1204221.17249  21540753.50749
  21648991.112 7  -1460621.563 7  -1107451.21949  21648988.63649
  20818207.776 7   -594700.680 7   -444677.03549  20818208.36249
  20126853.042 6  -1115394.941 6   -832575.55548  20126850.31948
  23163307.894 5   -556728.523 5   -415879.35546  23163307.04646
  22604530.925 6   -320802.773 6   -245396.98849  22604531.37449
  24183296.456 4  -1577520.215 4  -1179395.85948  24183298.65548
 20  5 16  3 34 52.9990000  0  7G01G07G08G11G16G27G30                0.000456758
  21539357.409 6  -1620293.488 6  -1209929.32449  21539359.55849
  21647709.503 7  -1467353.641 7  -1112696.99649  21647707.43349
  20817692.245 7   -597410.398 7   -446788.50049  20817692.95649
  20125893.980 6  -1120434.598 6   -836502.56348  20125891.42548
  23162811.534 5   -559337.387 5   -417912.24246  23162810.90546
  22604243.933 6   -322310.938 6   -246572.18049  22604244.57349
  24181845.487 4  -1585144.074 4  -1185336.51648  24181847.41348
 20  5 16  3 34 53.9990000  0  7G01G07G08G11G16G27G30                0.000454060
  21537963.565 6  -1627618.598 6  -1215637.19949  21537965.45249
  21646428.792 7  -1474085.363 7  -1117942.49649  21646426.56949
  20817176.487 7   -600119.953 7   -448899.84049  20817177.33149
  20124935.144 6  -1125473.738 6   -840429.16848  20124932.56948
  23162315.105 5   -561946.172 5   -419945.06347  23162314.42147
  22603956.784 6   -323819.195 6   -247747.44549  22603957.23049
  24180394.855 4  -1592767.863 4  -1191277.12948  24180396.83948
 20  5 16  3 34 54.9990000  0  7G01G07G08G11G16G27G30                0.000451366
  21536569.901 6  -1634943.414 6  -1221344.84849  21536572.12049
  21645147.698 7  -1480816.734 7  -1123187.71949  21645145.40549
  20816660.940 7   -602829.398 7   -451011.09849  20816661.44849
  20123976.175 6  -1130512.402 6   -844355.40248  20123973.25348
  23161818.940 5   -564554.926 5   -421977.85247  23161817.94847
  22603669.300 6   -325327.473 6   -248922.72749  22603670.58949
  24178943.987 4  -1600391.543 4  -1197217.64848  24178945.96448
 20  5 16  3 34 55.9990000  0  7G01G07G08G11G16G27G30                0.000448669
  21535175.776 6  -1642268.016 6  -1227052.32849  21535177.89049
  21643867.230 7  -1487547.898 7  -1128432.77749  21643864.41349
  20816145.480 7   -605538.793 7   -453122.31349  20816146.21849
  20123017.550 6  -1135550.688 6   -848281.33648  20123014.58548
  23161322.112 5   -567163.762 5   -424010.71147  23161321.19047
  22603382.698 6   -326835.949 6   -250098.17249  22603383.23749
  24177494.019 4  -1608015.293 4  -1203158.22748  24177495.55848
 20  5 16  3 34 56.9990000  0  7G01G07G08G11G16G27G30                0.000445976
  21533781.784 6  -1649592.328 6  -1232759.58249  21533784.32349
  21642586.323 7  -1494278.707 7  -1133677.56649  21642583.70249
  20815629.605 7   -608248.031 7   -455233.40649  20815630.67949
  20122058.722 6  -1140588.488 6   -852206.89848  20122055.97248
  23160825.948 5   -569772.547 5   -426043.53546  23160825.09346
  22603095.339 6   -328344.457 6   -251273.63749  22603096.19849
  24176043.237 4  -1615638.941 4  -1209098.73048  24176044.80848
 20  5 16  3 34 57.9990000  0  7G01G07G08G11G16G27G30                0.000443277
  21532388.448 6  -1656916.340 6  -1238466.60949  21532390.79649
  21641305.331 7  -1501009.188 7  -1138922.10549  21641302.58149
  20815114.339 7   -610957.145 7   -457344.40249  20815114.90949
  20121100.292 6  -1145625.805 6   -856132.08248  20121097.66348
  23160329.237 5   -572381.332 5   -428076.35946  23160328.64446
  22602808.480 6   -329853.063 6   -252449.17249  22602809.05449
  24174592.120 4  -1623262.578 4  -1215039.23048  24174593.81248
 20  5 16  3 34 58.9990000  0  7G01G07G08G11G16G27G30                0.000440584
  21530994.628 6  -1664240.074 6  -1244173.41449  21530996.69449
  21640024.620 7  -1507739.367 7  -1144166.40249  21640021.67949
  20814599.167 7   -613666.156 7   -459455.31649  20814599.52249
  20120141.730 6  -1150662.676 6   -860056.91848  20120138.81548
  23159833.792 5   -574990.102 5   -430109.16446  23159832.26546
  22602521.378 6   -331361.789 6   -253624.79749  22602522.05449
  24173141.737 4  -1630886.148 4  -1220979.67648  24173143.38648
 20  5 16  3 34 59.9990000  0  7G01G07G08G11G16G27G30                0.000437885
  21529601.011 6  -1671563.566 6  -1249880.03149  21529603.36649
  21638743.909 6  -1514469.273 6  -1149410.48849  21638741.29249
  20814083.159 7   -616375.082 7   -461566.17249  20814083.98749
  20119183.987 6  -1155699.121 6   -863981.41448  20119180.59748
  23159337.136 5   -577598.934 5   -432142.02747  23159336.03447
  22602233.730 6   -332870.594 6   -254800.49249  22602234.88649
  24171691.144 4  -1638509.730 4  -1226920.14148  24171693.06948
 20  5 16  3 35  0.9990000  0  7G01G07G08G11G16G27G30                0.000435192
  21528207.276 6  -1678886.820 6  -1255586.46149  21528209.86249
  21637463.401 6  -1521198.926 6  -1154654.37149  21637460.59349
  20813567.800 7   -619083.945 7   -463676.97749  20813568.54249
  20118225.276 6  -1160735.172 6   -867905.60548  20118222.17948
  23158840.128 5   -580207.797 5   -434174.90646  23158839.28046
  22601947.323 5   -334379.570 5   -255976.30949  22601947.84749
  24170240.183 4  -1646133.340 4  -1232860.61748  24170242.06248
 20  5 16  3 35  1.9990000  0  7G01G07G08G11G16G27G30                0.000432495
  21526813.683 6  -1686209.879 6  -1261292.74249  21526816.22249
  21636182.855 6  -1527928.344 6  -1159898.07849  21636179.66749
  20813052.495 7   -621792.762 7   -465787.74249  20813053.07349
  20117266.987 6  -1165770.816 6   -871829.48448  20117264.26948
  23158343.894 5   -582816.730 5   -436207.84846  23158342.78046
  22601659.987 6   -335888.715 6   -257152.26649  22601660.84749
  24168789.909 4  -1653756.949 4  -1238801.09448  24168791.27248
 20  5 16  3 35  2.9990000  0  7G01G07G08G11G16G27G30                0.000429800
  21525420.425 6  -1693532.574 6  -1266998.73849  21525422.95649
  21634902.042 6  -1534657.391 6  -1165141.48849  21634899.43349
  20812537.065 7   -624501.430 7   -467898.39549  20812537.59749
  20116308.589 6  -1170805.945 6   -875752.96148  20116305.84748
  23157847.300 4   -585425.609 4   -438240.74247  23157846.62047
  22601372.058 6   -337397.891 6   -258328.24649  22601372.87049
  24167338.401 4  -1661380.445 4  -1244741.47748  24167340.24948
 20  5 16  3 35  3.9990000  0  7G01G07G08G11G16G27G30                0.000427103
  21524026.417 6  -1700855.121 6  -1272704.61749  21524029.33549
  21633621.636 6  -1541386.242 6  -1170384.74649  21633618.74549
  20812021.472 7   -627210.113 7   -470009.05149  20812022.28849
  20115350.612 6  -1175840.734 6   -879676.17248  20115347.62048
  23157350.730 4   -588034.590 4   -440273.71947  23157350.13647
  22601085.690 6   -338907.234 6   -259504.36349  22601086.17149
  24165887.917 4  -1669004.012 4  -1250681.91448  24165889.60848
 20  5 16  3 35  4.9990000  0  7G01G07G08G11G16G27G30                0.000424408
  21522633.597 6  -1708177.277 6  -1278410.20349  21522636.12449
  21632341.331 6  -1548114.684 6  -1175627.69149  21632338.70249
  20811506.386 7   -629918.566 7   -472119.53549  20811506.86649
  20114392.675 6  -1180874.961 6   -883598.94948  20114390.00348
  23156854.370 4   -590643.457 4   -442306.60247  23156853.42547
  22600798.167 6   -340416.609 6   -260680.49649  22600799.11249
  24164437.565 4  -1676627.453 4  -1256622.26248  24164439.06248
 20  5 16  3 35  5.9990000  0  7G01G07G08G11G16G27G30                0.000421709
  21521240.440 6  -1715499.199 6  -1284115.59049  21521242.49549
  21631061.042 6  -1554842.848 6  -1180870.41449  21631058.30849
  20810990.644 7   -632626.973 7   -474229.98049  20810991.20649
  20113434.698 6  -1185908.773 6   -887521.40248  20113431.93348
  23156357.855 4   -593252.359 4   -444339.51646  23156356.91346
  22600510.097 5   -341926.133 5   -261856.75449  22600511.61249
  24162986.433 4  -1684250.898 4  -1262562.60548  24162988.01148
 20  5 16  3 35  6.9990000  0  7G01G07G08G11G16G27G30                0.000419016
  21519846.667 6  -1722820.813 6  -1289820.74249  21519849.30049
  21629780.706 6  -1561570.664 6  -1186112.86749  21629777.71049
  20810475.026 7   -635335.203 7   -476340.28949  20810475.81549
  20112477.597 6  -1190942.082 6   -891443.46548  20112474.26948
  23155861.503 4   -595861.246 4   -446372.42246  23155860.47646
  22600223.690 5   -343435.668 5   -263033.02049  22600224.31249
  24161536.167 5  -1691874.258 5  -1268502.88348  24161537.04648
 20  5 16  3 35  7.9990000  0  7G01G07G08G11G16G27G30                0.000416317
  21518453.519 6  -1730142.105 6  -1295525.64549  21518456.24949
  21628500.417 6  -1568298.176 6  -1191355.08649  21628497.80849
  20809960.323 7   -638043.363 7   -478450.54349  20809960.59749
  20111519.300 6  -1195974.938 6   -895365.16848  20111516.43748
  23155365.464 5   -598470.125 5   -448405.31646  23155364.16346
  22599936.284 5   -344945.285 5   -264209.34449  22599937.00349
  24160085.855 4  -1699497.543 4  -1274443.09848  24160086.97248
 20  5 16  3 35  8.9990000  0  7G01G07G08G11G16G27G30                0.000413624
  21517060.620 6  -1737463.109 6  -1301230.32049  21517062.48049
  21627220.417 6  -1575025.313 6  -1196597.01249  21627217.27249
  20809444.636 7   -640751.344 7   -480560.66049  20809445.38249
  20110561.776 6  -1201007.277 6   -899286.46948  20110559.06248
  23154869.089 5   -601078.961 5   -450438.17246  23154867.30846
  22599649.284 6   -346454.977 6   -265385.72749  22599650.13649
  24158635.144 5  -1707120.762 5  -1280383.26248  24158636.45648
 20  5 16  3 35  9.9990000  0  7G01G07G08G11G16G27G30                0.000410925
  21515667.565 6  -1744783.945 6  -1306934.86749  21515670.19049
  21625940.308 6  -1581752.285 6  -1201838.80949  21625937.22649
  20808929.128 7   -643459.355 7   -482670.80149  20808929.89449
  20109604.558 6  -1206039.301 6   -903207.53148  20109601.08548
  23154371.855 4   -603687.910 4   -452471.12146  23154370.90946
  22599361.214 6   -347964.910 6   -266562.30549  22599362.23349
  24157183.987 5  -1714744.070 5  -1286323.48848  24157185.69848
 20  5 16  3 35 10.9990000  0  7G01G07G08G11G16G27G30                0.000408230
  21514274.573 6  -1752104.465 6  -1312639.16449  21514276.60149
  21624660.112 6  -1588478.926 6  -1207080.34449  21624657.22649
  20808414.112 7   -646167.266 7   -484780.85949  20808415.01149
  20108647.183 6  -1211070.836 6   -907128.20748  20108643.51548
  23153875.409 4   -606296.789 4   -454504.00846  23153874.42146
  22599074.323 5   -349474.875 5   -267738.90249  22599075.12049
  24155733.495 5  -1722367.328 5  -1292263.69148  24155735.33948
 20  5 16  3 35 11.9990000  0  7G01G07G08G11G16G27G30                0.000405531
  21512881.253 6  -1759424.656 6  -1318343.21149  21512883.82749
  21623380.347 6  -1595205.141 6  -1212321.55149  21623377.39049
  20807898.472 7   -648874.965 7   -486890.75849  20807899.35849
  20107689.362 6  -1216101.836 6   -911048.46148  20107686.46048
  23153379.761 4   -608905.660 4   -456536.89846  23153377.95246
  22598787.347 5   -350984.863 5   -268915.52049  22598787.63649
  24154282.245 5  -1729990.480 5  -1298203.80948  24154284.58548
 20  5 16  3 35 12.9990000  0  7G01G07G08G11G16G27G30                0.000402836
  21511488.737 6  -1766744.613 6  -1324047.07449  21511490.76549
  21622100.355 6  -1601931.137 6  -1217562.59049  21622097.26549
  20807383.933 7   -651582.613 7   -489000.60949  20807384.20649
  20106731.667 7  -1221132.438 7   -914968.41048  20106729.30048
  23152883.097 4   -611514.555 4   -458569.80946  23152881.49546
  22598499.401 6   -352495.012 6   -270092.26249  22598500.13249
  24152832.784 5  -1737613.637 5  -1304143.93448  24152833.75748
 20  5 16  3 35 13.9990000  0  7G01G07G08G11G16G27G30                0.000400137
  21510095.433 6  -1774064.129 6  -1329750.59449  21510098.03049
  21620820.425 6  -1608656.660 6  -1222803.25849  21620817.34349
  20806868.347 7   -654290.012 7   -491110.27349  20806869.20649
  20105774.855 7  -1226162.418 7   -918887.87148  20105771.89048
  23152386.206 5   -614123.293 5   -460602.59046  23152385.09746
  22598212.440 5   -354005.113 5   -271268.96549  22598213.04649
  24151381.800 4  -1745236.547 4  -1310083.87148  24151383.87848
 20  5 16  3 35 14.9990000  0  7G01G07G08G11G16G27G30                0.000397444
  21508702.862 6  -1781383.359 6  -1335453.89149  21508705.39449
  21619540.456 6  -1615381.883 6  -1228043.69149  21619538.02249
  20806353.136 7   -656997.316 7   -493219.86349  20806353.31949
  20104817.917 7  -1231191.953 7   -922806.99248  20104814.99148
  23151890.605 5   -616732.016 5   -462635.36346  23151888.58146
  22597924.784 5   -355515.285 5   -272445.72349  22597925.67949
  24149931.089 5  -1752859.492 5  -1316023.83648  24149933.04248
 20  5 16  3 35 15.9990000  0  7G01G07G08G11G16G27G30                0.000394743
  21507310.151 6  -1788702.246 6  -1341156.91449  21507312.11249
  21618261.144 6  -1622106.707 6  -1233283.81649  21618257.97649
  20805838.026 7   -659704.430 7   -495329.30149  20805838.31949
  20103860.784 6  -1236220.965 6   -926725.69948  20103857.95248
  23151393.901 5   -619340.672 5   -464668.07846  23151392.18746
  22597637.558 6   -357025.516 6   -273622.52349  22597638.33949
  24148480.386 4  -1760482.309 4  -1321963.69548  24148482.56548
 20  5 16  3 35 16.9990000  0  7G01G07G08G11G16G27G30                0.000392050
  21505917.378 6  -1796020.723 6  -1346859.62549  21505919.81249
  21616981.058 6  -1628831.105 6  -1238523.60949  21616978.46449
  20805322.847 7   -662411.309 7   -497438.56349  20805323.26149
  20102903.847 6  -1241249.375 6   -930643.94549  20102901.28849
  23150897.612 5   -621949.230 5   -466700.72346  23150895.84346
  22597350.105 6   -358535.676 6   -274799.27049  22597350.73049
  24147030.355 4  -1768104.922 4  -1327903.39848  24147032.20648
 20  5 16  3 35 17.9990000  0  7G01G07G08G11G16G27G30                0.000389349
  21504524.644 6  -1803338.898 6  -1352562.10249  21504527.08549
  21615701.823 6  -1635555.168 6  -1243763.13749  21615699.00349
  20804807.800 7   -665118.063 7   -499547.71949  20804808.74549
  20101947.339 6  -1246277.313 6   -934561.81348  20101944.58548
  23150400.675 4   -624557.734 4   -468733.32846  23150399.36246
  22597063.089 6   -360045.949 6   -275976.10549  22597063.08949
  24145579.386 4  -1775727.527 4  -1333843.08648  24145581.55848
 20  5 16  3 35 18.9990000  0  7G01G07G08G11G16G27G30                0.000386656
  21503132.237 6  -1810656.941 6  -1358264.46949  21503134.65149
  21614422.550 6  -1642279.035 6  -1249002.51249  21614419.55049
  20804292.690 7   -667824.793 7   -501656.86349  20804293.38249
  20100990.511 6  -1251304.914 6   -938479.42648  20100987.78448
  23149905.019 5   -627166.367 5   -470766.02746  23149903.11246
  22596775.315 5   -361556.387 5   -277153.07449  22596776.04249
  24144129.105 4  -1783350.188 4  -1339782.82048  24144131.21048
 20  5 16  3 35 19.9990000  0  7G01G07G08G11G16G27G30                0.000383955
  21501739.659 6  -1817974.656 6  -1363966.58649  21501741.91349
  21613142.823 6  -1649002.594 6  -1254241.65249  21613139.68349
  20803777.933 7   -670531.465 7   -503765.94949  20803778.43749
  20100033.980 6  -1256332.055 6   -942396.67649  20100031.40549
  23149408.511 5   -629775.008 5   -472798.73846  23149406.80046
  22596487.644 6   -363066.938 6   -278330.13349  22596488.35549
  24142677.995 5  -1790972.770 5  -1345722.50048  24142680.46448
 20  5 16  3 35 20.9990000  0  7G01G07G08G11G16G27G30                0.000381262
  21500346.761 6  -1825292.211 6  -1369668.57849  21500349.52649
  21611863.026 6  -1655725.930 6  -1259480.61749  21611860.43349
  20803262.792 7   -673238.098 7   -505875.02049  20803263.51149
  20099077.370 6  -1261358.820 6   -946313.64149  20099074.60549
  23148911.792 5   -632383.691 5   -474831.47746  23148910.17146
  22596200.300 6   -364577.688 6   -279507.34849  22596200.92149
  24141228.245 5  -1798595.438 5  -1351662.23848  24141230.13248
 20  5 16  3 35 21.9990000  0  7G01G07G08G11G16G27G30                0.000378561
  21498955.011 6  -1832609.395 6  -1375370.27349  21498957.46049
  21610584.323 6  -1662448.898 6  -1264719.30149  21610581.01949
  20802747.761 7   -675944.582 7   -507983.96549  20802748.38649
  20098121.003 6  -1266385.078 6   -950230.20349  20098117.99949
  23148415.440 5   -634992.379 5   -476864.23046  23148413.86246
  22595913.050 5   -366088.477 5   -280684.58249  22595913.68749
  24139777.386 4  -1806218.012 4  -1357601.90648  24139779.60848
 20  5 16  3 35 22.9990000  0  7G01G07G08G11G16G27G30                0.000375866
  21497562.167 6  -1839926.297 6  -1381071.75849  21497564.71049
  21609305.019 6  -1669171.563 6  -1269957.74249  21609302.19049
  20802232.683 7   -678650.934 7   -510092.81649  20802233.28049
  20097164.019 6  -1271410.871 6   -954146.39848  20097161.28448
  23147918.784 5   -637600.988 5   -478896.92246  23147917.32346
  22595625.065 6   -367599.328 6   -281861.86349  22595626.25749
  24138326.315 4  -1813840.484 4  -1363541.49648  24138329.06248
 20  5 16  3 35 23.9990000  0  7G01G07G08G11G16G27G30                0.000373167
  21496170.480 6  -1847242.867 6  -1386772.98449  21496172.70649
  21608025.886 6  -1675893.828 6  -1275195.87149  21608022.92149
  20801717.355 7   -681357.129 7   -512201.54349  20801718.46049
  20096208.089 6  -1276436.141 6   -958062.19549  20096205.46049
  23147422.730 5   -640209.582 5   -480929.60246  23147421.08146
  22595337.956 6   -369110.234 6   -283039.18849  22595338.65949
  24136876.112 4  -1821462.910 4  -1369481.04348  24136878.56248
 20  5 16  3 35 24.9990000  0  7G01G07G08G11G16G27G30                0.000370472
  21494777.808 6  -1854559.094 6  -1392473.94149  21494779.98349
  21606746.690 6  -1682615.738 6  -1280433.72349  21606743.90949
  20801202.565 7   -684063.180 7   -514310.15649  20801203.14049
  20095251.987 6  -1281460.910 6   -961977.60248  20095249.56248
  23146926.128 5   -642818.125 5   -482962.23046  23146924.76946
  22595050.534 6   -370621.156 6   -284216.53549  22595050.95649
  24135426.315 4  -1829085.180 4  -1375420.47748  24135428.42548
 20  5 16  3 35 25.9990000  0  7G01G07G08G11G16G27G30                0.000367771
  21493385.730 6  -1861875.051 6  -1398174.68849  21493388.45649
  21605467.253 6  -1689337.324 6  -1285671.32849  21605464.79249
  20800687.636 7   -686769.129 7   -516418.68449  20800688.43749
  20094295.565 6  -1286485.203 6   -965892.63748  20094293.28448
  23146429.901 5   -645426.652 5   -484994.84046  23146428.26546
  22594762.972 6   -372132.207 6   -285393.98049  22594763.21049
  24133974.940 4  -1836707.434 4  -1381359.89548  24133977.73348
 20  5 16  3 35 26.9990000  0  7G01G07G08G11G16G27G30                0.000365076
  21491993.753 6  -1869190.805 6  -1403875.26649  21491995.84749
  21604188.706 6  -1696058.730 6  -1290908.78549  21604185.72649
  20800172.714 7   -689475.063 7   -518527.20749  20800173.50749
  20093339.909 6  -1291509.145 6   -969807.39848  20093337.41748
  23145933.940 5   -648035.242 5   -487027.50446  23145931.67546
  22594475.472 6   -373643.441 6   -286571.56349  22594475.87049
  24132524.776 4  -1844329.754 4  -1387299.36748  24132526.58148
 20  5 16  3 35 27.9990000  0  7G01G07G08G11G16G27G30                0.000362377
  21490601.698 6  -1876506.227 6  -1409575.59049  21490603.84349
  21602909.526 6  -1702779.727 6  -1296145.92649  21602906.83549
  20799658.183 7   -692180.781 7   -520635.56349  20799658.68749
  20092383.628 6  -1296532.574 6   -973721.75448  20092381.23348
  23145436.526 5   -650643.824 5   -489060.16046  23145434.98046
  22594188.003 6   -375154.691 6   -287749.16449  22594187.95649
  24131074.519 4  -1851951.961 4  -1393238.74248  24131076.04248
 20  5 16  3 35 28.9990000  0  7G01G07G08G11G16G27G30                0.000359680
  21489209.862 6  -1883821.313 6  -1415275.65649  21489212.15949
  21601630.456 6  -1709500.359 6  -1301382.78149  21601627.80049
  20799143.144 7   -694886.379 7   -522743.81649  20799143.61249
  20091427.784 6  -1301555.473 6   -977635.71149  20091425.32749
  23144940.534 5   -653252.281 5   -491092.72746  23144938.78446
  22593900.409 5   -376665.996 5   -288926.80549  22593900.50349
  24129624.980 4  -1859574.090 4  -1399178.05948  24129625.36248
 20  5 16  3 35 29.9990000  0  7G01G07G08G11G16G27G30                0.000356981
  21487817.690 6  -1891136.070 6  -1420975.46549  21487819.94049
  21600351.815 6  -1716220.648 6  -1306619.37149  21600349.06249
  20798628.269 7   -697591.844 7   -524851.97349  20798629.14449
  20090472.042 6  -1306577.902 6   -981549.29349  20090469.74149
  23144444.456 5   -655860.758 5   -493125.30146  23144442.16746
  22593612.581 5   -378177.352 5   -290104.48449  22593613.26549
  24128174.050 4  -1867196.105 4  -1405117.29748  24128175.17148
 20  5 16  3 35 30.9990000  0  7G01G07G08G11G16G27G30                0.000354286
  21486425.894 6  -1898450.547 6  -1426675.05949  21486428.09349
  21599072.886 6  -1722940.609 6  -1311855.71149  21599070.15549
  20798113.745 7   -700297.188 7   -526960.03549  20798114.34349
  20089516.526 6  -1311599.844 6   -985462.48849  20089514.13249
  23143948.261 5   -658469.176 5   -495157.82846  23143945.69446
  22593324.675 5   -379688.781 5   -291282.21549  22593325.40549
  24126723.487 4  -1874818.059 4  -1411056.47348  24126724.90148
 20  5 16  3 35 31.9990000  0  7G01G07G08G11G16G27G30                0.000351585
  21485034.089 6  -1905764.719 6  -1432374.41449  21485036.19449
  21597794.331 6  -1729660.246 6  -1317091.78549  21597791.49549
  20797598.730 7   -703002.406 7   -529067.99249  20797599.56549
  20088560.737 6  -1316621.316 6   -989375.32449  20088558.77249
  23143451.612 5   -661077.590 5   -497190.36746  23143449.60146
  22593037.136 5   -381200.301 5   -292460.02349  22593037.62049
  24125272.847 4  -1882439.961 4  -1416995.60948  24125274.74948
 20  5 16  3 35 32.9990000  0  7G01G07G08G11G16G27G30                0.000348890
  21483642.409 6  -1913078.578 6  -1438073.52049  21483644.53449
  21596515.956 6  -1736379.551 6  -1322327.60949  21596513.18349
  20797084.112 7   -705707.500 7   -531175.85949  20797085.12849
  20087605.636 6  -1321642.305 6   -993287.78148  20087603.25748
  23142955.269 5   -663685.988 5   -499222.89546  23142952.89046
  22592749.901 5   -382711.918 5   -293637.91049  22592750.03849
  24123822.175 4  -1890061.824 4  -1422934.71548  24123824.28848
 20  5 16  3 35 33.9990000  0  7G01G07G08G11G16G27G30                0.000346189
  21482250.331 6  -1920392.102 6  -1443772.37549  21482252.66349
  21595237.276 6  -1743098.469 6  -1327563.13349  21595234.37049
  20796569.253 7   -708412.418 7   -533283.58649  20796570.31249
  20086650.089 6  -1326662.781 6   -997199.84449  20086647.64049
  23142458.690 5   -666294.309 5   -501255.35546  23142456.72246
  22592462.175 5   -384223.527 5   -294815.79349  22592462.85849
  24122371.737 4  -1897683.566 4  -1428873.72748  24122374.05448
 20  5 16  3 35 34.9990000  0  7G01G07G08G11G16G27G30                0.000343494
  21480859.026 6  -1927705.398 6  -1449471.04749  21480860.83149
  21593958.370 6  -1749817.152 6  -1332798.47349  21593956.10149
  20796054.362 7   -711117.301 7   -535391.28949  20796055.43749
  20085694.745 6  -1331682.871 6  -1001111.60249  20085692.66749
  23141962.612 5   -668902.723 5   -503287.88746  23141960.23046
  22592174.503 6   -385735.285 6   -295993.79349  22592174.81949
  24120921.183 4  -1905305.359 4  -1434812.77348  24120923.30848
 20  5 16  3 35 35.9990000  0  7G01G07G08G11G16G27G30                0.000340794
  21479466.862 6  -1935018.406 6  -1455169.49649  21479469.67149
  21592680.347 6  -1756535.500 6  -1338033.54749  21592677.72649
  20795540.050 7   -713822.059 7   -537498.89149  20795540.42149
  20084739.776 6  -1336702.477 6  -1005022.98049  20084737.29249
  23141465.901 5   -671511.074 5   -505320.37146  23141463.72246
  22591886.612 5   -387247.148 5   -297171.87149  22591886.76549
  24119470.980 4  -1912927.035 4  -1440751.73048  24119472.60148
 20  5 16  3 35 36.9990000  0  7G01G07G08G11G16G27G30                0.000338099
  21478075.815 6  -1942331.125 6  -1460867.71549  21478077.67149
  21591401.933 6  -1763253.563 6  -1343268.40649  21591399.41749
  20795025.386 7   -716526.730 7   -539606.43049  20795025.63649
  20083784.847 6  -1341721.637 6  -1008934.01649  20083782.05049
  23140970.042 5   -674119.461 5   -507352.87546  23140967.46046
  22591598.472 5   -388759.121 5   -298350.03549  22591599.25349
  24118020.440 4  -1920548.719 4  -1446690.70348  24118022.21848
 20  5 16  3 35 37.9990000  0  7G01G07G08G11G16G27G30                0.000335398
  21476684.503 6  -1949643.469 6  -1466565.65249  21476686.39049
  21590123.276 6  -1769971.191 6  -1348502.91849  21590120.71049
  20794510.644 7   -719231.234 7   -541713.83649  20794510.82749
  20082830.190 6  -1346740.254 6  -1012844.62548  20082827.47648
  23140473.581 5   -676727.734 5   -509385.29346  23140471.09346
  22591311.323 5   -390271.109 5   -299528.20749  22591311.90949
  24116570.261 4  -1928170.258 4  -1452629.56348  24116571.74148
 20  5 16  3 35 38.9990000  0  7G01G07G08G11G16G27G30                0.000332703
  21475293.073 6  -1956955.422 6  -1472263.28149  21475294.81249
  21588845.269 6  -1776688.441 6  -1353737.14149  21588842.95649
  20793995.714 7   -721935.508 7   -543821.06349  20793996.46449
  20081874.980 6  -1351758.297 6  -1016754.78548  20081872.40548
  23139977.526 5   -679335.902 5   -511417.62947  23139974.81947
  22591023.112 5   -391783.043 5   -300706.33649  22591024.18749
  24115120.425 4  -1935791.645 4  -1458568.30548  24115121.80848
 20  5 16  3 35 39.9990000  0  7G01G07G08G11G16G27G30                0.000330000
  21473901.120 6  -1964267.008 6  -1477960.61349  21473903.53049
  21587566.847 6  -1783405.250 6  -1358971.02049  21587564.92949
  20793481.050 7   -724639.586 7   -545928.13349  20793481.96849
  20080919.831 6  -1356775.793 6  -1020664.52349  20080917.16349
  23139480.815 5   -681943.973 5   -513449.90547  23139478.37447
  22590735.815 5   -393295.023 5   -301884.50449  22590736.59349
  24113670.425 4  -1943412.906 4  -1464506.94948  24113671.48748
 20  5 16  3 35 40.9990000  0  7G01G07G08G11G16G27G30                0.000327305
  21472510.323 6  -1971578.207 6  -1483657.65249  21472512.26149
  21586288.909 6  -1790121.625 6  -1364204.55949  21586286.78049
  20792966.933 7   -727343.426 7   -548035.02349  20792967.49149
  20079965.440 6  -1361792.730 6  -1024573.83248  20079963.06948
  23138984.464 5   -684551.957 5   -515482.09846  23138981.74946
  22590448.105 5   -394806.973 5   -303062.64549  22590448.73349
  24112219.698 4  -1951033.996 4  -1470445.45748  24112220.99548
 20  5 16  3 35 41.9990000  0  7G01G07G08G11G16G27G30                0.000324604
  21471118.425 6  -1978889.234 6  -1489354.55549  21471121.14449
  21585010.769 6  -1796837.840 6  -1369437.97349  21585008.66349
  20792452.097 7   -730047.297 7   -550141.93449  20792452.73349
  20079010.776 6  -1366809.336 6  -1028482.87549  20079008.02649
  23138488.542 5   -687160.047 5   -517514.36346  23138485.67546
  22590160.167 5   -396319.156 5   -304240.97349  22590160.78049
  24110769.136 4  -1958655.180 4  -1476384.05148  24110770.69048
 20  5 16  3 35 42.9990000  0  7G01G07G08G11G16G27G30                0.000321909
  21469727.355 6  -1986200.027 6  -1495051.27749  21469729.71049
  21583733.019 6  -1803553.762 6  -1374671.16049  21583731.05049
  20791937.784 7   -732751.113 7   -552248.80949  20791938.56949
  20078056.347 6  -1371825.516 6  -1032391.58649  20078053.65949
  23137992.370 5   -689768.168 5   -519546.66446  23137989.60146
  22589872.433 6   -397831.453 6   -305419.39149  22589873.42149
  24109319.128 4  -1966276.375 4  -1482322.64548  24109320.55048
 20  5 16  3 35 43.9990000  0  7G01G07G08G11G16G27G30                0.000319206
  21468336.331 6  -1993510.496 6  -1500747.74649  21468338.95249
  21582455.081 6  -1810269.352 6  -1379904.09049  21582453.01549
  20791423.292 7   -735454.773 7   -554355.55949  20791424.21049
  20077101.628 6  -1376841.219 6  -1036299.92249  20077099.24949
  23137495.605 5   -692376.285 5   -521578.95746  23137492.99546
  22589584.776 5   -399343.840 5   -306597.87549  22589585.35149
  24107868.815 4  -1973897.504 4  -1488261.18448  24107870.16748
 20  5 16  3 35 44.9990000  0  7G01G07G08G11G16G27G30                0.000316511
  21466945.409 6  -2000820.629 6  -1506443.95749  21466947.71449
  21581176.940 6  -1816984.570 6  -1385136.72749  21581174.88249
  20790908.722 7   -738158.281 7   -556462.18449  20790909.51949
  20076147.300 6  -1381856.367 6  -1040207.83649  20076144.89049
  23136999.222 5   -694984.297 5   -523611.17246  23136997.01546
  22589297.112 6   -400856.234 6   -307776.36749  22589297.73749
  24106418.620 4  -1981518.461 4  -1494199.59048  24106420.19048
 20  5 16  3 35 45.9990000  0  7G01G07G08G11G16G27G30                0.000313810
  21465554.573 6  -2008130.449 6  -1512139.91449  21465556.55049
  21579899.222 6  -1823699.461 6  -1390369.10949  21579897.30849
  20790394.300 7   -740861.664 7   -558568.71549  20790395.41749
  20075193.269 6  -1386871.094 6  -1044115.41049  20075190.98349
  23136503.370 5   -697592.324 5   -525643.40646  23136500.58146
  22589009.214 6   -402368.742 6   -308954.94149  22589009.44849
  24104968.573 4  -1989139.391 4  -1500137.97348  24104969.85548
 20  5 16  3 35 46.9990000  0  7G01G07G08G11G16G27G30                0.000311113
  21464162.995 6  -2015440.031 6  -1517835.69149  21464165.55049
  21578621.714 6  -1830414.031 6  -1395601.24249  21578619.75349
  20789879.784 7   -743564.969 7   -560675.19149  20789880.39449
  20074238.839 6  -1391885.352 6  -1048022.62549  20074236.56249
  23136006.776 5   -700200.355 5   -527675.63347  23136004.40947
  22588721.511 6   -403881.348 6   -310133.59449  22588722.37449
  24103518.878 4  -1996760.297 4  -1506076.33648  24103519.59348
 20  5 16  3 35 47.9990000  0  7G01G07G08G11G16G27G30                0.000308413
  21462772.370 6  -2022749.332 6  -1523531.25049  21462775.15949
  21577343.862 6  -1837128.348 6  -1400833.17649  21577341.88649
  20789365.605 7   -746268.184 7   -562781.59049  20789366.25349
  20073284.933 6  -1396899.199 6  -1051929.51649  20073282.38649
  23135510.815 5   -702808.395 5   -529707.87947  23135507.85147
  22588433.847 6   -405394.102 6   -311312.36349  22588434.10149
  24102068.480 4  -2004381.180 4  -1512014.67648  24102069.23748
 20  5 16  3 35 48.9990000  0  7G01G07G08G11G16G27G30                0.000305717
  21461381.456 6  -2030058.238 6  -1529226.50049  21461383.85849
  21576066.362 6  -1843842.227 6  -1406064.77049  21576064.50749
  20788851.339 7   -748971.176 7   -564887.82049  20788851.71449
  20072330.917 6  -1401912.457 6  -1055835.95349  20072328.34349
  23135013.901 5   -705416.344 5   -531740.04747  23135011.37047
  22588146.206 6   -406906.809 6   -312491.10249  22588146.55449
  24100618.519 5  -2012001.891 5  -1517952.88348  24100618.72248
 20  5 16  3 35 49.9990000  0  7G01G07G08G11G16G27G30                0.000303015
  21459991.042 6  -2037366.879 6  -1534921.54749  21459993.19449
  21574788.347 6  -1850555.770 6  -1411296.10249  21574786.65549
  20788336.917 7   -751674.059 7   -566993.96549  20788337.68349
  20071376.745 6  -1406925.238 6  -1059742.02049  20071374.46849
  23134517.800 5   -708024.242 5   -533772.18046  23134515.23746
  22587857.776 6   -408419.590 6   -313669.89149  22587858.47649
  24099168.097 5  -2019622.574 5  -1523891.07848  24099168.77248
 20  5 16  3 35 50.9990000  0  7G01G07G08G11G16G27G30                0.000300320
  21458600.128 6  -2044675.172 6  -1540616.32049  21458602.44849
  21573511.331 6  -1857268.984 6  -1416527.17249  21573509.42949
  20787822.980 7   -754376.844 7   -569100.03149  20787823.46449
  20070423.206 6  -1411937.574 6  -1063647.73449  20070420.64749
  23134021.495 5   -710632.203 5   -535804.35246  23134019.12446
  22587569.448 6   -409932.477 6   -314848.77349  22587570.71849
  24097717.534 4  -2027243.211 4  -1529829.23448  24097718.67948
 20  5 16  3 35 51.9990000  0  7G01G07G08G11G16G27G30                0.000297617
  21457209.253 6  -2051983.078 6  -1546310.79349  21457211.94449
  21572233.636 6  -1863981.770 6  -1421757.91449  21572231.87449
  20787308.433 7   -757079.387 7   -571205.91049  20787309.12049
  20069469.292 6  -1416949.320 6  -1067552.99249  20069466.70249
  23133525.690 5   -713239.969 5   -537836.37547  23133522.94047
  22587281.659 6   -411445.344 6   -316027.63349  22587283.02649
  24096266.940 4  -2034863.676 4  -1535767.26248  24096268.41748
 20  5 16  3 35 52.9990000  0  7G01G07G08G11G16G27G30                0.000294922
  21455818.847 6  -2059290.633 6  -1552004.99249  21455821.02249
  21570956.542 6  -1870694.156 6  -1426988.35249  21570954.94049
  20786794.355 7   -759781.781 7   -573311.67649  20786794.59749
  20068515.823 6  -1421960.539 6  -1071457.82849  20068513.05049
  23133029.190 5   -715847.672 5   -539868.36746  23133026.58946
  22586993.612 6   -412958.216 6   -317206.48749  22586994.63249
  24094817.980 4  -2042484.027 4  -1541705.19548  24094818.38248
 20  5 16  3 35 53.9990000  0  7G01G07G08G11G16G27G30                0.000292219
  21454428.386 6  -2066597.926 6  -1557698.98049  21454430.86649
  21569678.972 6  -1877406.270 6  -1432218.56649  21569677.29649
  20786279.972 7   -762484.047 7   -575417.33649  20786280.58149
  20067562.284 6  -1426971.301 6  -1075362.32049  20067559.60149
  23132533.323 5   -718455.410 5   -541900.36346  23132530.48746
  22586705.894 6   -414471.207 6   -318385.44549  22586706.85549
  24093367.355 4  -2050104.305 4  -1547643.06648  24093368.21048
 20  5 16  3 35 54.9990000  0  7G01G07G08G11G16G27G30                0.000289522
  21453037.870 6  -2073905.035 6  -1563392.83649  21453040.19049
  21568402.073 6  -1884118.176 6  -1437448.62149  21568400.28049
  20785765.487 7   -765186.340 7   -577523.01649  20785765.88249
  20066608.722 6  -1431981.734 6  -1079266.55549  20066606.11249
  23132037.456 5   -721063.227 5   -543932.42646  23132033.94846
  22586418.026 6   -415984.422 6   -319564.57449  22586418.89749
  24091917.980 4  -2057724.684 4  -1553581.02348  24091918.56948
 20  5 16  3 35 55.9990000  0  7G01G07G08G11G16G27G30                0.000286821
  21451647.597 6  -2081211.727 6  -1569086.35549  21451649.93749
  21567124.745 6  -1890829.609 6  -1442678.30949  21567123.12049
  20785251.855 7   -767888.418 7   -579628.53549  20785251.93349
  20065655.534 6  -1436991.566 6  -1083170.32449  20065652.98349
  23131540.933 5   -723670.938 5   -545964.40646  23131537.89446
  22586130.261 5   -417497.594 5   -320743.66849  22586131.09749
  24090467.370 4  -2065344.871 4  -1559518.82448  24090467.82348
 20  5 16  3 35 56.9990000  0  7G01G07G08G11G16G27G30                0.000284124
  21450257.198 6  -2088518.176 6  -1574779.69549  21450259.41749
  21565847.847 6  -1897540.816 6  -1447907.81649  21565845.85149
  20784737.331 7   -770590.434 7   -581734.00049  20784737.69049
  20064701.917 6  -1442001.012 6  -1087073.78149  20064699.57349
  23131045.081 5   -726278.691 5   -547996.41847  23131042.17147
  22585842.456 6   -419010.910 6   -321922.87949  22585843.24149
  24089016.839 4  -2072965.055 4  -1565456.61348  24089018.13648
 20  5 16  3 35 57.9990000  0  7G01G07G08G11G16G27G30                0.000281424
  21448866.987 6  -2095824.254 6  -1580472.73849  21448869.18349
  21564570.917 6  -1904251.594 6  -1453136.99249  21564569.07349
  20784223.495 7   -773292.234 7   -583839.29749  20784223.81549
  20063749.144 6  -1447009.879 6  -1090976.79749  20063746.35549
  23130548.292 5   -728886.348 5   -550028.36347  23130545.30847
  22585554.378 5   -420524.215 5   -323102.08249  22585555.37049
  24087567.198 4  -2080585.098 4  -1571394.30148  24087567.82348
 20  5 16  3 35 58.9990000  0  7G01G07G08G11G16G27G30                0.000278727
  21447476.823 6  -2103129.961 6  -1586165.50049  21447478.85549
  21563294.128 6  -1910961.973 6  -1458365.85949  21563292.14749
  20783709.245 7   -775993.875 7   -585944.47349  20783709.61249
  20062796.105 6  -1452018.215 6  -1094879.39149  20062793.78049
  23130051.815 5   -731493.922 5   -552060.23446  23130049.55446
  22585266.237 6   -422037.551 6   -324281.30949  22585267.12049
  24086117.214 4  -2088205.043 4  -1577331.91048  24086117.94848
 20  5 16  3 35 59.9990000  0  7G01G07G08G11G16G27G30                0.000276024
  21446086.183 6  -2110435.348 6  -1591858.00849  21446088.77649
  21562017.065 6  -1917672.008 6  -1463594.45749  21562015.09749
  20783195.081 7   -778695.359 7   -588049.52349  20783195.30049
  20061842.683 6  -1457026.063 6  -1098781.61349  20061840.50749
  23129555.464 5   -734101.434 5   -554092.05946  23129552.95646
  22584978.394 6   -423550.953 6   -325460.57849  22584979.31249
  24084666.581 5  -2095824.863 5  -1583269.42648  24084667.52648
 20  5 16  3 36  0.9990000  0  7G01G07G08G11G16G27G30                0.000273329
  21444696.198 6  -2117740.461 6  -1597550.30549  21444698.72249
  21560740.315 6  -1924381.723 6  -1468822.80549  21560738.19449
  20782681.058 7   -781396.742 7   -590154.50049  20782681.47249
  20060890.019 6  -1462033.488 6  -1102683.49649  20060887.56249
  23129059.581 5   -736709.008 5   -556123.93447  23129057.25747
  22584690.409 6   -425064.469 6   -326639.94549  22584691.27649
  24083216.995 4  -2103444.699 4  -1589206.95748  24083217.73748
 20  5 16  3 36  1.9990000  0  7G01G07G08G11G16G27G30                0.000270626
  21443306.128 6  -2125045.289 6  -1603242.37149  21443308.26149
  21559463.347 6  -1931091.129 6  -1474050.91049  21559461.55849
  20782167.151 7   -784098.027 7   -592259.39549  20782167.85849
  20059937.097 6  -1467040.422 6  -1106585.00049  20059934.78449
  23128563.769 5   -739316.504 5   -558155.76246  23128560.89746
  22584402.495 6   -426578.051 6   -327819.36349  22584403.40949
  24081767.495 4  -2111064.492 4  -1595144.44548  24081767.73048
 20  5 16  3 36  2.9990000  0  7G01G07G08G11G16G27G30                0.000267929
  21441916.300 6  -2132349.715 6  -1608934.13349  21441918.70249
  21558186.894 6  -1937800.113 6  -1479278.69549  21558184.94849
  20781652.995 7   -786799.074 7   -594364.11349  20781653.46049
  20058984.589 6  -1472046.793 6  -1110486.07448  20058981.81248
  23128067.589 5   -741923.953 5   -560187.52746  23128064.91746
  22584114.675 6   -428091.637 6   -328998.77749  22584115.47649
  24080316.776 4  -2118684.105 4  -1601081.80548  24080317.66748
 20  5 16  3 36  3.9990000  0  7G01G07G08G11G16G27G30                0.000265226
  21440526.503 6  -2139653.805 6  -1614625.62949  21440528.65549
  21556910.198 6  -1944508.730 6  -1484506.18849  21556908.35149
  20781139.136 7   -789500.000 7   -596468.73049  20781139.31949
  20058032.003 6  -1477052.672 6  -1114386.76248  20058029.69848
  23127571.097 5   -744531.324 5   -562219.24246  23127568.77646
  22583826.206 6   -429605.305 6   -330178.25849  22583827.14049
  24078866.940 4  -2126303.629 4  -1607019.09048  24078867.38648
 20  5 16  3 36  4.9990000  0  7G01G07G08G11G16G27G30                0.000262529
  21439136.362 6  -2146957.535 6  -1620316.84449  21439138.72649
  21555633.620 6  -1951216.945 6  -1489733.36349  21555632.35849
  20780625.050 7   -792200.711 7   -598573.18049  20780625.77649
  20057079.862 6  -1482057.992 6  -1118287.00848  20057076.81948
  23127074.690 5   -747138.578 5   -564250.86746  23127072.48346
  22583537.995 6   -431118.953 6   -331357.72749  22583539.37049
  24077417.089 4  -2133923.027 4  -1612956.28148  24077417.65148
 20  5 16  3 36  5.9990000  0  7G01G07G08G11G16G27G30                0.000259829
  21437746.487 6  -2154260.945 6  -1626007.81649  21437749.13649
  21554357.144 6  -1957924.828 6  -1494960.28549  21554355.36249
  20780111.253 7   -794901.301 7   -600677.53149  20780112.05849
  20056127.300 6  -1487062.848 6  -1122186.89549  20056124.51149
  23126578.706 5   -749745.840 5   -566282.50846  23126576.65546
  22583250.308 6   -432632.668 6   -332537.24649  22583251.57349
  24075967.089 4  -2141542.348 4  -1618893.41448  24075967.94448
 20  5 16  3 36  6.9990000  0  7G01G07G08G11G16G27G30                0.000257132
  21436356.737 6  -2161564.145 6  -1631698.61749  21436359.25349
  21553081.003 6  -1964632.469 6  -1500187.01249  21553078.94849
  20779597.511 7   -797601.879 7   -602781.88349  20779598.17949
  20055174.745 6  -1492067.301 6  -1126086.46949  20055172.30449
  23126082.815 5   -752353.172 5   -568314.19947  23126080.09747
  22582961.933 6   -434146.570 6   -333716.91049  22582963.07749
  24074517.417 4  -2149161.723 4  -1624830.59848  24074517.73048
 20  5 16  3 36  7.9990000  0  7G01G07G08G11G16G27G30                0.000254429
  21434967.269 6  -2168866.930 6  -1637389.09849  21434969.63649
  21551804.417 6  -1971339.656 6  -1505413.39549  21551802.28849
  20779083.495 7   -800302.246 7   -604886.06349  20779083.98749
  20054222.487 6  -1497071.191 6  -1129985.60549  20054220.04249
  23125586.292 5   -754960.367 5   -570345.77746  23125584.24546
  22582673.870 6   -435660.445 6   -334896.55549  22582675.21049
  24073067.558 4  -2156780.914 4  -1630767.63348  24073068.06248
 20  5 16  3 36  8.9990000  0  7G01G07G08G11G16G27G30                0.000251732
  21433577.558 6  -2176169.488 6  -1643079.40249  21433580.01949
  21550528.159 6  -1978046.602 6  -1510639.59049  21550526.31249
  20778569.456 7   -803002.563 7   -606990.20349  20778570.10149
  20053270.480 6  -1502074.652 6  -1133884.40649  20053268.01549
  23125090.073 5   -757567.617 5   -572377.40646  23125087.86646
  22582385.769 6   -437174.449 6   -336076.30149  22582386.98049
  24071617.675 4  -2164400.098 4  -1636704.65248  24071618.03848
 20  5 16  3 36  9.9990000  0  7G01G07G08G11G16G27G30                0.000249029
  21432187.933 6  -2183471.797 6  -1648769.51649  21432190.21049
  21549251.925 6  -1984753.254 6  -1515865.55149  21549249.45249
  20778055.753 7   -805702.813 7   -609094.29349  20778056.38649
  20052318.300 6  -1507077.711 6  -1137782.88749  20052315.65949
  23124594.355 5   -760174.902 5   -574409.05946  23124591.87446
  22582097.308 6   -438688.609 6   -337256.16449  22582098.80849
  24070167.987 4  -2172019.301 4  -1642641.70348  24070168.34748
 20  5 16  3 36 10.9990000  0  7G01G07G08G11G16G27G30                0.000246332
  21430798.120 6  -2190773.617 6  -1654459.24249  21430801.03849
  21547975.815 6  -1991459.406 6  -1521091.12149  21547973.63649
  20777541.940 7   -808402.762 7   -611198.15249  20777542.53049
  20051366.339 6  -1512080.102 6  -1141680.85248  20051363.83948
  23124097.472 5   -762781.945 5   -576440.51247  23124096.28047
  22581809.683 6   -440202.656 6   -338435.94149  22581810.57349
  24068717.651 4  -2179638.238 4  -1648578.54348  24068718.65948
 20  5 16  3 36 11.9990000  0  7G01G07G08G11G16G27G30                0.000243629
  21429408.870 6  -2198075.137 6  -1660148.73449  21429411.30849
  21546699.503 6  -1998165.176 6  -1526316.39549  21546697.48749
  20777028.292 7   -811102.586 7   -613301.91449  20777028.74949
  20050415.159 6  -1517082.020 6  -1145578.45349  20050412.10149
  23123601.230 5   -765389.004 5   -578471.99646  23123599.93746
  22581521.112 6   -441716.770 6   -339615.77349  22581522.46449
  24067267.839 4  -2187257.141 4  -1654515.35948  24067268.00748
 20  5 16  3 36 12.9990000  0  7G01G07G08G11G16G27G30                0.000240931
  21428019.503 6  -2205376.371 6  -1665838.00849  21428022.02249
  21545424.026 6  -2004870.711 6  -1531541.48849  21545421.19049
  20776514.558 7   -813802.344 7   -615405.61749  20776515.71449
  20049463.370 6  -1522083.512 6  -1149475.71948  20049460.44848
  23123105.206 5   -767996.086 5   -580503.48846  23123104.02646
  22581233.542 6   -443231.043 6   -340795.72749  22581234.54649
  24065818.425 4  -2194876.004 4  -1660452.14548  24065818.42148
 20  5 16  3 36 13.9990000  0  7G01G07G08G11G16G27G30                0.000238230
  21426630.378 6  -2212677.277 6  -1671527.02349  21426632.85849
  21544147.980 6  -2011575.832 6  -1536766.25449  21544145.41349
  20776000.730 7   -816501.906 7   -617509.18049  20776001.58149
  20048511.175 6  -1527084.477 6  -1153372.57449  20048508.66349
  23122608.831 5   -770603.066 5   -582534.89546  23122607.88646
  22580945.214 6   -444745.352 6   -341975.71149  22580946.88649
  24064368.308 4  -2202494.730 4  -1666388.81348  24064368.85148
 20  5 16  3 36 14.9990000  0  7G01G07G08G11G16G27G30                0.000235531
  21425240.776 6  -2219977.898 6  -1677215.82049  21425243.65949
  21542871.792 6  -2018280.688 6  -1541990.81649  21542869.54649
  20775487.128 7   -819201.410 7   -619612.68849  20775487.86249
  20047559.917 6  -1532085.004 6  -1157269.08649  20047557.14049
  23122112.933 5   -773210.105 5   -584566.35947  23122111.90147
  22580657.222 6   -446259.734 6   -343155.74649  22580658.46449
  24062918.526 4  -2210113.438 4  -1672325.46948  24062918.67948
 20  5 16  3 36 15.9990000  0  7G01G07G08G11G16G27G30                0.000232828
  21423851.565 6  -2227278.238 6  -1682904.39549  21423854.28849
  21541595.987 6  -2024985.199 6  -1547215.10949  21541593.59749
  20774973.401 7   -821900.848 7   -621716.14549  20774973.98749
  20046608.206 6  -1537085.105 6  -1161165.26649  20046605.52649
  23121616.808 5   -775817.125 5   -586597.79746  23121615.62846
  22580368.706 6   -447774.266 6   -344335.90249  22580370.16349
  24061468.776 4  -2217732.113 4  -1678262.10248  24061468.99148
 20  5 16  3 36 16.9990000  0  7G01G07G08G11G16G27G30                0.000230131
  21422462.511 6  -2234578.254 6  -1688592.71149  21422465.27249
  21540320.144 6  -2031689.344 6  -1552439.12149  21540317.71449
  20774459.792 7   -824600.082 7   -623819.44549  20774460.31549
  20045656.776 6  -1542084.660 6  -1165061.02749  20045654.24949
  23121120.378 5   -778424.082 5   -588629.19946  23121119.56946
  22580080.698 6   -449288.793 6   -345516.05149  22580081.77649
  24060019.808 4  -2225350.672 4  -1684198.63348  24060019.53848
 20  5 16  3 36 17.9990000  0  7G01G07G08G11G16G27G30                0.000227428
  21421073.792 6  -2241877.977 6  -1694280.80949  21421075.99949
  21539045.003 6  -2038393.180 6  -1557662.88749  21539042.01549
  20773946.276 7   -827299.242 7   -625922.68849  20773946.93349
  20044705.620 6  -1547083.785 6  -1168956.45348  20044702.69048
  23120624.706 5   -781031.051 5   -590660.60947  23120623.63647
  22579792.480 6   -450803.434 6   -346696.29749  22579793.53849
  24058569.628 4  -2232969.176 4  -1690135.12948  24058569.22248
 20  5 16  3 36 18.9990000  0  7G01G07G08G11G16G27G30                0.000224731
  21419684.753 6  -2249177.320 6  -1699968.60549  21419687.21849
  21537769.214 6  -2045096.613 6  -1562886.34449  21537766.59349
  20773432.651 7   -829998.195 7   -628025.76649  20773433.01949
  20043754.456 6  -1552082.367 6  -1172851.44548  20043751.81248
  23120129.050 5   -783637.926 5   -592691.94546  23120127.74146
  22579504.386 6   -452318.129 6   -347876.58249  22579505.28049
  24057119.612 4  -2240587.586 4  -1696071.56348  24057119.64748
 20  5 16  3 36 19.9990000  0  7G01G07G08G11G16G27G30                0.000222029
  21418295.511 6  -2256476.332 6  -1705656.14549  21418298.12449
  21536493.253 6  -2051799.676 6  -1568109.50849  21536490.12049
  20772918.815 7   -832697.031 7   -630128.75449  20772919.37849
  20042803.440 6  -1557080.441 6  -1176746.05149  20042800.66349
  23119631.940 5   -786244.730 5   -594723.21546  23119631.40946
  22579216.073 6   -453832.844 6   -349056.87549  22579217.05449
  24055669.706 4  -2248205.859 4  -1702007.87548  24055669.79648
 20  5 16  3 36 20.9990000  0  7G01G07G08G11G16G27G30                0.000219330
  21416907.019 6  -2263774.988 6  -1711343.41049  21416909.32749
  21535218.112 6  -2058502.348 6  -1573332.36749  21535215.01549
  20772405.339 7   -835395.668 7   -632231.59049  20772405.99149
  20041852.714 6  -1562077.949 6  -1180640.20748  20041849.52248
  23119136.128 4   -788851.488 4   -596754.45747  23119135.42147
  22578928.144 6   -455347.578 6   -350237.19149  22578928.98049
  24054220.597 5  -2255824.008 5  -1707944.09048  24054220.42148
 20  5 16  3 36 21.9990000  0  7G01G07G08G11G16G27G30                0.000216627
  21415517.745 6  -2271073.320 6  -1717030.42249  21415520.39749
  21533942.776 6  -2065204.684 6  -1578554.97749  21533940.05049
  20771891.870 7   -838094.168 7   -634334.31649  20771892.77649
  20040901.605 6  -1567075.020 6  -1184534.02749  20040898.62849
  23118640.269 5   -791458.188 5   -598785.65646  23118639.37846
  22578639.315 6   -456862.414 6   -351417.58649  22578640.95249
  24052770.222 5  -2263442.094 5  -1713880.25448  24052770.56248
 20  5 16  3 36 22.9990000  0  7G01G07G08G11G16G27G30                0.000213928
  21414128.605 6  -2278371.348 6  -1722717.19149  21414131.21849
  21532666.698 6  -2071906.691 6  -1583777.31349  21532664.26949
  20771378.636 7   -840792.563 7   -636436.96549  20771379.16749
  20039950.050 6  -1572071.586 6  -1188427.45349  20039947.78449
  23118143.589 4   -794064.902 4   -600816.86346  23118143.59746
  22578350.519 6   -458377.309 6   -352598.02349  22578352.48049
  24051320.933 4  -2271060.086 4  -1719816.34448  24051320.92548
 20  5 16  3 36 23.9990000  0  7G01G07G08G11G16G27G30                0.000211226
  21412740.026 6  -2285668.910 6  -1728403.60549  21412743.30049
  21531392.206 6  -2078608.211 6  -1588999.27749  21531388.85849
  20770864.901 7   -843490.656 7   -638539.37149  20770865.83949
  20038999.730 6  -1577067.531 6  -1192320.39848  20038996.91348
  23117647.081 4   -796671.410 4   -602847.91446  23117647.31246
  22578062.683 6   -459892.117 6   -353778.39549  22578063.87849
  24049871.331 4  -2278677.898 4  -1725752.28948  24049871.24148
 20  5 16  3 36 24.9990000  0  7G01G07G08G11G16G27G30                0.000208529
  21411351.565 6  -2292966.242 6  -1734089.83649  21411354.52249
  21530117.034 6  -2085309.453 6  -1594221.02749  21530113.86649
  20770351.855 7   -846188.723 7   -640641.76249  20770352.30849
  20038049.362 6  -1582063.086 6  -1196213.03548  20038046.35148
  23117151.573 4   -799277.988 4   -604879.00846  23117151.69046
  22577774.362 5   -461407.121 5   -354958.92249  22577775.71049
  24048421.800 4  -2286295.766 4  -1731688.27348  24048421.59348
 20  5 16  3 36 25.9990000  0  7G01G07G08G11G16G27G30                0.000205826
  21409962.597 6  -2300263.297 6  -1739775.85249  21409965.84349
  21528842.081 6  -2092010.410 6  -1599442.54749  21528838.53849
  20769838.097 7   -848886.715 7   -642744.09449  20769838.99949
  20037098.714 6  -1587058.180 6  -1200105.31649  20037095.85149
  23116655.722 4   -801884.563 4   -606910.10246  23116655.24946
  22577486.433 6   -462922.188 6   -356139.49249  22577487.76549
  24046971.886 4  -2293913.527 4  -1737624.17648  24046971.37848
 20  5 16  3 36 26.9990000  0  7G01G07G08G11G16G27G30                0.000203127
  21408574.362 6  -2307559.918 6  -1745461.53149  21408577.44449
  21527566.987 6  -2098710.875 6  -1604663.69149  21527563.74949
  20769324.855 7   -851584.430 7   -644846.20749  20769325.75749
  20036147.940 6  -1592052.691 6  -1203997.15248  20036145.51148
  23116159.659 4   -804491.008 4   -608941.10246  23116159.97246
  22577197.597 6   -464437.234 6   -357320.05149  22577199.16349
  24045522.370 4  -2301531.129 4  -1743559.98048  24045521.91748
 20  5 16  3 36 27.9990000  0  7G01G07G08G11G16G27G30                0.000200424
  21407186.065 6  -2314856.184 6  -1751146.92649  21407188.99949
  21526291.636 6  -2105410.984 6  -1609884.56349  21526288.46849
  20768811.581 7   -854281.988 7   -646948.20749  20768812.26949
  20035197.956 6  -1597046.633 6  -1207888.53148  20035194.94448
  23115663.589 4   -807097.316 4   -610971.99246  23115664.10146
  22576909.198 6   -465952.305 6   -358500.62949  22576910.93349
  24044072.175 5  -2309148.637 5  -1749495.73448  24044072.00348
 20  5 16  3 36 28.9990000  0  7G01G07G08G11G16G27G30                0.000197725
  21405797.933 6  -2322151.953 6  -1756831.93849  21405800.41749
  21525016.714 6  -2112110.559 6  -1615105.00849  21525013.77649
  20768298.284 7   -856979.250 7   -649049.97349  20768299.06949
  20034247.831 6  -1602039.914 6  -1211779.39848  20034245.04648
  23115167.659 4   -809703.461 4   -613002.76246  23115168.08546
  22576621.167 6   -467467.254 6   -359681.10549  22576622.71049
  24042623.597 4  -2316765.859 4  -1755431.25448  24042622.61648
 20  5 16  3 36 29.9990000  0  7G01G07G08G11G16G27G30                0.000195023
  21404409.526 6  -2329447.477 6  -1762516.76649  21404412.42549
  21523742.151 6  -2118809.855 6  -1620325.23449  21523738.87849
  20767784.847 7   -859676.438 7   -651151.67649  20767785.67549
  20033297.542 6  -1607032.805 6  -1215669.95748  20033294.70248
  23114671.995 4   -812309.648 4   -615033.56646  23114671.93346
  22576333.214 6   -468982.363 6   -360861.71549  22576334.25349
  24041173.409 4  -2324383.043 4  -1761366.71148  24041173.10148
 20  5 16  3 36 30.9990000  0  7G01G07G08G11G16G27G30                0.000192324
  21403021.105 6  -2336742.754 6  -1768201.39849  21403024.27249
  21522467.323 6  -2125508.875 6  -1625545.25049  21522463.79649
  20767271.550 7   -862373.602 7   -653253.35949  20767272.81949
  20032347.730 6  -1612025.289 6  -1219560.21148  20032344.54248
  23114175.909 4   -814915.891 4   -617064.41046  23114175.85146
  22576044.378 5   -470497.629 5   -362042.43449  22576046.15549
  24039724.425 3  -2332000.270 3  -1767302.19547  24039723.33147
 20  5 16  3 36 31.9990000  0  7G01G07G08G11G16G27G30                0.000189621
  21401632.456 6  -2344037.664 6  -1773885.74649  21401635.88649
  21521192.589 6  -2132207.535 6  -1630764.98849  21521189.39049
  20766758.456 7   -865070.602 7   -655354.92649  20766759.45649
  20031397.558 6  -1617017.254 6  -1223450.05149  20031394.90949
  23113679.761 4   -817522.070 4   -619095.20747  23113680.19447
  22575756.081 5   -472012.918 5   -363223.18449  22575757.86249
  24038274.620 3  -2339617.352 3  -1773237.57847  24038274.36247
 20  5 16  3 36 32.9990000  0  7G01G07G08G11G16G27G30                0.000186922
  21400244.456 6  -2351332.340 6  -1779569.90649  21400247.80849
  21519917.925 6  -2138905.891 6  -1635984.48449  21519914.26949
  20766245.417 7   -867767.527 7   -657456.42249  20766246.16749
  20030447.800 6  -1622008.773 6  -1227339.54348  20030445.00748
  23113184.722 4   -820128.238 4   -621125.99247  23113184.06947
  22575467.440 5   -473528.305 5   -364404.00449  22575469.40949
  24036825.753 4  -2347234.426 4  -1779172.96548  24036824.35848
 20  5 16  3 36 33.9990000  0  7G01G07G08G11G16G27G30                0.000184219
  21398856.558 6  -2358626.590 6  -1785253.73449  21398859.64049
  21518643.597 6  -2145603.832 6  -1641203.65649  21518640.20649
  20765731.964 7   -870464.223 7   -659557.74249  20765733.10849
  20029497.933 6  -1626999.738 6  -1231228.60548  20029495.11248
  23112688.581 4   -822734.344 4   -623156.72347  23112688.34747
  22575179.495 6   -475043.734 6   -365584.86349  22575180.78849
  24035375.534 4  -2354851.375 4  -1785108.25448  24035374.99148
 20  5 16  3 36 34.9990000  0  7G01G07G08G11G16G27G30                0.000181520
  21397468.823 6  -2365920.488 6  -1790937.29349  21397471.97249
  21517368.503 6  -2152301.340 6  -1646422.49649  21517365.64049
  20765218.933 7   -873160.723 7   -661658.91049  20765219.67149
  20028548.183 6  -1631990.145 6  -1235117.23849  20028545.68749
  23112192.237 4   -825340.332 4   -625187.36747  23112192.83147
  22574891.050 5   -476559.148 5   -366765.70749  22574892.48749
  24033926.480 4  -2362468.133 4  -1791043.38748  24033925.91348
 20  5 16  3 36 35.9990000  0  7G01G07G08G11G16G27G30                0.000178818
  21396080.933 6  -2373214.141 6  -1796620.65649  21396083.81949
  21516094.612 6  -2158998.590 6  -1651641.12949  21516091.02649
  20764705.706 7   -875857.180 7   -663760.04349  20764706.69849
  20027598.870 6  -1636980.160 6  -1239005.56348  20027596.23348
  23111696.050 4   -827946.352 4   -627218.02747  23111696.41347
  22574602.823 5   -478074.727 5   -367946.67649  22574603.90949
  24032476.456 4  -2370084.910 4  -1796978.53948  24032475.99548
 20  5 16  3 36 36.9990000  0  7G01G07G08G11G16G27G30                0.000176119
  21394693.089 6  -2380507.379 6  -1802303.69949  21394695.99149
  21514820.105 6  -2165695.418 6  -1656859.44549  21514816.69849
  20764192.745 7   -878553.414 7   -665861.00449  20764193.82349
  20026649.089 6  -1641969.605 6  -1242893.44948  20026646.48348
  23111200.292 4   -830552.289 4   -629248.62947  23111200.86247
  22574314.581 5   -479590.258 5   -369127.60949  22574316.08149
  24031027.386 4  -2377701.516 4  -1802913.55548  24031026.68748
 20  5 16  3 36 37.9990000  0  7G01G07G08G11G16G27G30                0.000173414
  21393305.323 6  -2387800.289 6  -1807986.48449  21393308.31249
  21513546.190 6  -2172391.852 6  -1662077.44149  21513542.52249
  20763679.550 7   -881249.488 7   -667961.84849  20763680.69449
  20025700.058 6  -1646958.531 6  -1246780.91448  20025697.01948
  23110704.878 5   -833158.125 5   -631279.16047  23110704.77647
  22574025.355 5   -481105.848 5   -370308.59049  22574027.04649
  24029577.503 3  -2385318.027 3  -1808848.49648  24029577.72648
 20  5 16  3 36 38.9990000  0  7G01G07G08G11G16G27G30                0.000170717
  21391917.534 6  -2395092.785 6  -1813668.94949  21391920.03849
  21512271.237 6  -2179087.891 6  -1667295.13749  21512268.07749
  20763167.011 7   -883945.371 7   -670062.53949  20763167.85849
  20024750.847 6  -1651946.895 6  -1250667.95348  20024747.91748
  23110208.730 4   -835763.918 4   -633309.64847  23110209.08547
  22573737.355 5   -482621.453 5   -371489.59049  22573738.69849
  24028128.089 2  -2392934.418 2  -1814783.32448  24028128.00748
 20  5 16  3 36 39.9990000  0  7G01G07G08G11G16G27G30                0.000168013
  21390530.019 6  -2402384.816 6  -1819351.04749  21390532.62049
  21510997.980 7  -2185783.402 7  -1672512.41449  21510994.35549
  20762653.769 7   -886640.941 7   -672162.98049  20762654.60149
  20023801.644 6  -1656934.629 6  -1254554.49648  20023798.87848
  23109713.011 4   -838369.465 4   -635339.94946  23109713.59346
  22573448.589 5   -484136.949 5   -372670.48849  22573450.34349
  24026679.065 2  -2400550.566 2  -1820717.96947  24026679.27647
 20  5 16  3 36 40.9990000  0  7G01G07G08G11G16G27G30                0.000165316
  21389142.159 6  -2409676.453 6  -1825032.84849  21389145.09749
  21509723.628 7  -2192478.508 7  -1677729.38349  21509720.14449
  20762140.917 7   -889336.340 7   -674263.29349  20762141.67549
  20022852.659 6  -1661921.781 6  -1258440.59449  20022850.04649
  23109217.190 4   -840974.961 4   -637370.21146  23109217.21846
  22573160.792 5   -485652.488 5   -373851.43049  22573161.97249
  24025229.690 3  -2408166.582 3  -1826652.53547  24025229.55447
 20  5 16  3 36 41.9990000  0  7G01G07G08G11G16G27G30                0.000162611
  21387755.065 6  -2416967.820 6  -1830714.43449  21387757.48049
  21508449.440 6  -2199173.309 6  -1682946.10949  21508446.31549
  20761628.081 7   -892031.672 7   -676363.55149  20761628.73049
  20021903.737 6  -1666908.508 6  -1262326.34848  20021900.78048
  23108722.120 4   -843580.398 4   -639400.43046  23108721.79246
  22572872.339 5   -487168.098 5   -375032.42649  22572874.10849
  24023780.550 3  -2415782.512 3  -1832587.05947  24023780.33147
 20  5 16  3 36 42.9990000  0  7G01G07G08G11G16G27G30                0.000159912
  21386367.394 6  -2424258.832 6  -1836395.73849  21386370.18349
  21507175.612 6  -2205867.711 6  -1688162.53149  21507172.17549
  20761115.300 7   -894726.832 7   -678463.68049  20761116.14049
  20020954.776 6  -1671894.719 6  -1266211.71548  20020951.98748
  23108225.269 4   -846185.824 4   -641430.63346  23108225.87046
  22572583.808 5   -488683.754 5   -376213.45749  22572585.49949
  24022331.058 4  -2423398.352 4  -1838521.50048  24022331.07348
 20  5 16  3 36 43.9990000  0  7G01G07G08G11G16G27G30                0.000157209
  21384980.355 6  -2431549.496 6  -1842076.77749  21384982.78049
  21505901.776 6  -2212561.742 6  -1693378.65649  21505898.83149
  20760602.339 7   -897421.820 7   -680563.67249  20760603.37849
  20020005.761 6  -1676880.383 6  -1270096.64148  20020002.99548
  23107729.894 4   -848791.152 4   -643460.76647  23107729.91747
  22572295.237 5   -490199.438 5   -377394.50849  22572297.32349
  24020882.409 3  -2431014.074 3  -1844455.83648  24020881.64048
 20  5 16  3 36 44.9990000  0  7G01G07G08G11G16G27G30                0.000154510
  21383593.300 6  -2438839.848 6  -1847757.56649  21383595.37449
  21504627.901 7  -2219255.480 7  -1698594.55949  21504624.57349
  20760089.401 7   -900116.734 7   -682663.60549  20760090.48049
  20019057.636 6  -1681865.602 6  -1273981.23448  20019054.62848
  23107234.190 5   -851396.508 5   -645490.91447  23107234.23347
  22572007.073 5   -491715.227 5   -378575.64549  22572008.83549
  24019433.331 3  -2438629.723 3  -1850390.10248  24019432.62848
 20  5 16  3 36 45.9990000  0  7G01G07G08G11G16G27G30                0.000151806
  21382205.542 6  -2446129.867 6  -1853438.10249  21382208.48749
  21503354.386 6  -2225948.828 6  -1703810.15649  21503351.30849
  20759576.730 7   -902811.477 7   -684763.40249  20759577.34749
  20018108.565 6  -1686850.328 6  -1277865.43449  20018106.02649
  23106738.073 5   -854001.773 5   -647521.00846  23106738.59346
  22571718.370 5   -493231.098 5   -379756.84449  22571720.05849
  24017983.448 4  -2446245.301 4  -1856324.29348  24017982.83548
 20  5 16  3 36 46.9990000  0  7G01G07G08G11G16G27G30                0.000149107
  21380818.534 6  -2453419.559 6  -1859118.37949  21380821.18749
  21502080.597 6  -2232641.789 6  -1709025.44949  21502078.09749
  20759063.730 7   -905506.078 7   -686863.09049  20759064.89449
  20017160.058 6  -1691834.496 6  -1281749.20349  20017157.40149
  23106242.909 5   -856606.996 5   -649551.05146  23106242.52246
  22571429.722 5   -494746.988 5   -380938.05549  22571431.51949
  24016534.714 4  -2453860.793 4  -1862258.43848  24016533.85548
 20  5 16  3 36 47.9990000  0  7G01G07G08G11G16G27G30                0.000146404
  21379430.901 6  -2460708.898 6  -1864798.38349  21379433.77249
  21500806.714 6  -2239334.395 6  -1714240.46949  21500804.04249
  20758551.112 7   -908200.539 7   -688962.67249  20758552.14049
  20016211.776 6  -1696818.207 6  -1285632.61349  20016209.05849
  23105746.456 5   -859212.172 5   -651581.04747  23105747.09347
  22571141.886 5   -496262.918 5   -382119.30549  22571143.27249
  24015085.839 4  -2461476.145 4  -1868192.48448  24015084.78048
 20  5 16  3 36 48.9990000  0  7G01G07G08G11G16G27G30                0.000143705
  21378044.433 6  -2467997.871 6  -1870478.10549  21378046.53449
  21499533.097 6  -2246026.605 6  -1719455.18049  21499530.55849
  20758038.480 7   -910894.813 7   -691062.10549  20758039.54649
  20015263.815 6  -1701801.379 6  -1289515.60249  20015260.42549
  23105251.276 5   -861817.254 5   -653610.97747  23105251.21447
  22570852.870 5   -497778.895 5   -383300.59449  22570854.67549
  24013636.292 3  -2469091.371 3  -1874126.43047  24013635.60547
 20  5 16  3 36 49.9990000  0  7G01G07G08G11G16G27G30                0.000141001
  21376657.378 6  -2475286.570 6  -1876157.61349  21376659.79249
  21498259.878 6  -2252718.535 6  -1724669.67249  21498257.42949
  20757525.855 7   -913588.996 7   -693161.47349  20757526.99549
  20014315.784 6  -1706784.121 6  -1293398.25848  20014312.79648
  23104755.472 5   -864422.379 5   -655640.94946  23104755.48046
  22570564.597 5   -499295.000 5   -384481.96949  22570566.16349
  24012187.026 3  -2476706.594 3  -1880060.34847  24012186.58947
 20  5 16  3 36 50.9990000  0  7G01G07G08G11G16G27G30                0.000138302
  21375270.253 6  -2482574.879 6  -1881836.81349  21375272.84749
  21496986.222 6  -2259410.008 6  -1729883.80549  21496983.94049
  20757012.901 7   -916282.988 7   -695260.68449  20757014.21049
  20013367.550 6  -1711766.266 6  -1297280.44949  20013364.73349
  23104259.730 5   -867027.398 5   -657670.84047  23104259.98347
  22570276.065 5   -500811.090 5   -385663.34449  22570277.31949
  24010738.050 3  -2484321.633 3  -1885994.12147  24010737.64447
 20  5 16  3 36 51.9990000  0  7G01G07G08G11G16G27G30                0.000135597
  21373883.753 6  -2489862.816 6  -1887515.72349  21373886.05849
  21495713.620 6  -2266101.125 6  -1735097.66449  21495710.88249
  20756500.183 7   -918976.820 7   -697359.77349  20756501.20249
  20012419.472 6  -1716747.910 6  -1301162.25048  20012416.36648
  23103764.425 5   -869632.332 5   -659700.65646  23103764.12846
  22569987.558 5   -502327.223 5   -386844.73849  22569989.27249
  24009289.058 4  -2491936.563 4  -1891927.82047  24009288.08547
 20  5 16  3 36 52.9990000  0  7G01G07G08G11G16G27G30                0.000132898
  21372496.659 6  -2497150.402 6  -1893194.36349  21372499.21849
  21494440.144 6  -2272791.824 6  -1740311.19149  21494437.52649
  20755987.745 7   -921670.438 7   -699458.70349  20755989.01549
  20011471.769 6  -1721729.004 6  -1305043.62148  20011469.04248
  23103269.425 5   -872237.137 5   -661730.38346  23103268.26946
  22569698.823 5   -503843.355 5   -388026.14849  22569700.51149
  24007840.487 4  -2499551.336 4  -1897861.41047  24007838.52647
 20  5 16  3 36 53.9990000  0  7G01G07G08G11G16G27G30                0.000130196
  21371110.183 6  -2504437.707 6  -1898872.77349  21371112.15949
  21493166.831 6  -2279482.238 6  -1745524.50449  21493164.24549
  20755474.933 7   -924364.012 7   -701557.58249  20755476.68349
  20010523.925 6  -1726709.676 6  -1308924.66048  20010521.02248
  23102773.511 5   -874842.008 5   -663760.16047  23102772.58547
  22569410.362 5   -505359.613 5   -389207.64849  22569412.24549
  24006390.870 4  -2507166.102 4  -1903794.99648  24006389.53448
 20  5 16  3 36 54.9990000  0  7G01G07G08G11G16G27G30                0.000127497
  21369723.472 6  -2511724.680 6  -1904550.93449  21369725.56949
  21491894.261 6  -2286172.238 6  -1750737.48449  21491891.55449
  20754962.464 7   -927057.391 7   -703656.32449  20754963.87849
  20009576.058 6  -1731689.809 6  -1312805.28948  20009572.98748
  23102277.909 5   -877446.809 5   -665789.86346  23102276.99146
  22569121.956 5   -506875.914 5   -390389.18849  22569123.59349
  24004941.870 4  -2514780.742 4  -1909728.48048  24004940.50748
 20  5 16  3 36 55.9990000  0  7G01G07G08G11G16G27G30                0.000124792
  21368336.792 6  -2519011.191 6  -1910228.73449  21368338.86649
  21490620.714 6  -2292861.789 6  -1755950.12149  21490618.77249
  20754449.870 7   -929750.555 7   -705754.89549  20754450.98349
  20008628.730 6  -1736669.359 6  -1316685.45348  20008625.61648
  23101782.308 5   -880051.457 5   -667819.46547  23101780.98747
  22568833.323 5   -508392.164 5   -391570.68449  22568834.59349
  24003492.956 4  -2522395.242 4  -1915661.85248  24003491.25348
 20  5 16  3 36 56.9990000  0  7G01G07G08G11G16G27G30                0.000122093
  21366950.261 6  -2526297.438 6  -1915906.32849  21366952.59349
  21489347.737 6  -2299551.066 6  -1761162.54349  21489345.41349
  20753937.909 7   -932443.652 7   -707853.41049  20753939.08549
  20007681.190 6  -1741648.480 6  -1320565.28548  20007678.49548
  23101286.714 5   -882656.133 5   -669849.08246  23101285.65146
  22568544.605 5   -509908.570 5   -392752.29749  22568546.38249
  24002043.972 4  -2530009.715 4  -1921595.20348  24002042.65148
 20  5 16  3 36 57.9990000  0  7G01G07G08G11G16G27G30                0.000119389
  21365564.050 6  -2533583.422 6  -1921583.71549  21365566.01549
  21488074.972 6  -2306240.043 6  -1766374.73049  21488072.66349
  20753425.214 7   -935136.672 7   -709951.86749  20753426.55849
  20006733.909 6  -1746627.168 6  -1324444.78948  20006730.92148
  23100791.440 5   -885260.824 5   -671878.71947  23100789.69047
  22568256.144 5   -511425.121 5   -393934.02749  22568258.28049
  24000594.612 4  -2537624.148 4  -1927528.51248  24000593.24148
 20  5 16  3 36 58.9990000  0  7G01G07G08G11G16G27G30                0.000116690
  21364177.667 6  -2540869.012 6  -1927260.80149  21364179.55049
  21486802.308 6  -2312928.598 6  -1771586.59049  21486800.05449
  20752912.769 7   -937829.473 7   -712050.15649  20752914.22649
  20005786.112 6  -1751605.266 6  -1328323.82449  20005783.62449
  23100295.323 5   -887865.383 5   -673908.24646  23100294.26946
  22567967.370 5   -512941.594 5   -395115.69149  22567969.46849
  23999145.425 4  -2545238.406 4  -1933461.70347  23999144.18747
 20  5 16  3 36 59.9990000  0  7G01G07G08G11G16G27G30                0.000113985
  21362790.909 6  -2548154.148 6  -1932937.52749  21362793.23049
  21485529.534 6  -2319616.652 6  -1776798.05949  21485527.21849
  20752400.417 7   -940522.074 7   -714148.28549  20752401.25749
  20004839.245 6  -1756582.777 6  -1332202.40248  20004835.98048
  23099800.011 5   -890469.816 5   -675937.68047  23099798.44047
  22567679.269 5   -514458.074 5   -396297.36349  22567680.83549
  23997697.222 3  -2552852.457 3  -1939394.73447  23997695.21847
 20  5 16  3 37  0.9990000  0  7G01G07G08G11G16G27G30                0.000111286
  21361404.917 6  -2555438.988 6  -1938614.03149  21361407.06549
  21484256.972 6  -2326304.371 6  -1782009.26649  21484255.14449
  20751887.870 7   -943214.523 7   -716246.29749  20751889.01149
  20003891.909 6  -1761559.824 6  -1336080.62548  20003888.71048
  23099303.964 5   -893074.227 5   -677967.09046  23099303.47246
  22567390.355 5   -515974.602 5   -397479.07449  22567392.28049
  23996247.808 3  -2560466.461 3  -1945327.71547  23996246.28447
 20  5 16  3 37  1.9990000  0  7G01G07G08G11G16G27G30                0.000108582
  21360018.808 6  -2562723.422 6  -1944290.20749  21360020.80049
  21482984.331 6  -2332991.699 6  -1787220.17249  21482982.21849
  20751375.636 7   -945906.809 7   -718344.18049  20751377.10849
  20002944.987 6  -1766536.285 6  -1339958.38348  20002942.23748
  23098808.440 5   -895678.477 5   -679996.37147  23098807.58147
  22567101.940 5   -517491.133 5   -398660.78949  22567103.70649
  23994799.925 4  -2568080.301 4  -1951260.57047  23994797.60847
 20  5 16  3 37  2.9990000  0  7G01G07G08G11G16G27G30                0.000105883
  21358632.487 6  -2570007.426 6  -1949966.05149  21358634.51949
  21481711.472 6  -2339678.512 6  -1792430.67249  21481710.14749
  20750863.714 7   -948598.840 7   -720441.87149  20750864.42949
  20001998.276 6  -1771512.141 6  -1343835.67648  20001995.11248
  23098313.065 5   -898282.621 5   -682025.57847  23098311.99147
  22566813.448 5   -519007.594 5   -399842.44949  22566815.47249
  23993350.698 4  -2575693.949 4  -1957193.28547  23993348.65547
 20  5 16  3 37  3.9990000  0  7G01G07G08G11G16G27G30                0.000103178
  21357246.659 6  -2577290.977 6  -1955641.54349  21357248.75749
  21480438.870 6  -2346364.898 6  -1797640.83649  21480437.47249
  20750350.831 7   -951290.641 7   -722539.37549  20750351.96049
  20001051.690 6  -1776487.438 6  -1347712.52348  20001048.18348
  23097817.698 5   -900886.645 5   -684054.68847  23097816.54247
  22566524.550 5   -520524.078 5   -401024.12949  22566526.53049
  23991901.784 4  -2583307.434 4  -1963125.87547  23991899.83547
 20  5 16  3 37  4.9990000  0  7G01G07G08G11G16G27G30                0.000100479
  21355860.534 6  -2584574.141 6  -1961316.73449  21355862.60149
  21479167.128 6  -2353050.820 6  -1802850.64849  21479165.60849
  20749838.831 7   -953982.207 7   -724636.69949  20749840.25349
  20000104.800 6  -1781462.133 6  -1351588.91448  20000101.65548
  23097322.089 5   -903490.496 5   -686083.67247  23097320.74147
  22566236.698 5   -522040.535 5   -402205.78549  22566238.14749
  23990452.417 4  -2590920.691 4  -1969058.27347  23990451.40147
 20  5 16  3 37  5.9990000  0  7G01G07G08G11G16G27G30                0.000097775
  21354474.714 6  -2591856.902 6  -1966991.61349  21354476.94849
  21477894.800 6  -2359736.332 6  -1808060.13749  21477893.23349
  20749326.839 7   -956673.574 7   -726733.86749  20749328.37849
  19999158.253 6  -1786436.254 6  -1355464.84848  19999155.35548
  23096826.644 5   -906094.270 5   -688112.59047  23096825.77247
  22565948.394 5   -523556.973 5   -403387.42249  22565949.73049
  23989003.886 4  -2598533.832 4  -1974990.57447  23989002.28847
 20  5 16  3 37  6.9990000  0  7G01G07G08G11G16G27G30                0.000095076
  21353088.901 6  -2599139.230 6  -1972666.14849  21353090.86649
  21476622.901 6  -2366421.398 6  -1813269.27749  21476621.06549
  20748814.870 7   -959364.734 7   -728830.88349  20748815.80449
  19998212.003 6  -1791409.816 6  -1359340.35248  19998208.99548
  23096331.323 5   -908697.914 5   -690141.39847  23096330.17547
  22565658.870 5   -525073.391 5   -404569.05549  22565660.51149
  23987555.034 4  -2606146.816 4  -1980922.76647  23987553.67947
 20  5 16  3 37  7.9990000  0  7G01G07G08G11G16G27G30                0.000092371
  21351703.089 6  -2606421.199 6  -1978340.41449  21351705.48749
  21475350.659 6  -2373106.051 6  -1818478.09449  21475349.06249
  20748302.589 7   -962055.680 7   -730927.72349  20748303.75749
  19997265.581 6  -1796382.824 6  -1363215.43048  19997262.52248
  23095836.050 5   -911301.477 5   -692170.14847  23095834.76147
  22565370.308 5   -526589.832 5   -405750.69549  22565372.63249
  23986106.714 4  -2613759.641 4  -1986854.83247  23986104.75747
 20  5 16  3 37  8.9990000  0  7G01G07G08G11G16G27G30                0.000089672
  21350317.730 6  -2613702.777 6  -1984014.36749  21350319.65149
  21474078.808 6  -2379790.293 6  -1823686.59049  21474077.05049
  20747790.651 7   -964746.480 7   -733024.44949  20747791.89749
  19996319.394 6  -1801355.301 6  -1367090.08248  19996316.25748
  23095340.722 5   -913904.934 5   -694198.81647  23095339.30047
  22565081.886 5   -528106.297 5   -406932.35949  22565083.50349
  23984658.917 4  -2621372.336 4  -1992786.81347  23984656.41747
 20  5 16  3 37  9.9990000  0  7G01G07G08G11G16G27G30                0.000086967
  21348931.925 6  -2620983.961 6  -1989688.02049  21348933.92949
  21472807.011 6  -2386474.117 6  -1828894.77049  21472805.15549
  20747278.636 7   -967437.059 7   -735121.00049  20747279.99949
  19995373.573 6  -1806327.215 6  -1370964.30548  19995370.06548
  23094845.089 5   -916508.301 5   -696227.41847  23094844.00747
  22564793.433 5   -529622.730 5   -408113.99649  22564795.13649
  23983210.042 4  -2628984.887 4  -1998718.68047  23983207.80047
 20  5 16  3 37 10.9990000  0  7G01G07G08G11G16G27G30                0.000084269
  21347546.159 6  -2628264.895 6  -1995361.47749  21347548.48749
  21471534.917 6  -2393157.637 6  -1834102.69949  21471533.67949
  20746766.534 7   -970127.590 7   -737217.52349  20746767.74549
  19994426.956 6  -1811298.691 6  -1374838.18048  19994423.96048
  23094349.909 5   -919111.660 5   -698256.01247  23094348.15547
  22564504.597 5   -531139.297 5   -409295.74249  22564506.42949
  23981761.167 3  -2636597.363 3  -2004650.48047  23981758.68747
 20  5 16  3 37 11.9990000  0  7G01G07G08G11G16G27G30                0.000081564
  21346160.784 6  -2635545.434 6  -2001034.62149  21346163.24149
  21470263.081 6  -2399840.750 6  -1839310.32049  21470261.83149
  20746254.870 7   -972817.902 7   -739313.86349  20746255.76149
  19993481.542 6  -1816269.637 6  -1378711.64148  19993478.49148
  23093854.644 5   -921714.949 5   -700284.55147  23093852.92947
  22564216.480 5   -532655.879 5   -410477.49649  22564217.91349
  23980312.511 3  -2644209.734 3  -2010582.19947  23980310.22647
 20  5 16  3 37 12.9990000  0  7G01G07G08G11G16G27G30                0.000078865
  21344775.933 6  -2642825.496 6  -2006707.39549  21344777.64049
  21468991.464 6  -2406523.367 6  -1844517.55949  21468990.41749
  20745742.690 7   -975507.914 7   -741409.98049  20745744.28049
  19992535.144 6  -1821239.922 6  -1382584.59048  19992532.24548
  23093359.206 5   -924318.039 5   -702312.94147  23093357.50747
  22563927.792 5   -534172.414 5   -411659.21149  22563929.17949
  23978864.284 4  -2651821.859 4  -2016513.70747  23978861.92547
 20  5 16  3 37 13.9990000  0  7G01G07G08G11G16G27G30                0.000076160
  21343390.417 6  -2650105.199 6  -2012379.89149  21343392.45649
  21467719.651 6  -2413205.586 6  -1849724.48049  21467718.40149
  20745231.058 7   -978197.781 7   -743505.98049  20745231.95649
  19991589.394 6  -1826209.691 6  -1386457.13349  19991586.88649
  23092863.730 5   -926921.078 5   -704341.28547  23092862.39447
  22563638.347 5   -535688.961 5   -412840.93849  22563640.46449
  23977415.315 4  -2659433.867 4  -2022445.14547  23977413.19447
 20  5 16  3 37 14.9990000  0  7G01G07G08G11G16G27G30                0.000073460
  21342004.433 6  -2657384.535 6  -2018052.09849  21342007.66349
  21466448.167 6  -2419887.410 6  -1854931.09049  21466447.17549
  20744719.331 7   -980887.496 7   -745601.86749  20744720.17549
  19990644.206 6  -1831178.938 6  -1390329.27048  19990640.89448
  23092368.480 5   -929524.047 5   -706369.57447  23092366.80447
  22563350.386 5   -537205.535 5   -414022.68849  22563352.07349
  23975967.362 5  -2667045.738 5  -2028376.47347  23975964.57347
 20  5 16  3 37 15.9990000  0  7G01G07G08G11G16G27G30                0.000070755
  21340619.847 6  -2664663.578 6  -2023724.08249  21340622.15949
  21465176.542 6  -2426568.949 6  -1860137.48449  21465175.81249
  20744207.300 6   -983577.137 6   -747697.68849  20744208.49949
  19989698.464 6  -1836147.754 6  -1394201.07448  19989695.63248
  23091872.870 5   -932127.008 5   -708397.85247  23091871.60147
  22563061.761 5   -538722.258 5   -415204.54749  22563063.49149
  23974518.558 5  -2674657.598 5  -2034307.79747  23974516.17147
 20  5 16  3 37 16.9990000  0  7G01G07G08G11G16G27G30                0.000068056
  21339234.519 6  -2671942.207 6  -2029395.73449  21339237.03049
  21463905.370 6  -2433250.020 6  -1865343.51249  21463904.67549
  20743695.433 6   -986266.512 6   -749793.30549  20743696.62049
  19988752.612 6  -1841115.941 6  -1398072.39148  19988749.76948
  23091377.784 5   -934729.797 5   -710425.99247  23091376.03447
  22562772.628 5   -540238.895 5   -416386.34049  22562774.63249
  23973069.605 5  -2682269.250 5  -2040238.95748  23973068.08548
 20  5 16  3 37 17.9990000  0  7G01G07G08G11G16G27G30                0.000065351
  21337849.659 6  -2679220.406 6  -2035067.06349  21337852.34749
  21462633.839 6  -2439930.621 6  -1870549.17649  21462633.05449
  20743183.644 6   -988955.684 6   -751888.76249  20743184.74549
  19987807.667 6  -1846083.566 6  -1401943.26648  19987804.62448
  23090882.667 5   -937332.516 5   -712454.09447  23090880.85547
  22562484.823 5   -541755.531 5   -417568.14149  22562486.48049
  23971621.948 5  -2689880.742 5  -2046169.97148  23971619.55448
 20  5 16  3 37 18.9990000  0  7G01G07G08G11G16G27G30                0.000062653
  21336464.581 6  -2686498.375 6  -2040738.19949  21336467.66349
  21461363.112 6  -2446610.980 6  -1875754.64549  21461362.01149
  20742672.167 6   -991644.832 6   -753984.20349  20742673.12049
  19986862.378 6  -1851050.801 6  -1405813.84448  19986859.83948
  23090387.073 5   -939935.246 5   -714482.19547  23090385.67547
  22562196.339 5   -543272.332 5   -418750.06649  22562197.46849
  23970173.573 4  -2697492.184 4  -2052100.95347  23970171.24147
 20  5 16  3 37 19.9990000  0  7G01G07G08G11G16G27G30                0.000059948
  21335079.925 6  -2693775.895 6  -2046408.99649  21335082.38249
  21460092.011 6  -2453290.875 6  -1880959.75849  21460090.98749
  20742160.331 7   -994333.711 7   -756079.43449  20742161.81249
  19985917.628 6  -1856017.422 6  -1409683.93848  19985914.45248
  23089891.440 5   -942537.848 5   -716510.19147  23089890.39447
  22561907.480 5   -544789.051 5   -419931.92649  22561908.65549
  23968724.683 4  -2705103.449 4  -2058031.78547  23968722.80047
 20  5 16  3 37 20.9990000  0  7G01G07G08G11G16G27G30                0.000057249
  21333695.253 6  -2701052.977 6  -2052079.44949  21333697.70649
  21458820.823 6  -2459970.273 6  -1886164.48449  21458819.76549
  20741648.855 7   -997022.344 7   -758174.47349  20741649.80849
  19984972.144 6  -1860983.398 6  -1413553.53148  19984969.34748
  23089396.628 5   -945140.270 5   -718538.06647  23089394.90547
  22561618.894 5   -546305.758 5   -421113.78149  22561619.98349
  23967276.339 4  -2712714.555 4  -2063962.50447  23967274.46847
 20  5 16  3 37 21.9990000  0  7G01G07G08G11G16G27G30                0.000054544
  21332310.651 6  -2708329.730 6  -2057749.64849  21332313.29649
  21457550.089 6  -2466649.313 6  -1891368.93449  21457548.98049
  20741137.089 6   -999710.844 6   -760269.40649  20741138.14449
  19984027.737 6  -1865948.922 6  -1417422.77048  19984024.51148
  23088901.378 5   -947742.680 5   -720565.91847  23088899.55047
  22561330.120 5   -547822.559 5   -422295.71149  22561331.39749
  23965828.933 5  -2720325.523 5  -2069893.13747  23965825.68747
 20  5 16  3 37 22.9990000  0  7G01G07G08G11G16G27G30                0.000051846
  21330925.995 6  -2715606.125 6  -2063419.56349  21330928.68749
  21456279.003 6  -2473327.992 6  -1896573.09849  21456278.08149
  20740625.714 7  -1002399.188 7   -762364.21949  20740626.78049
  19983082.542 6  -1870913.914 6  -1421291.59448  19983079.87448
  23088406.269 5   -950345.008 5   -722593.70347  23088404.45647
  22561041.448 5   -549339.359 5   -423477.62949  22561042.46849
  23964379.675 5  -2727936.414 5  -2075823.71947  23964377.63647
 20  5 16  3 37 23.9990000  0  7G01G07G08G11G16G27G30                0.000049139
  21329541.597 6  -2722882.316 6  -2069089.32449  21329543.51149
  21455008.425 6  -2480006.430 6  -1901777.08249  21455007.15149
  20740113.925 7  -1005087.520 7   -764459.02749  20740115.23749
  19982138.058 6  -1875878.566 6  -1425160.15248  19982134.97648
  23087911.300 5   -952947.438 5   -724621.56647  23087909.09347
  22560752.745 5   -550856.363 5   -424659.70749  22560754.37049
  23962931.026 5  -2735547.336 5  -2081754.32848  23962929.49948
 20  5 16  3 37 24.9990000  0  7G01G07G08G11G16G27G30                0.000046440
  21328156.612 6  -2730158.027 6  -2074758.70349  21328159.14749
  21453737.612 6  -2486684.355 6  -1906980.65649  21453736.98349
  20739602.190 6  -1007775.551 6   -766553.59449  20739603.63649
  19981193.237 6  -1880842.531 6  -1429028.17648  19981190.52648
  23087415.878 5   -955549.668 5   -726649.28147  23087413.90547
  22560463.933 5   -552373.262 5   -425841.70749  22560465.49949
  23961483.644 5  -2743157.996 5  -2087684.70748  23961481.40548
 20  5 16  3 37 25.9990000  0  7G01G07G08G11G16G27G30                0.000043736
  21326772.378 6  -2737433.270 6  -2080427.72749  21326774.84349
  21452466.784 6  -2493361.793 6  -1912183.85549  21452465.41349
  20739091.167 6  -1010463.359 6   -768647.98449  20739091.88249
  19980249.058 6  -1885805.930 6  -1432895.75848  19980245.80048
  23086920.769 5   -958151.738 5   -728676.87547  23086918.34347
  22560175.425 5   -553890.172 5   -427023.72349  22560176.88649
  23960035.503 4  -2750768.496 4  -2093614.94547  23960032.86247
 20  5 16  3 37 26.9990000  0  7G01G07G08G11G16G27G30                0.000041037
  21325388.222 6  -2744708.168 6  -2086096.47349  21325390.70649
  21451196.276 6  -2500038.816 6  -1917386.72749  21451195.40549
  20738579.800 7  -1013150.969 7   -770742.23049  20738580.63249
  19979304.628 6  -1890768.746 6  -1436762.89148  19979301.72248
  23086424.886 5   -960753.723 5   -730704.39847  23086423.28847
  22559886.894 5   -555407.070 5   -428205.71549  22559888.31949
  23958586.620 4  -2758378.836 4  -2099545.06347  23958584.66747
 20  5 16  3 37 27.9990000  0  7G01G07G08G11G16G27G30                0.000038330
  21324003.862 6  -2751982.762 6  -2091764.98849  21324005.98749
  21449926.175 6  -2506715.535 6  -1922589.36349  21449924.53449
  20738067.980 7  -1015838.500 7   -772836.41449  20738069.26949
  19978360.065 6  -1895731.141 6  -1440629.69148  19978357.51948
  23085929.745 5   -963355.707 5   -732731.92247  23085928.33147
  22559598.058 5   -556924.051 5   -429387.78549  22559599.26149
  23957139.058 4  -2765989.129 4  -2105475.16047  23957136.43747
 20  5 16  3 37 28.9990000  0  7G01G07G08G11G16G27G30                0.000035631
  21322619.292 6  -2759256.949 6  -2097433.18449  21322621.83549
  21448654.972 6  -2513391.855 6  -1927791.69549  21448654.37049
  20737556.597 7  -1018525.852 7   -774930.45349  20737558.12449
  19977416.433 6  -1900692.961 6  -1444496.04748  19977413.25748
  23085435.222 5   -965957.594 5   -734759.35547  23085432.99547
  22559309.394 5   -558441.082 5   -430569.88749  22559310.86649
  23955690.605 5  -2773599.262 5  -2111405.14147  23955688.45247
 20  5 16  3 37 29.9990000  0  7G01G07G08G11G16G27G30                0.000032927
  21321234.956 6  -2766530.852 6  -2103101.16449  21321237.58949
  21447384.823 6  -2520067.832 6  -1932993.75449  21447384.33549
  20737045.417 6  -1021213.102 6   -777024.41049  20737046.51549
  19976472.136 6  -1905654.336 6  -1448362.05548  19976469.12048
  23084939.995 5   -968559.477 5   -736786.80146  23084938.05046
  22559020.534 5   -559958.176 5   -431752.04349  22559022.22649
  23954242.644 5  -2781209.340 5  -2117335.07447  23954240.33547
 20  5 16  3 37 30.9990000  0  7G01G07G08G11G16G27G30                0.000030228
  21319850.644 6  -2773804.445 6  -2108768.89849  21319853.68349
  21446114.206 6  -2526743.445 6  -1938195.52749  21446113.55449
  20736533.948 7  -1023900.230 7   -779118.27749  20736535.34749
  19975527.933 6  -1910615.211 6  -1452227.67248  19975524.86248
  23084444.644 5   -971161.313 5   -738814.19946  23084442.52246
  22558732.003 5   -561475.391 5   -432934.28549  22558733.11649
  23952793.956 5  -2788819.348 5  -2123264.94147  23952792.35547
 20  5 16  3 37 31.9990000  0  7G01G07G08G11G16G27G30                0.000027521
  21318467.089 6  -2781077.609 6  -2114436.29749  21318469.86249
  21444844.823 6  -2533418.652 6  -1943396.98849  21444843.31949
  20736022.917 7  -1026587.156 7   -781211.98849  20736023.97249
  19974583.980 6  -1915575.543 6  -1456092.86348  19974581.13648
  23083949.628 5   -973763.070 5   -740841.55146  23083947.37046
  22558443.214 5   -562992.523 5   -434116.47749  22558444.58949
  23951346.511 5  -2796429.195 5  -2129194.69948  23951344.23748
 20  5 16  3 37 32.9990000  0  7G01G07G08G11G16G27G30                0.000024822
  21317082.808 6  -2788350.375 6  -2120103.38749  21317085.96049
  21443574.112 6  -2540093.398 6  -1948598.09449  21443573.38249
  20735511.620 7  -1029273.867 7   -783305.53149  20735512.85849
  19973640.190 6  -1920535.281 6  -1459957.59048  19973636.83548
  23083454.831 5   -976364.660 5   -742868.75847  23083452.35847
  22558154.261 5   -564509.707 5   -435298.69949  22558155.89049
  23949898.284 5  -2804038.836 5  -2135124.28948  23949896.31548
 20  5 16  3 37 33.9990000  0  7G01G07G08G11G16G27G30                0.000022116
  21315699.292 6  -2795622.938 6  -2125770.31649  21315701.94449
  21442303.636 6  -2546767.895 6  -1953798.99649  21442303.29649
  20734999.847 6  -1031960.535 6   -785399.03149  20735001.40149
  19972696.425 6  -1925494.629 6  -1463822.02348  19972693.43748
  23082959.675 5   -978966.336 5   -744896.03946  23082957.05046
  22557866.112 5   -566027.055 5   -436481.04749  22557867.34749
  23948450.222 5  -2811648.500 5  -2141053.89548  23948447.81548
 20  5 16  3 37 34.9990000  0  7G01G07G08G11G16G27G30                0.000019417
  21314315.347 6  -2802895.020 6  -2131436.86749  21314318.19049
  21441034.034 6  -2553441.934 6  -1958999.54749  21441033.12449
  20734488.698 6  -1034646.984 6   -787492.37149  20734489.86249
  19971752.495 6  -1930453.387 6  -1467685.98448  19971749.70248
  23082464.753 5   -981567.871 5   -746923.20346  23082462.20646
  22557576.831 5   -567544.355 5   -437663.35949  22557578.52649
  23947002.112 5  -2819258.020 5  -2146983.37948  23946999.93348
 20  5 16  3 37 35.9990000  0  7G01G07G08G11G16G27G30                0.000016712
  21312931.440 6  -2810166.863 6  -2137103.24649  21312934.41349
  21439764.308 6  -2560115.699 6  -1964199.87949  21439763.56549
  20733977.519 6  -1037333.383 6   -789585.66849  20733979.15149
  19970809.097 6  -1935411.742 6  -1471549.64148  19970806.09348
  23081969.487 5   -984169.449 5   -748950.40646  23081967.19446
  22557287.940 5   -569061.836 5   -438845.81349  22557289.51549
  23945553.847 5  -2826867.535 5  -2152912.87947  23945551.83547
 20  5 16  3 37 36.9990000  0  7G01G07G08G11G16G27G30                0.000014011
  21311547.612 6  -2817438.371 6  -2142769.35249  21311550.22649
  21438493.995 6  -2566789.074 6  -1969399.91449  21438493.06249
  20733466.722 6  -1040019.645 6   -791678.86349  20733467.99149
  19969865.948 6  -1940369.605 6  -1475412.91048  19969862.81248
  23081474.112 5   -986770.977 5   -750977.57846  23081471.30046
  22556999.659 5   -570579.336 5   -440028.28149  22557000.60849
  23944106.019 5  -2834476.910 5  -2158842.25047  23944104.01147
 20  5 16  3 37 37.9990000  0  7G01G07G08G11G16G27G30                0.000011307
  21310163.690 6  -2824709.492 6  -2148435.16449  21310166.49949
  21437224.276 6  -2573462.055 6  -1974599.64149  21437223.40149
  20732955.300 6  -1042705.711 6   -793771.89849  20732956.25349
  19968922.222 6  -1945326.902 6  -1479275.73848  19968919.25348
  23080979.261 5   -989372.383 5   -753004.64146  23080977.12846
  22556710.644 5   -572096.871 5   -441210.77349  22556711.90549
  23942658.550 5  -2842086.133 5  -2164771.51647  23942656.02247
 20  5 16  3 37 38.9990000  0  7G01G07G08G11G16G27G30                0.000008606
  21308780.745 6  -2831980.145 6  -2154100.60249  21308783.19449
  21435954.909 6  -2580134.523 6  -1979798.96549  21435953.73749
  20732444.362 6  -1045391.504 6   -795864.73049  20732445.54649
  19967979.245 6  -1950283.551 6  -1483138.05948  19967976.27648
  23080484.503 5   -991973.625 5   -755031.58646  23080481.94446
  22556421.855 5   -573614.301 5   -442393.18849  22556423.46049
  23941209.917 5  -2849695.148 5  -2170700.61747  23941208.24947
 20  5 16  3 37 39.9990000  0  7G01G07G08G11G16G27G30                0.000005901
  21307397.315 6  -2839250.320 6  -2159765.67649  21307400.02649
  21434684.644 6  -2586806.477 6  -1984997.89549  21434683.91749
  20731933.183 6  -1048077.055 6   -797957.36749  20731934.27249
  19967036.097 6  -1955239.578 6  -1486999.90248  19967033.29648
  23079989.519 5   -994574.680 5   -757058.38346  23079986.73046
  22556132.940 5   -575131.688 5   -443575.56649  22556134.56249
  23939762.644 5  -2857303.910 5  -2176629.52747  23939760.35547
 20  5 16  3 37 40.9990000  0  7G01G07G08G11G16G27G30                0.000003201
  21306013.667 6  -2846520.191 6  -2165430.50449  21306016.04249
  21433415.214 6  -2593478.164 6  -1990196.60549  21433414.29249
  20731422.495 6  -1050762.520 6   -800049.94149  20731423.31549
  19966093.011 6  -1960195.180 6  -1490861.40648  19966089.82348
  23079494.378 5   -997175.797 5   -759085.22346  23079491.86646
  22555844.706 5   -576649.211 5   -444758.05549  22555845.43749
  23938314.487 5  -2864912.684 5  -2182558.44147  23938312.63647
 20  5 16  3 37 41.9990000  0  7G01G07G08G11G16G27G30                0.000000496
  21304630.690 6  -2853789.668 6  -2171095.03549  21304632.79249
  21432146.003 6  -2600149.379 6  -1995394.96149  21432145.08549
  20730911.276 6  -1053447.793 6   -802142.35549  20730912.32349
  19965150.245 6  -1965150.195 6  -1494722.45748  19965147.30848
  23078999.565 5   -999776.703 5   -761111.90246  23078996.78846
  22555556.144 5   -578166.680 5   -445940.50449  22555556.97649
  23936866.706 5  -2872521.254 5  -2188487.19947  23936865.24947
 20  5 16  3 37 42.9990000  0  7G01G07G08G11G16G27G30               -0.000002203
  21303246.683 6  -2861058.855 6  -2176759.34049  21303249.52249
  21430876.159 6  -2606820.293 6  -2000593.07449  21430875.44849
  20730400.222 7  -1056132.945 7   -804234.68849  20730401.49949
  19964207.300 6  -1970104.758 6  -1498583.15648  19964204.28448
  23078504.042 5  -1002377.656 5   -763138.62146  23078501.76546
  22555266.823 5   -579684.273 5   -447123.04349  22555267.87849
  23935418.948 5  -2880129.770 5  -2194415.91047  23935416.81247
 20  5 16  3 37 43.9990000  0  7G01G07G08G11G16G27G30               -0.000004910
  21301864.128 6  -2868327.543 6  -2182423.25049  21301866.43349
  21429606.995 6  -2613490.664 6  -2005790.76249  21429606.05849
  20729889.190 6  -1058817.809 6   -806326.79349  20729890.36649
  19963264.753 6  -1975058.656 6  -1502443.33648  19963261.65948
  23078009.339 5  -1004978.410 5   -765165.18446  23078006.64046
  22554977.917 5   -581201.781 5   -448305.51249  22554979.37449
  23933970.870 5  -2887738.031 5  -2200344.42248  23933968.99548
 20  5 16  3 37 44.9990000  0  7G01G07G08G11G16G27G30               -0.000007610
  21300480.847 6  -2875595.840 6  -2188086.85949  21300483.42949
  21428338.120 6  -2620160.656 6  -2010988.16449  21428336.78449
  20729378.503 6  -1061502.516 6   -808418.77049  20729379.71849
  19962321.855 6  -1980012.043 6  -1506303.11348  19962319.04248
  23077514.230 5  -1007579.082 5   -767191.67647  23077512.07347
  22554689.253 5   -582719.328 5   -449488.01649  22554690.14049
  23932523.644 5  -2895346.176 5  -2206272.84848  23932521.26148
 20  5 16  3 37 45.9990000  0  7G01G07G08G11G16G27G30               -0.000010315
  21299097.612 6  -2882863.797 6  -2193750.19549  21299100.31249
  21427068.644 6  -2626830.219 6  -2016185.22749  21427067.77249
  20728867.612 6  -1064187.031 6   -810510.60249  20728868.83949
  19961378.987 6  -1984964.875 6  -1510162.46948  19961376.36648
  23077019.417 5  -1010179.656 5   -769218.10246  23077017.51946
  22554400.878 5   -584236.853 5   -450670.50649  22554401.65149
  23931075.956 5  -2902954.152 5  -2212201.14147  23931073.36247
 20  5 16  3 37 46.9990000  0  7G01G07G08G11G16G27G30               -0.000013014
  21297714.862 6  -2890131.367 6  -2199413.24249  21297717.23349
  21425799.276 6  -2633499.414 6  -2021382.00449  21425798.15949
  20728356.870 6  -1066871.379 6   -812602.30149  20728357.93749
  19960437.019 6  -1989917.184 6  -1514021.41048  19960434.12848
  23076524.737 5  -1012780.160 5   -771244.46946  23076522.01546
  22554111.558 5   -585754.434 5   -451853.03949  22554112.64049
  23929627.730 5  -2910562.035 5  -2218129.35947  23929625.66747
 20  5 16  3 37 47.9990000  0  7G01G07G08G11G16G27G30               -0.000015720
  21296331.808 6  -2897398.492 6  -2205075.93449  21296334.21049
  21424530.526 6  -2640168.125 6  -2026578.40249  21424529.32349
  20727846.401 6  -1069555.484 6   -814693.81649  20727847.51949
  19959494.730 6  -1994868.883 6  -1517879.87148  19959492.01148
  23076029.605 5  -1015380.504 5   -773270.72346  23076027.69046
  22553823.519 5   -587272.016 5   -453035.57049  22553824.22649
  23928180.230 5  -2918169.719 5  -2224057.42247  23928177.85147
 20  5 16  3 37 48.9990000  0  7G01G07G08G11G16G27G30               -0.000018419
  21294949.003 6  -2904665.223 6  -2210738.32449  21294951.68749
  21423261.308 6  -2646836.422 6  -2031774.48049  21423260.42949
  20727335.308 6  -1072239.422 6   -816785.19549  20727336.27249
  19958552.909 6  -1999820.063 6  -1521737.93848  19958550.28048
  23075535.112 5  -1017980.805 5   -775296.92646  23075532.58146
  22553534.167 5   -588789.566 5   -454218.08249  22553535.29649
  23926732.292 5  -2925777.254 5  -2229985.37547  23926729.90147
 20  5 16  3 37 49.9990000  0  7G01G07G08G11G16G27G30               -0.000021126
  21293566.776 6  -2911931.555 6  -2216400.39549  21293569.36249
  21421992.628 6  -2653504.270 6  -2036970.21149  21421991.33949
  20726824.448 6  -1074923.109 6   -818876.37949  20726825.96049
  19957610.089 6  -2004770.625 6  -1525595.51648  19957607.38648
  23075039.987 4  -1020580.887 4   -777322.95346  23075037.78846
  22553245.573 5   -590307.109 5   -455400.58249  22553246.61249
  23925284.745 5  -2933384.617 5  -2235913.19947  23925282.17147
 20  5 16  3 37 50.9990000  0  7G01G07G08G11G16G27G30               -0.000023825
  21292183.956 6  -2919197.492 6  -2222062.16049  21292186.82749
  21420723.847 6  -2660171.738 6  -2042165.64149  21420722.74549
  20726314.065 6  -1077606.652 6   -820967.44949  20726315.07349
  19956668.558 6  -2009720.668 6  -1529452.69148  19956665.56548
  23074545.331 4  -1023180.949 4   -779348.97346  23074543.26946
  22552956.401 5   -591824.676 5   -456583.10549  22552957.71049
  23923837.261 5  -2940991.840 5  -2241840.91447  23923834.49947
 20  5 16  3 37 51.9990000  0  7G01G07G08G11G16G27G30               -0.000026531
  21290801.401 6  -2926463.074 6  -2227723.66049  21290803.72249
  21419455.026 6  -2666838.781 6  -2047360.73849  21419453.96449
  20725803.206 6  -1080290.035 6   -823058.39549  20725804.30449
  19955726.323 6  -2014670.207 6  -1533309.46948  19955723.87048
  23074051.097 4  -1025780.906 4   -781374.92646  23074048.33946
  22552667.667 5   -593342.289 5   -457765.65249  22552668.62849
  23922389.511 5  -2948598.961 5  -2247768.54347  23922387.04247
 20  5 16  3 37 52.9990000  0  7G01G07G08G11G16G27G30               -0.000029230
  21289418.987 6  -2933728.164 6  -2233384.76249  21289421.68349
  21418186.511 6  -2673505.313 6  -2052555.44149  21418185.11649
  20725292.776 6  -1082973.141 6   -825149.12549  20725293.99949
  19954784.722 6  -2019619.070 6  -1537165.72748  19954782.38648
  23073555.675 5  -1028380.668 5   -783400.70746  23073553.42546
  22552379.269 5   -594859.809 5   -458948.14549  22552380.00749
  23920942.214 5  -2956205.797 5  -2253695.94147  23920939.53047
 20  5 16  3 37 53.9990000  0  7G01G07G08G11G16G27G30               -0.000031937
  21288036.409 6  -2940992.828 6  -2239045.53949  21288039.02249
  21416917.855 6  -2680171.387 6  -2057749.78949  21416916.87449
  20724781.917 6  -1085656.008 6   -827239.68049  20724782.95649
  19953843.167 6  -2024567.352 6  -1541021.52748  19953840.35848
  23073061.565 4  -1030980.305 4   -785426.39846  23073058.83946
  22552090.597 5   -596377.324 5   -460130.62149  22552091.50349
  23919493.784 5  -2963812.461 5  -2259623.21947  23919491.76547
 20  5 16  3 37 54.9990000  0  7G01G07G08G11G16G27G30               -0.000034636
  21286653.870 6  -2948257.188 6  -2244706.07849  21286656.31949
  21415649.425 6  -2686837.145 6  -2062943.88749  21415648.38649
  20724271.550 6  -1088338.797 6   -829330.16449  20724272.64449
  19952901.948 6  -2029515.184 6  -1544876.98848  19952898.99148
  23072566.878 4  -1033579.914 4   -787452.07046  23072564.64446
  22551801.948 5   -597894.887 5   -461313.14149  22551802.46049
  23918047.128 5  -2971419.070 5  -2265550.44147  23918044.19847
 20  5 16  3 37 55.9990000  0  7G01G07G08G11G16G27G30               -0.000037342
  21285271.808 6  -2955521.215 6  -2250366.35949  21285274.12449
  21414380.917 6  -2693502.551 6  -2068137.71149  21414380.12849
  20723761.230 6  -1091021.480 6   -831420.57049  20723762.02249
  19951960.370 6  -2034462.512 6  -1548732.04748  19951957.73048
  23072071.628 4  -1036179.516 4   -789477.73446  23072069.88246
  22551512.847 5   -599412.574 5   -462495.75449  22551513.53449
  23916599.628 5  -2979025.555 5  -2271477.57047  23916596.72247
 20  5 16  3 37 56.9990000  0  7G01G07G08G11G16G27G30               -0.000040041
  21283889.792 6  -2962784.836 6  -2256026.32449  21283891.63649
  21413112.550 6  -2700167.504 6  -2073331.18049  21413111.98749
  20723250.597 6  -1093703.941 6   -833510.80149  20723251.90149
  19951019.097 6  -2039409.270 6  -1552586.65648  19951016.46448
  23071576.870 4  -1038778.988 4   -791503.30146  23071575.10146
  22551224.136 5   -600930.223 5   -463678.34049  22551225.01149
  23915152.175 5  -2986631.930 5  -2277404.61747  23915149.48347
 20  5 16  3 37 57.9990000  0  7G01G07G08G11G16G27G30               -0.000042747
  21282507.315 6  -2970047.961 6  -2261685.90249  21282509.55849
  21411844.323 6  -2706831.945 6  -2078524.25449  21411843.49149
  20722740.378 6  -1096386.125 6   -835600.80949  20722741.20249
  19950077.464 6  -2044355.367 6  -1556440.76248  19950074.85548
  23071082.589 4  -1041378.254 4   -793528.70346  23071080.35546
  22550935.026 5   -602447.789 5   -464860.85949  22550935.82749
  23913704.284 5  -2994237.996 5  -2283331.42247  23913702.20647
 20  5 16  3 37 58.9990000  0  7G01G07G08G11G16G27G30               -0.000045446
  21281125.308 6  -2977310.688 6  -2267345.17249  21281127.67549
  21410576.542 6  -2713495.965 6  -2083716.99649  21410575.44049
  20722230.120 6  -1099068.113 6   -837690.66849  20722230.79649
  19949136.425 6  -2049300.914 6  -1560294.43448  19949133.96048
  23070587.823 4  -1043977.445 4   -795554.04746  23070585.76946
  22550646.487 5   -603965.387 5   -466043.40649  22550647.15549
  23912257.019 5  -3001843.938 5  -2289258.12948  23912254.56248
 20  5 16  3 37 59.9990000  0  7G01G07G08G11G16G27G30               -0.000048153
  21279743.558 6  -2984573.031 6  -2273004.14149  21279745.61249
  21409308.620 6  -2720159.551 6  -2088909.39849  21409307.30049
  20721719.870 6  -1101749.898 6   -839780.37149  20721720.57749
  19948195.667 6  -2054245.926 6  -1564147.69148  19948192.61648
  23070093.659 4  -1046576.508 4   -797579.28946  23070091.17546
  22550357.128 5   -605482.969 5   -467225.94149  22550358.29649
  23910809.487 5  -3009449.750 5  -2295184.73447  23910807.28047
 20  5 16  3 38  0.9990000  0  7G01G07G08G11G16G27G30               -0.000050854
  21278361.597 6  -2991835.129 6  -2278662.91849  21278364.19449
  21408040.456 6  -2726822.898 6  -2094101.62149  21408039.15149
  20721209.425 6  -1104431.664 6   -841870.06349  20721210.40549
  19947254.480 6  -2059190.527 6  -1568000.63348  19947251.99948
  23069598.503 4  -1049175.621 4   -799604.57846  23069596.74546
  22550068.831 5   -607000.754 5   -468408.63349  22550069.65149
  23909362.378 5  -3017055.539 5  -2301111.32048  23909359.53048
 20  5 16  3 38  1.9990000  0  7G01G07G08G11G16G27G30               -0.000053558
  21276979.862 6  -2999096.734 6  -2284321.30949  21276982.31249
  21406772.190 6  -2733485.703 6  -2099293.41849  21406771.35549
  20720698.901 6  -1107113.121 6   -843959.51249  20720699.70249
  19946314.128 6  -2064134.480 6  -1571853.05948  19946311.38648
  23069104.386 4  -1051774.555 4   -801629.72346  23069102.71046
  22549779.651 5   -608518.414 5   -469591.22749  22549781.03449
  23907915.761 5  -3024661.102 5  -2307037.73447  23907912.93347
 20  5 16  3 38  2.9990000  0  7G01G07G08G11G16G27G30               -0.000056259
  21275598.081 6  -3006357.941 6  -2289979.39549  21275600.27249
  21405504.714 6  -2740148.090 6  -2104484.89149  21405503.58149
  20720188.745 7  -1109794.395 7   -846048.81349  20720189.42149
  19945373.120 6  -2069077.867 6  -1575705.04748  19945370.45248
  23068609.792 4  -1054373.367 4   -803654.77046  23068607.75346
  22549491.323 5   -610036.094 5   -470773.83649  22549492.06549
  23906467.964 5  -3032266.496 5  -2312964.01648  23906465.80848
 20  5 16  3 38  3.9990000  0  7G01G07G08G11G16G27G30               -0.000058964
  21274216.487 6  -3013618.609 6  -2295637.05549  21274218.68349
  21404236.995 6  -2746809.918 6  -2109675.92249  21404235.62449
  20719678.737 6  -1112475.332 6   -848137.85249  20719679.42149
  19944432.597 6  -2074020.582 6  -1579556.51648  19944429.78848
  23068114.315 4  -1056971.980 4   -805679.66446  23068113.21046
  22549202.370 5   -611553.660 5   -471956.35549  22549203.48749
  23905021.105 5  -3039871.598 5  -2318890.07047  23905018.60847
 20  5 16  3 38  4.9990000  0  7G01G07G08G11G16G27G30               -0.000061665
  21272834.370 6  -3020879.012 6  -2301294.51649  21272836.90549
  21402969.175 6  -2753471.453 6  -2114866.73449  21402968.34749
  20719167.956 6  -1115156.223 6   -850226.86349  20719169.18349
  19943492.308 6  -2078962.852 6  -1583407.63348  19943489.31948
  23067620.331 4  -1059570.590 4   -807704.55146  23067618.55046
  22548913.644 5   -613071.332 5   -473138.96149  22548914.19449
  23903573.855 5  -3047476.719 5  -2324816.13748  23903571.76948
 20  5 16  3 38  5.9990000  0  7G01G07G08G11G16G27G30               -0.000064369
  21271452.909 6  -3028139.148 6  -2306951.76649  21271455.30849
  21401701.690 6  -2760132.688 6  -2120057.30149  21401700.71049
  20718658.331 6  -1117837.012 6   -852315.78549  20718658.87449
  19942551.378 6  -2083904.680 6  -1587258.40648  19942548.89448
  23067125.925 4  -1062169.223 4   -809729.46546  23067124.35146
  22548624.894 5   -614589.160 5   -474321.68849  22548625.51949
  23902125.862 5  -3055081.730 5  -2330742.11748  23902124.46048
 20  5 16  3 38  6.9990000  0  7G01G07G08G11G16G27G30               -0.000067070
  21270071.573 6  -3035398.766 6  -2312608.60549  21270073.98749
  21400434.237 6  -2766793.367 6  -2125247.43849  21400433.22249
  20718148.417 6  -1120517.539 6   -854404.51249  20718149.19449
  19941611.706 6  -2088845.879 6  -1591108.69548  19941608.98048
  23066631.237 4  -1064767.617 4   -811754.18047  23066629.80847
  22548336.339 5   -616106.879 5   -475504.32449  22548336.44849
  23900679.308 5  -3062686.551 5  -2336667.94948  23900677.26948
 20  5 16  3 38  7.9990000  0  7G01G07G08G11G16G27G30               -0.000069777
  21268690.222 6  -3042658.074 6  -2318265.21149  21268692.77249
  21399166.464 6  -2773453.691 6  -2130437.30149  21399165.39749
  20717638.292 6  -1123197.938 6   -856493.13349  20717638.81249
  19940671.190 6  -2093786.566 6  -1594958.58248  19940668.89048
  23066137.394 4  -1067366.000 4   -813778.90246  23066135.61246
  22548047.245 5   -617624.652 5   -476687.00449  22548047.87849
  23899231.964 5  -3070291.238 5  -2342593.68048  23899229.98348
 20  5 16  3 38  8.9990000  0  7G01G07G08G11G16G27G30               -0.000072475
  21267309.284 6  -3049916.953 6  -2323921.47749  21267311.33549
  21397899.620 6  -2780113.605 6  -2135626.84849  21397898.10549
  20717128.339 6  -1125878.152 6   -858581.61349  20717128.89049
  19939731.183 6  -2098726.668 6  -1598808.01248  19939728.49548
  23065643.253 4  -1069964.309 4   -815803.56346  23065641.09346
  22547758.417 5   -619142.457 5   -477869.71149  22547759.01149
  23897784.956 5  -3077895.801 5  -2348519.30948  23897783.04248
 20  5 16  3 38  9.9990000  0  7G01G07G08G11G16G27G30               -0.000075182
  21265927.487 6  -3057175.496 6  -2329577.48449  21265929.91749
  21396632.347 6  -2786773.145 6  -2140816.10549  21396631.39049
  20716618.386 6  -1128558.203 6   -860669.96949  20716618.73749
  19938791.331 6  -2103666.301 6  -1602657.07448  19938788.46448
  23065148.222 4  -1072562.520 4   -817828.14847  23065147.33947
  22547469.706 5   -620660.332 5   -479052.47349  22547470.30049
  23896338.409 5  -3085500.238 5  -2354444.85248  23896336.43748
 20  5 16  3 38 10.9990000  0  7G01G07G08G11G16G27G30               -0.000077883
  21264546.378 6  -3064433.805 6  -2335233.30949  21264548.86649
  21395364.815 6  -2793432.395 6  -2146005.13349  21395363.78849
  20716108.276 6  -1131238.254 6   -862758.31649  20716108.62849
  19937851.425 6  -2108605.527 6  -1606505.82848  19937848.44848
  23064654.245 4  -1075160.801 4   -819852.79346  23064652.92946
  22547180.730 5   -622178.340 5   -480235.33649  22547181.10849
  23894890.651 5  -3093104.672 5  -2360370.38347  23894889.39747
 20  5 16  3 38 11.9990000  0  7G01G07G08G11G16G27G30               -0.000080587
  21263164.831 6  -3071691.695 6  -2340888.80549  21263167.19049
  21394097.815 6  -2800091.184 6  -2151193.79349  21394097.01549
  20715598.151 6  -1133918.059 6   -864846.47749  20715598.70649
  19936911.542 6  -2113544.156 6  -1610354.10548  19936908.83948
  23064159.433 4  -1077758.928 4   -821877.31446  23064158.43746
  22546892.128 5   -623696.340 5   -481418.19149  22546892.63249
  23893444.276 5  -3100708.906 5  -2366295.75847  23893442.31547
 20  5 16  3 38 12.9990000  0  7G01G07G08G11G16G27G30               -0.000083288
  21261784.284 6  -3078949.219 6  -2346544.02049  21261786.26949
  21392830.933 6  -2806749.637 6  -2156382.20349  21392829.67149
  20715088.136 6  -1136597.727 6   -866934.53549  20715088.64749
  19935971.995 6  -2118482.305 6  -1614202.02048  19935968.96048
  23063665.034 4  -1080357.055 4   -823901.82846  23063664.21846
  22546602.753 5   -625214.414 5   -482601.10549  22546603.20649
  23891997.315 5  -3108313.059 5  -2372221.06347  23891995.36647
 20  5 16  3 38 13.9990000  0  7G01G07G08G11G16G27G30               -0.000085995
  21260403.097 6  -3086206.285 6  -2352198.87549  21260405.51149
  21391563.651 6  -2813407.590 6  -2161570.22349  21391562.81549
  20714578.355 6  -1139277.129 6   -869022.37549  20714578.79249
  19935032.339 6  -2123419.813 6  -1618049.42648  19935029.83148
  23063170.628 4  -1082954.957 4   -825926.17246  23063169.88246
  22546314.269 5   -626732.383 5   -483783.93849  22546314.63249
  23890549.519 5  -3115916.977 5  -2378146.18847  23890548.37047
 20  5 16  3 38 14.9990000  0  7G01G07G08G11G16G27G30               -0.000088694
  21259022.120 6  -3093462.926 6  -2357853.40249  21259024.49149
  21390297.659 6  -2820065.082 6  -2166757.87549  21390296.14049
  20714068.565 6  -1141956.344 6   -871110.07449  20714069.29649
  19934092.675 6  -2128356.762 6  -1621896.39548  19934089.84748
  23062676.823 4  -1085552.770 4   -827950.43846  23062675.06546
  22546025.151 5   -628250.398 5   -484966.80549  22546025.91749
  23889102.878 5  -3123520.707 5  -2384071.16447  23889101.45647
 20  5 16  3 38 15.9990000  0  7G01G07G08G11G16G27G30               -0.000091400
  21257641.401 6  -3100719.195 6  -2363507.63349  21257643.91749
  21389030.323 6  -2826722.191 6  -2171945.24249  21389029.26949
  20713558.901 6  -1144635.367 6   -873197.62549  20713559.10549
  19933153.636 6  -2133293.180 6  -1625742.95748  19933150.98048
  23062182.675 4  -1088150.488 4   -829974.63346  23062181.01946
  22545736.230 5   -629768.422 5   -486149.67649  22545736.71849
  23887656.167 5  -3131124.305 5  -2389996.04747  23887654.68347
 20  5 16  3 38 16.9990000  0  7G01G07G08G11G16G27G30               -0.000094101
  21256260.487 6  -3107975.199 6  -2369161.66449  21256263.36249
  21387763.487 6  -2833378.977 6  -2177132.34849  21387762.39749
  20713049.323 6  -1147314.324 6   -875285.11349  20713049.72649
  19932214.073 6  -2138229.148 6  -1629589.16448  19932211.52248
  23061687.659 4  -1090748.254 4   -831998.87946  23061687.14446
  22545447.355 5   -631286.570 5   -487332.64149  22545448.10549
  23886208.925 5  -3138727.898 5  -2395920.91448  23886207.39048
 20  5 16  3 38 17.9990000  0  7G01G07G08G11G16G27G30               -0.000096807
  21254879.769 6  -3115230.676 6  -2374815.28149  21254882.53449
  21386496.620 6  -2840035.242 6  -2182319.04349  21386495.92549
  20712539.261 6  -1149992.965 6   -877372.37549  20712539.82749
  19931275.120 6  -2143164.441 6  -1633434.84848  19931272.59748
  23061193.698 4  -1093345.738 4   -834022.89846  23061192.52646
  22545158.784 5   -632804.605 5   -488515.52349  22545158.81549
  23884762.042 5  -3146331.172 5  -2401845.53548  23884760.89448
 20  5 16  3 38 18.9990000  0  7G01G07G08G11G16G27G30               -0.000099508
  21253499.425 6  -3122485.754 6  -2380468.59049  21253501.89049
  21385230.417 6  -2846691.070 6  -2187505.40649  21385229.09749
  20712029.573 6  -1152671.422 6   -879459.48449  20712030.01149
  19930335.855 6  -2148099.223 6  -1637280.12948  19930333.24948
  23060698.917 4  -1095943.137 4   -836046.83647  23060698.62047
  22544869.878 5   -634322.664 5   -489698.43449  22544870.27249
  23883315.214 5  -3153934.328 5  -2407770.07448  23883313.84748
 20  5 16  3 38 19.9990000  0  7G01G07G08G11G16G27G30               -0.000102213
  21252118.987 6  -3129740.441 6  -2386121.58649  21252121.46449
  21383963.784 6  -2853346.492 6  -2192691.45349  21383963.25749
  20711519.901 6  -1155349.727 6   -881546.47749  20711520.69449
  19929397.151 6  -2153033.445 6  -1641124.98048  19929394.56248
  23060204.987 4  -1098540.520 4   -838070.77347  23060204.21447
  22544580.878 5   -635840.746 5   -490881.35549  22544581.33149
  23881867.925 5  -3161537.340 5  -2413694.49248  23881867.18748
 20  5 16  3 38 20.9990000  0  7G01G07G08G11G16G27G30               -0.000104914
  21250738.722 6  -3136994.664 6  -2391774.22749  21250740.89449
  21382697.769 6  -2860001.398 6  -2197877.09049  21382696.70649
  20711010.605 6  -1158027.758 6   -883633.25849  20711010.34749
  19928458.190 6  -2157967.027 6  -1644969.32448  19928455.53448
  23059710.940 4  -1101137.652 4   -840094.51647  23059710.00747
  22544291.862 5   -637358.727 5   -492064.19949  22544292.29249
  23880421.909 5  -3169140.137 5  -2419618.74248  23880420.44448
 20  5 16  3 38 21.9990000  0  7G01G07G08G11G16G27G30               -0.000107620
  21249358.440 6  -3144248.418 6  -2397426.50049  21249360.60149
  21381430.862 6  -2866655.828 6  -2203062.36349  21381430.38649
  20710500.440 6  -1160705.531 6   -885719.83249  20710501.20249
  19927519.456 6  -2162899.992 6  -1648813.19148  19927516.85848
  23059216.245 4  -1103734.677 4   -842118.17447  23059216.01547
  22544003.011 5   -638876.680 5   -493247.01649  22544003.56249
  23878974.894 5  -3176742.723 5  -2425542.82048  23878973.83548
 20  5 16  3 38 22.9990000  0  7G01G07G08G11G16G27G30               -0.000110319
  21247977.901 6  -3151501.934 6  -2403078.59449  21247980.48749
  21380165.050 6  -2873309.973 6  -2208247.41049  21380163.96049
  20709991.159 6  -1163383.285 6   -887806.39149  20709991.59749
  19926580.839 6  -2167832.559 6  -1652656.75448  19926578.07748
  23058723.144 4  -1106331.664 4   -844141.80946  23058722.23046
  22543714.534 5   -640394.824 5   -494429.98849  22543714.70249
  23877527.980 5  -3184345.281 5  -2431466.87948  23877526.98348
 20  5 16  3 38 23.9990000  0  7G01G07G08G11G16G27G30               -0.000113026
  21246597.808 6  -3158754.980 6  -2408730.31649  21246599.95649
  21378898.753 6  -2879963.621 6  -2213432.07049  21378898.28849
  20709481.917 6  -1166060.758 6   -889892.73449  20709482.06549
  19925642.409 6  -2172764.480 6  -1656499.80949  19925639.65549
  23058227.823 4  -1108928.504 4   -846165.32446  23058228.12046
  22543425.448 5   -641912.867 5   -495612.87949  22543425.63649
  23876081.667 5  -3191947.613 5  -2437390.77748  23876080.42148
 20  5 16  3 38 24.9990000  0  7G01G07G08G11G16G27G30               -0.000115726
  21245217.401 6  -3166007.719 6  -2414381.79749  21245219.69049
  21377632.855 6  -2886616.934 6  -2218616.46949  21377632.26149
  20708972.589 6  -1168738.184 6   -891979.03949  20708972.66749
  19924703.972 7  -2177695.977 7  -1660342.53149  19924700.81549
  23057733.995 4  -1111525.391 4   -848188.88347  23057733.56247
  22543136.370 5   -643431.039 5   -496795.86749  22543136.75349
  23874634.370 5  -3199549.867 5  -2443314.60948  23874633.61248
 20  5 16  3 38 25.9990000  0  7G01G07G08G11G16G27G30               -0.000118433
  21243837.526 6  -3173259.977 6  -2420032.90249  21243839.82349
  21376366.495 6  -2893269.773 6  -2223800.50449  21376366.13249
  20708462.644 6  -1171415.316 6   -894065.11349  20708463.58149
  19923765.370 6  -2182626.824 6  -1664184.75048  19923763.21848
  23057240.472 4  -1114122.051 4   -850212.25047  23057239.69047
  22542847.769 5   -644949.121 5   -497978.78949  22542847.81249
  23873188.339 5  -3207151.914 5  -2449238.28148  23873187.30048
 20  5 16  3 38 26.9990000  0  7G01G07G08G11G16G27G30               -0.000121132
  21242457.276 6  -3180511.898 6  -2425683.75449  21242459.31949
  21375100.698 6  -2899922.211 6  -2228984.22749  21375100.55449
  20707953.706 6  -1174092.316 6   -896151.09449  20707953.80849
  19922827.401 6  -2187557.172 6  -1668026.57448  19922824.80448
  23056746.276 4  -1116718.653 4   -852235.57747  23056745.38647
  22542558.839 5   -646467.305 5   -499161.78949  22542559.31549
  23871741.651 5  -3214753.875 5  -2455161.89848  23871740.45248
 20  5 16  3 38 27.9990000  0  7G01G07G08G11G16G27G30               -0.000123838
  21241077.378 6  -3187763.535 6  -2431334.38749  21241080.05049
  21373835.026 6  -2906574.328 6  -2234167.69149  21373834.56949
  20707444.097 6  -1176769.203 6   -898236.98049  20707444.64449
  19921889.136 6  -2192487.066 6  -1671868.05148  19921886.74548
  23056251.909 4  -1119315.305 4   -854258.94547  23056251.05847
  22542270.128 5   -647985.527 5   -500344.82049  22542269.94049
  23870294.901 5  -3222355.766 5  -2461085.44948  23870294.05048
 20  5 16  3 38 28.9990000  0  7G01G07G08G11G16G27G30               -0.000126539
  21239697.769 6  -3195014.684 6  -2436984.62949  21239700.01549
  21372569.269 6  -2913225.984 6  -2239350.80549  21372568.73749
  20706934.519 6  -1179445.871 6   -900322.69149  20706934.68749
  19920951.198 6  -2197416.332 6  -1675709.03548  19920948.57748
  23055758.073 5  -1121911.758 5   -856282.15247  23055757.28047
  22541980.534 5   -649503.773 5   -501527.86749  22541981.06949
  23868849.042 5  -3229957.441 5  -2467008.83248  23868846.73348
 20  5 16  3 38 29.9990000  0  7G01G07G08G11G16G27G30               -0.000129246
  21238317.972 6  -3202265.563 6  -2442634.66849  21238319.95649
  21371303.659 6  -2919877.297 6  -2244533.64549  21371303.21049
  20706425.519 6  -1182122.457 6   -902408.34849  20706425.58149
  19920013.198 6  -2202345.152 6  -1679549.67648  19920010.53048
  23055263.487 5  -1124508.199 5   -858305.35247  23055263.25347
  22541691.917 5   -651022.086 5   -502710.98049  22541691.99549
  23867401.940 5  -3237559.043 5  -2472932.15248  23867400.76148
 20  5 16  3 38 30.9990000  0  7G01G07G08G11G16G27G30               -0.000131947
  21236938.183 6  -3209515.934 6  -2448284.30149  21236940.40949
  21370037.964 6  -2926528.098 6  -2249716.09049  21370037.53049
  20705916.276 6  -1184798.758 6   -904493.77349  20705916.47249
  19919075.292 6  -2207273.363 6  -1683389.84048  19919072.59348
  23054769.378 5  -1127104.504 5   -860328.44947  23054769.39447
  22541402.519 5   -652540.383 5   -503894.06349  22541402.80849
  23865955.448 5  -3245160.430 5  -2478855.30548  23865954.20648
 20  5 16  3 38 31.9990000  0  7G01G07G08G11G16G27G30               -0.000134651
  21235558.448 6  -3216765.930 6  -2453933.65649  21235560.81949
  21368772.198 6  -2933178.484 6  -2254898.20749  21368772.38249
  20705406.730 6  -1187474.875 6   -906579.05949  20705407.27249
  19918137.636 6  -2212200.992 6  -1687229.55149  19918135.01549
  23054275.253 5  -1129700.656 5   -862351.43847  23054274.69847
  22541113.769 5   -654058.613 5   -505077.10549  22541114.55449
  23864508.956 5  -3252761.648 5  -2484778.33648  23864507.86248
 20  5 16  3 38 32.9990000  0  7G01G07G08G11G16G27G30               -0.000137352
  21234179.097 6  -3224015.535 6  -2459582.69549  21234181.25349
  21367506.714 6  -2939828.441 6  -2260079.98449  21367506.56949
  20704897.503 6  -1190150.820 6   -908664.21149  20704897.91749
  19917199.925 6  -2217128.082 6  -1691068.84048  19917197.66348
  23053781.894 5  -1132296.730 5   -864374.35547  23053780.90947
  22540825.050 5   -655576.895 5   -506260.18049  22540825.67949
  23863062.448 5  -3260362.715 5  -2490701.25048  23863061.81548
 20  5 16  3 38 33.9990000  0  7G01G07G08G11G16G27G30               -0.000140059
  21232799.269 6  -3231264.758 6  -2465231.43849  21232801.49949
  21366242.073 6  -2946478.016 6  -2265261.47749  21366240.99549
  20704388.612 6  -1192826.609 6   -910749.24249  20704388.95649
  19916262.855 6  -2222054.664 6  -1694907.73448  19916259.95648
  23053287.839 5  -1134892.743 5   -866397.22246  23053287.03846
  22540536.651 5   -657095.230 5   -507443.30149  22540536.27649
  23861615.925 5  -3267963.656 5  -2496624.06348  23861615.21848
 20  5 16  3 38 34.9990000  0  7G01G07G08G11G16G27G30               -0.000142759
  21231420.089 6  -3238513.516 6  -2470879.82049  21231422.44449
  21364976.753 6  -2953127.078 6  -2270442.56349  21364976.13249
  20703879.190 6  -1195502.129 6   -912834.06649  20703880.03849
  19915325.136 6  -2226980.605 6  -1698746.12949  19915322.31249
  23052793.495 5  -1137488.578 5   -868419.95747  23052792.96847
  22540247.753 5   -658613.508 5   -508626.37549  22540247.76549
  23860169.722 5  -3275564.371 5  -2502546.69948  23860169.06948
 20  5 16  3 38 35.9990000  0  7G01G07G08G11G16G27G30               -0.000145466
  21230041.081 6  -3245761.859 6  -2476527.87949  21230042.98049
  21363711.636 6  -2959775.703 6  -2275623.30549  21363710.99949
  20703370.308 6  -1198177.508 6   -914918.77749  20703371.08549
  19914388.159 6  -2231906.000 6  -1702584.09849  19914385.55049
  23052299.198 5  -1140084.328 5   -870442.61346  23052299.22246
  22539958.417 5   -660131.773 5   -509809.43449  22539958.77249
  23858722.745 5  -3283164.957 5  -2508469.22348  23858722.83148
 20  5 16  3 38 36.9990000  0  7G01G07G08G11G16G27G30               -0.000148167
  21228661.276 6  -3253009.824 6  -2482175.64549  21228663.90949
  21362446.448 6  -2966423.918 6  -2280803.73449  21362445.55449
  20702861.245 6  -1200852.684 6   -917003.33249  20702861.99549
  19913450.878 6  -2236830.844 6  -1706421.63748  19913448.14448
  23051805.315 5  -1142679.953 5   -872465.18047  23051805.54647
  22539669.972 5   -661650.066 5   -510992.52349  22539669.60849
  23857277.222 5  -3290765.352 5  -2514391.60548  23857276.29648
 20  5 16  3 38 37.9990000  0  7G01G07G08G11G16G27G30               -0.000150871
  21227282.261 6  -3260257.527 6  -2487823.20749  21227284.66749
  21361181.276 6  -2973071.836 6  -2285983.93449  21361180.59749
  20702351.698 6  -1203527.840 6   -919087.86349  20702352.47649
  19912513.675 6  -2241755.270 6  -1710258.85248  19912511.06548
  23051311.808 5  -1145275.625 5   -874487.78547  23051311.70647
  22539380.659 5   -663168.539 5   -512175.75049  22539380.58949
  23855830.698 5  -3298365.773 5  -2520314.01248  23855830.17548
 20  5 16  3 38 38.9990000  0  7G01G07G08G11G16G27G30               -0.000153574
  21225903.308 6  -3267504.816 6  -2493470.44549  21225905.57349
  21359916.175 6  -2979719.336 6  -2291163.80149  21359915.75749
  20701843.237 6  -1206202.766 6   -921172.22749  20701843.58149
  19911576.714 6  -2246679.141 6  -1714095.63348  19911574.25748
  23050817.636 4  -1147871.211 4   -876510.31647  23050817.46047
  22539091.550 5   -664686.980 5   -513358.94949  22539091.60149
  23854384.128 5  -3305966.000 5  -2526236.26248  23854383.76948
 20  5 16  3 38 39.9990000  0  7G01G07G08G11G16G27G30               -0.000156279
  21224524.401 6  -3274751.508 6  -2499117.21549  21224526.76949
  21358651.315 6  -2986366.234 6  -2296343.19949  21358650.85149
  20701334.065 6  -1208877.301 6   -923256.27349  20701334.19449
  19910639.987 6  -2251602.246 6  -1717931.82048  19910637.44448
  23050323.464 5  -1150466.461 5   -878532.59046  23050324.04246
  22538802.769 5   -666205.238 5   -514542.00449  22538802.92149
  23852937.948 5  -3313565.914 5  -2532158.27748  23852937.82748
 20  5 16  3 38 40.9990000  0  7G01G07G08G11G16G27G30               -0.000158979
  21223145.440 6  -3281997.875 6  -2504763.74249  21223147.89749
  21357386.167 6  -2993012.734 6  -2301522.28949  21357386.55449
  20700825.120 6  -1211551.727 6   -925340.24649  20700825.61249
  19909702.995 6  -2256524.863 6  -1721767.62548  19909700.77248
  23049829.901 5  -1153061.680 5   -880554.83647  23049829.68347
  22538513.550 5   -667723.617 5   -515725.16049  22538513.55049
  23851491.995 5  -3321165.703 5  -2538080.19148  23851491.46048
 20  5 16  3 38 41.9990000  0  7G01G07G08G11G16G27G30               -0.000161686
  21221766.659 6  -3289243.898 6  -2510409.98849  21221768.83949
  21356121.956 6  -2999658.887 6  -2306701.10549  21356121.26949
  20700316.019 6  -1214225.996 6   -927424.09449  20700316.94449
  19908766.394 6  -2261447.000 6  -1725603.05948  19908763.97648
  23049335.612 4  -1155656.883 4   -882577.07047  23049335.96847
  22538224.808 5   -669242.027 5   -516908.34049  22538224.68349
  23850045.534 5  -3328765.383 5  -2544002.02748  23850045.35148
 20  5 16  3 38 42.9990000  0  7G01G07G08G11G16G27G30               -0.000164387
  21220387.940 6  -3296489.500 6  -2516055.90649  21220389.71049
  21354857.503 6  -3006304.594 6  -2311879.57849  21354856.91749
  20699807.300 6  -1216900.137 6   -929507.83649  20699807.70649
  19907829.808 6  -2266368.563 6  -1729438.04348  19907827.35848
  23048842.526 5  -1158251.953 5   -884599.20747  23048841.78047
  22537936.175 5   -670760.422 5   -518091.50449  22537935.86649
  23848599.753 5  -3336364.926 5  -2549923.75048  23848599.11648
 20  5 16  3 38 43.9990000  0  7G01G07G08G11G16G27G30               -0.000167093
  21219009.159 6  -3303734.723 6  -2521701.53549  21219011.23349
  21353592.495 6  -3012949.875 6  -2317057.71949  21353591.96049
  20699298.487 6  -1219574.047 6   -931591.41049  20699298.96049
  19906893.550 6  -2271289.563 6  -1733272.59048  19906891.20248
  23048347.956 5  -1160846.934 5   -886621.26647  23048348.42547
  22537647.464 5   -672278.852 5   -519274.69949  22537647.22649
  23847152.901 5  -3343964.289 5  -2555845.33248  23847153.19848
 20  5 16  3 38 44.9990000  0  7G01G07G08G11G16G27G30               -0.000169794
  21217630.534 6  -3310979.492 6  -2527346.80549  21217632.96449
  21352328.183 6  -3019594.699 6  -2322235.50849  21352327.52249
  20698789.831 7  -1222247.742 7   -933674.80149  20698790.33949
  19905957.378 6  -2276209.992 6  -1737106.68848  19905954.70648
  23047854.800 5  -1163441.738 5   -888643.20347  23047854.39047
  22537358.261 5   -673797.242 5   -520457.86749  22537357.70249
  23845707.417 5  -3351563.438 5  -2561766.74648  23845707.20648
 20  5 16  3 38 45.9990000  0  7G01G07G08G11G16G27G30               -0.000172501
  21216251.690 6  -3318224.016 6  -2532991.89149  21216253.87449
  21351063.683 6  -3026239.227 6  -2327413.06349  21351063.04649
  20698280.378 6  -1224921.430 6   -935758.19549  20698281.30449
  19905021.308 6  -2281130.000 6  -1740940.46148  19905018.60148
  23047361.112 5  -1166036.641 5   -890665.21147  23047360.94047
  22537069.526 5   -675315.813 5   -521641.16849  22537068.90149
  23844261.870 5  -3359162.617 5  -2567688.17648  23844261.30848
 20  5 16  3 38 46.9990000  0  7G01G07G08G11G16G27G30               -0.000175201
  21214873.480 6  -3325468.113 6  -2538636.64549  21214875.71849
  21349799.401 6  -3032883.344 6  -2332590.29349  21349798.87449
  20697772.183 6  -1227594.887 6   -937841.40649  20697772.78849
  19904084.808 6  -2286049.453 6  -1744773.80948  19904082.18348
  23046866.644 5  -1168631.402 5   -892687.10946  23046867.14746
  22536780.081 5   -676834.375 5   -522824.46549  22536780.20649
  23842815.011 5  -3366761.625 5  -2573609.47748  23842815.56948
 20  5 16  3 38 47.9990000  0  7G01G07G08G11G16G27G30               -0.000177908
  21213494.769 6  -3332711.781 6  -2544281.05949  21213497.10849
  21348535.448 6  -3039526.965 6  -2337767.14149  21348534.65549
  20697263.636 6  -1230268.113 6   -939924.44149  20697264.06549
  19903148.909 6  -2290968.297 6  -1748606.67248  19903146.25748
  23046373.667 5  -1171225.996 5   -894708.87147  23046373.23347
  22536490.784 5   -678352.875 5   -524007.71149  22536491.37849
  23841368.440 5  -3374360.422 5  -2579530.60948  23841369.38648
 20  5 16  3 38 48.9990000  0  7G01G07G08G11G16G27G30               -0.000180607
  21212116.714 6  -3339954.992 6  -2549925.11349  21212118.80049
  21347271.097 6  -3046170.164 6  -2342943.66449  21347270.24549
  20696754.862 7  -1232941.086 7   -942007.27749  20696755.42949
  19902213.284 6  -2295886.570 6  -1752439.08648  19902210.28448
  23045879.737 5  -1173820.484 5   -896730.54747  23045879.84347
  22536202.487 5   -679871.391 5   -525190.97349  22536201.95649
  23839922.378 5  -3381959.008 5  -2585451.58648  23839923.22648
 20  5 16  3 38 49.9990000  0  7G01G07G08G11G16G27G30               -0.000183313
  21210738.112 6  -3347197.891 6  -2555568.93049  21210740.42949
  21346007.112 6  -3052812.941 6  -2348119.85249  21346006.13649
  20696246.206 7  -1235613.953 7   -944090.03549  20696246.56949
  19901277.237 6  -2300804.324 6  -1756271.10548  19901274.16348
  23045385.839 5  -1176414.914 5   -898752.18047  23045385.64447
  22535913.683 5   -681389.953 5   -526374.27049  22535913.23049
  23838476.737 4  -3389557.527 4  -2591372.50448  23838477.80848
 20  5 16  3 38 50.9990000  0  7G01G07G08G11G16G27G30               -0.000186016
  21209360.089 6  -3354440.305 6  -2561212.36749  21209362.39049
  21344743.183 6  -3059455.270 6  -2353295.69149  21344742.08549
  20695737.605 7  -1238286.613 7   -946172.62549  20695738.33149
  19900341.730 6  -2305721.508 6  -1760102.68049  19900338.75749
  23044891.745 5  -1179009.180 5   -900773.67647  23044892.15147
  22535623.987 5   -682908.496 5   -527557.55149  22535624.16349
  23837030.690 4  -3397155.836 4  -2597293.26648  23837031.93348
 20  5 16  3 38 51.9990000  0  7G01G07G08G11G16G27G30               -0.000188721
  21207981.808 6  -3361682.418 6  -2566855.57449  21207984.39749
  21343478.808 6  -3066097.223 6  -2358471.23849  21343477.62049
  20695228.940 7  -1240959.121 7   -948255.10249  20695229.30849
  19899406.050 6  -2310638.156 6  -1763933.83648  19899403.44048
  23044398.659 5  -1181603.418 5   -902795.16047  23044398.04247
  22535334.769 5   -684427.090 5   -528740.87149  22535335.14749
  23835585.144 4  -3404754.004 4  -2603213.92248  23835586.20248
 20  5 16  3 38 52.9990000  0  7G01G07G08G11G16G27G30               -0.000191422
  21206603.948 6  -3368924.176 6  -2572498.50449  21206606.04249
  21342214.980 6  -3072738.820 6  -2363646.50449  21342214.33149
  20694720.526 7  -1243631.520 7   -950337.48849  20694721.26549
  19898470.480 6  -2315554.324 6  -1767764.61349  19898467.62849
  23043905.230 5  -1184197.602 5   -904816.61347  23043904.74947
  22535045.933 5   -685945.766 5   -529924.25849  22535046.05049
  23834139.222 4  -3412352.137 4  -2609134.53948  23834139.90948
 20  5 16  3 38 53.9990000  0  7G01G07G08G11G16G27G30               -0.000194128
  21205225.472 6  -3376165.602 6  -2578141.16449  21205228.24949
  21340951.245 6  -3079380.055 6  -2368821.49649  21340950.26949
  20694211.980 7  -1246303.777 7   -952419.76249  20694212.97249
  19897534.855 6  -2320470.020 6  -1771595.02349  19897532.34349
  23043411.612 5  -1186791.770 5   -906838.05147  23043410.96847
  22534757.378 6   -687464.531 6   -531107.71149  22534757.37449
  23832693.284 4  -3419950.129 4  -2615055.04348  23832694.25348
 20  5 16  3 38 54.9990000  0  7G01G07G08G11G16G27G30               -0.000196831
  21203847.909 6  -3383406.535 6  -2583783.44949  21203850.39449
  21339687.612 6  -3086020.773 6  -2373996.08249  21339686.37849
  20693703.589 7  -1248975.766 7   -954501.83649  20693704.02249
  19896600.026 6  -2325385.086 6  -1775424.95349  19896596.76549
  23042918.183 5  -1189385.738 5   -908859.33247  23042917.14447
  22534468.183 5   -688983.230 5   -532291.12149  22534468.47249
  23831247.323 4  -3427547.938 4  -2620975.41448  23831248.42548
 20  5 16  3 38 55.9990000  0  7G01G07G08G11G16G27G30               -0.000199537
  21202469.636 6  -3390647.145 6  -2589425.48449  21202472.55849
  21338423.972 6  -3092661.125 6  -2379170.38349  21338422.99549
  20693195.011 7  -1251647.637 7   -956583.80549  20693195.55449
  19895664.737 6  -2330299.668 6  -1779254.49249  19895662.02649
  23042424.128 5  -1191979.688 5   -910880.59446  23042423.61646
  22534178.925 5   -690501.992 5   -533474.57049  22534179.19049
  23829801.526 4  -3435145.586 4  -2626895.67048  23829802.72248
 20  5 16  3 38 56.9990000  0  7G01G07G08G11G16G27G30               -0.000202236
  21201092.417 6  -3397887.328 6  -2595067.18849  21201094.89749
  21337160.589 6  -3099301.023 6  -2384344.32449  21337159.21849
  20692686.675 7  -1254319.297 7   -958665.61749  20692687.40149
  19894729.542 6  -2335213.641 6  -1783083.56349  19894726.40949
  23041930.573 5  -1194573.516 5   -912901.75446  23041930.06246
  22533890.081 5   -692020.750 5   -534658.02349  22533890.22249
  23828355.401 4  -3442743.145 4  -2632815.84448  23828356.82348
 20  5 16  3 38 57.9990000  0  7G01G07G08G11G16G27G30               -0.000204943
  21199714.362 6  -3405127.113 6  -2600708.58249  21199717.15549
  21335897.065 6  -3105940.516 6  -2389517.95749  21335895.75349
  20692178.081 7  -1256990.801 7   -960747.31349  20692179.03849
  19893794.487 6  -2340127.098 6  -1786912.23049  19893791.79249
  23041436.831 5  -1197167.246 5   -914922.84047  23041436.51147
  22533601.144 5   -693539.547 5   -535841.49649  22533601.35849
  23826909.870 4  -3450340.504 4  -2638735.86348  23826911.19848
 20  5 16  3 38 58.9990000  0  7G01G07G08G11G16G27G30               -0.000207645
  21198336.933 6  -3412366.570 6  -2606349.71549  21198339.17949
  21334634.058 6  -3112579.648 6  -2394691.30949  21334632.51949
  20691669.847 7  -1259662.164 7   -962828.89549  20691670.87449
  19892859.870 6  -2345040.055 6  -1790740.51649  19892856.74149
  23040943.347 5  -1199760.918 5   -916943.89147  23040942.71447
  22533311.651 5   -695058.418 5   -537025.03149  22533312.10849
  23825464.198 4  -3457937.766 4  -2644655.79748  23825465.13248
 20  5 16  3 38 59.9990000  0  7G01G07G08G11G16G27G30               -0.000210352
  21196959.605 6  -3419605.664 6  -2611990.57049  21196962.32749
  21333370.815 6  -3119218.426 6  -2399864.37549  21333368.64049
  20691161.722 6  -1262333.395 6   -964910.37949  20691162.38249
  19891924.581 6  -2349952.523 6  -1794568.41049  19891922.08149
  23040449.753 5  -1202354.555 5   -918964.90246  23040449.03446
  22533023.105 5   -696577.371 5   -538208.63349  22533023.06949
  23824017.972 4  -3465534.945 4  -2650575.68048  23824019.36248
 20  5 16  3 39  0.9990000  0  7G01G07G08G11G16G27G30               -0.000213053
  21195581.886 6  -3426844.379 6  -2617631.12149  21195584.55449
  21332107.425 6  -3125856.746 6  -2405037.09449  21332105.65949
  20690653.128 6  -1265004.422 6   -966991.69949  20690653.68749
  19890990.011 6  -2354864.422 6  -1798395.86349  19890987.25349
  23039956.487 5  -1204948.035 5   -920985.79346  23039955.69446
  22532733.823 5   -698096.289 5   -539392.20749  22532734.24949
  23822572.730 4  -3473131.918 4  -2656495.40248  23822573.28048
 20  5 16  3 39  1.9990000  0  7G01G07G08G11G16G27G30               -0.000215759
  21194204.565 6  -3434082.816 6  -2623271.45749  21194207.64049
  21330844.003 6  -3132494.789 6  -2410209.59849  21330842.33149
  20690145.089 7  -1267675.441 7   -969073.00849  20690145.85549
  19890055.331 6  -2359775.930 6  -1802223.01249  19890052.29249
  23039462.862 5  -1207541.598 5   -923006.76247  23039462.22647
  22532445.019 5   -699615.379 5   -540575.91849  22532444.87449
  23821127.081 4  -3480728.930 4  -2662415.14848  23821128.33948
 20  5 16  3 39  2.9990000  0  7G01G07G08G11G16G27G30               -0.000218460
  21192827.058 6  -3441320.801 6  -2628911.44549  21192829.66749
  21329581.058 6  -3139132.332 6  -2415381.70749  21329579.30049
  20689636.894 7  -1270346.215 7   -971154.12949  20689637.49949
  19889120.862 7  -2364686.809 7  -1806049.66848  19889117.81948
  23038968.940 5  -1210134.969 5   -925027.57047  23038968.76947
  22532156.565 5   -701134.414 5   -541759.57849  22532156.18749
  23819681.714 4  -3488325.703 4  -2668334.72348  23819682.31548
 20  5 16  3 39  3.9990000  0  7G01G07G08G11G16G27G30               -0.000221167
  21191449.995 6  -3448558.375 6  -2634551.11349  21191452.51549
  21328318.144 6  -3145769.465 6  -2420553.50049  21328315.98749
  20689128.792 6  -1273016.820 6   -973235.12149  20689129.05449
  19888186.245 6  -2369597.145 6  -1809875.90648  19888183.86248
  23038475.440 5  -1212728.266 5   -927048.32046  23038475.47646
  22531867.222 5   -702653.512 5   -542943.29349  22531866.94049
  23818235.722 4  -3495922.309 4  -2674254.15648  23818236.37448
 20  5 16  3 39  4.9990000  0  7G01G07G08G11G16G27G30               -0.000223867
  21190072.464 6  -3455795.672 6  -2640190.56649  21190075.06949
  21327055.425 6  -3152406.262 6  -2425725.03149  21327053.33149
  20688620.433 6  -1275687.363 6   -975316.06349  20688621.06949
  19887252.011 6  -2374507.031 6  -1813701.79748  19887249.28048
  23037982.565 5  -1215321.551 5   -929069.05946  23037981.75746
  22531577.284 5   -704172.695 5   -544127.07449  22531577.98049
  23816790.245 4  -3503518.824 4  -2680173.51248  23816790.75748
 20  5 16  3 39  5.9990000  0  7G01G07G08G11G16G27G30               -0.000226574
  21188695.722 6  -3463032.430 6  -2645829.59049  21188698.20649
  21325792.167 6  -3159042.535 6  -2430896.15649  21325789.81249
  20688112.167 6  -1278357.594 6   -977396.76649  20688113.08149
  19886317.698 6  -2379416.273 6  -1817527.17648  19886315.10548
  23037488.901 5  -1217914.641 5   -931089.65247  23037488.57347
  22531289.065 5   -705691.781 5   -545310.77749  22531288.88649
  23815344.948 4  -3511115.164 4  -2686092.73848  23815345.27648
 20  5 16  3 39  6.9990000  0  7G01G07G08G11G16G27G30               -0.000229277
  21187318.558 6  -3470268.906 6  -2651468.41049  21187321.03449
  21324529.503 6  -3165678.449 6  -2436066.99649  21324526.98349
  20687604.183 6  -1281027.711 6   -979477.37949  20687604.76149
  19885384.105 6  -2384325.027 6  -1821352.18048  19885381.05448
  23036995.214 5  -1220507.707 5   -933110.21947  23036995.24947
  22530999.753 5   -707210.980 5   -546494.57049  22531000.07349
  23813899.214 4  -3518711.371 4  -2692011.85548  23813900.26948
 20  5 16  3 39  7.9990000  0  7G01G07G08G11G16G27G30               -0.000231983
  21185941.456 6  -3477504.898 6  -2657106.84849  21185944.28849
  21323266.526 6  -3172313.918 6  -2441237.49249  21323264.48049
  20687096.058 6  -1283697.621 6   -981557.82849  20687096.84749
  19884450.065 6  -2389233.195 6  -1825176.72748  19884447.08548
  23036502.026 5  -1223100.656 5   -935130.70347  23036501.73747
  22530710.565 5   -708730.164 5   -547678.34449  22530710.85849
  23812453.448 4  -3526307.438 4  -2697930.86348  23812454.28448
 20  5 16  3 39  8.9990000  0  7G01G07G08G11G16G27G30               -0.000234623
  21184564.511 6  -3484740.516 6  -2662744.98449  21184567.31949
  21322004.183 6  -3178948.938 6  -2446407.63749  21322001.96049
  20686588.253 6  -1286367.316 6   -983638.11349  20686588.71849
  19883515.901 6  -2394140.785 6  -1829000.82048  19883513.03848
  23036008.612 5  -1225693.465 5   -937151.07047  23036008.01147
  22530421.503 5   -710249.324 5   -548862.10549  22530421.58549
  23811007.940 4  -3533903.273 4  -2703849.69147  23811008.85147
 20  5 16  3 39  9.9990000  0  7G01G07G08G11G16G27G30               -0.000237326
  21183187.776 6  -3491975.734 6  -2668382.81349  21183190.29249
  21320741.761 6  -3185583.543 6  -2451577.46549  21320739.17149
  20686080.362 6  -1289036.875 6   -985718.28549  20686080.67949
  19882582.347 6  -2399047.855 6  -1832824.51248  19882579.24948
  23035515.058 5  -1228286.176 5   -939171.36346  23035514.59746
  22530132.472 5   -711768.520 5   -550045.89849  22530132.37049
  23809563.253 3  -3541498.984 3  -2709768.42247  23809563.71047
 20  5 16  3 39 10.9990000  0  7G01G07G08G11G16G27G30               -0.000240025
  21181810.433 6  -3499210.586 6  -2674020.35949  21181813.77649
  21319479.159 6  -3192217.781 6  -2456747.00049  21319477.12449
  20685572.237 6  -1291706.293 6   -987798.35249  20685573.03049
  19881648.487 6  -2403954.438 6  -1836647.81648  19881645.64448
  23035021.565 5  -1230878.844 5   -941191.63746  23035021.06946
  22529843.394 5   -713287.773 5   -551229.73449  22529843.53049
  23808117.800 4  -3549094.570 4  -2715687.06647  23808117.94447
 20  5 16  3 39 11.9990000  0  7G01G07G08G11G16G27G30               -0.000242729
  21180434.323 6  -3506445.059 6  -2679657.60949  21180436.92549
  21318216.925 6  -3198851.574 6  -2461916.18849  21318214.52649
  20685064.050 6  -1294375.520 6   -989878.27049  20685065.17149
  19880714.886 6  -2408860.449 6  -1840470.68848  19880711.80048
  23034528.253 5  -1233471.398 5   -943211.80547  23034528.21847
  22529554.175 5   -714807.051 5   -552413.59049  22529554.12449
  23806671.175 3  -3556690.027 3  -2721605.60947  23806672.67147
 20  5 16  3 39 12.9990000  0  7G01G07G08G11G16G27G30               -0.000245430
  21179057.714 6  -3513679.098 6  -2685294.52349  21179060.51949
  21316954.503 6  -3205484.922 6  -2467085.03549  21316952.06949
  20684556.347 6  -1297044.527 6   -991958.01249  20684557.13649
  19879781.542 6  -2413765.898 6  -1844293.10948  19879778.59748
  23034035.159 5  -1236063.867 5   -945231.91447  23034035.00347
  22529265.417 6   -716326.293 6   -553597.41849  22529265.73749
  23805225.792 4  -3564285.297 4  -2727524.00047  23805227.20647
 20  5 16  3 39 13.9990000  0  7G01G07G08G11G16G27G30               -0.000248135
  21177681.011 6  -3520912.707 6  -2690931.10549  21177683.99149
  21315692.034 6  -3212117.836 6  -2472253.53549  21315689.89749
  20684048.331 6  -1299713.355 6   -994037.62149  20684049.18349
  19878847.933 6  -2418670.781 6  -1848115.10248  19878845.16748
  23033541.667 5  -1238656.184 5   -947251.90647  23033541.55047
  22528975.784 6   -717845.582 6   -554781.28149  22528976.26549
  23803781.136 3  -3571880.410 3  -2733442.26648  23803782.44448
 20  5 16  3 39 14.9990000  0  7G01G07G08G11G16G27G30               -0.000250835
  21176305.034 6  -3528145.988 6  -2696567.41849  21176307.18749
  21314430.409 6  -3218750.367 6  -2477421.74649  21314427.82749
  20683540.581 6  -1302382.059 6   -996117.12949  20683541.34749
  19877914.542 6  -2423575.148 6  -1851936.68848  19877911.80848
  23033048.315 5  -1241248.492 5   -949271.88347  23033048.08547
  22528686.901 6   -719364.934 6   -555965.18849  22528687.13249
  23802335.823 3  -3579475.402 3  -2739360.44547  23802337.05047
 20  5 16  3 39 15.9990000  0  7G01G07G08G11G16G27G30               -0.000253613
  21174928.284 6  -3535378.766 6  -2702203.35249  21174931.09749
  21313168.253 6  -3225382.371 6  -2482589.53949  21313165.69049
  20683032.878 6  -1305050.457 6   -998196.40249  20683033.85849
  19876981.698 6  -2428478.883 6  -1855757.77748  19876978.80048
  23032555.042 5  -1243840.609 5   -951291.72747  23032554.83147
  22528397.464 6   -720884.184 6   -557149.02049  22528397.99149
  23800890.237 3  -3587070.152 3  -2745278.43447  23800891.78447
 20  5 16  3 39 16.9990000  0  7G01G07G08G11G16G27G30               -0.000256317
  21173552.237 6  -3542611.277 6  -2707839.07049  21173554.76949
  21311906.167 6  -3232014.090 6  -2487757.10549  21311903.65549
  20682525.003 6  -1307718.816 6  -1000275.64549  20682525.70249
  19876048.612 6  -2433382.203 6  -1859578.54748  19876045.74548
  23032061.698 5  -1246432.695 5   -953311.53546  23032061.42546
  22528108.995 6   -722403.605 6   -558332.98849  22528108.80449
  23799445.378 3  -3594664.902 3  -2751196.42247  23799446.99147
 20  5 16  3 39 17.9990000  0  7G01G07G08G11G16G27G30               -0.000259024
  21172176.105 6  -3549843.406 6  -2713474.50049  21172178.49149
  21310644.605 6  -3238645.410 6  -2492924.37149  21310641.90149
  20682017.284 6  -1310387.023 6  -1002354.77049  20682017.93749
  19875115.542 6  -2438284.984 6  -1863398.89848  19875112.69448
  23031568.776 5  -1249024.785 5   -955331.34847  23031568.41747
  22527819.386 6   -723923.039 6   -559516.96549  22527819.54249
  23798000.081 3  -3602259.441 3  -2757114.25047  23798001.53047
 20  5 16  3 39 18.9990000  0  7G01G07G08G11G16G27G30               -0.000261726
  21170799.808 6  -3557075.191 6  -2719109.65649  21170802.07749
  21309382.206 6  -3245276.355 6  -2498091.34449  21309379.74149
  20681509.472 6  -1313055.090 6  -1004433.78949  20681510.22249
  19874182.761 6  -2443187.301 6  -1867218.88748  19874179.55048
  23031075.948 5  -1251616.797 5   -957351.09047  23031074.59747
  22527529.886 6   -725442.559 6   -560701.00449  22527530.39049
  23796554.753 3  -3609853.941 3  -2763032.03947  23796556.28447
 20  5 16  3 39 19.9990000  0  7G01G07G08G11G16G27G30               -0.000264433
  21169423.792 6  -3564306.566 6  -2724744.48849  21169426.50349
  21308121.050 6  -3251906.859 6  -2503257.97349  21308118.09749
  20681001.987 6  -1315722.996 6  -1006512.67249  20681002.69449
  19873249.730 6  -2448089.039 6  -1871038.42248  19873247.20248
  23030582.175 5  -1254208.703 5   -959370.75446  23030581.70246
  22527241.042 6   -726962.105 6   -561885.07049  22527241.69049
  23795109.761 3  -3617448.250 3  -2768949.67647  23795111.28847
 20  5 16  3 39 20.9990000  0  7G01G07G08G11G16G27G30               -0.000267134
  21168047.823 6  -3571537.676 6  -2730379.12149  21168050.30849
  21306859.315 6  -3258537.082 6  -2508424.37149  21306856.39449
  20680494.534 6  -1318390.852 6  -1008591.52049  20680494.70649
  19872317.409 6  -2452990.332 6  -1874857.61348  19872314.40148
  23030088.948 5  -1256800.573 5   -961390.39346  23030088.33546
  22526951.956 5   -728481.781 5   -563069.23049  22526952.15549
  23793664.073 3  -3625042.520 3  -2774867.28947  23793666.21047
 20  5 16  3 39 21.9990000  0  7G01G07G08G11G16G27G30               -0.000269842
  21166671.644 6  -3578768.363 6  -2736013.42249  21166674.33149
  21305597.378 7  -3265166.871 7  -2513590.44149  21305594.48749
  20679986.425 6  -1321058.512 6  -1010670.21949  20679987.12449
  19871384.745 6  -2457891.102 6  -1878676.38748  19871381.20248
  23029595.792 5  -1259392.418 5   -963410.01646  23029595.55846
  22526662.698 6   -730001.465 6   -564253.40249  22526663.09349
  23792219.690 2  -3632636.703 2  -2780784.82847  23792221.28047
 20  5 16  3 39 22.9990000  0  7G01G07G08G11G16G27G30               -0.000272543
  21165295.659 6  -3585998.680 6  -2741647.43049  21165298.23349
  21304335.847 6  -3271796.223 6  -2518756.17249  21304333.50749
  20679479.292 6  -1323726.008 6  -1012748.78549  20679479.71849
  19870452.347 6  -2462791.293 6  -1882494.71948  19870449.03848
  23029102.534 5  -1261984.160 5   -965429.56347  23029102.22247
  22526373.690 6   -731521.152 6   -565437.57449  22526374.29649
  23790774.347 3  -3640230.648 3  -2786702.19547  23790775.83947
 20  5 16  3 39 23.9990000  0  7G01G07G08G11G16G27G30               -0.000275249
  21163919.878 6  -3593228.637 6  -2747281.15649  21163922.52649
  21303074.753 7  -3278425.188 7  -2523921.60249  21303071.93749
  20678971.589 6  -1326393.375 6  -1014827.25849  20678972.03849
  19869519.636 6  -2467691.000 6  -1886312.67248  19869516.72248
  23028609.667 5  -1264575.824 5   -967449.04347  23028608.86647
  22526084.769 6   -733040.945 6   -566621.82849  22526084.91349
  23789329.230 2  -3647824.512 2  -2792619.49247  23789331.26547
 20  5 16  3 39 24.9990000  0  7G01G07G08G11G16G27G30               -0.000277952
  21162544.448 6  -3600458.121 6  -2752914.52049  21162546.78849
  21301813.253 6  -3285053.684 6  -2529086.66049  21301810.48749
  20678463.839 6  -1329060.523 6  -1016905.55549  20678464.45649
  19868587.581 6  -2472590.113 6  -1890130.16448  19868584.50348
  23028116.175 5  -1267167.367 5   -969468.41046  23028115.98046
  22525795.190 6   -734560.688 6   -567806.04349  22525795.87849
  23787884.737 3  -3655418.145 3  -2798536.60947  23787885.68747
 20  5 16  3 39 25.9990000  0  7G01G07G08G11G16G27G30               -0.000280659
  21161168.784 6  -3607687.262 6  -2758547.61749  21161171.08549
  21300551.886 6  -3291681.801 6  -2534251.43449  21300549.10149
  20677956.573 6  -1331727.535 6  -1018983.74649  20677957.02649
  19867655.355 6  -2477488.699 6  -1893947.24248  19867652.35848
  23027623.464 5  -1269758.820 5   -971487.72746  23027622.49146
  22525505.956 6   -736080.465 6   -568990.28949  22525506.30049
  23786440.159 3  -3663011.727 3  -2804453.69947  23786440.88247
 20  5 16  3 39 26.9990000  0  7G01G07G08G11G16G27G30               -0.000283279
  21159793.276 6  -3614915.938 6  -2764180.34849  21159795.63249
  21299290.706 6  -3298309.438 6  -2539415.82849  21299288.21049
  20677448.972 7  -1334394.316 7  -1021061.76249  20677449.46849
  19866723.081 6  -2482386.684 6  -1897763.85248  19866720.17148
  23027130.503 5  -1272350.117 5   -973506.92246  23027128.91346
  22525216.940 6   -737600.246 6   -570174.53149  22525217.00349
  23784994.823 3  -3670605.043 3  -2810370.56347  23784995.61647
 20  5 16  3 39 27.9990000  0  7G01G07G08G11G16G27G30               -0.000286066
  21158417.081 6  -3622144.273 6  -2769812.82449  21158419.99149
  21298029.409 6  -3304936.695 6  -2544579.92649  21298026.62049
  20676941.175 6  -1337060.953 6  -1023139.66049  20676941.92549
  19865791.230 6  -2487284.188 6  -1901580.09448  19865788.44048
  23026637.605 5  -1274941.395 5   -975526.09446  23026635.82746
  22524927.792 5   -739120.105 5   -571358.84049  22524928.20649
  23783549.480 3  -3678198.289 3  -2816287.37547  23783550.97647
 20  5 16  3 39 28.9990000  0  7G01G07G08G11G16G27G30               -0.000288769
  21157041.878 6  -3629372.223 6  -2775444.98849  21157044.58949
  21296768.815 6  -3311563.543 6  -2549743.70749  21296766.01549
  20676434.128 7  -1339727.453 7  -1025217.45349  20676434.59349
  19864859.667 6  -2492181.137 6  -1905395.89548  19864856.73348
  23026144.245 5  -1277532.594 5   -977545.21147  23026143.28047
  22524637.730 5   -740639.980 5   -572543.15649  22524638.55849
  23782105.073 3  -3685791.422 3  -2822204.10547  23782105.98747
 20  5 16  3 39 29.9990000  0  7G01G07G08G11G16G27G30               -0.000291477
  21155666.565 6  -3636599.801 6  -2781076.87149  21155669.33149
  21295507.573 6  -3318189.996 6  -2554907.18049  21295505.05449
  20675926.480 6  -1342393.809 6  -1027295.12949  20675927.21449
  19863927.589 6  -2497077.590 6  -1909211.31648  19863924.82748
  23025650.964 5  -1280123.738 5   -979564.28547  23025649.94847
  22524348.808 5   -742159.906 5   -573727.51649  22524350.16349
  23780659.808 3  -3693384.359 3  -2828120.67647  23780661.07347
 20  5 16  3 39 30.9990000  0  7G01G07G08G11G16G27G30               -0.000294178
  21154290.894 6  -3643827.008 6  -2786708.45349  21154293.73749
  21294246.300 6  -3324816.047 6  -2560070.33249  21294243.72249
  20675419.292 7  -1345060.008 7  -1029372.68849  20675420.05449
  19862996.214 6  -2501973.520 6  -1913026.32448  19862993.42548
  23025157.722 5  -1282714.758 5   -981583.27046  23025156.28846
  22524059.925 6   -743679.891 6   -574911.91449  22524060.36249
  23779215.222 3  -3700977.203 3  -2834037.18447  23779216.44447
 20  5 16  3 39 31.9990000  0  7G01G07G08G11G16G27G30               -0.000296886
  21152916.198 6  -3651053.813 6  -2792339.72749  21152918.56249
  21292985.761 6  -3331441.660 6  -2565233.14549  21292983.04249
  20674911.823 7  -1347725.984 7  -1031450.07449  20674912.50349
  19862064.769 6  -2506868.848 6  -1916840.86748  19862061.93348
  23024663.995 5  -1285305.680 5   -983602.16847  23024663.26947
  22523770.644 6   -745199.832 6   -576096.28549  22523771.03049
  23777770.839 3  -3708569.855 3  -2839953.55147  23777771.45247
 20  5 16  3 39 32.9990000  0  7G01G07G08G11G16G27G30               -0.000299587
  21151540.894 6  -3658280.262 6  -2797970.72749  21151543.37049
  21291725.190 6  -3338066.910 6  -2570395.68049  21291722.29649
  20674404.730 7  -1350391.840 7  -1033527.36749  20674405.01949
  19861133.261 6  -2511763.703 6  -1920655.03548  19861130.46848
  23024171.456 5  -1287896.578 5   -985621.04747  23024170.60547
  22523480.870 6   -746719.883 6   -577280.73849  22523481.86249
  23776325.855 3  -3716162.395 3  -2845869.82047  23776326.76547
 20  5 16  3 39 33.9990000  0  7G01G07G08G11G16G27G30               -0.000302296
  21150165.948 6  -3665506.277 6  -2803601.39149  21150168.04249
  21290464.847 6  -3344691.703 6  -2575557.85249  21290461.65149
  20673897.136 7  -1353057.488 7  -1035604.50049  20673897.88649
  19860202.159 6  -2516658.004 6  -1924468.78148  19860198.87048
  23023678.792 5  -1290487.344 5   -987639.82447  23023678.16347
  22523191.870 6   -748239.926 6   -578465.19549  22523193.01949
  23774880.722 3  -3723754.813 3  -2851785.98447  23774881.71847
 20  5 16  3 39 34.9990000  0  7G01G07G08G11G16G27G30               -0.000304996
  21148791.136 6  -3672731.824 6  -2809231.68849  21148793.27249
  21289204.253 6  -3351316.000 6  -2580719.64849  21289201.24549
  20673390.151 7  -1355722.914 7  -1037681.45749  20673390.96849
  19859270.237 6  -2521551.664 6  -1928282.02748  19859267.83948
  23023185.901 5  -1293077.957 5   -989658.48046  23023184.79646
  22522902.581 6   -749759.941 6   -579649.62949  22522903.43349
  23773436.089 3  -3731346.953 3  -2857701.93848  23773437.05848
 20  5 16  3 39 35.9990000  0  7G01G07G08G11G16G27G30               -0.000307705
  21147415.933 6  -3679956.965 6  -2814861.66849  21147418.36249
  21287943.183 6  -3357939.852 6  -2585881.09049  21287940.13249
  20672882.823 7  -1358388.129 7  -1039758.24649  20672883.71449
  19858339.628 7  -2526444.777 7  -1932094.83248  19858336.24948
  23022692.675 4  -1295668.398 4   -991677.00046  23022691.65146
  22522613.269 6   -751279.961 6   -580834.06349  22522614.23749
  23771991.964 3  -3738938.957 3  -2863617.77747  23771992.33547
 20  5 16  3 39 36.9990000  0  7G01G07G08G11G16G27G30               -0.000310406
  21146041.339 6  -3687181.449 6  -2820491.12949  21146043.34749
  21286683.237 6  -3364563.043 6  -2591042.01249  21286680.58149
  20672375.847 6  -1361052.930 6  -1041834.71949  20672376.43349
  19857408.792 7  -2531337.102 7  -1935907.03948  19857405.53448
  23022199.987 5  -1298258.578 5   -993695.31647  23022198.89747
  22522324.198 5   -752799.776 5   -582018.33249  22522324.89749
  23770547.151 3  -3746530.531 3  -2869533.28948  23770547.77248
 20  5 16  3 39 37.9990000  0  7G01G07G08G11G16G27G30               -0.000313032
  21144666.214 6  -3694405.488 6  -2826120.25049  21144668.81249
  21285423.159 6  -3371185.715 6  -2596202.53549  21285420.21849
  20671868.761 6  -1363717.477 6  -1043910.98849  20671869.43349
  19856477.831 6  -2536228.797 6  -1939718.75048  19856474.77248
  23021706.456 5  -1300848.555 5   -995713.48046  23021705.99946
  22522035.269 6   -754319.473 6   -583202.50849  22522036.00349
  23769102.698 3  -3754121.922 3  -2875448.65248  23769103.07748
 20  5 16  3 39 38.9990000  0  7G01G07G08G11G16G27G30               -0.000315733
  21143291.972 6  -3701629.051 6  -2831749.00449  21143294.00749
  21284163.370 6  -3377807.934 6  -2601362.71149  21284160.21049
  20671361.909 6  -1366381.805 6  -1045987.08649  20671362.72649
  19855547.089 7  -2541119.902 7  -1943530.00048  19855544.03048
  23021214.347 4  -1303438.359 4   -997731.50447  23021213.22647
  22521745.925 6   -755839.188 6   -584386.69149  22521746.19849
  23767657.206 3  -3761713.070 3  -2881363.82848  23767658.82748
 20  5 16  3 39 39.9990000  0  7G01G07G08G11G16G27G30               -0.000318441
  21141917.097 6  -3708852.297 6  -2837377.50449  21141919.63249
  21282902.847 6  -3384429.797 6  -2606522.60549  21282899.92549
  20670854.847 6  -1369046.016 6  -1048063.09449  20670855.77249
  19854616.120 7  -2546010.523 7  -1947340.87548  19854613.01548
  23020720.940 4  -1306028.164 4   -999749.53947  23020720.25347
  22521456.753 5   -757358.969 5   -585570.94149  22521457.29649
  23766213.339 3  -3769304.172 3  -2887278.98448  23766214.35548
 20  5 16  3 39 40.9990000  0  7G01G07G08G11G16G27G30               -0.000321224
  21140542.995 6  -3716075.121 6  -2843005.68049  21140545.22249
  21281642.831 6  -3391051.211 6  -2611682.15249  21281639.98349
  20670347.831 6  -1371710.055 6  -1050138.97349  20670348.42549
  19853685.565 6  -2550900.566 6  -1951151.29748  19853682.83948
  23020228.417 5  -1308617.855 5  -1001767.48847  23020227.70647
  22521167.167 6   -758878.754 6   -586755.18849  22521167.92149
  23764768.964 4  -3776895.020 4  -2893193.93448  23764769.89048
 20  5 16  3 39 41.9990000  0  7G01G07G08G11G16G27G30               -0.000323931
  21139168.355 6  -3723297.527 6  -2848633.52349  21139170.73349
  21280382.940 6  -3397672.188 6  -2616841.35249  21280380.33149
  20669841.144 6  -1374373.875 6  -1052214.68449  20669841.48049
  19852755.136 6  -2555790.070 6  -1954961.29348  19852752.15548
  23019735.636 4  -1311207.480 4  -1003785.38347  23019735.15147
  22520878.464 6   -760398.570 6   -587939.46549  22520878.51149
  23763323.909 3  -3784485.773 3  -2899108.80948  23763325.33948
 20  5 16  3 39 42.9990000  0  7G01G07G08G11G16G27G30               -0.000326633
  21137794.245 6  -3730519.605 6  -2854261.12149  21137796.39449
  21279123.253 6  -3404292.777 6  -2622000.25049  21279120.64749
  20669334.261 6  -1377037.609 6  -1054290.31649  20669335.11249
  19851824.800 6  -2560679.082 6  -1958770.91848  19851821.88248
  23019243.151 4  -1313796.984 4  -1005803.17647  23019242.04647
  22520589.253 5   -761918.438 5   -589123.77749  22520589.80849
  23761879.237 3  -3792076.438 3  -2905023.61348  23761880.51948
 20  5 16  3 39 43.9990000  0  7G01G07G08G11G16G27G30               -0.000329340
  21136420.456 6  -3737741.480 6  -2859888.55549  21136421.98049
  21277863.065 6  -3410913.164 6  -2627158.99649  21277860.23349
  20668827.269 6  -1379701.359 6  -1056365.96149  20668827.95249
  19850894.370 6  -2565567.750 6  -1962580.26648  19850891.70248
  23018750.651 4  -1316386.645 4  -1007821.10246  23018749.01546
  22520300.073 5   -763438.547 5   -590308.27749  22520300.44849
  23760434.800 3  -3799667.117 3  -2910938.43447  23760436.37447
 20  5 16  3 39 44.9990000  0  7G01G07G08G11G16G27G30               -0.000332043
  21135046.026 6  -3744963.164 6  -2865515.84049  21135047.54249
  21276603.706 6  -3417533.313 6  -2632317.55149  21276600.47249
  20668320.308 6  -1382365.145 6  -1058441.64549  20668321.10849
  19849964.284 6  -2570456.070 6  -1966389.34848  19849961.48748
  23018257.034 4  -1318976.371 4  -1009839.06347  23018256.16347
  22520010.862 5   -764958.902 5   -591492.96949  22520010.60149
  23758990.792 3  -3807257.848 3  -2916853.27748  23758991.77648
 20  5 16  3 39 45.9990000  0  7G01G07G08G11G16G27G30               -0.000334749
  21133671.769 6  -3752184.324 6  -2871142.72349  21133673.90549
  21275343.956 6  -3424152.984 6  -2637475.73849  21275340.83549
  20667813.526 6  -1385028.660 6  -1060517.10949  20667813.76949
  19849034.206 6  -2575343.762 6  -1970197.93448  19849031.49148
  23017764.183 4  -1321565.945 4  -1011856.91847  23017763.76547
  22519721.011 5   -766479.180 5   -592677.60549  22519721.67949
  23757546.589 3  -3814848.375 3  -2922767.97348  23757547.60548
 20  5 16  3 39 46.9990000  0  7G01G07G08G11G16G27G30               -0.000337452
  21132297.480 6  -3759405.055 6  -2876769.26649  21132299.69049
  21274084.065 6  -3430772.129 6  -2642633.51249  21274081.44849
  20667306.636 6  -1387691.918 6  -1062592.37149  20667307.37049
  19848104.448 6  -2580230.832 6  -1974006.04748  19848101.62448
  23017271.776 4  -1324155.332 4  -1013874.61747  23017270.75347
  22519431.987 5   -767999.387 5   -593862.17649  22519431.89049
  23756102.175 3  -3822438.586 3  -2928682.41847  23756102.93747
 20  5 16  3 39 47.9990000  0  7G01G07G08G11G16G27G30               -0.000340158
  21130924.151 6  -3766625.375 6  -2882395.48049  21130925.52649
  21272824.706 6  -3437390.895 6  -2647790.98849  21272821.51149
  20666799.519 6  -1390355.039 6  -1064667.53149  20666800.66749
  19847174.136 6  -2585117.383 6  -1977813.75048  19847171.42148
  23016779.019 4  -1326744.648 4  -1015892.27047  23016777.84347
  22519142.847 5   -769519.676 5   -595046.81649  22519143.35849
  23754658.011 3  -3830028.758 3  -2934596.83247  23754658.77647
 20  5 16  3 39 48.9990000  0  7G01G07G08G11G16G27G30               -0.000342861
  21129549.495 6  -3773845.316 6  -2888021.40649  21129551.62049
  21271565.284 6  -3444009.195 6  -2652948.10549  21271562.78449
  20666293.159 6  -1393017.992 6  -1066742.56649  20666293.76549
  19846244.456 6  -2590003.379 6  -1981621.02048  19846241.92548
  23016286.237 4  -1329333.879 4  -1017909.85947  23016285.09347
  22518853.440 5   -771039.922 5   -596231.43049  22518854.19049
  23753213.190 3  -3837618.691 3  -2940511.07047  23753214.28047
 20  5 16  3 39 49.9990000  0  7G01G07G08G11G16G27G30               -0.000345568
  21128175.823 6  -3781064.832 6  -2893647.00849  21128177.83949
  21270306.026 6  -3450627.059 6  -2658104.88749  21270303.46449
  20665786.815 6  -1395680.750 6  -1068817.44149  20665787.24949
  19845314.940 6  -2594888.824 6  -1985427.85548  19845312.10548
  23015793.362 4  -1331922.980 4  -1019927.33647  23015792.89747
  22518563.972 5   -772560.215 5   -597416.07049  22518564.35149
  23751769.534 3  -3845208.520 3  -2946425.22748  23751769.91348
 20  5 16  3 39 50.9990000  0  7G01G07G08G11G16G27G30               -0.000348270
  21126802.394 6  -3788283.898 6  -2899272.25049  21126804.20649
  21269046.370 6  -3457244.484 6  -2663261.32449  21269043.99949
  20665279.519 6  -1398343.293 6  -1070892.15649  20665280.44049
  19844385.245 6  -2599773.648 6  -1989234.21549  19844382.84349
  23015300.581 4  -1334511.957 4  -1021944.71947  23015300.12447
  22518274.769 5   -774080.484 5   -598600.69949  22518275.33949
  23750324.847 3  -3852798.082 3  -2952339.18448  23750325.49548
 20  5 16  3 39 51.9990000  0  7G01G07G08G11G16G27G30               -0.000350979
  21125428.667 6  -3795502.746 6  -2904897.32049  21125430.47649
  21267787.667 6  -3463861.602 6  -2668417.51649  21267785.03849
  20664772.987 6  -1401005.824 6  -1072966.85249  20664773.42949
  19843455.190 6  -2604658.102 6  -1993040.28148  19843453.02248
  23014808.151 4  -1337100.984 4  -1023962.16447  23014807.01547
  22517985.612 5   -775600.945 5   -599785.47749  22517985.99549
  23748881.050 3  -3860387.715 3  -2958253.18848  23748881.23348
 20  5 16  3 39 52.9990000  0  7G01G07G08G11G16G27G30               -0.000353682
  21124054.722 6  -3802721.223 6  -2910522.10949  21124056.98049
  21266528.401 6  -3470478.395 6  -2673573.45349  21266525.95249
  20664266.581 6  -1403668.211 6  -1075041.43849  20664267.30049
  19842526.394 6  -2609542.063 6  -1996845.96948  19842523.81548
  23014315.987 4  -1339689.992 4  -1025979.57447  23014315.04247
  22517695.675 5   -777121.484 5   -600970.31349  22517696.65949
  23747436.776 4  -3867977.203 4  -2964167.06648  23747436.98048
 20  5 16  3 39 53.9990000  0  7G01G07G08G11G16G27G30               -0.000356388
  21122681.355 6  -3809939.367 6  -2916146.64549  21122683.28049
  21265269.050 6  -3477094.785 6  -2678729.08649  21265266.74149
  20663759.862 6  -1406330.484 6  -1077115.93449  20663760.74549
  19841596.925 6  -2614425.539 6  -2000651.27348  19841594.00348
  23013822.784 4  -1342278.902 4  -1027996.91447  23013822.00347
  22517406.190 5   -778642.098 5   -602155.21149  22517407.19449
  23745992.558 4  -3875566.594 4  -2970080.87948  23745992.87448
 20  5 16  3 39 54.9990000  0  7G01G07G08G11G16G27G30               -0.000359091
  21121307.956 6  -3817157.098 6  -2921770.84449  21121310.19449
  21264010.386 6  -3483710.754 6  -2683884.38349  21264007.64749
  20663253.355 6  -1408992.594 6  -1079190.30549  20663253.70249
  19840667.925 6  -2619308.477 6  -2004456.15648  19840665.09348
  23013330.284 3  -1344867.746 3  -1030014.20746  23013329.12046
  22517117.480 5   -780162.730 5   -603340.11349  22517118.05049
  23744547.878 4  -3883155.828 4  -2975994.57048  23744548.74148
 20  5 16  3 39 55.9990000  0  7G01G07G08G11G16G27G30               -0.000361799
  21119934.331 6  -3824374.441 6  -2927394.74649  21119935.95249
  21262751.519 6  -3490326.316 6  -2689039.36749  21262748.73349
  20662747.136 6  -1411654.551 6  -1081264.56349  20662747.61649
  19839739.003 6  -2624190.867 6  -2008260.61748  19839736.30848
  23012837.417 3  -1347456.535 3  -1032031.44946  23012836.71446
  22516828.081 6   -781683.398 6   -604525.05549  22516828.58549
  23743104.198 4  -3890744.941 4  -2981908.16848  23743104.74148
 20  5 16  3 39 56.9990000  0  7G01G07G08G11G16G27G30               -0.000364500
  21118561.058 6  -3831591.359 6  -2933018.32049  21118562.99149
  21261492.644 6  -3496941.438 6  -2694194.01249  21261490.15149
  20662240.261 6  -1414316.305 6  -1083338.64849  20662241.01549
  19838809.956 6  -2629072.703 6  -2012064.64849  19838807.25749
  23012344.901 3  -1350045.160 3  -1034048.56346  23012343.74146
  22516538.894 5   -783204.066 5   -605709.98849  22516539.08149
  23741660.698 4  -3898333.848 4  -2987821.60248  23741660.56548
 20  5 16  3 39 57.9990000  0  7G01G07G08G11G16G27G30               -0.000367208
  21117187.862 6  -3838807.930 6  -2938641.61749  21117189.51149
  21260233.815 6  -3503556.148 6  -2699348.32449  21260231.37049
  20661733.737 6  -1416977.938 6  -1085412.65249  20661734.74549
  19837881.292 6  -2633954.020 6  -2015868.26648  19837878.26948
  23011851.878 3  -1352633.758 3  -1036065.65246  23011851.04246
  22516249.120 6   -784724.801 6   -606894.98449  22516249.43349
  23740216.323 4  -3905922.672 4  -2993734.96948  23740216.75748
 20  5 16  3 39 58.9990000  0  7G01G07G08G11G16G27G30               -0.000369911
  21115815.011 6  -3846024.035 6  -2944264.55949  21115816.61249
  21258975.269 6  -3510170.395 6  -2704502.28949  21258972.51949
  20661227.417 6  -1419639.324 6  -1087486.45749  20661228.13649
  19836952.425 6  -2638834.730 6  -2019671.42248  19836949.87848
  23011359.987 3  -1355222.230 3  -1038082.64547  23011358.88647
  22515959.605 5   -786245.465 5   -608079.91849  22515959.96449
  23738772.019 4  -3913511.242 4  -2999648.13748  23738772.40148
 20  5 16  3 39 59.9990000  0  7G01G07G08G11G16G27G30               -0.000372618
  21114441.690 6  -3853239.789 6  -2949887.22349  21114443.48349
  21257716.659 6  -3516784.227 6  -2709655.92249  21257713.92149
  20660721.151 6  -1422300.582 6  -1089560.17249  20660721.81949
  19836023.308 6  -2643714.949 6  -2023474.18848  19836020.91748
  23010867.425 3  -1357810.574 3  -1040099.54347  23010866.23747
  22515670.370 5   -787766.242 5   -609264.94149  22515670.58949
  23737327.487 4  -3921099.727 4  -3005561.24648  23737328.31948
 20  5 16  3 40  0.9990000  0  7G01G07G08G11G16G27G30               -0.000375320
  21113068.550 6  -3860455.180 6  -2955509.60549  21113070.62049
  21256458.019 6  -3523397.707 6  -2714809.27749  21256455.55049
  20660214.753 6  -1424961.730 6  -1091633.78949  20660215.71449
  19835094.870 6  -2648594.660 6  -2027276.56348  19835091.93348
  23010375.487 3  -1360398.930 3  -1042116.44546  23010373.74946
  22515380.980 5   -789287.059 5   -610449.99649  22515381.44049
  23735884.136 4  -3928688.118 4  -3011474.27348  23735884.86648
 20  5 16  3 40  1.9990000  0  7G01G07G08G11G16G27G30               -0.000378029
  21111695.386 6  -3867670.191 6  -2961131.68849  21111697.18749
  21255199.722 6  -3530010.773 6  -2719962.31649  21255197.06549
  20659708.167 6  -1427622.715 6  -1093707.28949  20659709.27649
  19834166.120 6  -2653473.836 6  -2031078.52048  19834163.34748
  23009882.355 3  -1362987.207 3  -1044133.28947  23009881.24147
  22515091.347 6   -790807.938 6   -611635.09849  22515092.14049
  23734440.401 4  -3936276.340 4  -3017387.17648  23734440.73748
 20  5 16  3 40  2.9990000  0  7G01G07G08G11G16G27G30               -0.000380732
  21110322.526 6  -3874884.801 6  -2966753.46149  21110324.70249
  21253941.175 6  -3536623.434 6  -2725115.03549  21253938.41749
  20659201.831 6  -1430283.543 6  -1095780.66049  20659202.64749
  19833237.886 6  -2658352.484 6  -2034880.06648  19833235.12848
  23009389.839 3  -1365575.324 3  -1046150.00047  23009388.58947
  22514802.183 5   -792328.832 5   -612820.20749  22514802.59749
  23732995.565 4  -3943864.414 4  -3023299.95748  23732996.56548
 20  5 16  3 40  3.9990000  0  7G01G07G08G11G16G27G30               -0.000383438
  21108949.761 6  -3882099.051 6  -2972374.95349  21108951.54649
  21252683.190 6  -3543235.664 6  -2730267.42249  21252680.24149
  20658695.589 6  -1432944.215 6  -1097853.90249  20658695.98749
  19832309.901 6  -2663230.594 6  -2038681.18849  19832307.35849
  23008896.948 3  -1368163.441 3  -1048166.71947  23008896.35847
  22514512.839 5   -793849.820 5   -614005.39549  22514512.83149
  23731552.175 4  -3951452.332 4  -3029212.62547  23731552.58547
 20  5 16  3 40  4.9990000  0  7G01G07G08G11G16G27G30               -0.000386141
  21107577.300 6  -3889312.906 6  -2977996.13749  21107579.09749
  21251424.847 6  -3549847.473 6  -2735419.47749  21251421.85149
  20658188.831 7  -1435604.723 7  -1099927.03149  20658189.78049
  19831382.065 6  -2668108.188 6  -2042481.91049  19831379.12449
  23008404.792 3  -1370751.434 3  -1050183.33647  23008403.73747
  22514223.823 5   -795370.820 5   -615190.58249  22514223.20249
  23730107.480 4  -3959040.176 4  -3035125.23047  23730108.93747
 20  5 16  3 40  5.9990000  0  7G01G07G08G11G16G27G30               -0.000388849
  21106204.105 6  -3896526.508 6  -2983617.13349  21106206.55449
  21250166.980 6  -3556459.063 6  -2740571.36349  21250163.67149
  20657683.253 6  -1438265.230 6  -1102000.14849  20657683.74149
  19830453.620 6  -2672985.391 6  -2046282.32448  19830450.85548
  23007912.073 4  -1373339.539 4  -1052200.03947  23007911.14747
  22513933.980 5   -796892.004 5   -616375.92249  22513934.35149
  23728663.761 4  -3966627.973 4  -3041037.78947  23728664.50747
 20  5 16  3 40  6.9990000  0  7G01G07G08G11G16G27G30               -0.000391552
  21104831.644 6  -3903739.738 6  -2989237.82849  21104833.90549
  21248908.628 6  -3563070.211 6  -2745722.90649  21248905.97649
  20657176.745 6  -1440925.582 6  -1104073.15249  20657177.34749
  19829525.581 6  -2677862.086 6  -2050082.34448  19829523.07748
  23007419.972 4  -1375927.531 4  -1054216.66047  23007418.73047
  22513644.456 5   -798413.211 5   -617561.28149  22513644.36249
  23727220.417 4  -3974215.656 4  -3046950.27747  23727220.87447
 20  5 16  3 40  7.9990000  0  7G01G07G08G11G16G27G30               -0.000394260
  21103459.190 6  -3910952.473 6  -2994858.14149  21103461.37449
  21247650.456 6  -3569680.863 6  -2750874.06349  21247648.07349
  20656670.558 6  -1443585.664 6  -1106145.94549  20656671.33949
  19828597.855 6  -2682738.121 6  -2053881.85248  19828595.13248
  23006927.722 4  -1378515.328 4  -1056233.12147  23006926.49547
  22513354.730 5   -799934.383 5   -618746.61749  22513355.31549
  23725776.214 4  -3981803.121 4  -3052862.59448  23725776.99948
 20  5 16  3 40  8.9990000  0  7G01G07G08G11G16G27G30               -0.000396963
  21102086.565 6  -3918164.801 6  -3000478.12949  21102088.82349
  21246392.659 6  -3576291.059 6  -2756024.86349  21246390.08149
  20656164.284 6  -1446245.574 6  -1108218.60249  20656165.42949
  19827669.870 6  -2687613.602 6  -2057680.92649  19827667.15949
  23006434.815 3  -1381103.070 3  -1058249.55547  23006433.90547
  22513065.495 5   -801455.547 5   -619931.94149  22513065.43749
  23724332.628 4  -3989390.367 4  -3058774.73048  23724332.96448
 20  5 16  3 40  9.9990000  0  7G01G07G08G11G16G27G30               -0.000399672
  21100713.894 6  -3925376.684 6  -3006097.77749  21100716.39049
  21245134.776 6  -3582900.797 6  -2761175.31349  21245132.62849
  20655658.269 6  -1448905.285 6  -1110291.10949  20655658.98349
  19826742.128 6  -2692488.508 6  -2061479.55948  19826739.62448
  23005942.526 3  -1383690.617 3  -1060265.82047  23005941.31547
  22512775.909 5   -802976.715 5   -621117.27049  22512776.03449
  23722888.933 4  -3996977.457 4  -3064686.74248  23722889.52248
 20  5 16  3 40 10.9990000  0  7G01G07G08G11G16G27G30               -0.000402374
  21099341.792 6  -3932588.285 6  -3011717.21549  21099344.22649
  21243877.269 6  -3589510.211 6  -2766325.50049  21243874.46449
  20655151.917 6  -1451564.914 6  -1112363.53949  20655152.75749
  19825814.909 6  -2697362.984 6  -2065277.85249  19825812.04649
  23005449.987 3  -1386278.215 3  -1062282.12947  23005449.37447
  22512486.651 6   -804497.992 6   -622302.68049  22512486.59349
  23721445.886 4  -4004564.449 4  -3070598.68448  23721445.73748
 20  5 16  3 40 11.9990000  0  7G01G07G08G11G16G27G30               -0.000405081
  21097970.081 6  -3939799.461 6  -3017336.30549  21097971.97649
  21242619.511 6  -3596119.191 6  -2771475.35549  21242616.75349
  20654645.948 6  -1454224.363 6  -1114435.84049  20654646.89049
  19824886.925 6  -2702236.879 6  -2069075.68848  19824884.39748
  23004957.862 3  -1388865.680 3  -1064298.34446  23004956.66746
  22512197.183 5   -806019.277 5   -623488.09449  22512196.90949
  23720000.972 4  -4012151.297 4  -3076510.52048  23720002.43348
 20  5 16  3 40 12.9990000  0  7G01G07G08G11G16G27G30               -0.000407784
  21096597.480 6  -3947010.164 6  -3022955.03549  21096599.64749
  21241362.089 6  -3602727.688 6  -2776624.82849  21241359.21049
  20654140.292 6  -1456883.590 6  -1116507.96949  20654140.55849
  19823959.800 6  -2707110.164 6  -2072873.05948  19823956.75748
  23004465.401 3  -1391452.980 3  -1066314.42246  23004464.40546
  22511907.323 6   -807540.563 6   -624673.51249  22511907.40549
  23718557.683 4  -4019737.957 4  -3082422.20348  23718558.51548
 20  5 16  3 40 13.9990000  0  7G01G07G08G11G16G27G30               -0.000410492
  21095225.425 6  -3954220.504 6  -3028573.48449  21095227.76949
  21240104.503 6  -3609335.750 6  -2781773.96949  21240101.56549
  20653634.167 6  -1459542.680 6  -1118579.98049  20653634.77649
  19823032.534 6  -2711982.957 6  -2076670.03948  19823029.53848
  23003973.230 3  -1394040.215 3  -1068330.44947  23003972.08547
  22511617.815 6   -809061.906 6   -625858.97349  22511618.32349
  23717114.323 4  -4027324.430 4  -3088333.73848  23717114.64448
 20  5 16  3 40 14.9990000  0  7G01G07G08G11G16G27G30               -0.000413195
  21093853.605 6  -3961430.574 6  -3034191.72349  21093855.77649
  21238847.034 6  -3615943.563 6  -2786922.91449  21238844.26949
  20653128.081 6  -1462201.703 6  -1120651.95349  20653128.81249
  19822105.315 6  -2716855.340 6  -2080466.69948  19822102.75748
  23003480.761 3  -1396627.523 3  -1070346.52747  23003479.57347
  22511328.761 6   -810583.371 6   -627044.53549  22511328.58549
  23715670.550 4  -4034910.926 4  -3094245.28948  23715671.31548
 20  5 16  3 40 15.9990000  0  7G01G07G08G11G16G27G30               -0.000415903
  21092481.659 6  -3968640.281 6  -3039809.67249  21092483.77649
  21237589.620 6  -3622550.973 6  -2792071.53549  21237587.02649
  20652621.855 6  -1464860.594 6  -1122723.82049  20652622.55849
  19821178.292 6  -2721727.199 6  -2084262.94948  19821175.37848
  23002988.917 4  -1399214.754 4  -1072362.55547  23002987.13647
  22511038.917 5   -812104.895 5   -628230.14149  22511038.98749
  23714226.190 4  -4042497.285 4  -3100156.73448  23714227.99548
 20  5 16  3 40 16.9990000  0  7G01G07G08G11G16G27G30               -0.000418606
  21091109.339 6  -3975849.578 6  -3045427.30949  21091112.02649
  21236332.542 6  -3629157.941 6  -2797219.82449  21236329.72249
  20652116.276 6  -1467519.336 6  -1124795.56649  20652116.71449
  19820251.011 6  -2726598.512 6  -2088058.77348  19820248.39048
  23002496.480 4  -1401801.879 4  -1074378.49247  23002494.84747
  22510749.675 5   -813626.469 5   -629415.77749  22510749.66749
  23712783.065 4  -4050083.534 4  -3106068.09148  23712784.82348
 20  5 16  3 40 17.9990000  0  7G01G07G08G11G16G27G30               -0.000421314
  21089737.761 6  -3983058.645 6  -3051044.76649  21089739.90549
  21235074.839 6  -3635764.641 6  -2802367.89849  21235072.28049
  20651610.073 6  -1470178.055 6  -1126867.30149  20651611.06249
  19819324.105 6  -2731469.418 6  -2091854.28948  19819321.54648
  23002003.909 4  -1404389.043 4  -1076394.48047  23002002.76947
  22510459.980 6   -815148.219 6   -630601.56349  22510459.78049
  23711339.151 4  -4057669.637 4  -3111979.34048  23711340.46848
 20  5 16  3 40 18.9990000  0  7G01G07G08G11G16G27G30               -0.000424017
  21088366.097 6  -3990267.180 6  -3056661.81349  21088368.20249
  21233818.034 6  -3642370.828 6  -2807515.58249  21233814.71049
  20651104.065 6  -1472836.500 6  -1128938.81649  20651105.35849
  19818397.331 6  -2736339.691 6  -2095649.30948  19818394.85148
  23001511.886 4  -1406976.031 4  -1078410.31347  23001510.09747
  22510170.261 6   -816669.883 6   -631787.27749  22510170.28449
  23709896.315 4  -4065255.656 4  -3117890.52048  23709896.87848
 20  5 16  3 40 19.9990000  0  7G01G07G08G11G16G27G30               -0.000426725
  21086994.628 6  -3997475.297 6  -3062278.52349  21086996.74149
  21232560.917 6  -3648976.516 6  -2812662.87149  21232557.96849
  20650598.409 6  -1475494.699 6  -1131010.13749  20650599.47649
  19817470.940 6  -2741209.367 6  -2099443.85948  19817468.30448
  23001019.706 4  -1409562.855 4  -1080426.02347  23001018.05047
  22509880.855 5   -818191.539 5   -632972.98449  22509880.47649
  23708452.831 4  -4072841.355 4  -3123801.44948  23708453.29248
 20  5 16  3 40 20.9990000  0  7G01G07G08G11G16G27G30               -0.000429428
  21085623.042 6  -4004683.082 6  -3067894.97349  21085625.19049
  21231304.026 6  -3655581.879 6  -2817809.90649  21231300.75749
  20650092.589 6  -1478152.852 6  -1133081.42249  20650093.23749
  19816544.073 6  -2746078.609 6  -2103238.06648  19816541.55448
  23000527.190 4  -1412149.715 4  -1082441.75047  23000525.71447
  22509591.159 6   -819713.316 6   -634158.78549  22509591.05049
  23707009.589 4  -4080427.016 4  -3129712.35948  23707010.13248
 20  5 16  3 40 21.9990000  0  7G01G07G08G11G16G27G30               -0.000432137
  21084251.409 6  -4011890.441 6  -3073511.09049  21084253.67549
  21230047.058 6  -3662186.813 6  -2822956.60549  21230044.38649
  20649586.800 6  -1480810.766 6  -1135152.52349  20649587.44849
  19815617.862 6  -2750947.250 6  -2107031.81648  19815615.24148
  23000034.855 4  -1414736.406 4  -1084457.35547  23000034.06947
  22509301.440 6   -821235.094 6   -635344.58649  22509301.57349
  23705565.690 4  -4088012.512 4  -3135623.13348  23705566.97248
 20  5 16  3 40 22.9990000  0  7G01G07G08G11G16G27G30               -0.000434841
  21082879.706 6  -4019097.430 6  -3079126.92249  21082882.31549
  21228789.995 6  -3668791.309 6  -2828102.96149  21228787.09749
  20649080.925 6  -1483468.598 6  -1137223.56349  20649081.85149
  19814691.487 6  -2755815.406 6  -2110825.18449  19814689.04249
  22999542.683 4  -1417323.043 4  -1086472.91847  22999541.43347
  22509012.214 6   -822756.906 6   -636530.41449  22509012.06949
  23704121.776 4  -4095597.914 4  -3141533.84448  23704123.06948
 20  5 16  3 40 23.9990000  0  7G01G07G08G11G16G27G30               -0.000437548
  21081508.815 6  -4026303.945 6  -3084742.38349  21081510.71849
  21227533.605 6  -3675395.273 6  -2833248.91049  21227530.97649
  20648575.597 6  -1486126.141 6  -1139294.37149  20648576.31949
  19813765.370 6  -2760682.918 6  -2114618.05148  19813762.66748
  22999050.433 4  -1419909.543 4  -1088488.38347  22999048.89447
  22508721.862 6   -824278.695 6   -637716.21949  22508722.12049
  23702678.276 4  -4103183.020 4  -3147444.31648  23702679.53048
 20  5 16  3 40 24.9990000  0  7G01G07G08G11G16G27G30               -0.000440252
  21080137.222 6  -4033510.121 6  -3090357.58249  21080139.40949
  21226276.956 6  -3681998.922 6  -2838394.60949  21226274.11249
  20648069.636 6  -1488783.594 6  -1141365.11349  20648070.44449
  19812839.097 6  -2765549.973 6  -2118410.55948  19812836.58948
  22998558.456 4  -1422495.977 4  -1090503.79747  22998556.90147
  22508432.659 6   -825800.598 6   -638902.11349  22508433.08549
  23701234.901 4  -4110768.082 4  -3153354.75848  23701236.12448
 20  5 16  3 40 25.9990000  0  7G01G07G08G11G16G27G30               -0.000442961
  21078766.105 6  -4040715.727 6  -3095972.34849  21078768.22649
  21225021.003 6  -3688601.941 6  -2843539.82049  21225017.86249
  20647564.120 6  -1491440.727 6  -1143435.60949  20647564.62449
  19811912.730 6  -2770416.313 6  -2122202.51248  19811910.27648
  22998065.831 4  -1425082.176 4  -1092519.02047  22998064.59347
  22508143.222 6   -827322.281 6   -640087.84449  22508143.31549
  23699790.886 4  -4118352.762 4  -3159264.88748  23699793.02248
 20  5 16  3 40 26.9990000  0  7G01G07G08G11G16G27G30               -0.000445663
  21077394.980 6  -4047920.828 6  -3101586.71549  21077397.22249
  21223764.151 6  -3695204.484 6  -2848684.65649  21223760.99949
  20647058.495 6  -1494097.605 6  -1145505.90249  20647059.20249
  19810987.183 6  -2775282.043 6  -2125993.99248  19810984.81248
  22997574.120 4  -1427668.176 4  -1094534.08247  22997572.78447
  22507853.683 6   -828843.973 6   -641273.57849  22507853.42949
  23698348.565 4  -4125937.234 4  -3165174.85948  23698350.11648
 20  5 16  3 40 27.9990000  0  7G01G07G08G11G16G27G30               -0.000448372
  21076024.003 6  -4055125.770 6  -3107200.94549  21076026.19449
  21222507.269 6  -3701806.805 6  -2853829.32449  21222504.56249
  20646553.011 6  -1496754.496 6  -1147576.21149  20646553.33949
  19810061.386 6  -2780147.422 6  -2129785.19148  19810058.69048
  22997082.190 4  -1430254.281 4  -1096549.23047  22997080.62047
  22507563.894 6   -830365.871 6   -642459.48049  22507564.19049
  23696904.847 4  -4133521.750 4  -3171084.87548  23696906.60548
 20  5 16  3 40 28.9990000  0  7G01G07G08G11G16G27G30               -0.000451075
  21074653.120 6  -4062330.211 6  -3112814.80149  21074654.89449
  21221251.276 6  -3708408.617 6  -2858973.59449  21221248.24949
  20646047.370 6  -1499411.184 6  -1149646.35549  20646047.86249
  19809135.276 6  -2785012.176 6  -2133575.91448  19809132.97248
  22996589.823 4  -1432840.230 4  -1098564.25446  22996588.80446
  22507274.440 6   -831887.719 6   -643645.33649  22507274.21449
  23695461.230 4  -4141106.078 4  -3176994.74248  23695463.44448
 20  5 16  3 40 29.9990000  0  7G01G07G08G11G16G27G30               -0.000453783
  21073281.980 6  -4069534.266 6  -3118428.34849  21073284.26149
  21219995.183 6  -3715010.000 6  -2864117.53149  21219992.15949
  20645541.878 6  -1502067.691 6  -1151716.35949  20645542.25349
  19808209.737 6  -2789876.418 6  -2137366.23448  19808207.31948
  22996097.144 4  -1435426.039 4  -1100579.17247  22996096.76147
  22506985.042 6   -833409.609 6   -644831.22749  22506984.71849
  23694018.487 4  -4148690.211 4  -3182904.44948  23694020.23348
 20  5 16  3 40 30.9990000  0  7G01G07G08G11G16G27G30               -0.000456486
  21071911.190 6  -4076737.777 6  -3124041.46949  21071913.26549
  21218738.987 6  -3721610.816 6  -2869261.02049  21218735.55849
  20645036.456 6  -1504723.891 6  -1153786.12549  20645036.90149
  19807284.105 6  -2794739.965 6  -2141156.01248  19807281.65148
  22995605.519 4  -1438011.738 4  -1102594.01247  22995604.60547
  22506694.823 6   -834931.418 6   -646017.05149  22506695.17949
  23692575.394 4  -4156274.059 4  -3188813.94148  23692577.11648
 20  5 16  3 40 31.9990000  0  7G01G07G08G11G16G27G30               -0.000459194
  21070540.761 6  -4083940.973 6  -3129654.35249  21070542.60149
  21217483.230 6  -3728211.297 6  -2874404.25449  21217479.71049
  20644530.909 6  -1507379.980 6  -1155855.80949  20644531.52649
  19806358.706 6  -2799603.027 6  -2144945.41448  19806356.26948
  22995113.581 4  -1440597.273 4  -1104608.71547  22995112.53047
  22506406.261 6   -836453.289 6   -647202.92249  22506405.33549
  23691132.597 4  -4163857.816 4  -3194723.35948  23691133.82748
 20  5 16  3 40 32.9990000  0  7G01G07G08G11G16G27G30               -0.000461897
  21069170.362 6  -4091143.676 6  -3135266.84449  21069172.06249
  21216227.120 6  -3734811.285 6  -2879547.09449  21216223.70249
  20644025.761 6  -1510035.844 6  -1157925.31349  20644025.81249
  19805433.503 6  -2804465.508 6  -2148734.35549  19805431.35149
  22994621.589 4  -1443182.754 4  -1106623.37947  22994620.75747
  22506116.667 6   -837975.133 6   -648388.77049  22506116.19449
  23689689.198 4  -4171441.367 4  -3200632.62148  23689690.89748
 20  5 16  3 40 33.9990000  0  7G01G07G08G11G16G27G30               -0.000464605
  21067799.667 6  -4098346.027 6  -3140879.06349  21067801.37449
  21214971.526 6  -3741410.891 6  -2884689.64849  21214967.68749
  20643520.253 6  -1512691.590 6  -1159994.72349  20643520.48049
  19804508.480 6  -2809327.477 6  -2152522.90249  19804505.42549
  22994129.300 4  -1445768.094 4  -1108637.93447  22994128.46447
  22505826.386 6   -839497.059 6   -649574.68849  22505826.08949
  23688246.675 4  -4179024.813 4  -3206541.79348  23688247.75748
 20  5 16  3 40 34.9990000  0  7G01G07G08G11G16G27G30               -0.000467308
  21066429.011 6  -4105547.941 6  -3146490.94149  21066431.30849
  21213715.940 6  -3748010.023 6  -2889831.83649  21213712.15549
  20643014.683 6  -1515347.105 6  -1162063.95749  20643015.60849
  19803583.355 6  -2814188.844 6  -2156310.98448  19803580.76948
  22993637.284 4  -1448353.367 4  -1110652.43446  22993636.74146
  22505536.378 6   -841018.961 6   -650760.58649  22505536.88249
  23686803.230 4  -4186608.035 4  -3212450.78948  23686804.87048
 20  5 16  3 40 35.9990000  0  7G01G07G08G11G16G27G30               -0.000470016
  21065058.440 6  -4112749.465 6  -3152102.52049  21065060.51549
  21212459.792 6  -3754608.742 6  -2894973.69149  21212456.80449
  20642509.894 6  -1518002.504 6  -1164133.09849  20642510.38249
  19802658.276 6  -2819049.711 6  -2160098.66848  19802655.92148
  22993145.730 4  -1450938.555 4  -1112666.86746  22993144.61646
  22505246.948 6   -842540.906 6   -651946.52349  22505247.06249
  23685359.870 4  -4194191.125 4  -3218359.68448  23685361.69848
 20  5 16  3 40 36.9990000  0  7G01G07G08G11G16G27G30               -0.000472721
  21063688.167 6  -4119950.680 6  -3157713.85949  21063690.08949
  21211204.253 6  -3761207.129 6  -2900115.29349  21211200.63649
  20642004.558 6  -1520657.789 6  -1166202.14849  20642004.81549
  19801733.464 6  -2823910.109 6  -2163886.00048  19801730.80048
  22992654.315 4  -1453523.727 4  -1114681.29747  22992653.24947
  22504957.464 6   -844062.973 6   -653132.55549  22504957.31249
  23683917.480 4  -4201774.176 4  -3224268.55148  23683919.33148
 20  5 16  3 40 37.9990000  0  7G01G07G08G11G16G27G30               -0.000475430
  21062317.964 6  -4127151.355 6  -3163324.76649  21062320.11649
  21209948.894 6  -3767804.949 6  -2905256.45349  21209945.37449
  20641499.698 6  -1523312.813 6  -1168270.99649  20641499.92949
  19800808.581 6  -2828769.852 6  -2167672.80948  19800806.14048
  22992162.815 4  -1456108.684 4  -1116695.55147  22992161.35147
  22504667.472 6   -845584.945 6   -654318.50049  22504667.72249
  23682473.870 4  -4209356.895 4  -3230177.15648  23682476.10548
 20  5 16  3 40 38.9990000  0  7G01G07G08G11G16G27G30               -0.000478132
  21060947.683 6  -4134351.828 6  -3168935.52349  21060949.32349
  21208693.464 6  -3774402.547 6  -2910397.43849  21208689.87449
  20640993.956 6  -1525967.852 6  -1170339.85549  20640994.25349
  19799884.120 6  -2833629.207 6  -2171459.32048  19799881.24548
  22991670.495 4  -1458693.738 4  -1118709.87947  22991668.62847
  22504378.112 6   -847107.113 6   -655504.60949  22504378.12049
  23681031.034 4  -4216939.641 4  -3236085.79348  23681033.53048
 20  5 16  3 40 39.9990000  0  7G01G07G08G11G16G27G30               -0.000480841
  21059577.401 6  -4141551.887 6  -3174545.95749  21059579.69849
  21207437.847 6  -3780999.672 6  -2915538.05549  21207434.37049
  20640488.526 6  -1528622.680 6  -1172408.55549  20640489.10149
  19798959.737 6  -2838488.031 6  -2175245.41848  19798956.79648
  22991178.237 4  -1461278.668 4  -1120724.11447  22991177.34347
  22504088.526 6   -848629.340 6   -656690.76649  22504088.51949
  23679587.808 4  -4224522.262 4  -3241994.32848  23679590.39448
 20  5 16  3 40 40.9990000  0  7G01G07G08G11G16G27G30               -0.000483543
  21058207.487 6  -4148751.430 6  -3180155.98449  21058209.49949
  21206182.300 6  -3787596.316 6  -2920678.29749  21206178.80049
  20639983.698 6  -1531277.289 6  -1174477.07449  20639984.31549
  19798034.761 6  -2843346.219 6  -2179031.02048  19798032.30448
  22990685.901 4  -1463863.398 4  -1122738.18846  22990685.73046
  22503799.097 6   -850151.457 6   -657876.83249  22503798.75749
  23678145.690 4  -4232104.641 4  -3247902.67648  23678147.42148
 20  5 16  3 40 41.9990000  0  7G01G07G08G11G16G27G30               -0.000486252
  21056837.323 6  -4155950.555 6  -3185765.69949  21056839.76949
  21204927.550 6  -3794192.445 6  -2925818.14149  21204923.62049
  20639478.440 7  -1533931.672 7  -1176545.42649  20639478.71049
  19797110.706 6  -2848203.797 6  -2182816.14148  19797108.03048
  22990194.956 4  -1466448.020 4  -1124752.18846  22990193.56546
  22503509.230 6   -851673.613 6   -659062.93049  22503509.30049
  23676701.769 4  -4239686.781 4  -3253810.83648  23676704.80448
 20  5 16  3 40 42.9990000  0  7G01G07G08G11G16G27G30               -0.000488956
  21055467.714 6  -4163149.234 6  -3191375.05949  21055469.91349
  21203672.026 6  -3800788.160 6  -2930957.68049  21203668.48349
  20638973.315 6  -1536585.844 6  -1178613.60949  20638974.18349
  19796186.339 6  -2853060.840 6  -2186600.84848  19796183.82348
  22989703.112 4  -1469032.469 4  -1126766.03147  22989701.63647
  22503220.105 6   -853195.727 6   -660248.99249  22503219.58549
  23675259.644 4  -4247268.727 4  -3259718.85248  23675262.08148
 20  5 16  3 40 43.9990000  0  7G01G07G08G11G16G27G30               -0.000491665
  21054097.855 6  -4170347.543 6  -3196984.12549  21054099.93349
  21202417.097 6  -3807383.449 6  -2936096.87149  21202413.53849
  20638468.409 6  -1539239.887 6  -1180681.69949  20638468.74949
  19795262.120 6  -2857917.324 6  -2190385.12548  19795259.40148
  22989211.159 4  -1471616.926 4  -1128779.89847  22989210.08147
  22502929.815 6   -854717.906 6   -661435.10949  22502929.93749
  23673816.769 4  -4254850.547 4  -3265626.76248  23673819.16348
 20  5 16  3 40 44.9990000  0  7G01G07G08G11G16G27G30               -0.000494368
  21052727.886 6  -4177545.461 6  -3202592.88749  21052730.21049
  21201162.073 6  -3813978.355 6  -2941235.76249  21201158.48749
  20637963.206 6  -1541893.777 6  -1182749.66449  20637963.94049
  19794337.940 6  -2862773.313 6  -2194169.01648  19794335.45648
  22988719.081 5  -1474201.258 5  -1130793.67247  22988717.92147
  22502640.730 6   -856240.141 6   -662621.26649  22502640.44049
  23672374.722 4  -4262432.238 4  -3271534.57448  23672376.85148
 20  5 16  3 40 45.9990000  0  7G01G07G08G11G16G27G30               -0.000497076
  21051358.378 6  -4184743.066 6  -3208201.41449  21051360.47249
  21199907.480 6  -3820572.918 6  -2946374.38349  21199903.64449
  20637458.136 6  -1544547.609 6  -1184817.58649  20637458.75349
  19793413.940 6  -2867628.844 6  -2197952.53948  19793411.26948
  22988228.097 4  -1476785.586 4  -1132807.43046  22988226.30846
  22502351.097 6   -857762.492 6   -663807.51249  22502350.55049
  23670931.433 4  -4270013.852 4  -3277442.32048  23670934.10848
 20  5 16  3 40 46.9990000  0  7G01G07G08G11G16G27G30               -0.000499781
  21049989.011 6  -4191940.207 6  -3213809.57049  21049991.03049
  21198652.730 6  -3827166.992 6  -2951512.62149  21198648.88249
  20636953.136 6  -1547201.199 6  -1186885.32049  20636953.87449
  19792490.089 6  -2872483.762 6  -2201735.59448  19792487.39048
  22987736.269 5  -1479369.750 5  -1134821.06647  22987734.70647
  22502061.675 6   -859284.777 6   -664993.71149  22502060.90949
  23669488.659 5  -4277595.312 5  -3283349.94748  23669491.61248
 20  5 16  3 40 47.9980000  0  7G01G07G08G11G16G27G30                0.000497515
  21048620.615 6  -4199129.715 6  -3219411.78949  21048622.69749
  21197398.818 6  -3833754.027 6  -2956645.37949  21197395.44749
  20636448.818 6  -1549851.918 6  -1188950.81349  20636449.72949
  19791567.404 6  -2877333.281 6  -2205514.43848  19791564.60048
  22987244.779 4  -1481951.238 4  -1136832.62147  22987243.27247
  22501771.545 6   -860805.609 6   -666178.77749  22501771.38949
  23668047.850 4  -4285168.966 4  -3289251.48848  23668049.89348
