     2.10           OBSERVATION DATA    GPS(GPS)            RINEX VERSION / TYPE
cnvtToRINEX 3.07.0  convertToRINEX OPR  19-May-20 12:31 UTC PGM / RUN BY / DATE 
----------------------------------------------------------- COMMENT             
GI02                                                        MARKER NAME         
GI02                                                        MARKER NUMBER       
GNSS Observer       Trimble                                 OBSERVER / AGENCY   
0220365401          5700                2.32                REC # / TYPE / VERS 
                    UNKNOWN EXT                             ANT # / TYPE        
 -3050428.7980  4927748.8967  2654390.4391                  APPROX POSITION XYZ 
        0.0000        0.0000        0.0000                  ANTENNA: DELTA H/E/N
     1     1     0                                          WAVELENGTH FACT L1/2
     4    C1    L1    L2    P2                              # / TYPES OF OBSERV 
  2020     5    16     1    50    0.0000000     GPS         TIME OF FIRST OBS   
  2020     5    16     3     8   40.0000000     GPS         TIME OF LAST OBS    
     0                                                      RCV CLOCK OFFS APPL 
    18                                                      LEAP SECONDS        
    10                                                      # OF SATELLITES     
   G01  2542  2542  2542  2542                              PRN / # OF OBS      
   G04  4721  4721  4721  4721                              PRN / # OF OBS      
   G07  3411  3411  3411  3411                              PRN / # OF OBS      
   G08  4721  4721  4721  4721                              PRN / # OF OBS      
   G09  4721  4721  4719  4719                              PRN / # OF OBS      
   G11  4721  4721  4721  4721                              PRN / # OF OBS      
   G16  4721  4721  4721  4721                              PRN / # OF OBS      
   G26  3946  3944  3946  3946                              PRN / # OF OBS      
   G27  4721  4721  4721  4721                              PRN / # OF OBS      
   G31  1614  1614  1611  1611                              PRN / # OF OBS      
CARRIER PHASE MEASUREMENTS: PHASE SHIFTS REMOVED            COMMENT             
                                                            END OF HEADER       
 20  5 16  1 50  0.0000000  0  7G04G08G09G11G16G27G31                0.000182985
  21556017.98416       -48.33616       -94.10057  21556015.47357
  20599776.51617    -19201.00017     -3620.80459  20599775.01659
  22941896.32015    -17281.49215                
  23095461.38315    -59802.76615    -27110.70357  23095457.95357
  21685414.14816      5132.08216      2342.06357  21685410.50857
  20252891.01617       692.35517       349.84859  20252888.98459
  23845305.18015     19156.30915                
 20  5 16  1 50  1.0000000  0  7G04G08G09G11G16G27G31                0.000182409
  21556011.414 6       -83.824 6      -121.74847  21556009.38747
  20599376.234 7    -21305.871 7     -5260.99549  20599374.69549
  22941528.508 5    -19212.293 5                
  23094652.992 5    -64050.609 5    -30420.70747  23094649.33647
  21685481.922 6      5487.895 6      2619.31647  21685478.31647
  20252898.789 7       735.707 7       383.61749  20252897.54349
  23845625.758 5     20842.957 5                
 20  5 16  1 50  2.0000000  0  7G04G08G09G11G16G27G31                0.000181833
  21556004.234 6      -120.574 6      -150.40647  21556002.00047
  20598975.141 7    -23412.004 7     -6902.10249  20598974.07449
  22941160.922 5    -21144.289 5      -340.59458  22941159.68058
  23093844.891 5    -68300.156 5    -33732.04747  23093840.67647
  21685549.328 6      5841.957 6      2895.20747  21685545.80547
  20252906.977 7       777.797 7       416.41449  20252905.46949
  23845946.430 5     22528.008 5                
 20  5 16  1 50  3.0000000  0  7G04G08G09G11G16G27G31                0.000181253
  21555996.734 6      -158.547 6      -179.98447  21555995.27347
  20598574.219 7    -25519.395 7     -8544.23849  20598573.43049
  22940793.453 5    -23077.590 5     -1847.05548  22940791.93848
  23093035.672 5    -72551.395 5    -37044.70347  23093031.76247
  21685616.789 6      6194.242 6      3169.71947  21685612.87947
  20252914.742 7       818.645 7       448.23849  20252912.88349
  23846267.008 5     24211.496 5       495.58657  23846264.47357
 20  5 16  1 50  4.0000000  0  7G04G08G09G11G16G27G31                0.000180674
  21555989.531 6      -197.758 6      -210.53147  21555987.28947
  20598173.016 6    -27628.031 6    -10187.34049  20598172.59849
  22940425.391 5    -25012.090 5     -3354.44948  22940423.87948
  23092226.008 6    -76804.238 6    -40358.61347  23092222.46147
  21685683.398 6      6544.793 6      3442.87547  21685679.40247
  20252922.500 7       858.242 7       479.09849  20252920.90249
  23846587.164 5     25893.449 5      1806.21947  23846585.05547
 20  5 16  1 50  5.0000000  0  7G04G08G09G11G16G27G31                0.000180094
  21555982.320 6      -238.191 6      -242.04347  21555979.78547
  20597771.563 7    -29737.957 7    -11831.43849  20597771.01649
  22940057.281 5    -26947.813 5     -4862.80948  22940055.36748
  23091416.359 5    -81058.805 5    -43673.86347  23091413.16847
  21685749.508 6      6893.531 6      3714.61747  21685745.62947
  20252929.789 7       896.582 7       508.96949  20252928.41049
  23846906.797 5     27573.824 5      3115.61347  23846904.78147
 20  5 16  1 50  6.0000000  0  7G04G08G09G11G16G27G31                0.000179512
  21555974.117 6      -279.816 6      -274.48447  21555971.63347
  20597369.891 6    -31849.012 6    -13476.41849  20597369.09449
  22939688.453 5    -28884.684 5     -6372.06348  22939686.97748
  23090605.961 6    -85314.938 6    -46990.33647  23090603.17247
  21685815.484 6      7240.621 6      3985.07447  21685811.94547
  20252936.289 7       933.762 7       537.94149  20252934.48449
  23847226.102 5     29252.742 5      4423.85547  23847223.71147
 20  5 16  1 50  7.0000000  0  7G04G08G09G11G16G27G31                0.000178928
  21555965.797 6      -322.512 6      -307.75847  21555963.52047
  20596968.023 6    -33961.188 6    -15122.26249  20596967.04749
  22939319.555 5    -30822.672 5     -7882.18448  22939318.03548
  23089796.023 6    -89572.594 6    -50307.98047  23089792.79347
  21685881.820 6      7586.113 6      4254.28947  21685877.35547
  20252943.508 7       969.828 7       566.04349  20252942.08649
  23847545.398 5     30930.242 5      5730.99647  23847542.98847
 20  5 16  1 50  8.0000000  0  7G04G08G09G11G16G27G31                0.000178347
  21555957.602 6      -366.285 6      -341.87147  21555955.50047
  20596565.594 6    -36074.438 6    -16768.95349  20596564.96949
  22938950.461 5    -32761.703 5     -9393.12148  22938949.50448
  23088985.586 6    -93831.773 6    -53626.81647  23088982.34847
  21685947.023 6      7929.957 6      4522.21947  21685943.11747
  20252950.211 7      1004.828 7       593.31649  20252948.57849
  23847864.211 5     32606.348 5      7037.04347  23847862.04347
 20  5 16  1 50  9.0000000  0  7G04G08G09G11G16G27G31                0.000177759
  21555948.758 6      -411.133 6      -376.82047  21555947.07847
  20596163.297 6    -38188.785 6    -18416.49249  20596163.06349
  22938581.484 5    -34701.816 5    -10904.90648  22938580.34448
  23088174.289 5    -98092.410 5    -56946.79747  23088171.83247
  21686012.203 6      8272.254 6      4788.94147  21686008.31647
  20252957.016 7      1038.723 7       619.72749  20252955.25449
  23848182.594 5     34281.066 5      8342.00847  23848180.52747
 20  5 16  1 50 10.0000000  0  7G04G08G09G11G16G27G31                0.000177174
  21555939.953 6      -456.926 6      -412.51247  21555938.52347
  20595760.656 6    -40304.074 6    -20064.77349  20595760.57449
  22938211.703 5    -36642.891 5    -12417.44948  22938210.77748
  23087363.641 5   -102354.465 5    -60267.88347  23087360.45747
  21686076.961 6      8613.055 6      5054.50847  21686072.75447
  20252962.992 7      1071.668 7       645.39849  20252961.34849
  23848501.414 5     35954.516 5      9645.98847  23848499.18847
 20  5 16  1 50 11.0000000  0  7G04G08G09G11G16G27G31                0.000176586
  21555931.531 6      -503.707 6      -448.96547  21555929.30947
  20595358.313 6    -42420.371 6    -21713.83249  20595357.69949
  22937842.242 5    -38584.953 5    -13930.75448  22937841.52048
  23086552.563 6   -106617.949 6    -63590.07847  23086549.02747
  21686141.164 6      8952.355 6      5318.89847  21686137.94547
  20252969.164 7      1103.613 7       670.29749  20252967.63349
  23848819.414 5     37626.648 5     10948.94947  23848817.37147
 20  5 16  1 50 12.0000000  0  7G04G08G09G11G16G27G31                0.000175999
  21555922.547 6      -551.316 6      -486.07047  21555920.25447
  20594955.008 6    -44537.500 6    -23363.55149  20594954.78949
  22937472.672 5    -40527.773 5    -15444.63748  22937471.90248
  23085741.625 5   -110882.633 5    -66913.21147  23085737.30547
  21686205.445 6      9290.316 6      5582.24247  21686201.96147
  20252974.977 7      1134.754 7       694.56349  20252973.30149
  23849137.195 5     39297.672 5     12251.03547  23849134.85547
 20  5 16  1 50 13.0000000  0  7G04G08G09G11G16G27G31                0.000175411
  21555913.094 6      -599.676 6      -523.76247  21555911.03547
  20594552.141 7    -46655.426 7    -25013.88349  20594551.72749
  22937102.891 5    -42471.410 5    -16959.15648  22937102.10948
  23084929.203 5   -115148.543 5    -70237.29347  23084925.71147
  21686270.023 6      9627.004 6      5844.58647  21686265.71947
  20252980.914 7      1165.090 7       718.19949  20252979.05549
  23849455.695 5     40967.602 5     13552.28547  23849453.18447
 20  5 16  1 50 14.0000000  0  7G04G08G09G11G16G27G31                0.000174822
  21555903.703 6      -648.738 6      -561.98447  21555901.32047
  20594149.445 6    -48774.035 6    -26664.75049  20594148.73849
  22936733.523 5    -44415.660 5    -18474.15248  22936732.23448
  23084117.266 6   -119415.551 6    -73562.23047  23084113.82847
  21686333.547 6      9962.473 6      6105.99647  21686329.77347
  20252986.352 7      1194.754 7       741.31649  20252984.27349
  23849773.531 5     42636.551 5     14852.76647  23849770.51247
 20  5 16  1 50 15.0000000  0  7G04G08G09G11G16G27G31                0.000174231
  21555894.203 6      -698.605 6      -600.82847  21555892.09847
  20593745.797 7    -50893.453 7    -28316.23849  20593745.28549
  22936362.773 5    -46360.714 5    -19989.76748  22936362.15248
  23083304.961 5   -123683.813 5    -76888.14547  23083301.74247
  21686397.063 6     10296.578 6      6366.33247  21686393.35247
  20252991.953 7      1223.570 7       763.76249  20252989.94549
  23850090.930 5     44304.352 5     16152.34446  23850088.29746
 20  5 16  1 50 16.0000000  0  7G04G08G09G11G16G27G31                0.000173639
  21555884.617 6      -749.137 6      -640.20747  21555882.52347
  20593342.414 7    -53013.547 7    -29968.25849  20593341.77049
  22935992.625 5    -48306.551 5    -21505.98048  22935991.43448
  23082492.805 5   -127953.188 5    -80214.93447  23082489.20747
  21686460.008 6     10629.520 6      6625.76247  21686456.29347
  20252997.422 7      1251.730 7       785.70349  20252995.66449
  23850407.773 5     45971.141 5     17451.13746  23850405.31646
 20  5 16  1 50 17.0000000  0  7G04G08G09G11G16G27G31                0.000173048
  21555874.813 6      -800.293 6      -680.06647  21555872.73447
  20592939.086 6    -55134.285 6    -31620.77749  20592938.32849
  22935622.070 5    -50252.883 5    -23022.60548  22935620.80548
  23081679.453 6   -132223.590 6    -83542.52047  23081676.45347
  21686523.656 6     10961.352 6      6884.32847  21686519.74647
  20253002.453 7      1279.258 7       807.15249  20253000.94149
  23850724.430 5     47637.004 5     18749.21947  23850721.94147
 20  5 16  1 50 18.0000000  0  7G04G08G09G11G16G27G31                0.000172455
  21555865.203 6      -851.879 6      -720.26247  21555863.21947
  20592535.539 6    -57255.473 6    -33273.65249  20592534.59849
  22935251.906 5    -52199.676 5    -24539.59848  22935250.41448
  23080866.688 6   -136494.867 6    -86870.78147  23080863.77347
  21686586.945 6     11292.203 6      7142.14147  21686582.79747
  20253007.539 7      1306.316 7       828.24249  20253006.14149
  23851040.773 5     49302.133 5     20046.72347  23851039.04747
 20  5 16  1 50 19.0000000  0  7G04G08G09G11G16G27G31                0.000171862
  21555855.172 6      -903.938 6      -760.83247  21555853.05547
  20592131.398 7    -59377.125 7    -34926.88349  20592130.87949
  22934881.438 5    -54146.973 5    -26056.98048  22934879.98448
  23080054.273 5   -140766.992 5    -90199.69947  23080050.87547
  21686649.773 6     11622.078 6      7399.18047  21686645.35247
  20253012.500 7      1332.910 7       848.96949  20253010.95349
  23851357.813 5     50966.473 5     21343.60946  23851355.82446
 20  5 16  1 50 20.0000000  0  7G04G08G09G11G16G27G31                0.000171268
  21555845.500 6      -956.375 6      -801.68847  21555843.37547
  20591727.367 6    -61499.230 6    -36580.47749  20591726.74649
  22934510.656 5    -56094.594 5    -27574.61348  22934509.20348
  23079241.242 5   -145039.988 5    -93529.31647  23079237.71947
  21686711.961 6     11951.051 6      7655.51247  21686708.00847
  20253017.789 7      1359.137 7       869.40249  20253016.16049
  23851674.445 6     52630.125 6     22639.96547  23851671.87547
 20  5 16  1 50 21.0000000  0  7G04G08G09G11G16G27G31                0.000170673
  21555835.234 6     -1009.133 6      -842.80547  21555833.19547
  20591323.453 6    -63621.672 6    -38234.32849  20591323.15649
  22934139.656 5    -58042.527 5    -29092.48848  22934138.28148
  23078427.664 5   -149313.699 5    -96859.48047  23078424.62147
  21686774.141 6     12279.152 6      7911.16847  21686770.74647
  20253022.695 7      1385.016 7       889.57049  20253020.95349
  23851991.320 6     54293.125 6     23935.81347  23851988.32047
 20  5 16  1 50 22.0000000  0  7G04G08G09G11G16G27G31                0.000170078
  21555824.578 6     -1062.277 6      -884.21547  21555823.01247
  20590919.914 6    -65744.508 6    -39888.48449  20590919.25849
  22933768.781 5    -59990.883 5    -30610.69148  22933767.92648
  23077614.531 5   -153588.234 5   -100190.28947  23077611.36347
  21686836.727 6     12606.332 6      8166.11747  21686832.66847
  20253027.734 7      1410.480 7       909.40649  20253025.34849
  23852307.508 6     55955.410 6     25231.08647  23852304.71947
 20  5 16  1 50 23.0000000  0  7G04G08G09G11G16G27G31                0.000169483
  21555814.875 6     -1115.805 6      -925.93447  21555812.65247
  20590515.859 7    -67867.711 7    -41542.92649  20590514.61349
  22933398.227 5    -61939.574 5    -32129.14848  22933397.47348
  23076800.531 5   -157863.590 5   -103521.73047  23076797.79347
  21686898.500 6     12932.645 6      8420.38747  21686895.02047
  20253032.195 7      1435.586 7       928.96549  20253030.49649
  23852623.930 5     57616.996 5     26525.82447  23852621.21947
 20  5 16  1 50 24.0000000  0  7G04G08G09G11G16G27G31                0.000168886
  21555804.703 6     -1169.426 6      -967.72347  21555802.52047
  20590111.461 7    -69991.039 7    -43197.46949  20590110.89849
  22933027.016 5    -63888.383 5    -33647.69548  22933026.32448
  23075987.117 5   -162139.422 5   -106853.54347  23075983.76247
  21686960.734 6     13258.344 6      8674.18047  21686957.09847
  20253037.438 7      1460.559 7       948.42249  20253035.45749
  23852939.039 6     59278.164 6     27820.25047  23852937.12947
 20  5 16  1 50 25.0000000  0  7G04G08G09G11G16G27G31                0.000168289
  21555794.164 6     -1223.211 6     -1009.62947  21555792.02047
  20589707.789 6    -72114.535 6    -44852.14849  20589707.27349
  22932656.180 5    -65837.340 5    -35166.36348  22932655.17648
  23075173.086 5   -166415.895 5   -110185.85947  23075169.97747
  21687022.727 6     13583.328 6      8927.41447  21687018.80547
  20253041.930 7      1485.352 7       967.74249  20253039.94949
  23853255.281 5     60938.852 5     29114.28547  23853253.37947
 20  5 16  1 50 26.0000000  0  7G04G08G09G11G16G27G31                0.000167694
  21555784.086 6     -1277.176 6     -1051.68047  21555782.23047
  20589303.563 6    -74238.238 6    -46506.97749  20589303.09849
  22932285.039 5    -67786.508 5    -36685.19148  22932284.42248
  23074359.563 6   -170692.965 6   -113518.64147  23074355.93847
  21687083.992 6     13907.625 6      9180.10947  21687080.52347
  20253046.563 7      1509.980 7       986.93849  20253044.75849
  23853571.500 5     62599.066 5     30407.94947  23853568.91047
 20  5 16  1 50 27.0000000  0  7G04G08G09G11G16G27G31                0.000167095
  21555773.594 6     -1331.227 6     -1093.79747  21555771.58647
  20588899.195 6    -76361.980 6    -48161.84049  20588898.47749
  22931914.844 5    -69735.668 5    -38204.01648  22931913.82448
  23073545.367 5   -174970.492 5   -116851.78147  23073541.82847
  21687145.820 6     14231.320 6      9432.34047  21687142.35247
  20253051.125 7      1534.500 7      1006.03949  20253049.50049
  23853887.445 5     64258.883 5     31701.29347  23853885.05147
 20  5 16  1 50 28.0000000  0  7G04G08G09G11G16G27G31                0.000166498
  21555763.703 6     -1385.434 6     -1136.03147  21555761.27747
  20588495.273 7    -78485.914 7    -49816.85549  20588494.16449
  22931543.305 5    -71685.016 5    -39722.98448  22931542.64848
  23072731.242 5   -179248.668 5   -120185.42647  23072727.76647
  21687207.344 6     14554.359 6      9684.05947  21687203.98447
  20253055.492 7      1558.863 7      1025.02349  20253053.96949
  23854203.219 5     65918.219 5     32994.28547  23854200.66847
 20  5 16  1 50 29.0000000  0  7G04G08G09G11G16G27G31                0.000165899
  21555752.898 6     -1439.602 6     -1178.23847  21555751.16847
  20588091.078 6    -80609.836 6    -51471.85949  20588090.44549
  22931173.008 5    -73634.336 5    -41241.93848  22931171.59848
  23071916.906 5   -183527.191 5   -123519.34847  23071913.61347
  21687268.078 6     14876.883 6      9935.37947  21687264.91447
  20253060.484 7      1583.238 7      1044.02049  20253058.66849
  23854518.734 5     67577.254 5     34287.03147  23854516.49647
 20  5 16  1 50 30.0000000  0  7G04G08G09G11G16G27G31                0.000165300
  21555742.680 6     -1493.789 6     -1220.46947  21555740.75447
  20587686.977 6    -82733.805 6    -53126.89849  20587686.31649
  22930801.703 5    -75583.664 5    -42760.89848  22930800.83648
  23071102.742 5   -187806.184 5   -126853.62947  23071099.40247
  21687329.828 6     15198.871 6     10186.28147  21687326.45747
  20253065.109 7      1607.563 7      1062.97349  20253063.00849
  23854834.969 5     69235.926 5     35579.50847  23854832.42647
 20  5 16  1 50 31.0000000  0  7G04G08G09G11G16G27G31                0.000164701
  21555732.484 6     -1547.922 6     -1262.64847  21555730.22347
  20587282.664 6    -84857.723 6    -54781.90249  20587282.04749
  22930430.961 5    -77532.906 5    -44279.78948  22930430.12548
  23070288.445 5   -192085.523 5   -130188.17647  23070285.31347
  21687390.781 6     15520.391 6     10436.81647  21687387.19147
  20253069.727 7      1631.992 7      1082.00849  20253067.57449
  23855150.242 5     70894.375 5     36871.80547  23855148.00047
 20  5 16  1 50 32.0000000  0  7G04G08G09G11G16G27G31                0.000164103
  21555722.219 6     -1601.918 6     -1304.73447  21555719.95747
  20586878.664 6    -86981.543 6    -56436.82849  20586878.09449
  22930059.648 5    -79482.035 5    -45798.59448  22930059.37148
  23069474.250 5   -196365.156 5   -133522.95747  23069470.63347
  21687452.508 6     15841.531 6     10687.05547  21687448.41047
  20253074.336 7      1656.496 7      1101.10249  20253072.52749
  23855465.500 5     72552.629 5     38163.94947  23855463.56347
 20  5 16  1 50 33.0000000  0  7G04G08G09G11G16G27G31                0.000163504
  21555712.047 6     -1655.855 6     -1346.75447  21555709.94547
  20586474.422 6    -89105.285 6    -58091.69149  20586473.97349
  22929688.914 5    -81431.098 5    -47317.34048  22929687.96548
  23068660.336 6   -200645.184 6   -136858.04347  23068656.45347
  21687513.617 6     16162.207 6     10936.92647  21687509.39547
  20253078.898 7      1681.070 7      1120.25049  20253077.63349
  23855780.891 5     74210.629 5     39455.89146  23855778.89546
 20  5 16  1 50 34.0000000  0  7G04G08G09G11G16G27G31                0.000162903
  21555701.508 6     -1709.738 6     -1388.74647  21555699.45747
  20586070.125 6    -91228.980 6    -59746.52049  20586069.55949
  22929317.656 5    -83380.100 5    -48836.04748  22929317.27348
  23067845.117 6   -204925.527 6   -140193.37547  23067842.10547
  21687574.234 6     16482.426 6     11186.45347  21687570.63747
  20253083.773 7      1705.664 7      1139.41849  20253082.28549
  23856096.250 5     75868.375 5     40747.62546  23856094.34446
 20  5 16  1 50 35.0000000  0  7G04G08G09G11G16G27G31                0.000162302
  21555691.625 6     -1763.512 6     -1430.65247  21555689.51247
  20585666.070 6    -93352.590 6    -61401.28149  20585665.75849
  22928947.047 5    -85328.965 5    -50354.64148  22928946.24248
  23067030.391 6   -209206.238 6   -143528.99647  23067027.42647
  21687634.898 6     16802.227 6     11435.64547  21687631.58247
  20253088.398 7      1730.371 7      1158.66049  20253086.68449
  23856411.977 5     77525.906 5     42039.19546  23856409.74246
 20  5 16  1 50 36.0000000  0  7G04G08G09G11G16G27G31                0.000161703
  21555681.391 6     -1817.070 6     -1472.38747  21555679.00847
  20585262.000 6    -95476.016 6    -63055.89849  20585261.66849
  22928575.977 5    -87277.609 5    -51873.06648  22928575.49648
  23066215.313 6   -213487.125 6   -146864.74647  23066212.70747
  21687696.023 6     17121.719 6     11684.59847  21687692.43847
  20253092.867 7      1755.277 7      1178.07049  20253091.53149
  23856727.336 5     79183.324 5     43330.68046  23856725.08646
 20  5 16  1 50 37.0000000  0  7G04G08G09G11G16G27G31                0.000161102
  21555671.195 6     -1870.531 6     -1514.05147  21555669.11347
  20584857.625 6    -97599.320 6    -64710.42249  20584857.39149
  22928205.406 5    -89226.191 5    -53391.44148  22928205.06348
  23065401.102 5   -217768.359 5   -150200.77047  23065398.02747
  21687756.352 6     17440.777 6     11933.21547  21687752.75047
  20253097.992 7      1780.293 7      1197.55949  20253096.43849
  23857043.070 5     80840.547 5     44622.01246  23857040.16846
 20  5 16  1 50 38.0000000  0  8G04G08G09G11G16G26G27G31             0.000160498
  21555661.469 6     -1923.723 6     -1555.49247  21555658.98447
  20584453.984 6    -99722.379 6    -66364.75049  20584453.42249
  22927835.141 5    -91174.406 5    -54909.53148  22927833.91448
  23064586.383 5   -222049.742 5   -153536.90647  23064583.53147
  21687816.961 6     17759.617 6     12181.65647  21687813.60247
  23152706.46915     29552.64115     14385.09857  23152707.16457
  20253102.578 7      1805.563 7      1217.25049  20253101.34449
  23857357.883 5     82497.723 5     45913.31346  23857355.48846
 20  5 16  1 50 39.0000000  0  8G04G08G09G11G16G26G27G31             0.000159897
  21555651.180 6     -1976.719 6     -1596.78547  21555648.94547
  20584050.180 6   -101845.215 6    -68018.90649  20584049.36349
  22927464.078 5    -93122.492 5    -56427.52348  22927463.08648
  23063771.773 5   -226331.332 5   -156873.21547  23063768.10247
  21687877.953 6     18078.152 6     12429.87547  21687874.05547
  23152855.148 5     30331.090 5     14991.68047  23152854.91847
  20253107.438 7      1831.027 7      1237.09049  20253105.86749
  23857673.172 5     84154.801 5     47204.53946  23857670.73446
 20  5 16  1 50 40.0000000  0  8G04G08G09G11G16G26G27G31             0.000159296
  21555641.133 6     -2029.488 6     -1637.89847  21555639.05147
  20583646.266 6   -103967.891 6    -69672.93849  20583645.56649
  22927093.727 5    -95070.305 5    -57945.29748  22927093.31348
  23062956.891 5   -230613.133 5   -160209.68047  23062953.91447
  21687938.328 6     18396.324 6     12677.80147  21687934.86747
  23153003.594 5     31109.176 5     15597.96947  23153002.95347
  20253112.289 7      1856.680 7      1257.07849  20253110.89549
  23857989.148 5     85811.703 5     48495.63346  23857986.21546
 20  5 16  1 50 41.0000000  0  8G04G08G09G11G16G26G27G31             0.000158695
  21555630.969 6     -2081.996 6     -1678.81347  21555628.56347
  20583242.016 6   -106090.285 6    -71326.75849  20583241.84849
  22926722.398 5    -97017.910 5    -59462.91448  22926722.44148
  23062141.844 5   -234895.121 5   -163546.30547  23062138.71547
  21687998.664 6     18714.285 6     12925.56347  21687995.62547
  23153151.469 5     31886.996 5     16204.05947  23153151.25047
  20253117.313 7      1882.582 7      1277.26649  20253115.91049
  23858304.766 5     87468.559 5     49786.68846  23858301.19546
 20  5 16  1 50 42.0000000  0  8G04G08G09G11G16G26G27G31             0.000158092
  21555621.398 6     -2134.234 6     -1719.52047  21555618.48847
  20582838.492 6   -108212.414 6    -72980.36349  20582837.68049
  22926351.914 5    -98965.195 5    -60980.27348  22926351.50048
  23061327.414 5   -239177.219 5   -166883.00447  23061323.88747
  21688059.422 6     19031.984 6     13173.12147  21688056.00847
  23153299.750 5     32664.488 5     16809.89547  23153299.14547
  20253122.266 7      1908.750 7      1297.65249  20253120.82449
  23858619.734 5     89125.395 5     51077.73846  23858616.76246
 20  5 16  1 50 43.0000000  0  8G04G08G09G11G16G26G27G31             0.000157490
  21555611.414 6     -2186.188 6     -1760.00447  21555608.76647
  20582434.664 6   -110334.281 6    -74633.76249  20582434.08249
  22925982.156 5   -100912.203 5    -62497.42248  22925981.37548
  23060512.578 5   -243459.516 5   -170219.84847  23060509.54747
  21688119.531 6     19349.449 6     13420.49247  21688116.51247
  23153446.938 5     33441.723 5     17415.52347  23153446.89147
  20253126.813 7      1935.188 7      1318.25849  20253125.58649
  23858934.422 5     90782.199 5     52368.76646  23858932.06346
 20  5 16  1 50 44.0000000  0  8G04G08G09G11G16G26G27G31             0.000156889
  21555601.719 6     -2237.883 6     -1800.29347  21555599.28547
  20582031.039 6   -112455.871 6    -76286.94949  20582030.57849
  22925611.531 5   -102858.879 5    -64014.30948  22925610.73848
  23059697.266 5   -247741.906 5   -173556.78147  23059694.16447
  21688179.922 6     19666.668 6     13667.66847  21688176.73847
  23153595.344 5     34218.641 5     18020.91447  23153594.53547
  20253132.375 7      1961.914 7      1339.09049  20253130.91449
  23859249.844 5     92438.945 5     53659.74246  23859247.52746
 20  5 16  1 50 45.0000000  0  8G04G08G09G11G16G26G27G31             0.000156286
  21555591.672 6     -2289.156 6     -1840.24647  21555589.23047
  20581627.383 6   -114577.094 6    -77939.84849  20581626.67249
  22925240.836 5   -104805.203 5    -65530.92648  22925240.26648
  23058882.344 5   -252024.301 5   -176893.71947  23058879.60547
  21688240.266 6     19983.801 6     13914.78547  21688237.10547
  23153743.375 5     34995.426 5     18626.20747  23153742.82847
  20253137.734 7      1989.008 7      1360.20349  20253135.90249
  23859564.438 5     94095.762 5     54950.77346  23859562.48846
 20  5 16  1 50 46.0000000  0  8G04G08G09G11G16G26G27G31             0.000155684
  21555581.766 6     -2340.059 6     -1879.91447  21555579.51247
  20581223.711 6   -116697.938 6    -79592.45349  20581222.96949
  22924870.391 5   -106751.105 5    -67047.21548  22924869.87948
  23058067.063 5   -256306.785 5   -180230.71547  23058064.68047
  21688300.867 6     20300.754 6     14161.76647  21688297.37547
  23153891.297 5     35772.008 5     19231.33647  23153890.13347
  20253143.039 7      2016.473 7      1381.60249  20253140.82849
  23859879.898 5     95752.707 5     56241.89546  23859877.81346
 20  5 16  1 50 47.0000000  0  8G04G08G09G11G16G26G27G31             0.000155081
  21555572.594 6     -2390.602 6     -1919.30147  21555570.37947
  20580820.008 7   -118818.434 7    -81244.79349  20580819.43449
  22924500.961 5   -108696.629 5    -68563.20748  22924499.90248
  23057252.445 5   -260589.316 5   -183567.75047  23057249.52747
  21688361.117 6     20617.531 6     14408.60247  21688357.13347
  23154038.570 5     36548.371 5     19836.28947  23154037.91447
  20253148.070 7      2044.305 7      1403.28549  20253146.22749
  23860195.570 5     97409.637 5     57532.99247  23860193.20347
 20  5 16  1 50 48.0000000  0  8G04G08G09G11G16G26G27G31             0.000154478
  21555562.914 6     -2440.844 6     -1958.44147  21555560.46147
  20580416.789 7   -120938.633 7    -82896.89549  20580416.48049
  22924130.234 5   -110641.906 5    -70079.00448  22924129.44548
  23056437.617 5   -264871.977 5   -186904.89147  23056434.61347
  21688421.375 6     20934.113 6     14655.28547  21688417.24647
  23154186.125 5     37324.480 5     20441.05547  23154185.93847
  20253153.461 7      2072.391 7      1425.16849  20253151.64849
  23860510.805 5     99066.598 5     58824.12546  23860508.37146
 20  5 16  1 50 49.0000000  0  8G04G08G09G11G16G26G27G31             0.000153875
  21555553.078 6     -2490.668 6     -1997.27047  21555550.82447
  20580013.156 6   -123058.445 6    -84548.69549  20580012.79349
  22923760.383 5   -112586.711 5    -71594.43848  22923759.32048
  23055622.703 5   -269154.648 5   -190242.02747  23055619.66047
  21688481.766 6     21250.590 6     14901.89147  21688477.86347
  23154333.453 5     38100.449 5     21045.71147  23154333.43447
  20253159.023 7      2100.898 7      1447.37949  20253157.32849
  23860827.195 5    100723.605 5     60115.28547  23860824.01647
 20  5 16  1 50 50.0000000  0  8G04G08G09G11G16G26G27G31             0.000153273
  21555543.320 6     -2540.090 6     -2035.77747  21555541.72747
  20579609.969 6   -125177.848 6    -86200.17249  20579609.59449
  22923389.922 5   -114531.113 5    -73109.56648  22923389.40248
  23054807.531 5   -273437.297 5   -193579.15647  23054804.45347
  21688541.664 6     21566.953 6     15148.40247  21688537.99247
  23154481.344 5     38876.227 5     21650.21147  23154481.23447
  20253164.219 7      2129.813 7      1469.91449  20253162.73849
  23861141.891 5    102380.781 5     61406.58647  23861139.36747
 20  5 16  1 50 51.0000000  0  8G04G08G09G11G16G26G27G31             0.000152670
  21555534.398 6     -2589.102 6     -2073.96947  21555531.91447
  20579206.477 6   -127296.906 6    -87851.38749  20579206.39849
  22923019.820 5   -116475.129 5    -74624.37548  22923019.54348
  23053992.188 5   -277720.008 5   -196916.32847  23053989.70747
  21688601.844 6     21883.164 6     15394.80547  21688598.37147
  23154628.758 5     39651.801 5     22254.54347  23154628.75047
  20253169.922 7      2159.098 7      1492.73449  20253168.44149
  23861457.906 5    104037.945 5     62697.87547  23861454.53147
 20  5 16  1 50 52.0000000  0  8G04G08G09G11G16G26G27G31             0.000152067
  21555525.391 6     -2637.734 6     -2111.86747  21555522.80147
  20578803.453 7   -129415.539 7    -89502.27349  20578802.96949
  22922650.188 5   -118418.688 5    -76138.83648  22922649.59848
  23053177.211 5   -282002.746 5   -200253.52747  23053174.36347
  21688661.688 6     22199.281 6     15641.12547  21688658.21147
  23154776.320 5     40427.262 5     22858.79347  23154776.35947
  20253175.289 7      2188.773 7      1515.85949  20253173.80549
  23861773.039 5    105695.215 5     63989.25847  23861769.80147
 20  5 16  1 50 53.0000000  0  8G04G08G09G11G16G26G27G31             0.000151464
  21555516.125 6     -2686.012 6     -2149.49647  21555513.84847
  20578399.961 6   -131533.852 6    -91152.90649  20578400.08249
  22922280.516 5   -120361.934 5    -77653.05148  22922280.15648
  23052362.742 5   -286285.551 5   -203590.77747  23052359.40647
  21688722.070 6     22515.219 6     15887.31347  21688718.37947
  23154924.070 5     41202.488 5     23462.86347  23154923.80147
  20253181.430 7      2218.773 7      1539.23849  20253179.62949
  23862088.422 5    107352.559 5     65280.68847  23862085.43447
 20  5 16  1 50 54.0000000  0  8G04G08G09G11G16G26G27G31             0.000150860
  21555506.703 6     -2733.840 6     -2186.76247  21555505.12947
  20577997.547 6   -133651.727 6    -92803.19549  20577996.86749
  22921910.789 5   -122304.703 5    -79166.90248  22921910.43448
  23051547.680 5   -290568.316 5   -206928.00047  23051544.44547
  21688782.133 6     22831.094 6     16133.44547  21688778.53147
  23155071.016 5     41977.613 5     24066.85947  23155071.39547
  20253186.594 7      2249.254 7      1562.98449  20253185.62549
  23862404.180 5    109009.984 5     66572.18447  23862401.04347
 20  5 16  1 50 55.0000000  0  8G04G08G09G11G16G26G27G31             0.000150257
  21555497.727 6     -2781.176 6     -2223.64847  21555495.50047
  20577594.281 6   -135769.109 6    -94453.10549  20577594.20749
  22921541.031 5   -124246.973 5    -80680.35948  22921540.80548
  23050732.703 5   -294851.031 5   -210265.17647  23050729.87147
  21688842.047 6     23146.910 6     16379.54747  21688838.68447
  23155219.070 5     42752.660 5     24670.79747  23155218.68047
  20253192.875 7      2280.164 7      1587.07049  20253191.28549
  23862719.078 5    110667.566 5     67863.81347  23862715.83247
 20  5 16  1 50 56.0000000  0  8G04G08G09G11G16G26G27G31             0.000149654
  21555488.914 6     -2828.043 6     -2260.16447  21555486.69147
  20577191.438 6   -137886.066 6    -96102.68049  20577191.07849
  22921171.523 5   -126188.785 5    -82193.46548  22921171.08248
  23049917.898 5   -299133.684 5   -213602.30947  23049915.09047
  21688902.617 6     23462.703 6     16625.60947  21688898.76247
  23155366.453 5     43527.582 5     25274.63347  23155366.11347
  20253198.852 7      2311.555 7      1611.52749  20253197.13349
  23863034.031 5    112325.359 5     69155.60246  23863031.86746
 20  5 16  1 50 57.0000000  0  8G04G08G09G11G16G26G27G31             0.000149050
  21555480.180 6     -2874.426 6     -2296.31347  21555477.71147
  20576788.867 6   -140002.508 6    -97751.85249  20576788.71949
  22920802.609 5   -128130.070 5    -83706.15248  22920801.85948
  23049102.953 5   -303416.285 5   -216939.40247  23049099.78547
  21688962.375 6     23778.461 6     16871.65647  21688958.95347
  23155513.781 5     44302.465 5     25878.43447  23155513.99647
  20253205.438 7      2343.418 7      1636.35949  20253203.59449
  23863350.406 5    113983.316 5     70447.52047  23863347.37547
 20  5 16  1 50 58.0000000  0  8G04G08G09G11G16G26G27G31             0.000148447
  21555471.430 6     -2920.359 6     -2332.10547  21555469.38747
  20576386.242 6   -142118.488 6    -99400.66849  20576385.43449
  22920433.117 5   -130070.941 5    -85218.52348  22920432.36748
  23048288.086 5   -307698.840 5   -220276.46147  23048284.61347
  21689022.109 6     24094.148 6     17117.64847  21689018.89547
  23155661.336 5     45077.203 5     26482.10547  23155661.34447
  20253211.148 7      2375.746 7      1661.54349  20253209.77749
  23863665.469 5    115641.406 5     71739.55147  23863662.69947
 20  5 16  1 50 59.0000000  0  8G04G08G09G11G16G26G27G31             0.000147842
  21555462.195 6     -2965.949 6     -2367.62547  21555460.44547
  20575983.453 7   -144234.180 7   -101049.25849  20575983.24649
  22920063.375 5   -132011.395 5    -86730.56648  22920063.03948
  23047473.063 5   -311981.500 5   -223613.59847  23047469.97747
  21689082.609 6     24409.641 6     17363.48047  21689078.96147
  23155808.273 5     45851.711 5     27085.61347  23155808.71547
  20253217.328 7      2408.387 7      1686.97749  20253215.76649
  23863980.930 5    117299.520 5     73031.57047  23863978.21947
 20  5 16  1 51  0.0000000  0  8G04G08G09G11G16G26G27G31             0.000147240
  21555453.883 6     -3011.195 6     -2402.89147  21555451.79347
  20575580.883 6   -146349.535 6   -102697.59049  20575580.46149
  22919694.672 5   -133951.535 5    -88242.37148  22919693.91048
  23046657.938 5   -316264.219 5   -226950.78147  23046654.88747
  21689142.898 6     24724.957 6     17609.17647  21689139.20347
  23155956.102 5     46625.992 5     27688.94147  23155956.03547
  20253223.688 7      2441.332 7      1712.65249  20253222.29749
  23864296.414 5    118957.668 5     74323.63347  23864293.49247
 20  5 16  1 51  1.0000000  0  8G04G08G09G11G16G26G27G31             0.000146635
  21555445.234 6     -3056.059 6     -2437.85247  21555443.41047
  20575178.547 6   -148464.520 6   -104345.62949  20575178.09049
  22919325.328 5   -135891.277 5    -89753.85548  22919324.72748
  23045843.484 5   -320546.984 5   -230288.00447  23045839.82047
  21689202.586 6     25040.148 6     17854.79347  21689198.86347
  23156102.898 5     47400.102 5     28292.14547  23156103.18447
  20253230.070 7      2474.707 7      1738.66049  20253228.25849
  23864611.797 5    120615.895 5     75615.75447  23864609.29347
 20  5 16  1 51  2.0000000  0  8G04G08G09G11G16G26G27G31             0.000146030
  21555437.461 6     -3100.551 6     -2472.52047  21555435.10547
  20574776.227 6   -150579.129 6   -105993.37949  20574775.75849
  22918956.789 5   -137830.648 5    -91265.05948  22918955.68448
  23045028.219 5   -324829.766 5   -233625.24247  23045024.49647
  21689262.969 6     25355.215 6     18100.29747  21689258.78547
  23156250.742 5     48174.008 5     28895.19147  23156250.87147
  20253236.070 7      2508.414 7      1764.92249  20253234.35249
  23864927.516 5    122274.148 5     76907.89546  23864924.66046
 20  5 16  1 51  3.0000000  0  8G04G08G09G11G16G26G27G31             0.000145426
  21555428.797 6     -3144.410 6     -2506.69147  21555426.46147
  20574374.125 6   -152693.105 6   -107640.62949  20574373.49249
  22918587.555 5   -139769.355 5    -92775.73048  22918586.50048
  23044213.031 5   -329112.375 5   -236962.33247  23044210.23447
  21689322.641 6     25670.375 6     18345.87947  21689318.97747
  23156398.203 5     48948.008 5     29498.30947  23156397.63747
  20253242.734 7      2542.746 7      1791.67649  20253241.17649
  23865243.938 5    123932.746 5     78200.30546  23865240.31646
 20  5 16  1 51  4.0000000  0  8G04G08G09G11G16G26G27G31             0.000144823
  21555420.703 6     -3187.813 6     -2540.52047  21555418.68047
  20573971.742 6   -154806.676 6   -109287.56649  20573971.10249
  22918218.648 5   -141707.642 5    -94286.08148  22918218.39148
  23043397.992 5   -333394.957 5   -240299.40247  23043395.35547
  21689382.188 6     25985.445 6     18591.37947  21689379.09447
  23156545.258 5     49721.855 5     30101.31347  23156545.05947
  20253249.266 7      2577.508 7      1818.76649  20253247.42249
  23865559.055 5    125591.473 5     79492.81347  23865555.85547
 20  5 16  1 51  5.0000000  0  8G04G08G09G11G16G26G27G31             0.000144218
  21555412.336 6     -3230.848 6     -2574.05147  21555410.13347
  20573569.680 6   -156919.863 6   -110934.20349  20573569.06349
  22917849.797 5   -143645.523 5    -95796.12148  22917849.25448
  23042583.297 5   -337677.563 5   -243636.49247  23042580.27747
  21689442.617 6     26300.375 6     18836.77747  21689438.84847
  23156692.211 5     50495.512 5     30704.16047  23156692.39847
  20253255.992 7      2612.645 7      1846.14549  20253254.39149
  23865874.688 5    127250.262 5     80785.36347  23865871.84047
 20  5 16  1 51  6.0000000  0  8G04G08G09G11G16G26G27G31             0.000143614
  21555404.867 6     -3273.313 6     -2607.14147  21555402.21947
  20573167.438 6   -159032.500 6   -112580.41049  20573167.02749
  22917481.109 5   -145582.832 5    -97305.71148  22917480.86348
  23041768.211 5   -341960.016 5   -246973.47347  23041765.34047
  21689502.328 6     26615.383 6     19082.23047  21689498.81347
  23156839.867 5     51269.188 5     31307.02347  23156839.41447
  20253263.234 7      2648.301 7      1873.93049  20253261.23849
  23866190.141 5    128909.293 5     82078.11747  23866187.70347
 20  5 16  1 51  7.0000000  0  8G04G08G09G11G16G26G27G31             0.000143009
  21555396.031 6     -3315.379 6     -2639.91847  21555394.08247
  20572765.422 6   -161144.738 6   -114226.31349  20572765.25849
  22917112.773 5   -147519.688 5    -98814.94748  22917112.19548
  23040953.336 5   -346242.512 5   -250310.48047  23040950.39847
  21689561.984 6     26930.250 6     19327.58647  21689558.37547
  23156986.930 5     52042.699 5     31909.75847  23156986.90647
  20253269.898 7      2684.398 7      1902.05549  20253267.97749
  23866506.047 5    130568.418 5     83370.93847  23866503.13747
 20  5 16  1 51  8.0000000  0  8G04G08G09G11G16G26G27G31             0.000142405
  21555388.484 6     -3356.895 6     -2672.26647  21555386.22747
  20572363.438 6   -163256.465 6   -115871.81349  20572363.20749
  22916744.547 5   -149456.047 5   -100323.80148  22916743.23848
  23040138.148 5   -350524.875 5   -253647.38747  23040135.20747
  21689622.008 6     27245.137 6     19572.96147  21689618.48047
  23157133.758 5     52816.160 5     32512.45347  23157133.85547
  20253277.008 7      2720.988 7      1930.56649  20253274.50849
  23866822.086 5    132227.727 5     84663.91047  23866819.13747
 20  5 16  1 51  9.0000000  0  8G04G08G09G11G16G26G27G31             0.000141800
  21555380.789 6     -3397.816 6     -2704.15647  21555378.50047
  20571962.039 6   -165367.566 6   -117516.83649  20571961.87149
  22916375.711 5   -151391.758 5   -101832.15248  22916375.48048
  23039323.469 5   -354807.027 5   -256984.13747  23039320.91047
  21689682.156 6     27560.105 6     19818.39847  21689678.33247
  23157281.258 5     53589.703 5     33115.21147  23157281.56347
  20253284.047 7      2758.199 7      1959.56349  20253282.20749
  23867137.750 5    133887.359 5     85957.13747  23867134.90247
 20  5 16  1 51 10.0000000  0  8G04G08G09G11G16G26G27G31             0.000141195
  21555372.766 6     -3438.215 6     -2735.63747  21555370.30947
  20571560.477 6   -167478.191 6   -119161.46949  20571559.83649
  22916007.172 5   -153326.930 5   -103340.07848  22916006.97348
  23038509.008 5   -359089.105 5   -260320.81647  23038506.17247
  21689742.203 6     27875.098 6     20063.85547  21689737.89847
  23157428.500 4     54363.176 4     33717.92647  23157428.30547
  20253290.984 7      2795.906 7      1988.94549  20253289.37149
  23867453.828 5    135547.230 5     87250.53547  23867450.99247
 20  5 16  1 51 11.0000000  0  8G04G08G09G11G16G26G27G31             0.000140593
  21555365.484 6     -3478.160 6     -2766.77047  21555362.93847
  20571158.625 6   -169588.363 6   -120805.75449  20571158.03149
  22915639.789 5   -155261.695 5   -104847.69148  22915638.88748
  23037693.781 5   -363371.172 5   -263657.47747  23037691.05947
  21689801.859 6     28189.992 6     20309.22747  21689798.47347
  23157576.039 5     55136.559 5     34320.54746  23157575.32846
  20253298.320 7      2834.059 7      2018.67249  20253296.37949
  23867769.477 5    137207.180 5     88543.99647  23867766.94547
 20  5 16  1 51 12.0000000  0  8G04G08G09G11G16G26G27G31             0.000139988
  21555357.500 6     -3517.383 6     -2797.33247  21555355.53547
  20570757.469 6   -171697.824 6   -122449.48049  20570756.85249
  22915271.500 5   -157195.703 5   -106354.72348  22915270.65248
  23036879.156 5   -367652.867 5   -266993.85247  23036876.34447
  21689861.953 6     28505.090 6     20554.75447  21689858.41047
  23157722.953 4     55910.063 4     34923.28946  23157722.94946
  20253305.703 7      2872.895 7      2048.93849  20253303.93049
  23868085.492 6    138867.539 6     89837.77747  23868082.66447
 20  5 16  1 51 13.0000000  0  8G04G08G09G11G16G26G27G31             0.000139383
  21555350.383 6     -3556.203 6     -2827.57847  21555347.75047
  20570356.164 6   -173806.848 6   -124092.87949  20570355.30949
  22914903.766 5   -159129.270 5   -107861.39848  22914902.88748
  23036064.461 5   -371934.598 5   -270330.27347  23036061.42247
  21689921.977 6     28820.109 6     20800.21147  21689918.08647
  23157870.414 4     56683.468 4     35525.94346  23157870.03146
  20253313.313 7      2912.172 7      2079.54349  20253311.60549
  23868401.156 5    140528.020 5     91131.65247  23868398.72347
 20  5 16  1 51 14.0000000  0  8G04G08G09G11G16G26G27G31             0.000138779
  21555343.148 6     -3594.504 6     -2857.41447  21555340.68847
  20569954.789 7   -175915.387 7   -125735.91449  20569954.25849
  22914535.703 5   -161062.332 5   -109367.66448  22914534.98848
  23035249.813 6   -376216.250 6   -273666.64547  23035246.84447
  21689981.898 6     29135.086 6     21045.65647  21689978.29747
  23158017.055 4     57456.785 4     36128.53946  23158017.04746
  20253320.633 7      2951.918 7      2110.51649  20253318.89149
  23868717.117 5    142188.664 5     92425.66447  23868715.13747
 20  5 16  1 51 15.0000000  0  8G04G08G09G11G16G26G27G31             0.000138174
  21555336.148 6     -3632.281 6     -2886.84447  21555333.52347
  20569553.500 6   -178023.426 6   -127378.55149  20569553.15649
  22914168.055 5   -162994.863 5   -110873.50448  22914167.04348
  23034435.242 6   -380497.797 6   -277002.92247  23034432.19947
  21690041.320 6     29450.102 6     21291.12947  21690037.93047
  23158164.102 4     58230.051 4     36731.08646  23158164.44546
  20253328.906 7      2992.211 7      2141.91049  20253327.12549
  23869033.641 5    143849.559 5     93719.87147  23869031.00447
 20  5 16  1 51 16.0000000  0  8G04G08G09G11G16G26G27G31             0.000137569
  21555328.766 6     -3669.426 6     -2915.80147  21555326.65247
  20569152.570 7   -180130.852 7   -129020.71149  20569152.09449
  22913800.508 5   -164926.715 5   -112378.83248  22913799.33248
  23033620.609 5   -384779.137 5   -280339.02747  23033617.37947
  21690101.156 5     29765.258 5     21536.70346  21690098.25446
  23158311.453 3     59003.406 3     37333.69546  23158310.98446
  20253336.523 7      3033.090 7      2173.76249  20253334.30149
  23869348.844 5    145510.738 5     95014.28547  23869346.87547
 20  5 16  1 51 17.0000000  0  8G04G08G09G11G16G26G27G31             0.000136965
  21555321.867 6     -3706.090 6     -2944.39847  21555319.44547
  20568751.953 6   -182237.766 6   -130662.44149  20568751.43049
  22913432.766 5   -166858.129 5   -113883.84848  22913431.37548
  23032805.266 5   -389060.359 5   -283675.04347  23032802.85247
  21690161.906 4     30080.434 4     21782.28946  21690158.03546
  23158460.14811                     37936.27756  23158458.59856
  20253344.313 7      3074.477 7      2206.02749  20253342.45349
  23869665.641 6    147172.094 6     96308.83247  23869662.94147
 20  5 16  1 51 18.0000000  0  8G04G08G09G11G16G26G27G31             0.000136362
  21555315.156 6     -3742.277 6     -2972.62547  21555312.79347
  20568350.945 6   -184344.227 6   -132303.82849  20568350.18849
  22913065.422 5   -168789.043 5   -115388.47348  22913064.09448
  23031990.734 5   -393341.590 5   -287011.07047  23031987.89547
  21690221.500 5     30395.512 5     22027.77746  21690217.93046
  23158607.680 1     60549.750 1     38538.68446  23158605.75846
  20253352.297 7      3116.328 7      2238.64149  20253350.50049
  23869981.805 6    148833.637 6     97603.51647  23869979.50447
 20  5 16  1 51 19.0000000  0  8G04G08G09G11G16G26G27G31             0.000135756
  21555308.602 6     -3777.863 6     -3000.35947  21555306.02047
  20567950.070 6   -186450.090 6   -133944.76249  20567949.69149
  22912698.156 5   -170719.320 5   -116892.59848  22912696.93448
  23031176.234 5   -397622.602 5   -290346.91846  23031173.07846
  21690282.133 5     30710.613 5     22273.30946  21690277.73846
  23158755.375 1     61322.996 1     39141.19946  23158753.46146
  20253360.313 7      3158.766 7      2271.71149  20253358.72749
  23870297.852 6    150495.438 6     98898.42247  23870295.63347
 20  5 16  1 51 20.0000000  0  8G04G08G09G11G16G26G27G31             0.000135151
  21555302.398 6     -3812.914 6     -3027.68447  21555299.30147
  20567549.570 6   -188555.410 6   -135585.27049  20567548.79749
  22912330.289 5   -172649.078 5   -118396.31348  22912329.52748
  23030361.305 5   -401903.520 5   -293682.69546  23030358.62546
  21690342.023 4     31025.766 4     22518.87946  21690338.00846
  23158900.125 1     62096.129 1     39743.60246  23158900.34846
  20253368.547 7      3201.707 7      2305.17249  20253366.93449
  23870614.117 6    152157.473 6    100193.51647  23870611.95747
 20  5 16  1 51 21.0000000  0  8G04G08G09G11G16G26G27G31             0.000134546
  21555295.188 6     -3847.379 6     -3054.53147  21555292.69547
  20567149.086 6   -190660.215 6   -137225.37549  20567148.64149
  22911963.711 5   -174578.168 5   -119899.50048  22911962.68048
  23029546.250 5   -406184.320 5   -297018.37947  23029543.93047
  21690401.875 5     31340.922 5     22764.45346  21690397.87946
  23159047.031 1     62869.289 1     40346.04346  23159047.29346
  20253377.055 6      3245.176 6      2339.03949  20253375.18049
  23870930.852 6    153819.777 6    101488.82047  23870928.28147
 20  5 16  1 51 22.0000000  0  8G04G08G09G11G16G26G27G31             0.000133942
  21555288.555 6     -3881.430 6     -3081.04747  21555286.25447
  20566748.727 7   -192764.551 7   -138865.13749  20566748.05549
  22911596.664 5   -176506.887 5   -121402.40248  22911595.82048
  23028732.023 5   -410465.031 5   -300353.99647  23028729.59847
  21690461.523 5     31655.984 5     23009.96546  21690457.78946
  23159193.734 3     63642.301 3     40948.39846  23159194.56346
  20253385.109 7      3289.102 7      2373.25849  20253383.16049
  23871246.555 6    155482.164 6    102784.19947  23871244.36747
 20  5 16  1 51 23.0000000  0  8G04G08G09G11G16G26G27G31             0.000133337
  21555281.977 6     -3914.961 6     -3107.13747  21555280.07847
  20566348.227 6   -194868.410 6   -140504.52049  20566347.34849
  22911229.523 5   -178435.086 5   -122904.87148  22911228.62148
  23027917.383 5   -414745.664 5   -303689.55547  23027914.78947
  21690521.820 5     31971.066 5     23255.50846  21690517.94546
  23159341.258 4     64415.316 4     41550.75046  23159341.69946
  20253393.359 7      3333.527 7      2407.87549  20253391.13349
  23871563.406 6    157144.781 6    104079.75847  23871560.89547
 20  5 16  1 51 24.0000000  0  8G04G08G09G11G16G26G27G31             0.000132732
  21555275.820 6     -3947.926 6     -3132.79747  21555273.60547
  20565947.984 7   -196971.703 7   -142143.45349  20565947.14149
  22910863.133 5   -180362.715 5   -124406.88748  22910862.05948
  23027103.148 5   -419026.160 5   -307025.00847  23027100.22747
  21690581.305 5     32286.188 5     23501.07046  21690577.78946
  23159488.359 4     65188.320 4     42153.08646  23159488.91846
  20253402.086 7      3378.543 7      2442.94949  20253400.34049
  23871879.922 6    158807.621 6    105375.48447  23871877.46147
 20  5 16  1 51 25.0000000  0  8G04G08G09G11G16G26G27G31             0.000132126
  21555269.820 6     -3980.508 6     -3158.17647  21555267.46147
  20565547.719 6   -199074.676 6   -143782.12949  20565547.35249
  22910496.313 5   -182289.941 5   -125908.60548  22910495.37948
  23026288.938 6   -423306.758 6   -310360.54347  23026285.31347
  21690641.492 5     32601.176 5     23746.51246  21690637.79746
  23159636.102 4     65961.077 4     42755.24346  23159635.98446
  20253410.711 7      3423.863 7      2478.25849  20253408.94149
  23872195.742 6    160470.500 6    106671.23847  23872193.91047
 20  5 16  1 51 26.0000000  0  8G04G08G09G11G16G26G27G31             0.000131521
  21555263.547 6     -4012.617 6     -3183.21547  21555260.96147
  20565147.883 7   -201177.156 7   -145420.42249  20565147.40249
  22910129.367 5   -184216.652 5   -127409.94548  22910128.26648
  23025474.766 6   -427587.230 6   -313695.97347  23025471.25447
  21690701.125 4     32916.160 4     23991.96146  21690697.88346
  23159782.859 3     66733.852 3     43357.40246  23159782.53546
  20253419.695 7      3469.699 7      2513.98049  20253417.75849
  23872511.953 6    162133.539 6    107967.10547  23872510.14847
 20  5 16  1 51 27.0000000  0  8G04G08G09G11G16G26G27G31             0.000130917
  21555257.352 6     -4044.199 6     -3207.84447  21555255.52347
  20564747.852 7   -203279.117 7   -147058.31649  20564747.35949
  22909763.242 5   -186142.855 5   -128910.89848  22909761.94148
  23024659.820 6   -431867.578 6   -317031.30947  23024656.44547
  21690760.984 5     33231.133 5     24237.39846  21690757.87146
  23159929.398 3     67506.512 3     43959.48046  23159929.45746
  20253428.195 7      3516.047 7      2550.10249  20253426.33649
  23872828.797 6    163796.855 6    109263.19147  23872826.94547
 20  5 16  1 51 28.0000000  0  8G04G08G09G11G16G26G27G31             0.000130312
  21555251.648 6     -4075.270 6     -3232.06647  21555249.43447
  20564347.789 7   -205380.605 7   -148695.84449  20564346.91449
  22909396.766 5   -188068.523 5   -130411.41848  22909395.62548
  23023845.258 6   -436147.863 6   -320366.59447  23023842.18047
  21690820.805 5     33546.082 5     24482.81346  21690817.30146
  23160076.969 3     68279.160 3     44561.54746  23160076.64146
  20253437.219 7      3562.867 7      2586.57849  20253435.28949
  23873144.789 5    165460.309 5    110559.37547  23873143.20747
 20  5 16  1 51 29.0000000  0  8G04G08G09G11G16G26G27G31             0.000129705
  21555245.844 6     -4105.902 6     -3255.95347  21555243.25847
  20563948.000 7   -207481.633 7   -150332.99649  20563947.17249
  22909030.273 6   -189993.733 6   -131911.59548  22909029.10248
  23023030.227 5   -440428.090 5   -323701.82847  23023027.60247
  21690881.133 4     33861.132 4     24728.30746  21690877.39546
  23160222.563 1     69051.617 1     45163.46546  23160223.77046
  20253446.609 7      3610.191 7      2623.45749  20253444.52749
  23873461.984 6    167123.945 6    111855.70746  23873459.87946
 20  5 16  1 51 30.0000000  0  8G04G08G09G11G16G26G27G31             0.000129101
  21555240.547 6     -4135.902 6     -3279.35247  21555238.15247
  20563548.469 6   -209582.059 6   -151969.68449  20563547.53949
  22908664.492 6   -191918.313 6   -133411.27748  22908663.00848
  23022216.156 5   -444708.102 5   -327036.90646  23022213.56646
  21690941.547 5     34176.133 5     24973.74246  21690937.51246
  23160370.64811                     45765.50056  23160370.07856
  20253455.578 7      3658.047 7      2660.75449  20253453.42249
  23873779.023 6    168787.867 6    113152.26247  23873776.67247
 20  5 16  1 51 31.0000000  0  8G04G08G09G11G16G26G27G31             0.000128496
  21555234.813 6     -4165.410 6     -3302.34047  21555232.56347
  20563148.953 7   -211681.984 7   -153605.98049  20563148.26649
  22908297.977 5   -193842.406 5   -134910.58648  22908296.77748
  23021401.656 5   -448988.117 5   -330371.98847  23021398.74647
  21691000.969 6     34490.996 6     25219.07446  21690997.31646
  23160517.203 4     70596.594 4     46367.30946  23160517.50846
  20253464.141 7      3706.391 7      2698.42649  20253462.16049
  23874095.578 6    170451.953 6    114448.94947  23874093.43447
 20  5 16  1 51 32.0000000  0  8G04G08G09G11G16G26G27G31             0.000127890
  21555228.758 6     -4194.414 6     -3324.93047  21555227.17247
  20562749.633 7   -213781.359 7   -155241.85249  20562748.53149
  22907932.195 5   -195765.926 5   -136409.45748  22907931.19548
  23020587.195 5   -453267.949 5   -333706.91847  23020583.78147
  21691061.016 5     34805.996 5     25464.53146  21691057.14546
  23160664.680 3     71369.082 3     46969.23846  23160664.47746
  20253473.891 7      3755.266 7      2736.49649  20253472.00449
  23874412.273 6    172116.234 6    115745.79747  23874409.78947
 20  5 16  1 51 33.0000000  0  8G04G08G09G11G16G26G27G31             0.000127285
  21555223.680 6     -4222.891 6     -3347.10247  21555221.81647
  20562349.844 7   -215880.270 7   -156877.37549  20562349.11349
  22907565.984 5   -197688.934 5   -137907.91048  22907565.07848
  23019773.203 5   -457547.715 5   -337041.81347  23019770.00447
  21691120.695 5     35120.953 5     25709.96547  21691117.35247
  23160812.125 4     72141.465 4     47571.10546  23160811.69946
  20253483.313 7      3804.652 7      2774.97749  20253481.54349
  23874728.914 6    173780.734 6    117042.81347  23874727.01647
 20  5 16  1 51 34.0000000  0  8G04G08G09G11G16G26G27G31             0.000126680
  21555218.953 6     -4250.852 6     -3368.88347  21555216.25047
  20561950.406 7   -217978.699 7   -158512.52049  20561949.39549
  22907199.859 5   -199611.469 5   -139405.98448  22907199.46148
  23018957.914 5   -461827.383 5   -340376.61747  23018955.13347
  21691180.930 6     35435.941 6     25955.41047  21691177.46147
  23160958.367 4     72913.766 4     48172.91446  23160958.60246
  20253492.922 7      3854.504 7      2813.82449  20253490.91449
  23875045.453 6    175445.406 6    118339.96547  23875043.31647
 20  5 16  1 51 35.0000000  0  8G04G08G09G11G16G26G27G31             0.000126076
  21555213.406 6     -4278.211 6     -3390.18847  21555210.78547
  20561551.508 6   -220076.500 6   -160147.17249  20561550.75049
  22906833.859 5   -201533.344 5   -140903.51248  22906833.85548
  23018143.656 5   -466106.871 5   -343711.28947  23018140.62147
  21691240.563 5     35750.965 5     26200.88347  21691236.86747
  23161105.570 4     73686.109 4     48774.74246  23161105.76246
  20253502.797 7      3904.961 7      2853.14149  20253500.84449
  23875362.617 5    177110.359 5    119637.33247  23875360.36347
 20  5 16  1 51 36.0000000  0  8G04G08G09G11G16G26G27G31             0.000125469
  21555207.852 6     -4305.059 6     -3411.10247  21555205.81347
  20561152.305 7   -222173.781 7   -161781.41849  20561151.39849
  22906468.305 5   -203454.668 5   -142400.62548  22906467.87948
  23017329.313 5   -470386.246 5   -347045.87147  23017326.28947
  21691300.461 5     36066.066 5     26446.42247  21691296.76647
  23161251.938 5     74458.484 5     49376.60246  23161252.37546
  20253511.586 7      3955.938 7      2892.86349  20253510.13349
  23875678.992 5    178775.531 5    120934.85947  23875677.42247
 20  5 16  1 51 37.0000000  0  8G04G08G09G11G16G26G27G31             0.000124865
  21555202.914 6     -4331.313 6     -3431.59447  21555200.82047
  20560753.086 7   -224270.516 7   -163415.23449  20560752.14549
  22906103.016 5   -205375.414 5   -143897.33649  22906101.87949
  23016515.813 5   -474665.480 5   -350380.33247  23016512.12947
  21691361.141 5     36381.184 5     26691.96946  21691357.05946
  23161399.453 4     75230.832 4     49978.43446  23161399.31646
  20253521.727 7      4007.473 7      2933.02349  20253520.45749
  23875996.211 5    180440.957 5    122232.58247  23875994.22747
 20  5 16  1 51 38.0000000  0  8G04G08G09G11G16G26G27G31             0.000124260
  21555198.234 6     -4357.090 6     -3451.69547  21555196.01647
  20560354.242 7   -226366.703 7   -165048.62949  20560353.81649
  22905737.750 5   -207295.699 5   -145393.68448  22905736.42648
  23015701.078 6   -478944.605 6   -353714.71947  23015697.87947
  21691420.516 5     36696.230 5     26937.45746  21691417.05546
  23161546.906 5     76003.109 5     50580.19946  23161546.70346
  20253531.594 7      4059.504 7      2973.56649  20253530.19549
  23876312.828 5    182106.590 5    123530.46147  23876311.42647
 20  5 16  1 51 39.0000000  0  8G04G08G09G11G16G26G27G31             0.000123653
  21555193.461 6     -4382.289 6     -3471.31647  21555191.16447
  20559955.742 7   -228462.379 7   -166681.62549  20559954.94949
  22905372.039 5   -209215.383 5   -146889.52748  22905371.36348
  23014886.547 6   -483223.586 6   -357048.98447  23014883.86747
  21691480.547 5     37011.348 5     27183.00446  21691476.80146
  23161693.391 5     76775.363 5     51181.94546  23161693.37546
  20253541.711 7      4112.090 7      3014.54349  20253540.22349
  23876630.242 5    183772.461 5    124828.53947  23876628.40647
 20  5 16  1 51 40.0000000  0  8G04G08G09G11G16G26G27G31             0.000123049
  21555188.344 6     -4406.984 6     -3490.55947  21555186.68447
  20559556.797 7   -230557.582 7   -168314.25049  20559556.25449
  22905007.383 5   -211134.512 5   -148384.94148  22905006.44548
  23014072.445 6   -487502.520 6   -360383.22347  23014069.76247
  21691540.531 5     37326.504 5     27428.57846  21691536.93446
  23161840.523 4     77547.617 4     51783.70346  23161840.37946
  20253551.852 7      4165.137 7      3055.87149  20253549.71949
  23876947.133 5    185438.488 5    126126.74246  23876945.26646
 20  5 16  1 51 41.0000000  0  8G04G08G09G11G16G26G27G31             0.000122442
  21555183.891 6     -4431.234 6     -3509.45347  21555182.00847
  20559158.359 6   -232652.246 6   -169946.44949  20559157.50849
  22904642.227 5   -213053.211 5   -149880.03148  22904641.39148
  23013258.820 5   -491781.305 5   -363717.32847  23013255.18047
  21691600.883 5     37641.680 5     27674.17246  21691596.60246
  23161987.063 2     78319.801 2     52385.39846  23161987.41446
  20253562.148 6      4218.707 6      3097.62549  20253560.20749
  23877264.930 6    187104.715 6    127425.09847  23877262.50047
 20  5 16  1 51 42.0000000  0  8G04G08G09G11G16G26G27G31             0.000121838
  21555179.961 6     -4454.871 6     -3527.87547  21555177.67247
  20558760.008 6   -234746.422 6   -171578.27049  20558758.88349
  22904277.430 6   -214971.305 6   -151374.65648  22904276.53948
  23012444.320 6   -496060.004 6   -367051.36347  23012440.78547
  21691660.758 5     37956.770 5     27919.69546  21691656.98046
  23162133.945 3     79091.914 3     52987.04746  23162134.25846
  20253572.016 6      4272.758 6      3139.75049  20253570.30949
  23877581.828 6    188771.164 6    128723.62147  23877579.20747
 20  5 16  1 51 43.0000000  0  8G04G08G09G11G16G26G27G31             0.000121231
  21555175.469 6     -4477.934 6     -3545.86347  21555172.80147
  20558361.156 7   -236839.945 7   -173209.58249  20558360.27749
  22903912.391 6   -216888.773 6   -152868.80149  22903911.28149
  23011629.805 6   -500338.477 6   -370385.24646  23011626.50046
  21691721.023 5     38272.039 5     28165.37147  21691717.11747
  23162280.852 3     79864.137 3     53588.77746  23162280.92646
  20253582.602 6      4327.469 6      3182.38749  20253580.78549
  23877899.258 6    190437.949 6    130022.43047  23877896.62547
 20  5 16  1 51 44.0000000  0  8G04G08G09G11G16G26G27G31             0.000120626
  21555171.211 6     -4500.461 6     -3563.42247  21555168.64847
  20557963.242 7   -238932.965 7   -174840.51649  20557961.78949
  22903547.914 6   -218805.699 6   -154362.51649  22903546.94149
  23010815.914 6   -504616.852 6   -373719.05546  23010812.70746
  21691780.852 5     38587.285 5     28411.02347  21691776.70347
  23162426.875 2     80636.234 2     54190.41446  23162428.12946
  20253593.016 6      4382.676 6      3225.40649  20253591.41449
  23878216.156 6    192104.938 6    131321.38347  23878213.95747
 20  5 16  1 51 45.0000000  0  8G04G08G09G11G16G26G27G31             0.000120022
  21555166.578 6     -4522.473 6     -3580.57447  21555164.24247
  20557564.633 7   -241025.461 7   -176471.02349  20557563.68849
  22903183.063 6   -220722.067 6   -155855.79449  22903181.92249
  23010001.727 5   -508895.133 5   -377052.78947  23009998.27347
  21691840.672 5     38902.480 5     28656.62146  21691836.80946
  23162574.578 2     81408.332 2     54792.05146  23162575.01646
  20253603.781 6      4438.383 6      3268.81349  20253602.23049
  23878533.414 6    193772.105 6    132620.47747  23878530.91047
 20  5 16  1 51 46.0000000  0  8G04G08G09G11G16G26G27G31             0.000119415
  21555162.852 6     -4543.961 6     -3597.32447  21555160.07847
  20557166.844 7   -243117.445 7   -178101.14849  20557165.64149
  22902818.305 6   -222637.969 6   -157348.71549  22902817.40649
  23009187.773 5   -513173.293 5   -380386.41447  23009184.60947
  21691900.875 5     39217.734 5     28902.27346  21691897.00846
  23162721.172 2     82180.414 2     55393.68846  23162721.96546
  20253614.578 6      4494.594 6      3312.62149  20253612.66449
  23878850.922 6    195439.488 6    133919.73447  23878848.48847
 20  5 16  1 51 47.0000000  0  8G04G08G09G11G16G26G27G31             0.000118811
  21555158.250 6     -4565.008 6     -3613.72747  21555156.10247
  20556768.617 7   -245209.012 7   -179730.94149  20556767.46949
  22902453.813 6   -224553.398 6   -158841.25049  22902452.94949
  23008373.305 5   -517451.426 5   -383720.02347  23008370.19947
  21691960.180 5     39532.879 5     29147.83646  21691956.50446
  23162868.039 2     82952.332 2     55995.17646  23162868.24246
  20253625.133 6      4551.234 6      3356.74249  20253623.75049
  23879167.484 6    197106.992 6    135219.08247  23879165.76647
 20  5 16  1 51 48.0000000  0  8G04G08G09G11G16G26G27G31             0.000118204
  21555154.969 6     -4585.535 6     -3629.71947  21555151.88747
  20556371.039 6   -247300.094 6   -181360.35549  20556369.59449
  22902089.883 6   -226468.285 6   -160333.35949  22902088.80549
  23007559.820 5   -521729.469 5   -387053.56647  23007556.17647
  21692021.086 5     39848.023 5     29393.39147  21692016.92247
  23163015.289 3     83724.176 3     56596.59046  23163015.46946
  20253636.047 6      4608.379 6      3401.27349  20253634.37149
  23879485.117 6    198774.719 6    136518.60247  23879483.41047
 20  5 16  1 51 49.0000000  0  8G04G08G09G11G16G26G27G31             0.000117599
  21555150.930 6     -4605.402 6     -3645.19547  21555148.34847
  20555973.102 6   -249390.480 6   -182989.23849  20555972.08649
  22901725.461 6   -228382.488 6   -161824.93849  22901724.34049
  23006745.688 6   -526007.246 6   -390386.90647  23006742.10247
  21692080.594 5     40163.328 5     29639.08646  21692076.85946
  23163162.578 2     84496.207 2     57198.16046  23163162.41446
  20253647.164 6      4666.172 6      3446.30549  20253645.31649
  23879802.141 6    200442.785 6    137818.38747  23879800.58247
 20  5 16  1 51 50.0000000  0  8G04G08G09G11G16G26G27G31             0.000116993
  21555147.539 6     -4624.809 6     -3660.30947  21555144.86347
  20555575.508 6   -251480.445 6   -184617.78149  20555574.49649
  22901360.875 6   -230296.211 6   -163316.15649  22901360.28949
  23005931.766 6   -530284.969 6   -393720.19547  23005928.32447
  21692140.203 5     40478.590 5     29884.74646  21692136.87546
  23163309.688 2     85268.078 2     57799.61346  23163309.17646
  20253657.844 6      4724.441 6      3491.70749  20253656.34449
  23880119.969 5    202111.000 5    139118.30147  23880118.38747
 20  5 16  1 51 51.0000000  0  8G04G08G09G11G16G26G27G31             0.000116386
  21555143.813 6     -4643.660 6     -3674.99647  21555141.19147
  20555177.508 6   -253569.871 6   -186245.90249  20555176.60249
  22900997.023 5   -232209.391 5   -164806.94549  22900995.96949
  23005118.016 5   -534562.563 5   -397053.37946  23005113.82046
  21692200.609 5     40793.852 5     30130.40646  21692196.59446
  23163456.828 2     86039.922 2     58401.05946  23163456.13346
  20253669.023 6      4783.242 6      3537.52749  20253667.52049
  23880437.211 5    203779.477 5    140418.40647  23880435.60247
 20  5 16  1 51 52.0000000  0  8G04G08G09G11G16G26G27G31             0.000115782
  21555140.492 6     -4661.969 6     -3689.27047  21555137.50047
  20554780.484 6   -255658.742 6   -187873.59049  20554779.07049
  22900632.945 5   -234122.008 5   -166297.29749  22900631.87149
  23004303.898 5   -538840.031 5   -400386.46547  23004300.12147
  21692260.242 5     41109.145 5     30376.07846  21692256.80146
  23163603.813 2     86811.773 2     59002.50046  23163603.26646
  20253680.359 6      4842.523 6      3583.72349  20253678.71949
  23880755.047 5    205448.094 5    141718.62547  23880753.24647
 20  5 16  1 51 53.0000000  0  8G04G08G09G11G16G26G27G31             0.000115175
  21555136.625 6     -4679.742 6     -3703.12147  21555134.31647
  20554383.367 6   -257747.094 6   -189500.87949  20554382.02349
  22900269.195 6   -236034.066 6   -167787.21149  22900268.24249
  23003489.836 5   -543117.387 5   -403719.47347  23003486.00847
  21692320.328 5     41424.465 5     30621.78546  21692316.43846
  23163749.891 3     87583.578 3     59603.91846  23163750.07446
  20253691.750 6      4902.359 6      3630.34449  20253690.81649
  23881072.742 5    207116.977 5    143019.05147  23881071.12547
 20  5 16  1 51 54.0000000  0  8G04G08G09G11G16G26G27G31             0.000114571
  21555133.805 6     -4696.883 6     -3716.46947  21555130.79747
  20553985.664 6   -259834.801 6   -191127.65649  20553984.45349
  22899905.508 6   -237945.473 6   -169276.62149  22899904.87949
  23002675.695 5   -547394.504 5   -407052.28947  23002672.16847
  21692380.766 5     41739.891 5     30867.57846  21692376.43446
  23163897.109 3     88355.477 3     60205.39146  23163896.89546
  20253703.305 6      4962.855 6      3677.49249  20253702.01249
  23881390.195 5    208786.219 5    144319.74646  23881388.22746
 20  5 16  1 51 55.0000000  0  8G04G08G09G11G16G26G27G31             0.000113964
  21555130.531 6     -4713.488 6     -3729.41047  21555127.76247
  20553588.289 6   -261921.973 6   -192754.02049  20553587.56349
  22899541.953 6   -239856.340 6   -170765.61348  22899541.02748
  23001861.703 5   -551671.492 5   -410385.00047  23001857.92247
  21692440.641 5     42055.355 5     31113.39846  21692436.77746
  23164043.430 2     89127.324 2     60806.82046  23164044.05546
  20253714.938 6      5023.844 6      3725.01249  20253713.45749
  23881707.344 5    210455.629 5    145620.57846  23881706.18046
 20  5 16  1 51 56.0000000  0  8G04G08G09G11G16G26G27G31             0.000113358
  21555127.203 6     -4729.688 6     -3742.02747  21555124.84447
  20553191.406 6   -264008.770 6   -194380.09849  20553190.42249
  22899177.852 6   -241766.793 6   -172254.27748  22899177.14548
  23001047.906 6   -555948.492 6   -413717.73447  23001044.19947
  21692500.641 5     42370.668 5     31359.10246  21692497.37146
  23164190.711 2     89899.059 2     61408.16446  23164190.98846
  20253726.836 6      5085.230 6      3772.84449  20253725.24649
  23882025.211 5    212125.168 5    146921.51247  23882023.85247
 20  5 16  1 51 57.0000000  0  8G04G08G09G11G16G26G27G31             0.000112753
  21555124.250 6     -4745.434 6     -3754.30147  21555121.87147
  20552794.320 6   -266095.059 6   -196005.77749  20552792.90649
  22898815.047 6   -243676.746 6   -173742.54748  22898813.43848
  23000234.117 6   -560225.438 6   -417050.40646  23000230.49246
  21692560.398 5     42686.004 5     31604.82046  21692556.96146
  23164336.984 2     90670.676 2     62009.43046  23164337.65646
  20253738.586 6      5147.074 6      3821.03149  20253737.36349
  23882343.070 5    213794.855 5    148222.56647  23882341.43447
 20  5 16  1 51 58.0000000  0  8G04G08G09G11G16G26G27G31             0.000112146
  21555121.508 6     -4760.516 6     -3766.06347  21555119.12147
  20552397.125 6   -268180.785 6   -197631.02749  20552396.41049
  22898451.516 5   -245586.086 5   -175230.34848  22898450.53148
  22999420.180 6   -564502.184 6   -420382.93447  22999416.48047
  21692620.820 5     43001.379 5     31850.57046  21692616.68446
  23164484.063 2     91442.348 2     62610.73846  23164484.81346
  20253750.375 6      5209.539 6      3869.70349  20253748.87549
  23882661.242 5    215464.828 5    149523.83647  23882659.49247
 20  5 16  1 51 59.0000000  0  8G04G08G09G11G16G26G27G31             0.000111542
  21555118.852 6     -4775.203 6     -3777.51647  21555115.84447
  20552000.633 6   -270266.055 6   -199255.91049  20551999.30149
  22898088.258 5   -247494.949 5   -176717.78148  22898087.06348
  22998606.211 6   -568778.879 6   -423715.41446  22998602.49646
  21692680.867 5     43316.723 5     32096.28946  21692676.53146
  23164631.313 2     92213.926 2     63211.96546  23164631.34846
  20253762.313 6      5272.422 6      3918.69949  20253760.85949
  23882978.891 5    217134.957 5    150825.24247  23882977.31647
 20  5 16  1 52  0.0000000  0  8G04G08G09G11G16G26G27G31             0.000110935
  21555116.273 6     -4789.254 6     -3788.46547  21555113.52747
  20551603.992 6   -272350.734 6   -200880.33249  20551603.24649
  22897724.945 5   -249403.219 5   -178204.75848  22897724.20348
  22997792.352 6   -573055.395 6   -427047.75446  22997788.74246
  21692741.109 5     43632.094 5     32342.02747  21692736.95747
  23164777.641 3     92985.414 3     63813.11346  23164777.98046
  20253774.367 6      5335.871 6      3968.14149  20253773.15249
  23883296.969 5    218805.324 5    152126.82047  23883294.95347
 20  5 16  1 52  1.0000000  0  8G04G08G09G11G16G26G27G31             0.000110329
  21555113.445 6     -4802.785 6     -3799.02348  21555110.91448
  20551207.242 6   -274434.918 6   -202504.37949  20551206.53549
  22897361.852 5   -251310.938 5   -179691.29749  22897361.07049
  22996978.703 6   -577331.805 6   -430380.03947  22996975.00047
  21692801.445 6     43947.469 6     32587.76247  21692796.83247
  23164925.055 4     93756.883 4     64414.27046  23164924.64146
  20253786.648 6      5399.813 6      4017.96149  20253785.27349
  23883615.641 6    220475.980 6    153428.61347  23883612.55147
 20  5 16  1 52  2.0000000  0  8G04G08G09G11G16G26G27G31             0.000109722
  21555110.734 6     -4815.680 6     -3809.06348  21555108.37948
  20550810.703 7   -276518.430 7   -204127.91449  20550809.93449
  22896999.039 6   -253217.980 6   -181177.30549  22896997.82449
  22996164.656 6   -581607.965 6   -433712.14547  22996161.24647
  21692860.563 5     44262.980 5     32833.60247  21692856.85547
  23165071.938 4     94528.539 4     65015.56646  23165071.88746
  20253798.664 6      5464.430 6      4068.30549  20253797.37549
  23883932.914 5    222146.938 5    154730.64147  23883930.55947
 20  5 16  1 52  3.0000000  0  8G04G08G09G11G16G26G27G31             0.000109118
  21555108.586 6     -4828.059 6     -3818.70748  21555106.08248
  20550414.625 7   -278601.434 7   -205751.03949  20550413.66049
  22896636.805 6   -255124.484 6   -182662.87949  22896635.19949
  22995350.953 6   -585883.996 6   -437044.12947  22995347.60247
  21692920.875 5     44578.602 5     33079.55146  21692917.02346
  23165218.531 3     95300.195 3     65616.84846  23165218.80546
  20253811.195 6      5529.613 6      4119.09449  20253809.97749
  23884251.242 6    223818.047 6    156032.79347  23884248.95347
 20  5 16  1 52  4.0000000  0  8G04G08G09G11G16G26G27G31             0.000108511
  21555106.422 6     -4839.906 6     -3827.94147  21555104.13747
  20550018.656 6   -280683.902 6   -207373.73449  20550016.98049
  22896273.359 5   -257030.488 5   -184148.07849  22896272.56649
  22994537.734 6   -590159.922 6   -440376.01247  22994534.10247
  21692981.016 5     44894.203 5     33325.46947  21692976.91447
  23165364.914 2     96071.832 2     66218.13346  23165365.66846
  20253823.781 6      5595.316 6      4170.30149  20253822.13349
  23884569.188 5    225489.453 5    157335.18847  23884567.00447
 20  5 16  1 52  5.0000000  0  8G04G08G09G11G16G26G27G31             0.000107906
  21555104.336 6     -4851.156 6     -3836.69947  21555101.67647
  20549621.961 6   -282765.859 6   -208996.02349  20549620.68849
  22895911.109 6   -258935.902 6   -185632.80549  22895910.30149
  22993723.531 5   -594435.691 5   -443707.74647  22993720.18047
  21693040.336 5     45209.742 5     33571.35246  21693036.77046
  23165511.719 2     96843.398 2     66819.35546  23165512.02746
  20253836.125 6      5661.484 6      4221.85949  20253834.60549
  23884886.750 5    227161.043 5    158637.73847  23884885.17247
 20  5 16  1 52  6.0000000  0  8G04G08G09G11G16G26G27G31             0.000107300
  21555102.211 6     -4861.836 6     -3845.03147  21555099.56647
  20549226.109 7   -284847.215 7   -210617.85949  20549224.89549
  22895548.188 6   -260840.664 6   -187117.02749  22895547.20349
  22992909.688 6   -598711.301 6   -447039.38347  22992907.00047
  21693100.813 6     45525.398 6     33817.32447  21693096.96547
  23165659.141 3     97614.859 3     67420.48446  23165658.78546
  20253848.844 6      5728.270 6      4273.89849  20253847.76249
  23885204.938 5    228832.992 5    159940.56347  23885203.02747
 20  5 16  1 52  7.0000000  0  8G04G08G09G11G16G26G27G31             0.000106693
  21555100.047 6     -4872.070 6     -3853.00847  21555097.53947
  20548829.969 6   -286928.113 6   -212239.34049  20548828.51649
  22895186.148 6   -262745.000 6   -188600.92249  22895185.06649
  22992096.883 6   -602986.859 6   -450370.98447  22992092.78547
  21693160.930 6     45841.066 6     34063.29347  21693157.20747
  23165806.547 2     98386.398 2     68021.68846  23165806.15246
  20253862.109 6      5795.504 6      4326.29349  20253860.24649
  23885523.070 5    230505.043 5    161243.45347  23885521.44147
 20  5 16  1 52  8.0000000  0  8G04G08G09G11G16G26G27G31             0.000106087
  21555098.430 6     -4881.676 6     -3860.49647  21555096.13747
  20548434.344 7   -289008.430 7   -213860.37149  20548433.21949
  22894823.469 5   -264648.676 5   -190084.30949  22894822.59849
  22991283.805 6   -607262.188 6   -453702.42647  22991279.59847
  21693220.453 6     46156.707 6     34309.23847  21693216.74247
  23165952.453 2     99157.906 2     68622.87146  23165953.00846
  20253874.625 6      5863.281 6      4379.10549  20253872.94949
  23885841.055 5    232177.363 5    162546.56347  23885839.71947
 20  5 16  1 52  9.0000000  0  8G04G08G09G11G16G26G27G31             0.000105482
  21555096.633 6     -4890.855 6     -3867.63748  21555094.57448
  20548038.242 7   -291088.258 7   -215481.03149  20548037.48849
  22894461.883 5   -266551.895 5   -191567.34449  22894460.57449
  22990469.766 6   -611537.531 6   -457033.87947  22990466.10547
  21693280.945 5     46472.359 5     34555.20346  21693277.43046
  23166098.898 4     99929.332 4     69223.98046  23166099.43846
  20253887.633 7      5931.551 7      4432.29749  20253886.17649
  23886159.531 5    233849.832 5    163849.77347  23886157.70747
 20  5 16  1 52 10.0000000  0  8G04G08G09G11G16G26G27G31             0.000104876
  21555094.625 6     -4899.348 6     -3874.25447  21555092.76247
  20547642.641 6   -293167.383 6   -217101.12149  20547641.81649
  22894099.258 5   -268454.430 5   -193049.84449  22894099.16449
  22989656.359 6   -615812.504 6   -460365.03147  22989652.50047
  21693341.063 5     46788.254 5     34801.35247  21693337.34047
  23166246.117 1    100700.957 1     69825.24646  23166246.41446
  20253901.023 6      6000.527 6      4486.04349  20253899.42249
  23886478.148 5    235522.676 5    165153.27347  23886476.10247
 20  5 16  1 52 11.0000000  0  8G04G08G09G11G16G26G27G31             0.000104269
  21555093.961 6     -4907.344 6     -3880.48447  21555090.97747
  20547247.008 6   -295246.074 6   -218720.87149  20547246.63749
  22893737.438 5   -270356.453 5   -194531.94148  22893737.09848
  22988842.391 5   -620087.477 5   -463696.18047  22988838.80547
  21693401.648 5     47103.922 5     35047.32046  21693397.41046
  23166392.984 4    101472.352 4     70426.33646  23166393.51646
  20253914.305 7      6069.914 7      4540.10549  20253912.74249
  23886796.602 5    237195.742 5    166456.97347  23886794.73447
 20  5 16  1 52 12.0000000  0  8G04G08G09G11G16G26G27G31             0.000103664
  21555092.016 6     -4914.762 6     -3886.24247  21555089.90247
  20546851.273 7   -297324.184 7   -220340.17649  20546850.86749
  22893375.547 5   -272257.887 5   -196013.55148  22893375.31348
  22988028.977 6   -624362.254 6   -467027.16447  22988024.94947
  21693462.023 6     47419.742 6     35293.42246  21693457.49646
  23166540.180 4    102243.867 4     71027.51246  23166540.15646
  20253927.375 7      6139.895 7      4594.63749  20253926.24249
  23887114.680 5    238868.988 5    167760.80147  23887113.18447
 20  5 16  1 52 13.0000000  0  8G04G08G09G11G16G26G27G31             0.000103058
  21555091.117 6     -4921.672 6     -3891.62147  21555088.19547
  20546456.266 7   -299401.816 7   -221959.12149  20546455.20749
  22893014.469 5   -274158.816 5   -197494.77048  22893013.28948
  22987215.953 6   -628636.965 6   -470358.09047  22987212.21147
  21693521.664 6     47735.563 6     35539.52346  21693517.32046
  23166686.844 4    103015.316 4     71628.63746  23166686.97746
  20253940.766 7      6210.363 7      4649.54349  20253939.15649
  23887433.602 5    240542.449 5    169064.81646  23887431.95746
 20  5 16  1 52 14.0000000  0  8G04G08G09G11G16G26G27G31             0.000102451
  21555089.852 6     -4928.047 6     -3896.59847  21555087.29347
  20546060.852 7   -301478.898 7   -223577.62949  20546060.11349
  22892652.445 5   -276059.191 5   -198975.57048  22892651.24248
  22986402.000 6   -632911.527 6   -473688.91847  22986398.63347
  21693581.484 6     48051.402 6     35785.62946  21693577.34846
  23166833.438 4    103786.684 4     72229.68846  23166833.87146
  20253954.523 7      6281.344 7      4704.84849  20253952.84849
  23887751.969 5    242216.109 5    170368.97746  23887749.87546
 20  5 16  1 52 15.0000000  0  8G04G08G09G11G16G26G27G31             0.000101845
  21555088.328 6     -4933.809 6     -3901.09847  21555085.96947
  20545665.789 7   -303555.422 7   -225195.69949  20545664.84449
  22892290.789 5   -277958.867 5   -200455.84848  22892289.96548
  22985588.523 6   -637185.906 6   -477019.60247  22985585.31347
  21693642.609 5     48367.469 5     36031.90646  21693637.59446
  23166980.320 3    104558.188 3     72830.84846  23166981.06646
  20253967.813 7      6352.949 7      4760.64549  20253966.68449
  23888070.383 5    243890.117 5    171673.37946  23888068.02746
 20  5 16  1 52 16.0000000  0  8G04G08G09G11G16G26G27G31             0.000101240
  21555087.445 6     -4939.027 6     -3905.18447  21555084.84447
  20545270.867 6   -305631.305 6   -226813.27049  20545269.77049
  22891929.719 5   -279858.074 5   -201935.79348  22891929.57048
  22984775.289 6   -641460.102 6   -480350.14847  22984771.94547
  21693701.406 5     48683.516 5     36278.18446  21693697.68046
  23167126.422 1    105329.695 1     73432.02346  23167127.66846
  20253981.609 7      6425.137 7      4816.91049  20253979.92649
  23888388.547 6    245564.348 6    172977.96147  23888387.19947
 20  5 16  1 52 17.0000000  0  8G04G08G09G11G16G26G27G31             0.000100634
  21555086.695 6     -4943.656 6     -3908.79347  21555084.15647
  20544876.094 6   -307706.672 6   -228430.42649  20544874.83649
  22891568.492 5   -281756.652 5   -203415.22748  22891567.69148
  22983962.594 5   -645734.125 5   -483680.55546  22983958.44546
  21693761.094 5     48999.574 5     36524.46146  21693757.50046
  23167272.734 1    106101.199 1     74033.19146  23167274.89146
  20253995.758 7      6497.832 7      4873.55949  20253994.03949
  23888707.367 5    247238.816 5    174282.75047  23888705.53947
 20  5 16  1 52 18.0000000  0  8G04G08G09G11G16G26G27G31             0.000100027
  21555085.875 6     -4947.754 6     -3911.99247  21555083.41047
  20544481.273 7   -309781.496 7   -230047.15649  20544480.26649
  22891207.094 5   -283654.656 5   -204894.19148  22891206.35248
  22983149.070 6   -650008.090 6   -487010.92646  22983145.10946
  21693822.414 5     49315.602 5     36770.72346  21693817.99246
  23167420.063 2    106872.563 2     74634.23446  23167421.35946
  20254009.555 6      6571.016 6      4930.58249  20254007.67649
  23889026.789 5    248913.570 5    175587.74247  23889023.91047
 20  5 16  1 52 19.0000000  0  8G04G08G09G11G16G26G27G31             0.000099421
  21555085.227 6     -4951.352 6     -3914.79747  21555082.48047
  20544086.336 7   -311855.828 7   -231663.53149  20544085.28949
  22890845.828 5   -285552.172 5   -206372.78949  22890845.30149
  22982336.039 6   -654281.898 6   -490341.15647  22982331.64847
  21693882.516 6     49631.641 6     37016.98046  21693878.06346
  23167566.844 3    107643.871 3     75235.26646  23167568.02346
  20254023.625 6      6644.746 6      4988.04349  20254022.00049
  23889345.250 5    250588.500 5    176892.85947  23889343.29747
 20  5 16  1 52 20.0000000  0  8G04G08G09G11G16G26G27G31             0.000098814
  21555085.000 6     -4954.371 6     -3917.14547  21555082.30147
  20543691.938 7   -313929.582 7   -233279.44549  20543690.86349
  22890485.313 5   -287449.094 5   -207850.91849  22890484.16849
  22981522.570 6   -658555.586 6   -493671.30147  22981518.40247
  21693942.203 5     49947.754 5     37263.29346  21693938.46546
  23167714.180 4    108415.277 4     75836.37946  23167714.91846
  20254037.531 7      6718.988 7      5045.89549  20254035.85549
  23889663.766 6    252263.633 6    178198.13747  23889661.95347
 20  5 16  1 52 21.0000000  0  8G04G08G09G11G16G26G27G31             0.000098209
  21555084.359 6     -4957.059 6     -3919.23448  21555081.81348
  20543297.359 7   -316002.988 7   -234895.09849  20543295.96149
  22890124.359 5   -289345.652 5   -209328.75849  22890123.45349
  22980709.031 6   -662829.316 6   -497001.48047  22980705.21547
  21694002.422 5     50263.680 5     37509.46546  21693998.41846
  23167861.188 4    109186.457 4     76437.28546  23167861.69546
  20254051.875 7      6793.613 7      5104.03549  20254050.47749
  23889983.078 5    253938.832 5    179503.47747  23889980.58647
 20  5 16  1 52 22.0000000  0  8G04G08G09G11G16G26G27G31             0.000097603
  21555083.867 6     -4959.133 6     -3920.84847  21555081.37147
  20542902.656 7   -318075.809 7   -236510.28949  20542901.91449
  22889763.633 5   -291241.621 5   -210806.12948  22889762.76248
  22979896.281 6   -667102.859 6   -500331.51247  22979892.02047
  21694062.727 5     50579.676 5     37755.70746  21694058.53146
  23168008.102 4    109957.688 4     77038.25046  23168008.25046
  20254066.063 7      6868.805 7      5162.62149  20254064.56349
  23890301.234 5    255614.285 5    180809.02347  23890299.15647
 20  5 16  1 52 23.0000000  0  8G04G08G09G11G16G26G27G31             0.000096996
  21555083.477 6     -4960.680 6     -3922.05547  21555081.14847
  20542508.461 7   -320148.102 7   -238125.06349  20542507.47749
  22889403.070 5   -293136.973 5   -212283.02048  22889402.41848
  22979083.023 6   -671376.250 6   -503661.42247  22979079.05547
  21694122.938 5     50895.750 5     38002.00846  21694118.58246
  23168154.578 4    110728.906 4     77639.19146  23168155.27746
  20254080.547 7      6944.523 7      5221.61349  20254078.98049
  23890620.563 5    257289.984 5    182114.77747  23890618.55147
 20  5 16  1 52 24.0000000  0  8G04G08G09G11G16G26G27G31             0.000096390
  21555083.242 6     -4961.652 6     -3922.81647  21555080.93447
  20542114.156 6   -322219.805 6   -239739.37149  20542113.03149
  22889042.469 5   -295031.816 5   -213759.51249  22889041.63749
  22978269.336 6   -675649.465 6   -506991.21147  22978265.82847
  21694182.781 5     51211.914 5     38248.35946  21694178.87146
  23168301.539 1    111500.113 1     78240.13746  23168301.46946
  20254095.133 6      7020.883 6      5281.12149  20254093.62549
  23890938.703 5    258965.934 5    183420.73447  23890937.41847
 20  5 16  1 52 25.0000000  0  8G04G08G09G11G16G26G27G31             0.000095783
  21555083.102 6     -4961.984 6     -3923.08247  21555080.95347
  20541720.148 6   -324290.895 6   -241353.20749  20541719.24249
  22888681.688 6   -296925.945 6   -215235.43449  22888681.63749
  22977456.539 6   -679922.488 6   -510320.85247  22977452.77347
  21694243.242 6     51528.168 6     38494.78546  21694238.69146
  23168448.188 1    112271.438 1     78841.19146  23168448.84446
  20254109.727 6      7097.781 6      5341.04349  20254108.21949
  23891257.961 5    260642.234 5    184726.94947  23891256.28147
 20  5 16  1 52 26.0000000  0  8G04G08G09G11G16G26G27G31             0.000095177
  21555083.414 6     -4961.688 6     -3922.84847  21555081.07447
  20541326.055 6   -326361.352 6   -242966.55149  20541325.14849
  22888321.172 5   -298819.426 5   -216710.86749  22888321.33249
  22976643.164 5   -684195.254 5   -513650.28947  22976639.49647
  21694303.750 5     51844.496 5     38741.27046  21694298.97746
  23168594.625 1    113042.738 1     79442.20346  23168595.23846
  20254124.781 6      7175.309 6      5401.46149  20254123.10949
  23891576.766 5    262318.828 5    186033.37947  23891575.41047
 20  5 16  1 52 27.0000000  0  8G04G08G09G11G16G26G27G31             0.000094572
  21555083.164 6     -4960.879 6     -3922.23047  21555080.76247
  20540932.383 6   -328431.344 6   -244579.52749  20540930.85549
  22887961.016 5   -300712.414 5   -218185.92649  22887961.05549
  22975829.719 5   -688467.996 5   -516979.70747  22975826.17647
  21694363.438 5     52160.816 5     38987.77346  21694359.41046
  23168741.289 2    113814.055 2     80043.23846  23168742.02046
  20254139.445 6      7253.316 6      5462.24249  20254137.48849
  23891896.406 5    263995.621 5    187339.96947  23891894.29747
 20  5 16  1 52 28.0000000  0  8G04G08G09G11G16G26G27G31             0.000093966
  21555083.664 6     -4959.488 6     -3921.15247  21555081.12147
  20540538.727 7   -330500.742 7   -246192.04349  20540537.77049
  22887600.898 5   -302604.789 5   -219660.51649  22887600.36749
  22975017.625 5   -692740.500 5   -520308.91047  22975013.47747
  21694423.844 5     52477.195 5     39234.29346  21694419.48446
  23168888.508 2    114585.379 2     80644.27046  23168888.71546
  20254154.188 6      7331.883 6      5523.45349  20254152.78949
  23892215.320 5    265672.637 5    188646.72747  23892213.16047
 20  5 16  1 52 29.0000000  0  8G04G08G09G11G16G26G27G31             0.000093359
  21555083.859 6     -4957.543 6     -3919.64547  21555081.55547
  20540144.875 7   -332569.578 7   -247804.10949  20540143.79749
  22887241.172 5   -304496.617 5   -221134.67249  22887240.38749
  22974204.547 5   -697012.840 5   -523637.98047  22974200.53147
  21694484.305 5     52793.625 5     39480.85546  21694479.66846
  23169035.398 3    115356.684 3     81245.26246  23169035.82846
  20254169.242 6      7411.020 6      5585.12949  20254167.57049
  23892534.867 5    267349.949 5    189953.73046  23892532.85546
 20  5 16  1 52 30.0000000  0  8G04G08G09G11G16G26G27G31             0.000092752
  21555084.547 6     -4955.113 6     -3917.74647  21555081.82847
  20539751.180 7   -334637.965 7   -249415.84449  20539750.16849
  22886881.258 5   -306387.945 5   -222608.43849  22886880.53149
  22973391.492 5   -701285.137 5   -526967.03947  22973387.46547
  21694544.766 5     53110.016 5     39727.39546  21694539.93446
  23169181.766 3    116127.883 3     81846.18446  23169182.40646
  20254184.320 6      7490.609 6      5647.14849  20254182.95349
  23892853.766 5    269027.438 5    191260.86747  23892851.59447
 20  5 16  1 52 31.0000000  0  8G04G08G09G11G16G26G27G31             0.000092146
  21555085.438 6     -4952.203 6     -3915.47747  21555082.46947
  20539357.633 7   -336705.844 7   -251027.17649  20539356.55949
  22886521.438 5   -308278.742 5   -224081.78149  22886520.89849
  22972578.398 5   -705557.305 5   -530295.99647  22972574.84847
  21694604.727 5     53426.414 5     39973.93846  21694600.19146
  23169328.078 2    116899.098 2     82447.11346  23169329.21546
  20254199.664 6      7570.707 6      5709.55949  20254198.03549
  23893173.852 5    270705.125 5    192568.15247  23893171.25447
 20  5 16  1 52 32.0000000  0  8G04G08G09G11G16G26G27G31             0.000091539
  21555085.766 6     -4948.668 6     -3912.71547  21555083.16847
  20538964.344 7   -338773.105 7   -252638.03549  20538962.72349
  22886161.555 5   -310168.871 5   -225554.60949  22886161.04749
  22971764.625 5   -709829.301 5   -533624.84447  22971761.62547
  21694664.813 5     53742.898 5     40220.55146  21694660.66846
  23169476.375 2    117670.313 2     83048.07046  23169475.73446
  20254215.148 6      7651.402 6      5772.44149  20254213.44549
  23893492.523 5    272383.066 5    193875.63347  23893489.90247
 20  5 16  1 52 33.0000000  0  8G04G08G09G11G16G26G27G31             0.000090933
  21555086.797 6     -4944.621 6     -3909.55947  21555083.80147
  20538571.016 6   -340839.875 6   -254248.51249  20538570.40249
  22885802.336 5   -312058.551 5   -227027.08649  22885801.48049
  22970952.391 5   -714101.172 5   -536953.57847  22970948.85947
  21694724.781 5     54059.375 5     40467.15646  21694720.52046
  23169622.359 2    118441.477 2     83648.98446  23169622.86346
  20254230.625 6      7732.590 6      5835.70349  20254228.97349
  23893811.828 6    274061.230 6    195183.28147  23893809.67247
 20  5 16  1 52 34.0000000  0  8G04G08G09G11G16G26G27G31             0.000090328
  21555087.555 6     -4940.055 6     -3906.00047  21555084.73047
  20538177.680 6   -342906.102 6   -255858.55949  20538176.55149
  22885442.711 5   -313947.637 5   -228499.10249  22885442.00449
  22970139.641 5   -718372.910 5   -540282.20347  22970135.89847
  21694784.742 5     54375.883 5     40713.78546  21694780.69546
  23169769.484 2    119212.629 2     84249.89146  23169769.70346
  20254246.016 6      7814.316 6      5899.38349  20254244.36749
  23894131.078 6    275739.613 6    196491.10547  23894129.23447
 20  5 16  1 52 35.0000000  0  8G04G08G09G11G16G26G27G31             0.000089722
  21555088.586 6     -4934.777 6     -3901.88347  21555086.03547
  20537784.664 6   -344971.672 6   -257468.09449  20537783.60249
  22885083.617 5   -315836.047 5   -229970.58649  22885082.65249
  22969326.359 5   -722644.410 5   -543610.64847  22969323.03147
  21694845.344 5     54692.523 5     40960.53146  21694841.34846
  23169915.766 2    119983.871 2     84850.85546  23169916.14546
  20254261.805 6      7896.688 6      5963.57049  20254260.00449
  23894450.445 5    277418.332 5    197799.19947  23894448.50847
 20  5 16  1 52 36.0000000  0  8G04G08G09G11G16G26G27G31             0.000089115
  21555089.406 6     -4929.016 6     -3897.39547  21555086.98047
  20537392.078 6   -347036.723 6   -259077.21949  20537390.88749
  22884724.141 5   -317723.895 5   -231441.64149  22884723.55149
  22968514.031 5   -726915.734 5   -546938.94547  22968510.36347
  21694905.906 5     55009.207 5     41207.29746  21694901.38746
  23170061.836 1    120755.152 1     85451.85246  23170063.08246
  20254277.555 6      7979.598 6      6028.17249  20254276.19949
  23894769.773 5    279097.305 5    199107.49247  23894768.04747
 20  5 16  1 52 37.0000000  0  8G04G08G09G11G16G26G27G31             0.000088509
  21555091.023 6     -4922.625 6     -3892.41847  21555088.23047
  20536998.945 6   -349101.184 6   -260685.89149  20536997.85949
  22884364.578 5   -319611.148 5   -232912.23049  22884364.55549
  22967701.047 5   -731186.934 5   -550267.15647  22967698.08247
  21694965.547 5     55325.914 5     41454.08246  21694961.36346
  23170209.102 2    121526.422 2     86052.84446  23170209.91446
  20254293.375 6      8063.043 6      6093.19149  20254291.87149
  23895089.078 5    280776.504 5    200415.96547  23895087.18447
 20  5 16  1 52 38.0000000  0  8G04G08G09G11G16G26G27G31             0.000087902
  21555092.227 6     -4915.840 6     -3887.13347  21555089.48847
  20536606.258 6   -351165.227 6   -262294.23449  20536604.91449
  22884005.281 5   -321497.930 5   -234382.44949  22884005.68849
  22966888.711 5   -735458.074 5   -553595.31647  22966884.75047
  21695026.063 5     55642.598 5     41700.85946  21695022.02046
  23170355.273 2    122297.574 2     86653.74646  23170356.69546
  20254309.469 6      8146.926 6      6158.55549  20254307.61749
  23895409.477 5    282455.879 5    201724.56646  23895406.65246
 20  5 16  1 52 39.0000000  0  8G04G08G09G11G16G26G27G31             0.000087296
  21555093.320 6     -4908.488 6     -3881.40647  21555090.75847
  20536213.367 7   -353228.695 7   -263902.14149  20536212.34049
  22883647.266 5   -323384.164 5   -235852.25049  22883646.30549
  22966075.313 5   -739729.063 5   -556923.35247  22966071.93447
  21695086.703 6     55959.234 6     41947.57046  21695082.13346
  23170502.734 4    123068.527 4     87254.46946  23170503.07846
  20254325.656 7      8231.348 7      6224.33649  20254323.82449
  23895729.445 5    284135.520 5    203033.36347  23895726.37947
 20  5 16  1 52 40.0000000  0  8G04G08G09G11G16G26G27G31             0.000086689
  21555094.945 6     -4900.477 6     -3875.15647  21555092.63747
  20535820.828 7   -355291.555 7   -265509.57449  20535819.96149
  22883287.727 5   -325269.730 5   -237321.52048  22883287.89148
  22965262.477 5   -743999.836 5   -560251.23447  22965259.72347
  21695146.992 6     56276.051 6     42194.40647  21695142.66847
  23170649.500 5    123839.730 5     87855.38746  23170649.98446
  20254341.984 7      8316.375 7      6290.58649  20254340.05949
  23896048.320 5    285815.434 5    204342.37547  23896046.05147
 20  5 16  1 52 41.0000000  0  8G04G08G09G11G16G26G27G31             0.000086082
  21555096.922 6     -4891.941 6     -3868.48847  21555094.28547
  20535428.641 7   -357353.832 7   -267116.54749  20535427.64549
  22882929.109 5   -327154.727 5   -238790.34848  22882928.76248
  22964450.313 5   -748270.441 5   -563578.97347  22964446.72747
  21695207.102 6     56592.895 6     42441.28147  21695203.15647
  23170795.383 5    124610.922 5     88456.30546  23170796.30146
  20254357.914 7      8402.012 7      6357.31349  20254355.84849
  23896368.484 5    287495.621 5    205651.60247  23896366.17647
 20  5 16  1 52 42.0000000  0  8G04G08G09G11G16G26G27G31             0.000085476
  21555098.781 6     -4882.867 6     -3861.41447  21555095.76647
  20535036.039 7   -359415.648 7   -268723.15249  20535035.43849
  22882570.648 5   -329039.223 5   -240258.78548  22882569.93848
  22963637.711 5   -752540.984 5   -566906.66447  22963634.37147
  21695267.453 6     56909.711 6     42688.14547  21695262.98847
  23170942.977 5    125382.090 5     89057.20347  23170943.71547
  20254374.195 7      8488.078 7      6424.37549  20254372.77749
  23896687.914 5    289175.945 5    206960.94147  23896686.21147
 20  5 16  1 52 43.0000000  0  8G04G08G09G11G16G26G27G31             0.000084869
  21555100.000 6     -4873.301 6     -3853.96147  21555097.76647
  20534643.672 7   -361476.867 7   -270329.28949  20534642.91849
  22882212.367 5   -330923.137 5   -241726.77048  22882212.02348
  22962825.188 6   -756811.355 6   -570234.23047  22962821.32447
  21695327.672 6     57226.625 6     42935.09047  21695323.53547
  23171089.539 5    126153.219 5     89658.09047  23171090.00447
  20254390.563 7      8574.715 7      6491.89149  20254389.08249
  23897007.977 5    290856.523 5    208270.48047  23897005.72747
 20  5 16  1 52 44.0000000  0  8G04G08G09G11G16G26G27G31             0.000084263
  21555101.695 6     -4863.109 6     -3846.02747  21555099.33647
  20534251.430 7   -363537.543 7   -271935.01249  20534250.41849
  22881853.867 4   -332806.371 4   -243194.23048  22881852.88748
  22962012.266 6   -761081.566 6   -573561.66447  22962009.16047
  21695388.047 6     57543.559 6     43182.05547  21695383.61747
  23171236.008 5    126924.422 5     90259.03147  23171236.83647
  20254407.484 7      8661.906 7      6559.83249  20254405.86349
  23897327.672 5    292537.406 5    209580.26647  23897325.75447
 20  5 16  1 52 45.0000000  0  8G04G08G09G11G16G26G27G31             0.000083658
  21555103.813 5     -4852.398 5     -3837.68447  21555101.39847
  20533859.695 6   -365597.711 6   -273540.33649  20533858.42649
  22881495.688 4   -334689.084 4   -244661.26948  22881494.87548
  22961199.734 6   -765351.637 6   -576888.99647  22961196.26247
  21695448.016 6     57860.500 6     43429.02047  21695443.89547
  23171383.219 5    127695.488 5     90859.85947  23171383.56347
  20254423.617 6      8749.590 6      6628.16049  20254422.05949
  23897647.570 5    294218.445 5    210890.17247  23897645.48447
 20  5 16  1 52 46.0000000  0  8G04G08G09G11G16G26G27G31             0.000083052
  21555106.508 6     -4841.188 6     -3828.92647  21555103.79747
  20533467.328 6   -367657.328 6   -275145.22349  20533466.61349
  22881137.375 5   -336571.375 5   -246127.99248  22881136.70348
  22960387.719 6   -769621.586 6   -580216.25047  22960383.94147
  21695508.531 6     58177.461 6     43676.01247  21695504.62147
  23171530.102 5    128466.605 5     91460.71947  23171529.90247
  20254440.914 7      8837.813 7      6696.90649  20254439.32449
  23897967.828 5    295899.730 5    212200.25447  23897965.44547
 20  5 16  1 52 47.0000000  0  8G04G08G09G11G16G26G27G31             0.000082445
  21555108.391 6     -4829.324 6     -3819.69147  21555105.78147
  20533075.484 7   -369716.313 7   -276749.64849  20533074.78149
  22880779.211 5   -338453.023 5   -247594.20348  22880778.49248
  22959574.867 6   -773891.332 6   -583543.30547  22959571.57047
  21695569.320 6     58494.531 6     43923.07847  21695564.88347
  23171676.250 5    129237.734 5     92061.59047  23171677.16847
  20254457.781 7      8926.637 7      6766.11349  20254456.22349
  23898287.258 5    297581.285 5    213510.55547  23898285.77747
 20  5 16  1 52 48.0000000  0  8G04G08G09G11G16G26G27G31             0.000081839
  21555110.961 6     -4816.953 6     -3810.07447  21555108.06347
  20532684.164 7   -371774.801 7   -278353.67649  20532682.94549
  22880420.969 5   -340334.082 5   -249059.95748  22880420.69548
  22958762.305 6   -778160.945 6   -586870.26247  22958759.24647
  21695629.531 6     58811.605 6     44170.14847  21695625.01247
  23171823.172 5    130008.844 5     92662.46946  23171823.12546
  20254474.742 7      9015.977 7      6835.71549  20254473.03949
  23898607.789 5    299263.082 5    214821.06347  23898605.47747
 20  5 16  1 52 49.0000000  0  8G04G08G09G11G16G26G27G31             0.000081232
  21555113.250 6     -4804.016 6     -3800.01247  21555110.72347
  20532292.414 6   -373832.738 6   -279957.27349  20532291.51649
  22880063.313 5   -342214.555 5   -250525.25448  22880062.58648
  22957950.016 6   -782430.422 6   -590197.12547  22957946.55547
  21695689.773 6     59128.711 6     44417.24247  21695685.48047
  23171969.203 5    130779.953 5     93263.34447  23171970.04347
  20254491.852 7      9105.859 7      6905.74249  20254490.07049
  23898927.477 5    300945.102 5    216131.72347  23898925.60247
 20  5 16  1 52 50.0000000  0  8G04G08G09G11G16G26G27G31             0.000080626
  21555115.805 6     -4790.648 6     -3789.60547  21555113.82047
  20531900.813 7   -375890.227 7   -281560.51249  20531900.22349
  22879705.508 5   -344094.520 5   -251990.16848  22879705.02348
  22957137.586 6   -786699.836 6   -593523.94947  22957133.71147
  21695749.992 6     59445.766 6     44664.28947  21695745.84447
  23172116.656 5    131550.992 5     93864.16047  23172117.05147
  20254508.867 7      9196.188 7      6976.12549  20254507.16049
  23899247.648 5    302627.266 5    217442.49647  23899245.93447
 20  5 16  1 52 51.0000000  0  8G04G08G09G11G16G26G27G31             0.000080019
  21555119.008 4     -4776.664 4     -3778.66447  21555116.43847
  20531509.383 6   -377947.191 6   -283163.33649  20531508.71949
  22879348.703 3   -345973.891 3   -253454.61748  22879347.10248
  22956324.641 6   -790969.234 6   -596850.76647  22956321.57447
  21695809.992 6     59762.809 6     44911.33247  21695805.83647
  23172263.781 6    132321.898 6     94464.84447  23172263.74647
  20254526.633 6      9286.988 6      7046.89849  20254524.87149
  23899568.172 5    304309.594 5    218753.39147  23899565.66447
 20  5 16  1 52 52.0000000  0  8G04G08G09G11G16G26G27G31             0.000079412
  21555121.633 4     -4762.180 4     -3767.31346  21555118.95746
  20531117.891 6   -380003.621 6   -284765.71949  20531117.32849
  22878990.656 2   -347852.801 2   -254918.72747  22878989.50047
  22955511.766 6   -795238.367 6   -600177.39547  22955509.24247
  21695870.539 6     60079.902 6     45158.43047  21695866.31647
  23172410.430 6    133092.871 6     95065.58647  23172410.40647
  20254543.711 6      9378.359 6      7118.12549  20254541.92249
  23899888.148 5    305992.254 5    220064.54747  23899885.97347
 20  5 16  1 52 53.0000000  0  8G04G08G09G11G16G26G27G31             0.000078806
  21555124.461 4     -4747.012 4     -3755.47346  21555122.44146
  20530726.891 6   -382059.305 6   -286367.54349  20530726.05149
  22878633.133 2   -349730.922 2   -256382.21947  22878632.24647
  22954699.836 6   -799507.188 6   -603503.77047  22954696.79747
  21695931.344 6     60397.211 6     45405.68447  21695926.58647
  23172556.930 6    133863.988 6     95666.44947  23172556.99247
  20254561.445 6      9470.473 6      7189.91049  20254559.45749
  23900208.555 6    307675.234 6    221375.94947  23900206.75847
 20  5 16  1 52 54.0000000  0  8G04G08G09G11G16G26G27G31             0.000078199
  21555125.758 4     -4731.422 4     -3743.33246  21555125.08246
  20530335.813 6   -384114.602 6   -287969.05549  20530334.64549
  22878275.602 3   -351608.672 3   -257845.40247  22878274.42647
  22953887.148 6   -803776.008 6   -606830.12146  22953884.27746
  21695991.797 6     60714.402 6     45652.85547  21695987.00447
  23172703.367 6    134634.941 6     96267.20747  23172703.47347
  20254578.742 6      9562.926 6      7261.95749  20254577.47749
  23900528.430 5    309358.352 5    222687.46547  23900526.40647
 20  5 16  1 52 55.0000000  0  8G04G08G09G11G16G26G27G31             0.000077593
  21555128.547 4     -4715.203 4     -3730.71546  21555128.02046
  20529945.039 6   -386169.309 6   -289570.11748  20529943.82848
  22877918.844 3   -353485.805 3   -259308.08647  22877917.78947
  22953075.148 6   -808044.664 6   -610156.33246  22953072.35246
  21696052.602 6     61031.691 6     45900.09847  21696047.71147
  23172850.094 5    135405.957 5     96868.02047  23172850.52747
  20254596.547 6      9656.004 6      7334.48849  20254594.78549
  23900848.609 5    311041.777 5    223999.22347  23900847.04747
 20  5 16  1 52 56.0000000  0  8G04G08G09G11G16G26G27G31             0.000076986
  21555133.117 4     -4698.469 4     -3717.70346  21555131.39846
  20529553.914 6   -388223.465 6   -291170.76648  20529553.14848
  22877561.609 3   -355362.297 3   -260770.28147  22877560.38747
  22952263.281 6   -812313.148 6   -613482.40646  22952260.08646
  21696112.375 6     61349.008 6     46147.35947  21696108.09447
  23172996.844 5    136176.961 5     97468.81647  23172997.17647
  20254614.453 6      9749.582 6      7407.40649  20254612.79749
  23901169.164 5    312725.414 5    225311.13747  23901167.73847
 20  5 16  1 52 57.0000000  0  8G04G08G09G11G16G26G27G31             0.000076380
  21555136.234 4     -4681.078 4     -3704.17646  21555134.82846
  20529163.641 6   -390276.965 6   -292770.89548  20529162.23848
  22877204.805 3   -357238.211 3   -262232.03147  22877203.17247
  22951450.484 6   -816581.367 6   -616808.27346  22951448.06646
  21696173.367 6     61666.484 6     46394.75447  21696168.48847
  23173143.648 5    136948.105 5     98069.70346  23173143.89546
  20254632.781 6      9843.852 6      7480.85249  20254630.89149
  23901489.742 6    314409.434 6    226623.35947  23901488.41847
 20  5 16  1 52 58.0000000  0  8G04G08G09G11G16G26G27G31             0.000075773
  21555139.523 6     -4663.227 6     -3690.27347  21555138.06647
  20528772.883 7   -392329.922 7   -294370.61749  20528771.34849
  22876848.211 5   -359113.672 5   -263693.42248  22876846.68848
  22950639.016 6   -820849.379 6   -620133.98847  22950635.81347
  21696232.875 6     61983.996 6     46642.15647  21696229.05947
  23173289.836 5    137719.207 5     98670.53147  23173290.32447
  20254650.344 7      9938.633 7      7554.69549  20254648.41849
  23901810.578 5    316093.688 5    227935.75447  23901808.99647
 20  5 16  1 52 59.0000000  0  8G04G08G09G11G16G26G27G31             0.000075167
  21555143.305 6     -4644.820 6     -3675.95747  21555141.68047
  20528382.094 7   -394382.426 7   -295970.00849  20528381.41449
  22876490.711 5   -360988.531 5   -265154.34048  22876489.52348
  22949826.969 6   -825117.422 6   -623459.70747  22949823.92247
  21696293.328 6     62301.426 6     46889.49247  21696289.16847
  23173436.648 5    138490.223 5     99271.30947  23173437.02747
  20254668.602 7     10033.828 7      7628.85549  20254667.05149
  23902130.516 5    317778.039 5    229248.24247  23902129.20347
 20  5 16  1 53  0.0000000  0  8G04G08G09G11G16G26G27G31             0.000074560
  21555146.898 6     -4625.871 6     -3661.19947  21555145.27747
  20527991.625 6   -396434.355 6   -297568.91849  20527990.77049
  22876134.422 5   -362862.742 5   -266614.76248  22876133.31348
  22949015.125 5   -829385.297 5   -626785.32447  22949011.47747
  21696354.016 6     62618.902 6     47136.85947  21696349.99247
  23173583.484 5    139261.219 5     99872.09047  23173583.71147
  20254686.766 7     10129.625 7      7703.48849  20254685.22749
  23902451.117 5    319462.641 5    230560.91047  23902449.71547
 20  5 16  1 53  1.0000000  0  8G04G08G09G11G16G26G27G31             0.000073954
  21555150.406 6     -4606.348 6     -3645.98847  21555148.39147
  20527601.102 7   -398485.738 7   -299167.39549  20527600.30549
  22875777.484 5   -364736.410 5   -268074.77748  22875776.71548
  22948202.227 5   -833653.020 5   -630110.82447  22948199.33647
  21696414.070 6     62936.410 6     47384.26647  21696410.05147
  23173729.891 5    140032.211 5    100472.86347  23173731.12947
  20254705.023 7     10225.930 7      7778.53149  20254703.18049
  23902772.055 5    321147.508 5    231873.77346  23902770.04346
 20  5 16  1 53  2.0000000  0  8G04G08G09G11G16G26G27G31             0.000073347
  21555154.570 6     -4586.137 6     -3630.23447  21555152.48047
  20527211.016 6   -400536.406 6   -300765.31649  20527210.03949
  22875421.133 5   -366609.414 5   -269534.27348  22875420.18848
  22947390.109 5   -837920.457 5   -633436.09847  22947387.27747
  21696475.023 6     63254.133 6     47631.84047  21696470.68447
  23173877.078 5    140803.301 5    101073.71547  23173877.82847
  20254723.539 7     10322.914 7      7854.10949  20254721.88749
  23903092.750 5    322832.738 5    233186.94946  23903090.84046
 20  5 16  1 53  3.0000000  0  8G04G08G09G11G16G26G27G31             0.000072741
  21555158.875 6     -4565.348 6     -3614.02347  21555156.44947
  20526820.609 6   -402586.496 6   -302362.78149  20526820.14849
  22875065.320 5   -368481.727 5   -270993.22748  22875064.30948
  22946578.547 5   -842187.652 5   -636761.18847  22946575.61747
  21696535.219 6     63571.906 6     47879.46147  21696531.06347
  23174023.523 5    141574.516 5    101674.67247  23174024.33647
  20254742.148 7     10420.523 7      7930.16449  20254740.45349
  23903413.469 5    324518.305 5    234500.37146  23903411.71946
 20  5 16  1 53  4.0000000  0  8G04G08G09G11G16G26G27G31             0.000072134
  21555162.563 6     -4543.941 6     -3597.34447  21555160.21947
  20526430.898 7   -404635.980 7   -303959.77049  20526430.00849
  22874708.961 5   -370353.477 5   -272451.73048  22874708.08648
  22945766.336 6   -846454.699 6   -640086.16447  22945763.27747
  21696595.469 6     63889.770 6     48127.14547  21696591.91047
  23174170.492 5    142345.727 5    102275.60247  23174170.86347
  20254760.555 7     10518.676 7      8006.64849  20254759.07849
  23903733.688 5    326204.078 5    235813.96546  23903732.94146
 20  5 16  1 53  5.0000000  0  8G04G08G09G11G16G26G27G31             0.000071527
  21555166.383 6     -4522.051 6     -3580.28547  21555164.29747
  20526040.953 7   -406684.996 7   -305556.40249  20526040.15249
  22874352.984 5   -372224.723 5   -273909.84048  22874351.84048
  22944954.438 5   -850721.648 5   -643411.05947  22944951.02047
  21696656.266 6     64207.621 6     48374.82847  21696651.96547
  23174317.750 5    143116.871 5    102876.48847  23174317.57847
  20254779.734 7     10617.313 7      8083.51649  20254777.74249
  23904055.102 5    327890.094 5    237127.74246  23904053.18046
 20  5 16  1 53  6.0000000  0  8G04G08G09G11G16G26G27G31             0.000070919
  21555171.109 6     -4499.656 6     -3562.83247  21555168.91447
  20525651.117 6   -408733.527 6   -307152.66849  20525650.08249
  22873996.945 5   -374095.410 5   -275367.52748  22873995.72348
  22944142.164 5   -854988.512 5   -646735.88747  22944139.30147
  21696716.695 6     64525.441 6     48622.47347  21696712.85947
  23174464.227 5    143887.938 5    103477.32047  23174464.55947
  20254798.297 7     10716.426 7      8160.74649  20254796.35549
  23904376.070 5    329576.281 5    238441.65246  23904374.52746
 20  5 16  1 53  7.0000000  0  8G04G08G09G11G16G26G27G31             0.000070314
  21555175.773 6     -4476.695 6     -3544.94547  21555173.25047
  20525261.367 6   -410781.469 6   -308748.46949  20525260.22749
  22873641.336 5   -375965.523 5   -276824.74648  22873640.04348
  22943330.492 6   -859255.184 6   -650060.57047  22943327.30947
  21696777.313 6     64843.316 6     48870.16447  21696773.02747
  23174610.953 5    144659.027 5    104078.16447  23174611.21947
  20254817.508 7     10816.113 7      8238.42649  20254815.64849
  23904697.578 5    331262.723 5    239755.75846  23904694.86746
 20  5 16  1 53  8.0000000  0  8G04G08G09G11G16G26G27G31             0.000069708
  21555179.961 6     -4453.164 6     -3526.61347  21555177.77747
  20524872.258 6   -412828.793 6   -310343.79749  20524871.10949
  22873285.313 5   -377834.988 5   -278281.47348  22873284.30548
  22942518.398 6   -863521.637 6   -653385.08647  22942515.48847
  21696837.617 6     65161.285 6     49117.93047  21696833.28547
  23174757.680 5    145430.172 5    104679.04747  23174757.83247
  20254836.320 7     10916.398 7      8316.56649  20254834.25049
  23905018.852 5    332949.406 5    241070.04746  23905015.96946
 20  5 16  1 53  9.0000000  0  8G04G08G09G11G16G26G27G31             0.000069099
  21555184.391 6     -4429.094 6     -3507.86347  21555182.10947
  20524482.297 6   -414875.664 6   -311938.76649  20524481.50849
  22872929.555 5   -379704.000 5   -279737.84048  22872928.73448
  22941706.422 5   -867788.039 5   -656709.55547  22941703.32847
  21696898.297 6     65479.227 6     49365.66847  21696893.94547
  23174904.875 5    146201.250 5    105279.88347  23174904.44147
  20254855.531 7     11017.137 7      8395.06649  20254853.58649
  23905339.617 5    334636.313 5    242384.50846  23905336.77046
 20  5 16  1 53 10.0000000  0  8G04G08G09G11G16G26G27G31             0.000068493
  21555189.289 5     -4404.430 5     -3488.62947  21555187.27747
  20524092.734 6   -416921.938 6   -313533.25849  20524091.87549
  22872574.414 5   -381572.262 5   -281193.62548  22872572.85948
  22940895.305 6   -872054.277 6   -660033.90247  22940891.75047
  21696958.719 6     65797.195 6     49613.44947  21696954.78147
  23175051.406 5    146972.313 5    105880.71947  23175051.44147
  20254874.703 6     11118.473 6      8474.02749  20254872.87549
  23905659.805 5    336323.477 5    243699.16447  23905658.05147
 20  5 16  1 53 11.0000000  0  8G04G08G09G11G16G26G27G31             0.000067886
  21555193.836 6     -4379.168 6     -3468.94547  21555191.85547
  20523703.461 6   -418967.637 6   -315127.30549  20523703.00849
  22872218.938 5   -383440.012 5   -282649.01248  22872217.73848
  22940082.688 6   -876320.191 6   -663357.98847  22940079.73047
  21697019.086 6     66115.363 6     49861.38347  21697014.87547
  23175197.852 5    147743.500 5    106481.66447  23175198.04747
  20254894.109 7     11220.395 7      8553.45749  20254892.71549
  23905981.773 5    338011.031 5    245014.14147  23905979.15647
 20  5 16  1 53 12.0000000  0  8G04G08G09G11G16G26G27G31             0.000067282
  21555199.594 6     -4353.258 6     -3448.75847  21555196.76647
  20523314.672 6   -421012.652 6   -316720.82049  20523313.60549
  22871863.391 5   -385307.094 5   -284103.89548  22871862.43048
  22939270.984 6   -880585.957 6   -666681.96147  22939268.30147
  21697080.031 6     66433.625 6     50109.37547  21697075.67247
  23175345.180 5    148514.750 5    107082.63747  23175344.82047
  20254913.945 6     11322.980 6      8633.39149  20254912.23049
  23906302.906 5    339698.832 5    246329.32047  23906300.55547
 20  5 16  1 53 13.0000000  0  8G04G08G09G11G16G26G27G31             0.000066673
  21555203.805 6     -4326.910 6     -3428.21947  21555201.80547
  20522925.125 6   -423057.227 6   -318314.00449  20522924.53149
  22871508.148 5   -387173.785 5   -285558.46548  22871507.68848
  22938459.516 6   -884851.605 6   -670005.83647  22938456.44547
  21697140.188 6     66751.824 6     50357.32047  21697136.42247
  23175491.164 5    149285.902 5    107683.53547  23175491.35947
  20254933.477 7     11425.992 7      8713.65649  20254931.76249
  23906623.719 5    341386.789 5    247644.61346  23906621.74246
 20  5 16  1 53 14.0000000  0  8G04G08G09G11G16G26G27G31             0.000066067
  21555208.773 6     -4300.047 6     -3407.30147  21555207.24247
  20522536.617 6   -425101.273 6   -319906.77349  20522535.49249
  22871152.984 5   -389039.813 5   -287012.52048  22871152.49248
  22937647.867 5   -889117.164 5   -673329.64147  22937644.56347
  21697200.625 6     67070.031 6     50605.27047  21697196.72347
  23175637.805 5    150057.012 5    108284.40247  23175637.99647
  20254953.117 7     11529.508 7      8794.31649  20254951.30949
  23906944.438 5    343074.945 5    248960.06646  23906942.85246
 20  5 16  1 53 15.0000000  0  8G04G08G09G11G16G26G27G31             0.000065460
  21555214.195 6     -4272.547 6     -3385.88347  21555211.80547
  20522147.594 6   -427144.730 6   -321499.08249  20522146.95749
  22870797.602 5   -390905.250 5   -288466.10948  22870797.47748
  22936836.320 5   -893382.504 5   -676653.27747  22936832.87947
  21697261.234 6     67388.348 6     50853.29747  21697257.46547
  23175785.344 5    150828.199 5    108885.32447  23175785.34047
  20254973.047 7     11633.629 7      8875.43849  20254971.16049
  23907266.086 5    344763.445 5    250275.78546  23907264.13346
 20  5 16  1 53 16.0000000  0  8G04G08G09G11G16G26G27G31             0.000064854
  21555220.000 6     -4244.449 6     -3363.98847  21555217.38347
  20521758.805 6   -429187.531 6   -323090.87149  20521757.79749
  22870443.406 4   -392769.914 4   -289919.09448  22870442.37948
  22936024.828 6   -897647.680 6   -679976.79747  22936021.18047
  21697321.984 6     67706.730 6     51101.39147  21697318.10247
  23175932.031 5    151599.391 5    109486.25047  23175932.01247
  20254993.164 6     11738.359 6      8957.05149  20254991.22349
  23907587.063 5    346452.172 5    251591.66846  23907585.32846
 20  5 16  1 53 17.0000000  0  8G04G08G09G11G16G26G27G31             0.000064247
  21555224.852 5     -4215.770 5     -3341.60947  21555223.16047
  20521369.602 6   -431229.805 6   -324682.24249  20521369.44949
  22870089.078 5   -394634.137 5   -291371.73048  22870087.80948
  22935213.070 6   -901912.652 6   -683300.14147  22935209.65647
  21697382.703 6     68025.180 6     51349.55147  21697378.62147
  23176079.227 5    152370.656 5    110087.23447  23176078.38747
  20255013.195 6     11843.621 6      9039.07849  20255011.38349
  23907909.016 6    348141.211 6    252907.80147  23907906.91047
 20  5 16  1 53 18.0000000  0  8G04G08G09G11G16G26G27G31             0.000063641
  21555230.734 5     -4186.543 5     -3318.81647  21555228.74247
  20520981.719 6   -433271.520 6   -326273.17249  20520981.21949
  22869734.633 5   -396497.750 5   -292823.89548  22869733.05548
  22934401.453 6   -906177.438 6   -686623.34047  22934398.45347
  21697443.742 6     68343.684 6     51597.75047  21697439.35247
  23176225.820 5    153141.875 5    110688.19147  23176225.69547
  20255033.117 6     11949.441 6      9121.54349  20255031.64849
  23908230.727 6    349830.469 6    254224.09846  23908228.59046
 20  5 16  1 53 19.0000000  0  8G04G08G09G11G16G26G27G31             0.000063034
  21555236.555 5     -4156.789 5     -3295.62547  21555234.38347
  20520592.648 6   -435312.703 6   -327863.70349  20520592.57849
  22869379.195 5   -398360.840 5   -294275.65248  22869378.45348
  22933589.938 6   -910442.145 6   -689946.48447  22933586.80147
  21697503.875 6     68662.188 6     51845.93847  21697500.00847
  23176372.570 5    153913.082 5    111289.12947  23176372.21947
  20255053.438 6     12055.770 6      9204.39149  20255051.82849
  23908552.219 6    351519.957 6    255540.57846  23908549.99646
 20  5 16  1 53 20.0000000  0  8G04G08G09G11G16G26G27G31             0.000062428
  21555242.266 5     -4126.484 5     -3272.00847  21555240.57447
  20520204.711 6   -437353.352 6   -329453.81349  20520204.26249
  22869024.781 5   -400223.383 5   -295726.98048  22869024.31648
  22932778.367 6   -914706.711 6   -693269.52747  22932775.03147
  21697564.461 6     68980.727 6     52094.15246  21697560.05546
  23176518.414 5    154684.270 5    111890.05547  23176519.03547
  20255073.383 6     12162.613 6      9287.65249  20255072.00449
  23908873.391 6    353209.648 6    256857.21547  23908871.41847
 20  5 16  1 53 21.0000000  0  8G04G08G09G11G16G26G27G31             0.000061821
  21555248.313 5     -4095.586 5     -3247.95347  21555246.16847
  20519816.445 6   -439393.359 6   -331043.44149  20519816.15649
  22868670.781 5   -402085.270 5   -297177.80148  22868670.16848
  22931967.016 6   -918971.020 6   -696592.37547  22931963.86347
  21697625.266 6     69299.391 6     52342.45347  21697621.00047
  23176665.492 5    155455.516 5    112491.02747  23176665.85547
  20255094.078 6     12270.074 6      9371.38749  20255092.74249
  23909194.930 6    354899.676 6    258174.11747  23909192.99647
 20  5 16  1 53 22.0000000  0  8G04G08G09G11G16G26G27G31             0.000061214
  21555254.016 5     -4064.121 5     -3223.44547  21555251.85247
  20519428.430 6   -441432.816 6   -332632.63749  20519427.86349
  22868316.234 5   -403946.574 5   -298628.17648  22868315.40648
  22931155.266 6   -923235.199 6   -699915.11747  22931152.18847
  21697685.242 6     69618.074 6     52590.76647  21697682.00047
  23176812.633 5    156226.773 5    113091.99647  23176812.52747
  20255114.469 6     12378.082 6      9455.54749  20255112.92249
  23909516.914 6    356589.969 6    259491.22347  23909514.48047
 20  5 16  1 53 23.0000000  0  8G04G08G09G11G16G26G27G31             0.000060608
  21555259.867 5     -4031.996 5     -3198.41047  21555258.13747
  20519040.352 6   -443471.625 6   -334221.31649  20519039.71149
  22867962.203 4   -405807.234 4   -300078.03548  22867961.72348
  22930343.969 6   -927499.141 6   -703237.66447  22930340.87547
  21697746.250 6     69936.914 6     52839.19547  21697742.54347
  23176958.445 5    156998.145 5    113693.05147  23176959.49247
  20255135.227 6     12486.742 6      9540.21549  20255133.45749
  23909838.336 6    358280.547 6    260808.54747  23909836.35547
 20  5 16  1 53 24.0000000  0  8G04G08G09G11G16G26G27G31             0.000060001
  21555265.625 5     -3999.250 5     -3172.89147  21555264.11747
  20518652.961 6   -445509.785 6   -335809.50049  20518652.15249
  22867608.297 4   -407667.219 4   -301527.37148  22867607.31348
  22929532.773 6   -931762.809 6   -706560.00047  22929529.66047
  21697806.922 5     70255.863 5     53087.72347  21697803.01247
  23177105.664 5    157769.570 5    114294.15247  23177106.51247
  20255155.891 6     12595.988 6      9625.34049  20255154.23849
  23910159.813 5    359971.477 5    262126.16047  23910158.28947
 20  5 16  1 53 25.0000000  0  8G04G08G09G11G16G26G27G31             0.000059395
  21555272.617 5     -3965.961 5     -3146.95747  21555270.91047
  20518264.992 6   -447547.414 6   -337397.26649  20518264.73049
  22867254.367 4   -409526.613 4   -302976.25848  22867253.29748
  22928721.852 6   -936026.363 6   -709882.25047  22928718.45347
  21697867.602 5     70574.797 5     53336.23847  21697863.45747
  23177252.977 5    158540.961 5    114895.23447  23177253.07047
  20255177.031 6     12705.777 6      9710.89149  20255175.29349
  23910481.758 5    361662.605 5    263443.92246  23910479.96546
 20  5 16  1 53 26.0000000  0  8G04G08G09G11G16G26G27G31             0.000058788
  21555278.477 5     -3932.129 5     -3120.59847  21555277.41847
  20517877.500 6   -449584.496 6   -338984.59849  20517876.83649
  22866900.070 4   -411385.473 4   -304424.72748  22866899.77348
  22927910.297 6   -940289.805 6   -713204.41847  22927906.57047
  21697928.156 6     70893.785 6     53584.80947  21697924.73847
  23177399.531 5    159312.328 5    115496.30147  23177399.95747
  20255197.938 6     12816.086 6      9796.84849  20255196.44149
  23910803.883 5    363353.965 5    264761.86347  23910801.77747
 20  5 16  1 53 27.0000000  0  8G04G08G09G11G16G26G27G31             0.000058182
  21555285.297 5     -3897.773 5     -3093.82447  21555283.69547
  20517489.813 6   -451621.105 6   -340571.56349  20517489.22749
  22866546.539 4   -413243.805 4   -305872.77748  22866546.22348
  22927098.961 6   -944553.094 6   -716526.46147  22927095.81347
  21697989.055 6     71212.789 6     53833.39547  21697985.47747
  23177546.359 5    160083.668 5    116097.34447  23177546.59847
  20255218.766 6     12926.926 6      9883.21549  20255217.34849
  23911125.758 6    365045.551 6    266079.97347  23911123.36747
 20  5 16  1 53 28.0000000  0  8G04G08G09G11G16G26G27G31             0.000057575
  21555291.602 5     -3862.848 5     -3066.61747  21555290.31647
  20517102.383 6   -453657.113 6   -342158.06349  20517101.78149
  22866193.852 5   -415101.543 5   -307320.37148  22866192.75048
  22926287.719 6   -948816.203 6   -719848.36747  22926284.57847
  21698049.734 6     71531.824 6     54082.00447  21698045.80147
  23177693.352 5    160855.035 5    116698.41447  23177693.43047
  20255240.102 6     13038.289 6      9969.99249  20255238.74249
  23911448.023 5    366737.410 5    267398.30147  23911445.58247
 20  5 16  1 53 29.0000000  0  8G04G08G09G11G16G26G27G31             0.000056969
  21555298.922 5     -3827.483 5     -3039.04847  21555297.58647
  20516715.117 6   -455692.641 6   -343744.18849  20516714.71949
  22865840.766 4   -416958.773 4   -308767.56348  22865839.57448
  22925476.289 6   -953079.215 6   -723170.19547  22925473.24647
  21698110.461 5     71850.852 5     54330.59447  21698106.88347
  23177839.984 5    161626.332 5    117299.42647  23177840.12147
  20255261.578 6     13150.137 6     10057.14549  20255260.12949
  23911770.352 5    368429.414 5    268716.73447  23911767.56647
 20  5 16  1 53 30.0000000  0  8G04G08G09G11G16G26G27G31             0.000056362
  21555305.656 5     -3791.559 5     -3011.05547  21555304.08647
  20516327.703 6   -457727.664 6   -345329.91849  20516327.17649
  22865486.758 4   -418815.473 4   -310214.33248  22865485.93848
  22924664.992 6   -957342.121 6   -726491.94147  22924661.69547
  21698170.938 5     72169.898 5     54579.19546  21698167.54746
  23177986.617 5    162397.547 5    117900.36347  23177986.79347
  20255282.953 6     13262.496 6     10144.69149  20255280.90649
  23912091.734 6    370121.629 6    270035.34047  23912089.59447
 20  5 16  1 53 31.0000000  0  8G04G08G09G11G16G26G27G31             0.000055756
  21555312.961 5     -3755.109 5     -2982.64847  21555311.17647
  20515940.570 6   -459762.160 6   -346915.24649  20515940.29749
  22865134.117 4   -420671.590 4   -311660.65648  22865132.93448
  22923853.875 6   -961604.883 6   -729813.57447  22923850.74247
  21698231.984 5     72488.961 5     54827.81346  21698228.74646
  23178133.203 5    163168.832 5    118501.36747  23178133.61747
  20255304.469 6     13375.371 6     10232.64549  20255302.66049
  23912413.406 5    371814.078 5    271354.12147  23912411.35547
 20  5 16  1 53 32.0000000  0  8G04G08G09G11G16G26G27G31             0.000055149
  21555319.781 5     -3718.016 5     -2953.74647  21555317.82847
  20515553.586 6   -461796.043 6   -348500.09049  20515553.06649
  22864780.977 5   -422527.066 5   -313106.48048  22864780.02348
  22923042.688 6   -965867.438 6   -733135.04747  22923039.71547
  21698293.070 5     72808.109 5     55076.49646  21698289.48846
  23178279.766 5    163940.113 5    119102.36747  23178280.51647
  20255325.758 6     13488.859 6     10321.07449  20255324.35249
  23912735.930 6    373506.820 6    272673.14547  23912733.49647
 20  5 16  1 53 33.0000000  0  8G04G08G09G11G16G26G27G31             0.000054543
  21555327.078 5     -3680.332 5     -2924.39147  21555325.39847
  20515166.836 6   -463829.285 6   -350084.43849  20515166.34449
  22864428.078 4   -424381.938 4   -314551.84048  22864426.75848
  22922232.016 6   -970129.773 6   -736456.34847  22922228.74647
  21698353.391 5     73127.387 5     55325.28946  21698349.83646
  23178426.609 5    164711.438 5    119703.40647  23178427.44147
  20255347.445 6     13602.926 6     10409.95749  20255346.37949
  23913058.156 6    375199.871 6    273992.40647  23913055.55947
 20  5 16  1 53 34.0000000  0  8G04G08G09G11G16G26G27G31             0.000053936
  21555333.703 5     -3641.965 5     -2894.49647  21555332.58247
  20514779.969 6   -465861.879 6   -351668.27349  20514779.76649
  22864075.469 5   -426236.105 5   -315996.64848  22864074.54348
  22921420.859 6   -974391.840 6   -739777.43447  22921417.80147
  21698414.156 5     73446.793 5     55574.18046  21698410.43846
  23178573.602 5    165482.891 5    120304.54347  23178574.12947
  20255369.992 6     13717.648 6     10499.35549  20255367.95349
  23913380.320 6    376893.258 6    275311.92647  23913377.75447
 20  5 16  1 53 35.0000000  0  8G04G08G09G11G16G26G27G31             0.000053329
  21555341.734 5     -3603.164 5     -2864.26247  21555340.11347
  20514393.188 6   -467894.043 6   -353251.77749  20514392.88349
  22863722.188 5   -428089.828 5   -317441.10948  22863721.98448
  22920609.922 6   -978653.836 6   -743098.46547  22920606.68047
  21698475.359 6     73766.168 6     55823.04746  21698471.39546
  23178721.117 5    166254.277 5    120905.62547  23178721.26247
  20255391.281 6     13832.828 6     10589.10549  20255390.22349
  23913702.883 5    378586.816 5    276631.58647  23913700.34447
 20  5 16  1 53 36.0000000  0  8G04G08G09G11G16G26G27G31             0.000052723
  21555348.961 5     -3563.734 5     -2833.53147  21555347.39847
  20514006.461 6   -469925.586 6   -354834.80549  20514005.93049
  22863369.391 5   -429942.875 5   -318885.03948  22863368.78148
  22919798.734 6   -982915.602 6   -746419.32447  22919795.93447
  21698535.570 6     74085.609 6     56071.96146  21698532.18446
  23178867.242 5    167025.684 5    121506.71547  23178867.96947
  20255413.266 6     13948.602 6     10679.31649  20255412.21149
  23914025.211 5    380280.668 5    277951.46547  23914022.54347
 20  5 16  1 53 37.0000000  0  8G04G08G09G11G16G26G27G31             0.000052116
  21555356.164 5     -3523.883 5     -2802.48047  21555355.59847
  20513620.203 6   -471956.691 6   -356417.48449  20513619.44549
  22863017.445 5   -431795.477 5   -320328.62548  22863016.02348
  22918987.648 6   -987177.406 6   -749740.21947  22918984.56347
  21698596.805 5     74404.969 5     56320.81647  21698593.18847
  23179013.617 5    167796.992 5    122107.73447  23179014.26647
  20255435.461 6     14064.797 6     10769.85949  20255434.02049
  23914347.078 5    381974.613 5    279271.42246  23914344.97346
 20  5 16  1 53 38.0000000  0  8G04G08G09G11G16G26G27G31             0.000051510
  21555364.156 5     -3483.582 5     -2771.07447  21555362.35547
  20513233.875 6   -473987.324 6   -357999.79749  20513233.09049
  22862665.117 5   -433647.594 5   -321771.84048  22862663.71548
  22918176.563 6   -991439.043 6   -753060.97347  22918173.93847
  21698657.203 5     74724.320 5     56569.65646  21698653.55546
  23179161.141 5    168568.191 5    122708.66447  23179161.39147
  20255457.695 6     14181.449 6     10860.75849  20255456.17249
  23914669.617 5    383668.754 5    280591.52346  23914667.64146
 20  5 16  1 53 39.0000000  0  8G04G08G09G11G16G26G27G31             0.000050903
  21555371.711 5     -3442.699 5     -2739.22747  21555370.59847
  20512847.820 6   -476017.379 6   -359581.65249  20512847.09049
  22862312.617 5   -435499.137 5   -323214.59848  22862311.58248
  22917366.109 6   -995700.543 6   -756381.61747  22917363.12947
  21698717.539 5     75043.711 5     56818.53546  21698714.50846
  23179307.641 5    169339.391 5    123309.60547  23179308.09847
  20255479.703 6     14298.641 6     10952.07049  20255478.65649
  23914992.281 5    385363.117 5    281911.81646  23914989.85946
 20  5 16  1 53 40.0000000  0  8G04G08G09G11G16G26G27G31             0.000050297
  21555379.984 5     -3401.164 5     -2706.86347  21555378.44947
  20512461.172 6   -478046.793 6   -361163.01249  20512460.99249
  22861960.031 5   -437349.961 5   -324656.79748  22861959.28548
  22916555.227 6   -999961.789 6   -759702.06647  22916552.06647
  21698779.164 5     75363.234 5     57067.50046  21698775.23846
  23179454.711 5    170110.750 5    123910.66047  23179455.32847
  20255502.281 6     14416.492 6     11043.90649  20255500.84049
  23915314.461 5    387057.836 5    283232.36746  23915312.10946
 20  5 16  1 53 41.0000000  0  8G04G08G09G11G16G26G27G31             0.000049690
  21555387.719 5     -3358.930 5     -2673.94947  21555386.28147
  20512075.281 6   -480075.512 6   -362743.83249  20512074.88749
  22861608.398 5   -439200.109 5   -326098.47748  22861607.23048
  22915743.633 6  -1004222.742 6   -763022.28547  22915741.37147
  21698839.922 6     75682.914 6     57316.60246  21698835.90646
  23179601.055 5    170882.188 5    124511.78147  23179601.77347
  20255525.102 6     14535.016 6     11136.25449  20255523.46949
  23915636.969 5    388752.934 5    284553.22346  23915634.48846
 20  5 16  1 53 42.0000000  0  8G04G08G09G11G16G26G27G31             0.000049084
  21555395.609 5     -3316.098 5     -2640.58647  21555394.86347
  20511689.594 6   -482103.656 6   -364324.20349  20511689.18849
  22861256.086 5   -441049.660 5   -327539.68048  22861255.34448
  22914933.133 6  -1008483.492 6   -766342.34847  22914930.58247
  21698900.805 6     76002.699 6     57565.78546  21698896.82046
  23179748.125 5    171653.676 5    125112.94547  23179748.60247
  20255548.063 6     14654.121 6     11229.06649  20255545.97349
  23915960.258 5    390448.281 5    285874.28146  23915957.31646
 20  5 16  1 53 43.0000000  0  8G04G08G09G11G16G26G27G31             0.000048477
  21555404.117 5     -3272.637 5     -2606.73047  21555402.82447
  20511303.359 6   -484131.191 6   -365904.10249  20511302.49649
  22860904.703 5   -442898.547 5   -328980.37148  22860903.19948
  22914122.711 6  -1012744.035 6   -769662.25447  22914119.62147
  21698961.883 6     76322.574 6     57815.04346  21698957.61746
  23179895.141 5    172425.199 5    125714.13347  23179895.37147
  20255570.563 6     14773.813 6     11322.34049  20255569.43449
  23916283.203 5    392143.980 5    287195.59446  23916280.10246
 20  5 16  1 53 44.0000000  0  8G04G08G09G11G16G26G27G31             0.000047871
  21555413.016 6     -3228.555 6     -2572.39847  21555411.05947
  20510917.633 7   -486158.020 7   -367483.45349  20510916.53549
  22860552.469 5   -444746.879 5   -330420.63348  22860551.28948
  22913311.688 6  -1017004.230 6   -772981.89147  22913308.85947
  21699022.508 6     76642.707 6     58064.48447  21699018.69147
  23180041.891 5    173196.953 5    126315.48847  23180042.52747
  20255593.602 7     14894.191 7     11416.13349  20255591.50849
  23916605.344 5    393840.070 5    288517.21547  23916602.54747
 20  5 16  1 53 45.0000000  0  8G04G08G09G11G16G26G27G31             0.000047264
  21555422.008 6     -3183.789 6     -2537.53147  21555419.74647
  20510531.875 7   -488184.223 7   -369062.32449  20510531.08649
  22860201.031 5   -446594.406 5   -331860.27748  22860200.09848
  22912501.344 6  -1021264.203 6   -776301.34847  22912497.97747
  21699083.695 6     76962.875 6     58313.94947  21699079.43847
  23180188.055 5    173968.684 5    126916.80947  23180188.98847
  20255616.563 7     15015.172 7     11510.40649  20255614.62149
  23916927.664 5    395536.441 5    289839.05146  23916925.57046
 20  5 16  1 53 46.0000000  0  8G04G08G09G11G16G26G27G31             0.000046658
  21555430.070 6     -3138.461 6     -2502.21947  21555428.16447
  20510146.586 6   -490209.863 6   -370640.74649  20510145.65649
  22859849.367 5   -448441.363 5   -333299.47748  22859848.46148
  22911690.570 6  -1025524.023 6   -779620.69147  22911687.34447
  21699144.656 6     77283.137 6     58563.49247  21699140.32447
  23180334.711 5    174740.449 5    127518.17647  23180336.19547
  20255639.727 7     15136.734 7     11605.12549  20255637.57049
  23917250.414 5    397233.066 5    291161.09046  23917248.67646
 20  5 16  1 53 47.0000000  0  8G04G08G09G11G16G26G27G31             0.000046051
  21555439.023 6     -3092.660 6     -2466.52747  21555436.70347
  20509761.500 7   -492234.992 7   -372218.76649  20509760.27049
  22859497.875 5   -450287.781 5   -334738.24248  22859497.10248
  22910880.109 6  -1029783.746 6   -782939.95347  22910876.72347
  21699205.328 6     77603.340 6     58813.00447  21699200.83647
  23180482.172 5    175512.191 5    128119.53947  23180482.95747
  20255662.578 7     15258.766 7     11700.20749  20255661.14549
  23917573.445 5    398929.922 5    292483.32846  23917571.48046
 20  5 16  1 53 48.0000000  0  8G04G08G09G11G16G26G27G31             0.000045444
  21555447.523 6     -3046.238 6     -2430.35247  21555445.59847
  20509376.188 7   -494259.551 7   -373796.33649  20509375.14849
  22859146.703 5   -452133.594 5   -336176.53948  22859146.02048
  22910069.383 6  -1034043.293 6   -786259.07847  22910066.21947
  21699266.578 6     77923.652 6     59062.59847  21699262.05947
  23180629.398 4    176283.945 4    128720.91047  23180629.64847
  20255686.305 7     15381.367 7     11795.74649  20255684.55549
  23917896.094 5    400627.012 5    293805.73447  23917894.25847
 20  5 16  1 53 49.0000000  0  8G04G08G09G11G16G26G27G31             0.000044838
  21555456.602 6     -2999.219 6     -2393.70347  21555454.91447
  20508991.016 6   -496283.426 6   -375373.38749  20508989.73449
  22858795.344 5   -453978.758 5   -337614.33248  22858795.09848
  22909258.703 6  -1038302.605 6   -789578.02047  22909255.66847
  21699327.477 6     78244.066 6     59312.27047  21699323.05547
  23180776.211 5    177055.789 5    129322.34846  23180776.57846
  20255709.344 7     15504.582 7     11891.76649  20255707.77349
  23918220.086 5    402324.402 5    295128.37147  23918217.14547
 20  5 16  1 53 50.0000000  0  8G04G08G09G11G16G26G27G31             0.000044231
  21555465.742 6     -2951.742 6     -2356.70747  21555463.44147
  20508605.789 7   -498306.863 7   -376950.08649  20508604.84449
  22858444.336 5   -455823.441 5   -339051.75048  22858443.80948
  22908448.219 6  -1042561.848 6   -792896.91047  22908445.05147
  21699387.891 6     78564.387 6     59561.87147  21699383.91047
  23180922.750 5    177827.469 5    129923.65247  23180923.65647
  20255732.758 7     15628.238 7     11988.12549  20255731.18049
  23918543.227 5    404021.941 5    296451.12947  23918540.43847
 20  5 16  1 53 51.0000000  0  8G04G08G09G11G16G26G27G31             0.000043627
  21555474.914 6     -2903.695 6     -2319.27047  21555472.54347
  20508220.789 7   -500329.758 7   -378526.37149  20508220.23049
  22858093.695 5   -457667.547 5   -340488.71548  22858093.05148
  22907638.047 6  -1046820.930 6   -796215.66447  22907634.56647
  21699449.414 6     78884.789 6     59811.53947  21699444.71547
  23181069.516 5    178599.227 5    130525.00847  23181070.26647
  20255756.773 7     15752.430 7     12084.89849  20255754.86749
  23918865.695 5    405719.762 5    297774.10247  23918863.62547
 20  5 16  1 53 52.0000000  0  8G04G08G09G11G16G26G27G31             0.000043020
  21555483.977 6     -2855.090 6     -2281.39847  21555481.81647
  20507835.875 6   -502352.094 6   -380102.21549  20507834.98049
  22857742.625 5   -459511.063 5   -341925.22348  22857742.00448
  22906827.719 6  -1051079.805 6   -799534.27347  22906823.90647
  21699510.375 6     79205.250 6     60061.25047  21699506.20347
  23181216.766 5    179370.957 5    131126.35246  23181216.64146
  20255780.344 7     15877.195 7     12182.12149  20255778.56649
  23919188.516 5    407417.801 5    299097.25446  23919186.30546
 20  5 16  1 53 53.0000000  0  8G04G08G09G11G16G26G27G31             0.000042414
  21555493.805 6     -2805.855 6     -2243.03547  21555491.48847
  20507451.227 7   -504373.832 7   -381677.59849  20507450.21949
  22857392.211 5   -461353.961 5   -343361.24248  22857391.60548
  22906017.164 6  -1055338.496 6   -802852.73447  22906013.75447
  21699571.273 6     79525.797 6     60311.02347  21699566.91047
  23181363.594 5    180142.746 5    131727.75847  23181363.66047
  20255804.492 7     16002.543 7     12279.78949  20255802.60949
  23919511.656 5    409116.180 5    300420.64546  23919509.21946
 20  5 16  1 53 54.0000000  0  8G04G08G09G11G16G26G27G31             0.000041807
  21555502.773 6     -2756.109 6     -2204.27747  21555500.66847
  20507066.844 6   -506395.012 6   -383252.54749  20507065.93849
  22857041.695 5   -463196.289 5   -344796.82448  22857040.68448
  22905206.531 6  -1059597.031 6   -806171.08247  22905202.93447
  21699632.484 6     79846.383 6     60560.83247  21699627.84847
  23181509.906 5    180914.516 5    132329.13746  23181510.81346
  20255827.906 7     16128.438 7     12377.89149  20255826.27049
  23919835.008 5    410814.766 5    301744.21946  23919832.31646
 20  5 16  1 53 55.0000000  0  8G04G08G09G11G16G26G27G31             0.000041201
  21555512.719 6     -2705.777 6     -2165.06347  21555510.07847
  20506682.164 6   -508415.633 6   -384827.05549  20506681.24249
  22856691.195 5   -465037.992 5   -346231.91848  22856690.29348
  22904396.141 6  -1063855.414 6   -809489.30147  22904392.51247
  21699693.250 6     80167.020 6     60810.67647  21699688.94547
  23181656.867 5    181686.289 5    132930.52047  23181657.28947
  20255852.313 7     16254.871 7     12476.41049  20255850.76649
  23920158.477 5    412513.621 5    303067.98847  23920155.71147
 20  5 16  1 53 56.0000000  0  8G04G08G09G11G16G26G27G31             0.000040594
  21555522.266 6     -2654.836 6     -2125.35947  21555520.02347
  20506297.953 7   -510435.656 7   -386401.09849  20506296.99249
  22856340.766 5   -466879.090 5   -347666.53948  22856339.89548
  22903585.883 6  -1068113.539 6   -812807.32047  22903582.51247
  21699754.109 6     80487.754 6     61060.59847  21699750.08647
  23181804.078 5    182458.164 5    133531.98847  23181804.48047
  20255876.617 7     16381.910 7     12575.39849  20255874.71549
  23920482.266 5    414212.805 5    304392.03546  23920479.15246
 20  5 16  1 53 57.0000000  0  8G04G08G09G11G16G26G27G31             0.000039988
  21555531.852 6     -2603.227 6     -2085.14547  21555529.60947
  20505913.633 6   -512455.020 6   -387974.63349  20505912.70749
  22855990.609 5   -468719.512 5   -349100.63748  22855989.53148
  22902775.633 6  -1072371.430 6   -816125.15247  22902772.52047
  21699815.422 6     80808.613 6     61310.61347  21699811.21147
  23181950.875 5    183230.113 5    134133.50447  23181951.09047
  20255900.797 7     16509.582 7     12674.87549  20255898.70349
  23920805.359 5    415912.242 5    305716.27046  23920802.91446
 20  5 16  1 53 58.0000000  0  8G04G08G09G11G16G26G27G31             0.000039381
  21555541.883 6     -2551.168 6     -2044.57847  21555539.49647
  20505529.336 6   -514473.852 6   -389547.74649  20505528.28949
  22855639.984 5   -470559.402 5   -350534.31648  22855639.63748
  22901965.242 6  -1076629.184 6   -819442.88747  22901961.95747
  21699876.344 6     81129.492 6     61560.65647  21699872.01647
  23182097.969 5    184002.012 5    134734.97746  23182098.19546
  20255925.289 7     16637.754 7     12774.75049  20255923.33249
  23921129.117 5    417611.926 5    307040.69146  23921126.20346
 20  5 16  1 53 59.0000000  0  8G04G08G09G11G16G26G27G31             0.000038774
  21555551.961 6     -2498.367 6     -2003.43847  21555549.68047
  20505145.344 6   -516491.992 6   -391120.32049  20505144.06349
  22855290.477 5   -472398.590 5   -351967.44548  22855289.60948
  22901155.516 6  -1080886.660 6   -822760.39847  22901152.02047
  21699937.203 6     81450.535 6     61810.82047  21699933.02347
  23182244.672 5    184774.066 5    135336.57846  23182245.21546
  20255949.531 7     16766.602 7     12875.15249  20255947.78549
  23921452.789 5    419311.980 5    308365.41047  23921449.55947
 20  5 16  1 54  0.0000000  0  8G04G08G09G11G16G26G27G31             0.000038168
  21555561.977 6     -2445.047 6     -1961.89147  21555559.99647
  20504761.555 6   -518509.605 6   -392692.48449  20504760.81349
  22854940.227 5   -474237.223 5   -353400.14548  22854939.81348
  22900344.898 6  -1085144.000 6   -826077.80147  22900342.28947
  21699998.453 6     81771.582 6     62060.98047  21699994.30547
  23182391.930 5    185546.070 5    135938.14146  23182392.14146
  20255974.305 7     16895.945 7     12975.94149  20255972.42649
  23921776.109 5    421012.266 5    309690.31346  23921773.34846
 20  5 16  1 54  1.0000000  0  8G04G08G09G11G16G26G27G31             0.000037561
  21555572.297 6     -2391.234 6     -1919.96147  21555570.12147
  20504377.586 6   -520526.711 6   -394264.25849  20504376.83649
  22854590.625 5   -476075.316 5   -354832.43048  22854589.87148
  22899534.828 6  -1089401.215 6   -829395.11747  22899531.53147
  21700059.602 6     82092.629 6     62311.15247  21700055.13347
  23182538.602 5    186318.016 5    136539.65247  23182538.92647
  20255999.047 7     17025.793 7     13077.12149  20255997.26249
  23922099.500 5    422712.750 5    311015.36347  23922096.87147
 20  5 16  1 54  2.0000000  0  8G04G08G09G11G16G26G27G31             0.000036957
  21555582.781 6     -2336.816 6     -1877.56347  21555580.23047
  20503993.867 6   -522543.227 6   -395835.56649  20503992.89549
  22854241.016 5   -477912.809 5   -356264.24248  22854240.15648
  22898725.102 6  -1093658.258 6   -832712.28947  22898721.59447
  21700120.773 6     82413.750 6     62561.37547  21700116.51247
  23182685.320 5    187090.020 5    137141.21546  23182685.50446
  20256024.078 7     17156.199 7     13178.73049  20256021.44949
  23922423.297 5    424413.480 5    312340.60547  23922420.61347
 20  5 16  1 54  3.0000000  0  8G04G08G09G11G16G26G27G31             0.000036350
  21555593.008 6     -2281.977 6     -1834.82847  21555590.81647
  20503609.961 6   -524559.277 6   -397406.52349  20503608.95349
  22853891.758 5   -479749.832 5   -357695.69548  22853890.75448
  22897914.422 6  -1097915.230 6   -836029.41047  22897911.42247
  21700182.117 6     82734.813 6     62811.55547  21700177.48847
  23182832.813 5    187861.898 5    137742.68046  23182832.50046
  20256048.719 7     17287.059 7     13280.70749  20256046.89849
  23922745.969 5    426114.379 5    313665.98847  23922744.12147
 20  5 16  1 54  4.0000000  0  8G04G08G09G11G16G26G27G31             0.000035744
  21555603.844 6     -2226.469 6     -1791.57447  21555601.40647
  20503226.438 6   -526574.707 6   -398976.98849  20503225.72349
  22853542.117 5   -481586.152 5   -359126.59048  22853541.33648
  22897104.641 6  -1102171.934 6   -839346.32847  22897101.42647
  21700243.164 6     83056.016 6     63061.84047  21700238.40647
  23182978.852 5    188633.895 5    138344.23446  23182979.88346
  20256074.000 7     17418.563 7     13383.17649  20256071.84449
  23923070.016 5    427815.594 5    314991.60547  23923067.52347
 20  5 16  1 54  5.0000000  0  8G04G08G09G11G16G26G27G31             0.000035137
  21555614.422 6     -2170.430 6     -1747.90647  21555612.31647
  20502842.883 6   -528589.578 6   -400547.01249  20502842.20349
  22853192.867 5   -483421.926 5   -360557.06648  22853191.94548
  22896294.859 6  -1106428.492 6   -842663.11747  22896291.35947
  21700303.781 6     83377.230 6     63312.13347  21700299.84047
  23183125.664 5    189405.875 5    138945.77746  23183126.42646
  20256099.211 7     17550.590 7     13486.05149  20256096.88749
  23923394.211 5    429517.043 5    316317.40247  23923391.79747
 20  5 16  1 54  6.0000000  0  8G04G08G09G11G16G26G27G31             0.000034531
  21555625.016 6     -2113.801 6     -1703.78947  21555623.20747
  20502459.883 6   -530603.910 6   -402116.62549  20502459.21949
  22852843.758 5   -485257.125 5   -361987.09448  22852842.81348
  22895484.961 6  -1110684.867 6   -845979.77347  22895481.46947
  21700365.305 6     83698.547 6     63562.50847  21700361.00047
  23183273.063 5    190177.895 5    139547.35246  23183273.37146
  20256124.102 7     17683.176 7     13589.36749  20256122.48449
  23923717.641 5    431218.766 5    317643.41846  23923715.60946
 20  5 16  1 54  7.0000000  0  8G04G08G09G11G16G26G27G31             0.000033924
  21555635.961 6     -2056.625 6     -1659.23047  21555633.77347
  20502076.570 6   -532617.652 6   -403685.77349  20502075.92249
  22852494.242 5   -487091.688 5   -363416.62548  22852493.50448
  22894675.031 6  -1114941.047 6   -849296.27347  22894671.13347
  21700426.211 6     84019.906 6     63812.91447  21700422.13747
  23183420.156 5    190949.902 5    140148.89847  23183420.43047
  20256149.563 7     17816.309 7     13693.10949  20256147.75849
  23924042.211 5    432920.770 5    318969.65246  23924039.23046
 20  5 16  1 54  8.0000000  0  8G04G08G09G11G16G26G27G31             0.000033318
  21555646.820 6     -1998.770 6     -1614.14847  21555645.01247
  20501693.555 6   -534630.734 6   -405254.41049  20501692.75849
  22852145.047 5   -488925.594 5   -364845.64848  22852144.77348
  22893864.953 6  -1119196.941 6   -852612.55147  22893861.53947
  21700487.773 6     84341.402 6     64063.43047  21700483.40247
  23183566.695 5    191722.055 5    140750.57046  23183567.38346
  20256174.836 7     17950.082 7     13797.34449  20256173.30149
  23924366.352 5    434623.070 5    320296.10946  23924363.64846
 20  5 16  1 54  9.0000000  0  8G04G08G09G11G16G26G27G31             0.000032711
  21555658.742 6     -1940.414 6     -1568.67247  21555656.24247
  20501310.516 6   -536643.355 6   -406822.69149  20501309.56649
  22851796.602 5   -490758.977 5   -366274.25848  22851795.64548
  22893054.906 6  -1123452.750 6   -855928.77347  22893051.52347
  21700548.547 6     84662.879 6     64313.93447  21700544.47347
  23183714.273 5    192494.102 5    141352.16047  23183714.30947
  20256200.430 7     18084.371 7     13901.98449  20256198.67249
  23924690.367 5    436325.598 5    321622.75046  23924687.25046
 20  5 16  1 54 10.0000000  0  8G04G08G09G11G16G26G27G31             0.000032104
  21555669.492 6     -1881.461 6     -1522.74247  21555667.44147
  20500927.602 6   -538655.332 6   -408390.46949  20500927.31649
  22851447.680 5   -492591.734 5   -367702.37948  22851446.69148
  22892245.586 6  -1127708.336 6   -859244.81647  22892241.94947
  21700609.836 6     84984.445 6     64564.50047  21700605.52047
  23183860.602 5    193266.223 5    141953.82447  23183861.15247
  20256226.055 7     18219.219 7     14007.05949  20256224.27349
  23925013.367 5    438028.391 5    322949.58646  23925010.84846
 20  5 16  1 54 11.0000000  0  8G04G08G09G11G16G26G27G31             0.000031498
  21555680.938 6     -1821.902 6     -1476.33647  21555678.84847
  20500545.320 6   -540666.715 6   -409957.77349  20500544.05149
  22851099.000 5   -494423.820 5   -369129.97748  22851098.59048
  22891435.688 6  -1131963.711 6   -862560.69547  22891432.37947
  21700670.781 6     85306.137 6     64815.17247  21700666.70347
  23184007.758 5    194038.397 5    142555.51246  23184008.18846
  20256252.039 7     18354.676 7     14112.60949  20256250.35949
  23925338.109 5    439731.500 5    324276.68846  23925335.46946
 20  5 16  1 54 12.0000000  0  8G04G08G09G11G16G26G27G31             0.000030893
  21555692.047 6     -1761.773 6     -1429.48047  21555690.27347
  20500162.617 6   -542677.523 6   -411524.63749  20500161.49249
  22850750.984 5   -496255.348 5   -370557.14148  22850749.88748
  22890626.094 6  -1136218.906 6   -865876.42647  22890622.54347
  21700732.359 6     85627.852 6     65065.86347  21700728.33247
  23184154.219 5    194810.613 5    143157.23847  23184155.07047
  20256277.930 7     18490.707 7     14218.60949  20256276.03949
  23925661.984 5    441434.887 5    325604.01246  23925659.72746
 20  5 16  1 54 13.0000000  0  8G04G08G09G11G16G26G27G31             0.000030287
  21555703.797 6     -1701.176 6     -1382.26247  21555701.74247
  20499779.844 6   -544687.855 6   -413091.13349  20499778.87149
  22850402.359 5   -498086.395 5   -371983.93449  22850401.24249
  22889816.352 6  -1140474.023 6   -869192.09447  22889812.49247
  21700793.484 6     85949.535 6     65316.52747  21700789.03547
  23184301.313 5    195582.734 5    143758.89146  23184302.15646
  20256303.836 7     18627.148 7     14324.92649  20256301.59849
  23925985.984 5    443138.422 5    326931.44147  23925983.57847
 20  5 16  1 54 14.0000000  0  8G04G08G09G11G16G26G27G31             0.000029680
  21555715.078 6     -1639.918 6     -1334.53147  21555713.50047
  20499397.508 6   -546697.531 6   -414657.10949  20499396.31349
  22850053.961 5   -499916.750 5   -373410.18449  22850053.15649
  22889006.328 6  -1144728.887 6   -872507.57447  22889002.44947
  21700854.547 6     86271.375 6     65567.30547  21700850.38747
  23184448.422 5    196354.926 5    144360.59447  23184449.09447
  20256330.086 7     18764.281 7     14431.78149  20256328.27749
  23926310.156 5    444842.281 5    328259.10946  23926307.73046
 20  5 16  1 54 15.0000000  0  8G04G08G09G11G16G26G27G31             0.000029074
  21555727.320 6     -1578.039 6     -1286.31347  21555725.54347
  20499014.969 6   -548706.590 6   -416222.61349  20499013.94549
  22849705.664 5   -501746.426 5   -374835.90248  22849705.10248
  22888197.141 6  -1148983.516 6   -875822.86747  22888193.23847
  21700916.242 6     86593.320 6     65818.17247  21700912.03147
  23184595.148 5    197127.203 5    144962.36347  23184596.03947
  20256356.070 7     18901.992 7     14539.08649  20256354.21949
  23926634.648 5    446546.449 5    329587.02346  23926632.35546
 20  5 16  1 54 16.0000000  0  8G04G08G09G11G16G26G27G31             0.000028467
  21555738.898 6     -1515.590 6     -1237.65647  21555737.16447
  20498632.836 6   -550715.039 6   -417787.63749  20498631.73849
  22849357.625 5   -503575.539 5   -376261.19148  22849357.03948
  22887387.031 6  -1153237.922 6   -879137.99247  22887383.69947
  21700977.734 6     86915.348 6     66069.10547  21700973.28547
  23184742.453 5    197899.520 5    145564.17247  23184742.71547
  20256382.461 7     19040.289 7     14646.84849  20256380.65649
  23926959.352 5    448250.914 5    330915.17247  23926956.91447
 20  5 16  1 54 17.0000000  0  8G04G08G09G11G16G26G27G31             0.000027861
  21555750.695 6     -1452.496 6     -1188.49647  21555748.88747
  20498250.820 6   -552722.852 6   -419352.16449  20498249.91049
  22849009.672 5   -505403.980 5   -377685.94948  22849008.92648
  22886577.500 6  -1157492.117 6   -882452.94947  22886574.22347
  21701038.852 6     87237.500 6     66320.12947  21701034.41847
  23184889.430 5    198671.922 5    146166.03546  23184889.83246
  20256409.031 7     19179.195 7     14755.09049  20256407.09849
  23927283.656 5    449955.688 5    332243.55147  23927281.47747
 20  5 16  1 54 18.0000000  0  8G04G08G09G11G16G26G27G31             0.000027254
  21555763.164 6     -1388.797 6     -1138.85947  21555761.10547
  20497869.047 6   -554730.055 6   -420916.22349  20497867.89849
  22848661.891 5   -507231.801 5   -379110.22748  22848661.26648
  22885767.563 6  -1161746.066 6   -885767.71547  22885764.92647
  21701100.375 6     87559.746 6     66571.22747  21701095.89847
  23185036.141 5    199444.387 5    146767.96546  23185036.99646
  20256435.508 7     19318.676 7     14863.77749  20256433.57049
  23927607.867 5    451660.766 5    333572.18046  23927605.51646
 20  5 16  1 54 19.0000000  0  8G04G08G09G11G16G26G27G31             0.000026649
  21555775.555 6     -1324.629 6     -1088.86347  21555773.11747
  20497487.070 6   -556736.773 6   -422479.89849  20497485.98449
  22848313.891 5   -509059.066 5   -380534.06348  22848313.69148
  22884958.531 6  -1165999.973 6   -889082.44547  22884955.15647
  21701160.836 6     87881.949 6     66822.29747  21701157.07047
  23185183.273 5    200216.742 5    147369.79347  23185183.83247
  20256462.219 7     19458.648 7     14972.84849  20256460.34449
  23927932.031 5    453366.008 5    334900.94546  23927930.22746
 20  5 16  1 54 20.0000000  0  8G04G08G09G11G16G26G27G31             0.000026043
  21555787.758 6     -1259.738 6     -1038.29347  21555785.48447
  20497105.383 6   -558742.781 6   -424043.02349  20497104.24649
  22847966.523 5   -510885.672 5   -381957.39148  22847966.12548
  22884149.336 6  -1170253.512 6   -892396.89547  22884145.91047
  21701222.688 6     88204.391 6     67073.54747  21701218.08647
  23185330.234 5    200989.266 5    147971.75847  23185330.58647
  20256488.906 7     19599.340 7     15082.47349  20256487.01649
  23928257.266 5    455071.668 5    336230.02747  23928254.48847
 20  5 16  1 54 21.0000000  0  8G04G08G09G11G16G26G27G31             0.000025436
  21555800.086 6     -1194.309 6      -987.30947  21555797.76647
  20496723.617 7   -560748.281 7   -425605.74649  20496722.54349
  22847619.313 5   -512711.652 5   -383380.23448  22847618.55148
  22883339.805 6  -1174506.930 6   -895711.24647  22883336.84847
  21701283.836 6     88526.828 6     67324.80147  21701279.98047
  23185477.180 5    201761.809 5    148573.74647  23185477.91447
  20256515.867 7     19740.531 7     15192.49649  20256513.77349
  23928582.492 5    456777.527 5    337559.26647  23928579.41447
 20  5 16  1 54 22.0000000  0  8G04G08G09G11G16G26G27G31             0.000024830
  21555812.266 6     -1128.316 6      -935.88747  21555810.38747
  20496342.391 6   -562753.195 6   -427168.02349  20496341.36349
  22847271.766 5   -514537.083 5   -384802.64948  22847271.09848
  22882530.750 6  -1178760.164 6   -899025.45347  22882527.32847
  21701344.922 6     88849.340 6     67576.10547  21701340.84847
  23185624.430 5    202534.355 5    149175.72347  23185624.56347
  20256542.625 7     19882.266 7     15302.93449  20256540.50049
  23928906.555 5    458483.641 5    338888.70346  23928903.90646
 20  5 16  1 54 23.0000000  0  8G04G08G09G11G16G26G27G31             0.000024225
  21555825.469 6     -1061.406 6      -883.74647  21555823.42647
  20495961.164 7   -564757.207 7   -428729.59049  20495960.00049
  22846924.703 5   -516361.527 5   -386224.29748  22846924.18048
  22881720.922 6  -1183012.867 6   -902339.24247  22881718.17247
  21701406.578 6     89172.207 6     67827.69147  21701402.87947
  23185771.789 5    203307.254 5    149777.98446  23185771.64146
  20256569.641 7     20024.922 7     15414.09849  20256568.11749
  23929231.539 5    460190.387 5    340218.64147  23929228.74247
 20  5 16  1 54 24.0000000  0  8G04G08G09G11G16G26G27G31             0.000023619
  21555838.500 6      -993.906 6      -831.15247  21555836.50047
  20495579.602 7   -566760.613 7   -430290.68449  20495578.77349
  22846577.359 5   -518185.391 5   -387645.49648  22846577.19948
  22880911.852 6  -1187265.387 6   -905652.88747  22880909.12547
  21701468.313 6     89495.184 6     68079.36347  21701464.21147
  23185918.773 5    204080.172 5    150380.25447  23185918.66847
  20256596.953 7     20168.129 7     15525.68449  20256595.25049
  23929555.648 5    461897.395 5    341548.77047  23929553.44547
 20  5 16  1 54 25.0000000  0  8G04G08G09G11G16G26G27G31             0.000023012
  21555851.195 6      -925.805 6      -778.09047  21555849.25847
  20495198.500 7   -568763.402 7   -431851.29749  20495197.46549
  22846230.773 5   -520008.613 5   -389066.19149  22846229.94149
  22880102.727 6  -1191517.656 6   -908966.34847  22880099.82847
  21701529.570 6     89818.281 6     68331.12147  21701525.18447
  23186065.617 5    204853.203 5    150982.60546  23186065.91446
  20256624.156 7     20311.965 7     15637.77049  20256622.20349
  23929881.336 5    463604.742 5    342879.17647  23929878.31347
 20  5 16  1 54 26.0000000  0  8G04G08G09G11G16G26G27G31             0.000022408
  21555864.141 6      -857.129 6      -724.57847  21555862.32047
  20494817.633 7   -570765.645 7   -433411.48849  20494816.94549
  22845883.820 5   -521831.219 5   -390486.39848  22845883.07848
  22879293.430 6  -1195769.766 6   -912279.68047  22879290.51647
  21701590.719 6     90141.402 6     68582.90647  21701587.02047
  23186212.617 5    205626.180 5    151584.92246  23186212.98446
  20256651.813 7     20456.293 7     15750.22749  20256649.94949
  23930205.914 5    465312.289 5    344209.73447  23930203.27347
 20  5 16  1 54 27.0000000  0  8G04G08G09G11G16G26G27G31             0.000021801
  21555877.250 6      -787.852 6      -670.59447  21555875.73847
  20494436.797 7   -572767.242 7   -434971.18049  20494435.64849
  22845537.031 5   -523653.219 5   -391906.14148  22845536.60548
  22878484.727 6  -1200021.688 6   -915592.86747  22878481.51647
  21701652.883 6     90464.633 6     68834.77347  21701648.58247
  23186360.070 5    206399.305 5    152187.35547  23186360.17647
  20256679.234 7     20601.266 7     15863.19149  20256677.34849
  23930531.047 5    467020.156 5    345540.54347  23930528.39147
 20  5 16  1 54 28.0000000  0  8G04G08G09G11G16G26G27G31             0.000021196
  21555891.031 6      -717.938 6      -616.11747  21555888.41847
  20494055.719 7   -574768.242 7   -436530.39849  20494055.04749
  22845190.125 5   -525474.566 5   -393325.37549  22845189.58249
  22877675.914 6  -1204273.340 6   -918905.84047  22877672.59847
  21701714.156 6     90787.977 6     69086.73047  21701710.05547
  23186507.227 5    207172.430 5    152789.78547  23186506.97347
  20256707.109 7     20746.848 7     15976.63349  20256705.08249
  23930856.289 5    468728.348 5    346871.58647  23930853.12147
 20  5 16  1 54 29.0000000  0  8G04G08G09G11G16G26G27G31             0.000020590
  21555904.047 6      -647.406 6      -561.16448  21555902.14548
  20493675.117 7   -576768.605 7   -438089.12149  20493674.00049
  22844843.531 5   -527295.254 5   -394744.09448  22844843.03548
  22876866.586 6  -1208524.762 6   -922218.63347  22876863.69947
  21701776.195 6     91111.438 6     69338.77347  21701771.53547
  23186654.617 5    207945.656 5    153392.29747  23186654.64147
  20256734.742 7     20893.035 7     16090.54749  20256732.99249
  23931181.305 5    470436.820 5    348202.85547  23931178.17647
 20  5 16  1 54 30.0000000  0  8G04G08G09G11G16G26G27G31             0.000019983
  21555917.539 6      -576.340 6      -505.78147  21555915.92647
  20493294.617 7   -578768.422 7   -439647.42249  20493293.35249
  22844497.391 5   -529115.395 5   -396162.38348  22844497.08248
  22876057.047 6  -1212776.039 6   -925531.31347  22876054.24247
  21701837.586 6     91434.957 6     69590.86747  21701833.30147
  23186801.570 5    208718.828 5    153994.77747  23186801.60547
  20256762.664 7     21039.758 7     16204.88349  20256761.27349
  23931506.914 5    472145.547 5    349534.32846  23931503.76246
 20  5 16  1 54 31.0000000  0  8G04G08G09G11G16G26G27G31             0.000019379
  21555931.805 6      -504.570 6      -449.85947  21555929.05547
  20492914.250 7   -580767.563 7   -441205.19549  20492913.13749
  22844151.727 5   -530934.809 5   -397580.10548  22844150.96148
  22875248.398 6  -1217027.020 6   -928843.76647  22875245.67247
  21701898.578 6     91758.605 6     69843.05947  21701894.60247
  23186948.297 5    209492.172 5    154597.39147  23186948.58247
  20256790.734 7     21187.137 7     16319.71549  20256789.16049
  23931832.094 5    473854.633 5    350866.07847  23931828.96947
 20  5 16  1 54 32.0000000  0  8G04G08G09G11G16G26G27G31             0.000018772
  21555944.609 6      -432.313 6      -393.55147  21555942.86347
  20492533.789 7   -582766.168 7   -442762.55549  20492532.89849
  22843805.555 5   -532753.715 5   -398997.43448  22843804.55548
  22874439.461 5  -1221277.883 5   -932156.12947  22874436.91047
  21701960.898 6     92082.277 6     70095.27047  21701956.34047
  23187096.242 5    210265.473 5    155199.96147  23187095.89547
  20256819.070 7     21335.016 7     16434.94549  20256817.57049
  23932156.914 5    475563.941 5    352198.00846  23932154.11346
 20  5 16  1 54 33.0000000  0  8G04G08G09G11G16G26G27G31             0.000018167
  21555958.961 6      -359.441 6      -336.78147  21555957.14847
  20492153.586 7   -584764.184 7   -444319.45349  20492152.50449
  22843459.617 5   -534571.934 5   -400414.23848  22843458.57448
  22873630.680 6  -1225528.480 6   -935468.28547  22873627.50447
  21702022.359 6     92406.047 6     70347.56347  21702017.96547
  23187243.367 5    211038.852 5    155802.58246  23187242.81646
  20256847.359 7     21483.488 7     16550.63749  20256845.72749
  23932482.383 5    477273.535 5    353530.16046  23932479.79746
 20  5 16  1 54 34.0000000  0  8G04G08G09G11G16G26G27G31             0.000017561
  21555972.828 6      -285.961 6      -279.52047  21555970.90647
  20491773.430 7   -586761.574 7   -445875.85549  20491772.55149
  22843113.188 5   -536389.570 5   -401830.57848  22843112.50448
  22872822.156 6  -1229778.891 6   -938780.29347  22872819.27747
  21702084.086 6     92729.910 6     70599.92247  21702079.52047
  23187390.273 5    211812.254 5    156405.23447  23187390.37947
  20256876.055 7     21632.551 7     16666.79349  20256874.30149
  23932807.836 5    478983.418 5    354862.53947  23932805.10947
 20  5 16  1 54 35.0000000  0  8G04G08G09G11G16G26G27G31             0.000016956
  21555986.961 6      -211.977 6      -221.87147  21555984.85247
  20491393.703 7   -588758.473 7   -447431.88349  20491392.83649
  22842767.922 5   -538206.645 5   -403246.47748  22842766.78148
  22872013.570 6  -1234029.172 6   -942092.19547  22872009.80947
  21702145.766 6     93053.766 6     70852.27747  21702141.29347
  23187537.336 5    212585.629 5    157007.85947  23187537.23847
  20256904.047 7     21782.137 7     16783.34849  20256902.72349
  23933132.891 5    480693.531 5    356195.09447  23933130.24247
 20  5 16  1 54 36.0000000  0  8G04G08G09G11G16G26G27G31             0.000016350
  21556001.242 6      -137.469 6      -163.80947  21555999.55147
  20491013.641 7   -590754.820 7   -448987.47749  20491012.77349
  22842422.250 5   -540023.203 5   -404661.97748  22842421.40648
  22871204.727 6  -1238279.340 6   -945404.02047  22871201.54347
  21702206.648 6     93377.609 6     71104.62547  21702202.66047
  23187683.859 5    213358.965 5    157610.46147  23187684.66047
  20256932.625 7     21932.191 7     16900.27049  20256930.80549
  23933457.984 5    482403.832 5    357527.78946  23933455.95346
 20  5 16  1 54 37.0000000  0  8G04G08G09G11G16G26G27G31             0.000015743
  21556015.375 6       -62.422 6      -105.32447  21556013.62147
  20490633.961 7   -592750.641 7   -450542.66049  20490632.40649
  22842076.195 5   -541839.164 5   -406077.01248  22842075.16448
  22870395.609 6  -1242529.348 6   -948715.70347  22870392.70747
  21702268.531 6     93701.516 6     71357.01647  21702264.35547
  23187831.523 5    214132.309 5    158213.06347  23187831.59847
  20256961.484 7     22082.773 7     17017.60549  20256959.93849
  23933783.797 5    484114.383 5    358860.68446  23933781.12146
 20  5 16  1 54 38.0000000  0  8G04G08G09G11G16G26G27G31             0.000015139
  21556029.563 6        13.246 6       -46.37147  21556028.20747
  20490254.313 7   -594745.824 7   -452097.35249  20490253.28149
  22841730.922 5   -543654.473 5   -407491.53548  22841729.95748
  22869587.055 6  -1246779.109 6   -952027.20347  22869584.02347
  21702330.492 6     94025.555 6     71609.50447  21702326.46547
  23187978.797 5    214905.711 5    158815.71547  23187978.93847
  20256990.117 7     22233.996 7     17135.44549  20256988.82849
  23934109.180 5    485825.223 5    360193.80947  23934106.91047
 20  5 16  1 54 39.0000000  0  8G04G08G09G11G16G26G27G31             0.000014532
  21556043.719 6        89.430 6        12.99247  21556042.50047
  20489875.047 7   -596740.480 7   -453651.62549  20489873.41449
  22841385.344 5   -545469.238 5   -408905.64148  22841384.92248
  22868777.867 6  -1251028.734 6   -955338.59447  22868775.13347
  21702392.086 6     94349.547 6     71861.96947  21702387.82047
  23188125.641 5    215679.074 5    159418.32847  23188126.51247
  20257019.172 7     22385.695 7     17253.65249  20257016.96549
  23934435.227 5    487536.297 5    361527.09447  23934432.26647
 20  5 16  1 54 40.0000000  0  8G04G08G09G11G16G26G27G31             0.000013927
  21556058.828 6       166.254 6        72.85547  21556056.94147
  20489495.156 7   -598734.523 7   -455205.42249  20489494.33249
  22841040.344 5   -547283.387 5   -410319.26648  22841039.08248
  22867969.766 6  -1255278.152 6   -958649.82847  22867966.67247
  21702453.672 6     94673.703 6     72114.56347  21702449.51247
  23188273.703 5    216452.504 5    160020.99646  23188273.29746
  20257048.102 7     22538.023 7     17372.34849  20257046.49649
  23934761.266 5    489247.645 5    362860.60947  23934757.97747
 20  5 16  1 54 41.0000000  0  8G04G08G09G11G16G26G27G31             0.000013321
  21556073.641 6       243.633 6       133.14847  21556071.48047
  20489115.930 7   -600728.004 7   -456758.78549  20489114.81649
  22840694.922 5   -549096.898 5   -411732.39148  22840694.20348
  22867161.352 6  -1259527.383 6   -961960.92647  22867158.13747
  21702515.609 6     94997.863 6     72367.15647  21702510.92647
  23188420.625 5    217225.969 5    160623.70747  23188420.28147
  20257077.195 7     22690.887 7     17491.46149  20257075.38349
  23935086.406 5    490959.277 5    364194.34446  23935083.98046
 20  5 16  1 54 42.0000000  0  8G04G08G09G11G16G26G27G31             0.000012716
  21556088.172 6       321.594 6       193.89847  21556086.53947
  20488736.586 7   -602720.863 7   -458311.66049  20488735.39849
  22840350.711 5   -550909.828 5   -413145.06348  22840349.25848
  22866352.391 6  -1263776.391 6   -965271.84447  22866349.30547
  21702577.203 6     95322.141 6     72619.84047  21702573.11347
  23188567.359 5    217999.465 5    161226.44146  23188567.37546
  20257106.375 7     22844.344 7     17611.04349  20257104.40249
  23935411.992 5    492671.176 5    365528.27746  23935409.22746
 20  5 16  1 54 43.0000000  0  8G04G08G09G11G16G26G27G31             0.000012110
  21556103.500 6       400.121 6       255.08247  21556101.57447
  20488357.539 7   -604713.180 7   -459864.11749  20488356.34449
  22840005.797 5   -552722.164 5   -414557.27048  22840004.30948
  22865543.969 5  -1268025.254 5   -968582.64147  22865541.04347
  21702639.039 6     95646.453 6     72872.55547  21702634.41847
  23188714.688 5    218772.969 5    161829.15647  23188714.61347
  20257135.578 7     22998.336 7     17731.03949  20257134.16849
  23935738.125 5    494383.359 5    366862.44946  23935735.10246
 20  5 16  1 54 44.0000000  0  8G04G08G09G11G16G26G27G31             0.000011505
  21556118.961 6       479.266 6       316.75447  21556116.51647
  20487978.211 7   -606704.895 7   -461416.10549  20487977.54349
  22839661.180 5   -554533.836 5   -415968.96548  22839659.92648
  22864735.953 6  -1272273.863 6   -971893.24647  22864732.55547
  21702700.703 6     95970.863 6     73125.33647  21702696.44547
  23188861.711 5    219546.555 5    162431.94547  23188861.25047
  20257164.859 7     23152.930 7     17851.50049  20257163.25449
  23936063.656 5    496095.824 5    368196.83646  23936060.82846
 20  5 16  1 54 45.0000000  0  8G04G08G09G11G16G26G27G31             0.000010899
  21556133.578 6       559.020 6       378.90247  21556131.75847
  20487599.570 7   -608695.996 7   -462967.61349  20487598.69949
  22839315.883 5   -556344.930 5   -417380.20748  22839314.80148
  22863927.031 6  -1276522.266 6   -975203.67647  22863924.08247
  21702762.305 6     96295.375 6     73378.20347  21702758.14847
  23189009.578 5    220320.188 5    163034.77347  23189008.77747
  20257194.766 7     23308.125 7     17972.43049  20257193.20349
  23936389.664 5    497808.586 5    369531.44946  23936387.03146
 20  5 16  1 54 46.0000000  0  8G04G08G09G11G16G26G27G31             0.000010294
  21556149.086 6       639.363 6       441.50047  21556147.25047
  20487220.523 7   -610686.500 7   -464518.65649  20487219.96549
  22838971.836 5   -558155.332 5   -418790.91448  22838970.43848
  22863118.602 6  -1280770.465 6   -978513.96547  22863115.69147
  21702823.852 6     96619.984 6     73631.14147  21702819.56647
  23189156.063 5    221093.852 5    163637.62946  23189156.18046
  20257224.375 7     23463.871 7     18093.78549  20257222.27749
  23936715.602 5    499521.617 5    370866.26646  23936712.70746
 20  5 16  1 54 47.0000000  0  8G04G08G09G11G16G26G27G31             0.000009687
  21556164.422 6       720.293 6       504.56647  21556162.41847
  20486842.078 7   -612676.402 7   -466069.23449  20486841.14849
  22838627.469 5   -559965.172 5   -420201.18048  22838626.37148
  22862310.625 6  -1285018.453 6   -981824.09047  22862307.24647
  21702885.672 6     96944.672 6     73884.14547  21702881.36347
  23189303.680 5    221867.590 5    164240.54347  23189303.69147
  20257254.008 7     23620.211 7     18215.61349  20257252.27349
  23937042.125 5    501234.938 5    372201.32046  23937039.09046
 20  5 16  1 54 48.0000000  0  8G04G08G09G11G16G26G27G31             0.000009083
  21556180.063 6       801.734 6       568.02347  21556177.96947
  20486463.414 7   -614665.801 7   -467619.41049  20486462.47749
  22838282.500 5   -561774.414 5   -421610.98848  22838281.63748
  22861501.883 6  -1289266.297 6   -985134.10247  22861499.18447
  21702947.727 6     97269.359 6     74137.14847  21702943.21947
  23189450.891 5    222641.262 5    164843.40247  23189450.96147
  20257284.063 7     23777.074 7     18337.84049  20257282.09849
  23937367.906 5    502948.484 5    373536.55546  23937365.44546
 20  5 16  1 54 49.0000000  0  8G04G08G09G11G16G26G27G31             0.000008476
  21556195.367 6       883.777 6       631.94547  21556193.50047
  20486084.836 7   -616654.570 7   -469169.10249  20486084.19949
  22837938.219 5   -563583.082 5   -423020.33248  22837937.52748
  22860693.359 6  -1293513.910 6   -988443.93047  22860690.59047
  21703009.844 6     97594.129 6     74390.21547  21703005.27747
  23189598.563 5    223414.973 5    165446.28947  23189598.18047
  20257313.664 7     23934.488 7     18460.50049  20257312.01249
  23937694.219 5    504662.297 5    374871.99646  23937691.39846
 20  5 16  1 54 50.0000000  0  8G04G08G09G11G16G26G27G31             0.000007872
  21556211.219 6       966.422 6       696.35247  21556209.42647
  20485706.516 7   -618642.758 7   -470718.34049  20485705.57849
  22837594.141 5   -565391.102 5   -424429.17648  22837593.48848
  22859885.773 6  -1297761.340 6   -991753.61347  22859882.00047
  21703071.305 6     97918.992 6     74643.35247  21703066.98447
  23189745.391 5    224188.766 5    166049.23847  23189745.28547
  20257343.711 7     24092.516 7     18583.64149  20257341.85549
  23938020.141 5    506376.402 5    376207.67646  23938016.92246
 20  5 16  1 54 51.0000000  0  8G04G08G09G11G16G26G27G31             0.000007265
  21556227.258 6      1049.719 6       761.25047  21556225.22747
  20485328.461 7   -620630.246 7   -472267.03149  20485327.76649
  22837250.484 5   -567198.441 5   -425837.49648  22837249.49648
  22859077.203 6  -1302008.465 6   -995063.06647  22859073.86347
  21703132.773 6     98244.004 6     74896.60547  21703128.62147
  23189892.328 5    224962.645 5    166652.25847  23189892.83247
  20257374.320 7     24251.184 7     18707.27349  20257372.30949
  23938346.617 5    508090.891 5    377543.63746  23938343.57046
 20  5 16  1 54 52.0000000  0  8G04G08G09G11G16G26G27G31             0.000006660
  21556243.109 6      1133.590 6       826.60547  21556241.53547
  20484950.430 7   -622617.199 7   -473815.30149  20484949.66449
  22836907.063 5   -569005.172 5   -427245.34448  22836905.97748
  22858268.813 6  -1306255.449 6   -998372.40247  22858266.10247
  21703194.742 6     98569.070 6     75149.90647  21703190.64547
  23190039.328 5    225736.551 5    167255.30547  23190040.01647
  20257404.125 7     24410.379 7     18831.32049  20257402.57449
  23938672.227 5    509805.586 5    378879.76646  23938670.08246
 20  5 16  1 54 53.0000000  0  8G04G08G09G11G16G26G27G31             0.000006056
  21556259.172 6      1218.023 6       892.39847  21556257.70747
  20484572.563 7   -624603.539 7   -475363.10249  20484571.41049
  22836563.734 5   -570811.336 5   -428652.74248  22836562.17248
  22857461.063 6  -1310502.227 6  -1001681.57047  22857457.93847
  21703256.930 6     98894.172 6     75403.23447  21703252.35247
  23190187.008 5    226510.461 5    167858.34847  23190187.25847
  20257434.461 7     24570.141 7     18955.80949  20257432.92249
  23938998.617 5    511520.590 5    380216.12546  23938996.11346
 20  5 16  1 54 54.0000000  0  8G04G08G09G11G16G26G27G31             0.000005449
  21556275.594 6      1302.980 6       958.60247  21556273.57047
  20484194.586 7   -626589.383 7   -476910.51649  20484193.57049
  22836219.250 5   -572616.957 5   -430059.72348  22836218.16448
  22856652.875 6  -1314748.902 6  -1004990.66047  22856649.93447
  21703318.688 6     99219.289 6     75656.58247  21703314.15647
  23190334.039 5    227284.340 5    168461.37947  23190334.36347
  20257465.266 7     24730.395 7     19080.68849  20257463.16849
  23939325.398 5    513235.746 5    381552.60946  23939322.74246
 20  5 16  1 54 55.0000000  0  8G04G08G09G11G16G26G27G31             0.000004845
  21556291.578 6      1388.457 6      1025.20747  21556290.00047
  20483816.758 7   -628574.656 7   -478457.48049  20483815.77349
  22835875.828 5   -574421.992 5   -431466.24248  22835874.93848
  22855845.117 6  -1318995.371 6  -1008299.60247  22855842.02747
  21703380.430 6     99544.469 6     75909.96947  21703376.12947
  23190481.930 5    228058.254 5    169064.43047  23190481.66047
  20257495.750 7     24891.215 7     19205.99649  20257494.16849
  23939652.000 5    514951.168 5    382889.29346  23939648.70746
 20  5 16  1 54 56.0000000  0  8G04G08G09G11G16G26G27G31             0.000004238
  21556307.766 6      1474.547 6      1092.28947  21556306.06647
  20483438.930 7   -630559.367 7   -480004.00449  20483438.28149
  22835532.820 5   -576226.391 5   -432872.26248  22835531.72748
  22855037.047 6  -1323241.656 6  -1011608.39547  22855033.44147
  21703442.609 6     99869.715 6     76163.39547  21703438.18447
  23190629.242 5    228832.184 5    169667.48447  23190628.65247
  20257526.398 7     25052.578 7     19331.73449  20257524.63749
  23939978.477 5    516666.887 5    384226.22346  23939975.51246
 20  5 16  1 54 57.0000000  0  8G04G08G09G11G16G26G27G31             0.000003633
  21556324.000 6      1561.266 6      1159.86347  21556322.60547
  20483061.688 7   -632543.398 7   -481550.00849  20483060.52349
  22835189.555 5   -578030.137 5   -434277.78148  22835188.81348
  22854228.352 6  -1327487.676 6  -1014916.98447  22854225.52047
  21703504.016 6    100195.082 6     76416.93047  21703500.26647
  23190776.258 5    229606.191 5    170270.59847  23190775.94147
  20257557.508 7     25214.551 7     19457.95349  20257555.73449
  23940304.813 5    518382.906 5    385563.37946  23940301.91846
 20  5 16  1 54 58.0000000  0  8G04G08G09G11G16G26G27G31             0.000003027
  21556341.078 6      1648.605 6      1227.91047  21556339.29747
  20482683.984 7   -634526.820 7   -483095.52749  20482683.25849
  22834846.266 5   -579833.262 5   -435682.81648  22834845.09848
  22853420.516 6  -1331733.492 6  -1018225.41447  22853417.89547
  21703566.063 6    100520.559 6     76670.54747  21703561.75047
  23190923.688 5    230380.258 5    170873.76247  23190923.60547
  20257588.359 7     25377.152 7     19584.64849  20257586.89149
  23940631.742 5    520099.234 5    386900.76646  23940628.97746
 20  5 16  1 54 59.0000000  0  8G04G08G09G11G16G26G27G31             0.000002422
  21556357.750 6      1736.504 6      1296.41047  21556356.02347
  20482306.688 7   -636509.660 7   -484640.60249  20482305.73849
  22834503.656 5   -581635.789 5   -437087.38348  22834502.07848
  22852612.828 6  -1335979.102 6  -1021533.67647  22852610.02747
  21703628.227 6    100846.113 6     76924.22747  21703623.79347
  23191070.617 5    231154.352 5    171476.94947  23191070.73847
  20257619.320 7     25540.289 7     19711.77049  20257617.45749
  23940958.570 5    521815.840 5    388238.37146  23940955.84446
 20  5 16  1 55  0.0000000  0  8G04G08G09G11G16G26G27G31             0.000001818
  21556374.836 6      1824.977 6      1365.34847  21556372.89547
  20481929.469 7   -638491.926 7   -486185.22749  20481928.48049
  22834159.859 5   -583437.660 5   -438491.44548  22834159.33648
  22851804.469 6  -1340224.508 6  -1024841.78947  22851802.17647
  21703690.492 6    101171.711 6     77177.94147  21703686.01647
  23191218.086 5    231928.492 5    172080.17647  23191218.07447
  20257650.484 7     25704.000 7     19839.33649  20257648.98049
  23941285.547 5    523532.727 5    389576.19947  23941282.13747
 20  5 16  1 55  1.0000000  0  8G04G08G09G11G16G26G27G31             0.000001211
  21556391.734 6      1914.016 6      1434.73047  21556390.06647
  20481552.523 7   -640473.645 7   -487729.43049  20481551.85949
  22833818.156 5   -585239.039 5   -439895.11348  22833816.68448
  22850996.859 6  -1344469.781 6  -1028149.79347  22850993.90247
  21703752.031 6    101497.383 6     77431.70747  21703748.09847
  23191365.242 5    232702.617 5    172683.38747  23191365.41847
  20257681.797 7     25868.246 7     19967.32449  20257680.20349
  23941611.773 5    525249.820 5    390914.19146  23941608.70746
 20  5 16  1 55  2.0000000  0  8G04G08G09G11G16G26G27G31             0.000000607
  21556408.781 6      2003.613 6      1504.54347  21556406.75447
  20481175.563 7   -642454.750 7   -489273.14549  20481174.25849
  22833474.813 5   -587039.727 5   -441298.24648  22833474.00848
  22850189.227 6  -1348714.805 6  -1031457.60247  22850186.00447
  21703813.945 6    101823.133 6     77685.53147  21703809.75447
  23191512.484 5    233476.789 5    173286.64147  23191512.77347
  20257713.141 7     26033.074 7     20095.76249  20257711.37949
  23941939.000 5    526967.215 5    392252.41846  23941935.76646
 20  5 16  1 55  3.0000000  0  8G04G08G09G11G16G26G27G31            
  21556425.805 6      2093.746 6      1574.77347  21556424.25847
  20480798.797 7   -644435.391 7   -490816.50449  20480797.34049
  22833132.148 5   -588839.918 5   -442700.99248  22833131.33248
  22849381.414 6  -1352959.734 6  -1034765.33647  22849378.62547
  21703876.289 6    102148.848 6     77939.34047  21703872.16047
  23191659.813 5    234250.902 5    173889.84847  23191660.05947
  20257744.289 7     26198.371 7     20224.56649  20257742.77749
  23942265.773 5    528684.785 5    393590.78546  23942262.37946
 20  5 16  1 55  4.0000000  0  8G04G08G09G11G16G26G27G31            -0.000000605
  21556443.117 6      2184.453 6      1645.45747  21556441.32447
  20480421.984 7   -646415.383 7   -492359.34849  20480421.02349
  22832789.977 5   -590639.497 5   -444103.26848  22832788.64848
  22848573.758 6  -1357204.441 6  -1038072.89847  22848570.89847
  21703938.109 6    102474.660 6     78193.21947  21703933.55147
  23191807.234 5    235025.063 5    174493.08647  23191807.62947
  20257776.219 7     26364.273 7     20353.84049  20257774.38349
  23942592.367 5    530402.656 5    394929.37946  23942589.40646
 20  5 16  1 55  5.0000000  0  8G04G08G09G11G16G26G27G31            -0.000001209
  21556460.219 6      2275.859 6      1716.68047  21556458.69947
  20480044.961 7   -648394.715 7   -493901.68849  20480044.22349
  22832447.617 5   -592438.301 5   -445504.92648  22832446.55548
  22847766.266 6  -1361448.855 6  -1041380.24247  22847763.08647
  21703999.820 6    102800.629 6     78447.23047  21703995.91447
  23191954.727 5    235799.359 5    175096.43447  23191955.03947
  20257807.891 7     26530.824 7     20483.61749  20257805.88749
  23942919.633 5    532120.922 5    396268.27746  23942916.48446
 20  5 16  1 55  6.0000000  0  8G04G08G09G11G16G26G27G31            -0.000001816
  21556477.992 6      2367.926 6      1788.41847  21556476.32047
  20479668.352 7   -650373.367 7   -495443.49649  20479667.75049
  22832105.773 5   -594236.473 5   -446906.10248  22832104.33248
  22846958.648 6  -1365692.949 6  -1044687.32847  22846955.10547
  21704062.547 6    103126.785 6     78701.37547  21704057.63747
  23192101.969 5    236573.777 5    175699.87546  23192102.06646
  20257839.695 7     26698.027 7     20613.91049  20257837.88749
  23943246.469 5    533839.520 5    397607.44947  23943243.39547
 20  5 16  1 55  7.0000000  0  8G04G08G09G11G16G26G27G31            -0.000002420
  21556495.578 6      2460.418 6      1860.48847  21556493.62147
  20479292.234 7   -652351.617 7   -496984.98449  20479290.88749
  22831763.344 5   -596034.215 5   -448306.94148  22831762.12548
  22846150.906 6  -1369937.043 6  -1047994.42247  22846147.39847
  21704124.430 6    103452.816 6     78955.43047  21704120.21547
  23192249.344 5    237348.078 5    176303.22746  23192249.24646
  20257871.422 7     26865.656 7     20744.52749  20257869.78149
  23943573.492 5    535558.227 5    398946.70746  23943570.74646
 20  5 16  1 55  8.0000000  0  8G04G08G09G11G16G26G27G31            -0.000003025
  21556513.352 6      2553.520 6      1933.03147  21556511.30947
  20478915.719 6   -654329.238 6   -498526.00049  20478915.06649
  22831421.594 5   -597831.242 5   -449707.22348  22831420.24648
  22845343.336 6  -1374180.883 6  -1051301.30147  22845340.00447
  21704186.609 6    103778.988 6     79209.59047  21704182.23047
  23192397.023 5    238122.461 5    176906.63747  23192396.93447
  20257903.273 7     27033.898 7     20875.62549  20257902.08249
  23943900.453 5    537277.277 5    400286.22346  23943897.86346
 20  5 16  1 55  9.0000000  0  8G04G08G09G11G16G26G27G31            -0.000003632
  21556530.734 6      2647.117 6      2005.96147  21556529.21547
  20478539.422 6   -656306.363 6   -500066.61749  20478538.38349
  22831079.727 5   -599627.793 5   -451107.13348  22831078.51648
  22844535.797 6  -1378424.613 6  -1054608.09447  22844532.12147
  21704248.930 6    104105.133 6     79463.72747  21704244.13347
  23192543.766 5    238896.758 5    177509.99247  23192543.89147
  20257935.594 7     27202.586 7     21007.06649  20257933.92249
  23944227.367 5    538996.500 5    401625.87146  23944224.78146
 20  5 16  1 55 10.0000000  0  8G04G08G09G11G16G26G27G31            -0.000004236
  21556549.063 6      2741.305 6      2079.35547  21556547.05947
  20478163.789 7   -658282.887 7   -501606.76649  20478162.44549
  22830738.148 5   -601423.668 5   -452506.51248  22830736.82848
  22843728.641 6  -1382668.133 6  -1057914.73847  22843725.02047
  21704310.602 6    104431.379 6     79717.94147  21704306.35247
  23192691.094 5    239671.133 5    178113.39547  23192691.54747
  20257967.742 7     27371.879 7     21138.98049  20257966.31649
  23944554.758 5    540715.992 5    402965.72746  23944552.25446
 20  5 16  1 55 11.0000000  0  8G04G08G09G11G16G26G27G31            -0.000004841
  21556566.836 6      2836.199 6      2153.29747  21556565.23047
  20477787.172 7   -660258.727 7   -503146.38349  20477786.23849
  22830396.273 5   -603218.852 5   -453905.35948  22830394.97748
  22842920.648 6  -1386911.332 6  -1061221.13347  22842917.70747
  21704372.758 6    104757.805 6     79972.29747  21704368.30947
  23192838.898 5    240445.629 5    178716.90247  23192839.42647
  20258000.023 7     27541.840 7     21271.41449  20257998.37949
  23944882.211 5    542435.891 5    404305.89846  23944879.53946
 20  5 16  1 55 12.0000000  0  8G04G08G09G11G16G26G27G31            -0.000005445
  21556584.953 6      2931.785 6      2227.78547  21556583.26647
  20477411.891 6   -662233.832 6   -504685.43049  20477410.72749
  22830054.930 5   -605013.320 5   -455303.64848  22830053.98448
  22842112.875 6  -1391154.227 6  -1064527.27747  22842109.87547
  21704435.164 6    105084.449 6     80226.82047  21704430.48447
  23192986.875 5    241220.281 5    179320.52747  23192986.56347
  20258032.555 7     27712.492 7     21404.39549  20258031.28949
  23945209.563 5    544156.164 5    405646.35546  23945206.80946
 20  5 16  1 55 13.0000000  0  8G04G08G09G11G16G26G27G31            -0.000006052
  21556603.438 6      3028.008 6      2302.76647  21556601.64147
  20477035.797 7   -664208.344 7   -506224.00449  20477034.80949
  22829713.539 5   -606807.129 5   -456701.42248  22829712.11748
  22841305.555 6  -1395396.848 6  -1067833.21947  22841302.73847
  21704496.773 6    105411.176 6     80481.41847  21704492.70347
  23193133.891 5    241995.043 5    179924.23846  23193134.22746
  20258065.758 7     27883.766 7     21537.85249  20258063.62549
  23945537.109 5    545876.738 5    406987.07046  23945534.29746
 20  5 16  1 55 14.0000000  0  8G04G08G09G11G16G26G27G31            -0.000006657
  21556622.219 6      3124.711 6      2378.11747  21556620.42247
  20476660.289 7   -666182.355 7   -507762.19149  20476659.08649
  22829371.969 5   -608600.434 5   -458098.80148  22829370.85548
  22840498.727 6  -1399639.402 6  -1071139.10247  22840495.26247
  21704559.047 6    105737.910 6     80736.01647  21704554.85947
  23193281.172 5    242769.680 5    180527.84047  23193281.49247
  20258098.297 7     28055.484 7     21671.66049  20258096.23449
  23945864.578 5    547597.516 5    408327.93046  23945861.73846
 20  5 16  1 55 15.0000000  0  8G04G08G09G11G16G26G27G31            -0.000007261
  21556640.922 6      3221.879 6      2453.82847  21556638.82447
  20476284.703 7   -668155.863 7   -509299.99249  20476284.01649
  22829031.469 5   -610393.207 5   -459495.77048  22829030.19148
  22839691.227 6  -1403881.828 6  -1074444.89547  22839688.23847
  21704621.328 6    106064.574 6     80990.55947  21704617.52747
  23193428.156 5    243544.285 5    181131.42247  23193428.85547
  20258130.695 7     28227.699 7     21805.85549  20258129.26649
  23946191.359 5    549318.430 5    409668.91046  23946189.43846
 20  5 16  1 55 16.0000000  0  8G04G08G09G11G16G26G27G31            -0.000007868
  21556658.984 6      3319.656 6      2530.01647  21556657.33247
  20475909.367 7   -670128.750 7   -510837.30549  20475908.78549
  22828689.648 5   -612185.328 5   -460892.22748  22828688.63348
  22838884.227 6  -1408124.023 6  -1077750.49647  22838881.16447
  21704683.531 6    106391.355 6     81245.18847  21704679.41047
  23193575.344 5    244318.945 5    181735.04747  23193576.54747
  20258163.852 7     28400.477 7     21940.48449  20258162.11349
  23946519.445 5    551039.688 5    411010.14546  23946516.84446
 20  5 16  1 55 17.0000000  0  8G04G08G09G11G16G26G27G31            -0.000008472
  21556677.758 6      3418.000 6      2606.64847  21556676.05147
  20475533.898 7   -672101.086 7   -512374.18849  20475533.23449
  22828349.586 5   -613976.918 5   -462288.27048  22828347.93848
  22838076.563 6  -1412366.051 6  -1081055.97347  22838073.74247
  21704745.789 6    106718.195 6     81499.87147  21704741.50047
  23193722.945 5    245093.625 5    182338.69547  23193723.59047
  20258196.438 7     28573.797 7     22075.53949  20258194.84849
  23946846.859 5    552761.160 5    412351.55946  23946843.96946
 20  5 16  1 55 18.0000000  0  8G04G08G09G11G16G26G27G31            -0.000009077
  21556696.773 6      3516.980 6      2683.77347  21556694.66047
  20475158.688 7   -674072.754 7   -513910.55949  20475157.77049
  22828007.898 5   -615767.785 5   -463683.74648  22828007.39848
  22837269.695 6  -1416607.848 6  -1084361.26247  22837266.20747
  21704807.672 6    107045.160 6     81754.64847  21704804.08247
  23193870.352 5    245868.414 5    182942.42647  23193871.19147
  20258229.578 7     28747.762 7     22211.09449  20258227.56349
  23947173.984 5    554482.969 5    413693.22746  23947172.05546
 20  5 16  1 55 19.0000000  0  8G04G08G09G11G16G26G27G31            -0.000009682
  21556715.688 6      3616.551 6      2761.36347  21556713.71547
  20474783.750 7   -676043.832 7   -515446.45749  20474782.76649
  22827667.969 5   -617558.063 5   -465078.77348  22827666.48448
  22836462.438 6  -1420849.406 6  -1087666.37547  22836459.11747
  21704869.930 6    107372.215 6     82009.49247  21704866.02347
  23194017.914 5    246643.215 5    183546.16447  23194018.59447
  20258262.898 7     28922.289 7     22347.09049  20258261.36749
  23947502.016 5    556205.063 5    415035.11346  23947499.57846
 20  5 16  1 55 20.0000000  0  8G04G08G09G11G16G26G27G31            -0.000010288
  21556734.328 6      3716.805 6      2839.47747  21556732.88347
  20474408.625 7   -678014.250 7   -516981.84849  20474407.94949
  22827327.203 5   -619347.602 5   -466473.22348  22827325.89848
  22835655.648 6  -1425090.660 6  -1090971.25447  22835652.14847
  21704932.242 6    107699.430 6     82264.46547  21704928.01647
  23194165.531 5    247418.148 5    184150.01647  23194166.14147
  20258296.094 7     29097.496 7     22483.61349  20258294.77049
  23947829.813 5    557927.523 5    416377.28546  23947827.56346
 20  5 16  1 55 21.0000000  0  8G04G08G09G11G16G26G27G31            -0.000010893
  21556753.766 6      3817.703 6      2918.09447  21556751.98047
  20474033.773 7   -679983.984 7   -518516.71149  20474032.57849
  22826986.531 5   -621136.473 5   -467867.14848  22826985.36348
  22834848.375 6  -1429331.617 6  -1094275.90647  22834844.93847
  21704994.625 6    108026.813 6     82519.57047  21704990.46147
  23194313.203 5    248193.191 5    184753.93047  23194314.00047
  20258329.852 7     29273.336 7     22620.62949  20258327.92649
  23948158.094 5    559650.340 5    417719.71946  23948155.48446
 20  5 16  1 55 22.0000000  0  8G04G08G09G11G16G26G27G31            -0.000011497
  21556772.711 6      3919.082 6      2997.09047  21556771.44947
  20473659.063 6   -681953.230 6   -520051.18849  20473658.30549
  22826645.773 5   -622924.848 5   -469260.69548  22826644.73448
  22834041.445 6  -1433572.539 6  -1097580.52047  22834037.81647
  21705056.805 6    108354.137 6     82774.63347  21705052.97347
  23194461.039 5    248968.203 5    185357.82847  23194460.90647
  20258363.453 7     29449.633 7     22758.00049  20258361.83649
  23948485.930 5    561373.328 5    419062.29746  23948482.77046
 20  5 16  1 55 23.0000000  0  8G04G08G09G11G16G26G27G31            -0.000012102
  21556792.563 6      4021.125 6      3076.60547  21556790.92647
  20473284.797 7   -683921.797 7   -521585.13749  20473283.57049
  22826306.008 5   -624712.520 5   -470653.68048  22826304.86748
  22833234.781 6  -1437813.125 6  -1100884.87147  22833230.96547
  21705119.102 6    108681.641 6     83029.82047  21705115.02047
  23194608.070 5    249743.281 5    185961.78547  23194608.72347
  20258396.758 7     29626.590 7     22895.89149  20258395.09049
  23948814.336 5    563096.684 5    420405.16446  23948811.26246
 20  5 16  1 55 24.0000000  0  8G04G08G09G11G16G26G27G31            -0.000012707
  21556811.898 6      4123.793 6      3156.60247  21556810.34047
  20472910.094 7   -685889.781 7   -523118.63349  20472908.94149
  22825965.789 5   -626499.563 5   -472046.18048  22825964.67648
  22832427.258 6  -1442053.520 6  -1104189.06647  22832424.37547
  21705181.906 6    109009.238 6     83285.09847  21705177.24647
  23194755.383 5    250518.438 5    186565.80947  23194756.01247
  20258430.805 7     29804.145 7     23034.24649  20258428.69949
  23949141.664 5    564820.305 5    421748.24646  23949139.45746
 20  5 16  1 55 25.0000000  0  8G04G08G09G11G16G26G27G31            -0.000013311
  21556831.797 6      4226.984 6      3237.01247  21556829.79347
  20472535.961 7   -687857.203 7   -524651.68849  20472534.77049
  22825625.609 5   -628286.043 5   -473438.23848  22825625.07048
  22831620.594 6  -1446293.738 6  -1107493.12947  22831617.01647
  21705244.109 6    109336.859 6     83540.38347  21705239.65247
  23194903.234 5    251293.582 5    187169.81647  23194903.96547
  20258464.586 7     29982.211 7     23172.99649  20258462.64149
  23949469.586 5    566544.164 5    423091.51646  23949467.16446
 20  5 16  1 55 26.0000000  0  8G04G08G09G11G16G26G27G31            -0.000013916
  21556851.203 6      4330.754 6      3317.87947  21556849.75847
  20472161.414 7   -689824.055 7   -526184.29749  20472160.22349
  22825286.133 5   -630071.883 5   -474829.80148  22825284.89548
  22830813.258 5  -1450533.734 5  -1110797.02047  22830810.57447
  21705306.656 6    109664.582 6     83795.75047  21705301.94547
  23195050.961 5    252068.820 5    187773.89547  23195051.17247
  20258498.461 7     30160.852 7     23312.20349  20258497.03949
  23949798.023 5    568268.328 5    424435.02347  23949795.18047
 20  5 16  1 55 27.0000000  0  8G04G08G09G11G16G26G27G31            -0.000014521
  21556871.242 6      4435.000 6      3399.10947  21556869.55947
  20471787.164 7   -691790.414 7   -527716.52349  20471786.19549
  22824946.891 5   -631857.223 5   -476220.97748  22824945.62948
  22830007.242 6  -1454773.664 6  -1114100.87547  22830003.83247
  21705368.844 6    109992.227 6     84051.05147  21705364.80547
  23195197.625 5    252843.891 5    188377.85547  23195198.90247
  20258532.930 7     30339.957 7     23451.75849  20258531.04349
  23950126.055 5    569992.625 5    425778.63747  23950123.76247
 20  5 16  1 55 28.0000000  0  8G04G08G09G11G16G26G27G31            -0.000015127
  21556891.219 6      4539.836 6      3480.78947  21556889.28547
  20471413.148 7   -693756.176 7   -529248.28949  20471412.16849
  22824607.195 5   -633641.965 5   -477611.68848  22824605.67248
  22829199.781 6  -1459013.359 6  -1117404.52347  22829196.96147
  21705431.102 6    110319.992 6     84306.45747  21705426.82047
  23195345.734 5    253619.055 5    188981.87547  23195345.86747
  20258566.875 7     30519.617 7     23591.75449  20258565.45349
  23950454.242 5    571717.215 5    427122.46546  23950451.46146
 20  5 16  1 55 29.0000000  0  8G04G08G09G11G16G26G27G31            -0.000015732
  21556911.320 6      4645.203 6      3562.89547  21556909.80947
  20471039.273 7   -695721.387 7   -530779.61749  20471038.49649
  22824267.203 5   -635426.145 5   -479001.96148  22824266.34048
  22828393.695 6  -1463252.898 6  -1120708.06347  22828390.19947
  21705493.234 6    110647.781 6     84561.87947  21705489.02747
  23195493.219 5    254394.211 5    189585.88747  23195493.47747
  20258600.906 7     30699.816 7     23732.16849  20258599.70749
  23950782.742 5    573442.055 5    428466.48846  23950780.12146
 20  5 16  1 55 30.0000000  0  8G04G08G09G11G16G26G27G31            -0.000016336
  21556931.500 6      4751.266 6      3645.53547  21556929.83647
  20470665.086 7   -697685.914 7   -532310.41449  20470664.39149
  22823927.797 5   -637209.586 5   -480391.65248  22823926.85948
  22827586.648 6  -1467492.137 6  -1124011.35547  22827583.66447
  21705555.930 6    110975.734 6     84817.42647  21705551.48447
  23195640.836 5    255169.496 5    190190.00847  23195641.33647
  20258635.391 7     30880.695 7     23873.11749  20258633.71949
  23951110.992 5    575167.219 5    429810.77046  23951108.37546
 20  5 16  1 55 31.0000000  0  8G04G08G09G11G16G26G27G31            -0.000016941
  21556952.125 6      4857.984 6      3728.69547  21556950.07047
  20470291.586 7   -699649.781 7   -533840.70349  20470290.78949
  22823588.328 5   -638992.359 5   -481780.83248  22823587.62148
  22826780.047 5  -1471731.098 5  -1127314.44147  22826776.81647
  21705618.180 6    111303.848 6     85073.09847  21705613.80947
  23195788.789 5    255944.895 5    190794.21147  23195789.14547
  20258670.008 7     31062.203 7     24014.55149  20258668.97749
  23951439.102 5    576892.797 5    431155.37146  23951436.63346
 20  5 16  1 55 32.0000000  0  8G04G08G09G11G16G26G27G31            -0.000017546
  21556972.164 6      4965.188 6      3812.23047  21556970.30547
  20469918.008 7   -701613.152 7   -535370.60949  20469917.09849
  22823248.938 5   -640774.582 5   -483169.57448  22823248.15248
  22825973.164 5  -1475969.953 5  -1130617.44147  22825969.91047
  21705680.625 6    111631.918 6     85328.74247  21705676.44947
  23195936.063 5    256720.227 5    191398.37146  23195936.21546
  20258704.859 7     31244.176 7     24156.34849  20258702.92249
  23951767.391 5    578618.520 5    432500.09046  23951765.33246
 20  5 16  1 55 33.0000000  0  8G04G08G09G11G16G26G27G31            -0.000018150
  21556992.852 6      5072.926 6      3896.18047  21556991.36747
  20469544.438 7   -703575.988 7   -536900.08649  20469543.46549
  22822910.609 5   -642556.246 5   -484557.88348  22822909.08648
  22825167.016 5  -1480208.633 5  -1133920.30547  22825163.46147
  21705743.242 6    111960.039 6     85584.41447  21705739.10247
  23196083.797 5    257495.559 5    192002.51246  23196084.01646
  20258739.453 7     31426.668 7     24298.55149  20258737.73849
  23952096.180 5    580344.492 5    433845.00046  23952093.68446
 20  5 16  1 55 34.0000000  0  8G04G08G09G11G16G26G27G31            -0.000018755
  21557013.531 6      5181.301 6      3980.62947  21557011.57847
  20469171.203 7   -705538.160 7   -538429.05149  20469170.22349
  22822571.094 5   -644337.250 5   -485945.68048  22822570.18848
  22824360.625 6  -1484447.066 6  -1137222.98847  22824357.33247
  21705805.617 6    112288.293 6     85840.18847  21705801.43447
  23196230.852 5    258270.973 5    192606.73047  23196231.83247
  20258774.367 7     31609.828 7     24441.26649  20258772.34049
  23952424.656 5    582070.773 5    435190.14546  23952422.37946
 20  5 16  1 55 35.0000000  0  8G04G08G09G11G16G26G27G31            -0.000019360
  21557034.484 6      5290.289 6      4065.55547  21557032.04747
  20468797.719 7   -707499.742 7   -539957.56349  20468796.97749
  22822232.820 5   -646117.648 5   -487333.00048  22822231.53148
  22823553.992 6  -1488685.254 6  -1140525.47747  22823550.82047
  21705868.320 6    112616.641 6     86096.04347  21705863.91447
  23196377.766 5    259046.449 5    193211.00447  23196378.88347
  20258809.469 7     31793.527 7     24584.41049  20258807.74649
  23952753.063 5    583797.371 5    436535.53946  23952750.43046
 20  5 16  1 55 36.0000000  0  8G04G08G09G11G16G26G27G31            -0.000019964
  21557055.047 6      5399.871 6      4150.93847  21557052.81647
  20468425.008 7   -709460.699 7   -541485.57849  20468423.86749
  22821894.367 5   -647897.387 5   -488719.81348  22821892.66848
  22822748.031 6  -1492923.242 6  -1143827.79747  22822744.16447
  21705930.578 6    112945.074 6     86351.96947  21705926.17247
  23196525.758 5    259821.977 5    193815.32047  23196526.93847
  20258844.313 7     31977.840 7     24728.02749  20258842.82449
  23953081.641 5    585524.266 5    437881.17646  23953079.50846
 20  5 16  1 55 37.0000000  0  8G04G08G09G11G16G26G27G31            -0.000020569
  21557076.031 6      5509.984 6      4236.74247  21557074.27347
  20468051.672 7   -711421.125 7   -543013.18849  20468050.73849
  22821555.133 5   -649676.566 5   -490106.18848  22821554.09048
  22821941.242 6  -1497161.082 6  -1147130.01247  22821937.69947
  21705993.250 6    113273.535 6     86607.91447  21705988.73447
  23196673.219 5    260597.477 5    194419.60547  23196674.49247
  20258879.570 7     32162.648 7     24872.03949  20258877.85949
  23953410.875 5    587251.324 5    439226.93846  23953408.14146
 20  5 16  1 55 38.0000000  0  8G04G08G09G11G16G26G27G31            -0.000021175
  21557096.734 6      5620.707 6      4323.01647  21557095.00447
  20467678.664 7   -713380.875 7   -544540.27049  20467677.93049
  22821217.086 5   -651455.113 5   -491492.07048  22821215.70348
  22821134.797 6  -1501398.645 6  -1150432.00447  22821131.36747
  21706055.805 6    113602.113 6     86863.95347  21706051.53947
  23196821.016 5    261373.098 5    195023.98446  23196822.09446
  20258914.930 7     32348.086 7     25016.53549  20258913.18849
  23953739.273 5    588978.777 5    440572.99646  23953736.31646
 20  5 16  1 55 39.0000000  0  8G04G08G09G11G16G26G27G31            -0.000021778
  21557117.984 6      5731.906 6      4409.66447  21557116.33647
  20467305.781 7   -715340.215 7   -546067.02749  20467304.68449
  22820878.766 5   -653233.113 5   -492877.52348  22820877.26648
  22820327.938 6  -1505636.145 6  -1153733.94947  22820325.07847
  21706118.406 6    113930.633 6     87119.93847  21706113.85547
  23196968.578 5    262148.574 5    195628.24646  23196969.43046
  20258949.969 7     32533.961 7     25161.37149  20258948.28549
  23954067.914 5    590706.340 5    441919.14846  23954065.17646
 20  5 16  1 55 40.0000000  0  8G04G08G09G11G16G26G27G31            -0.000022385
  21557139.195 6      5843.602 6      4496.69547  21557137.32847
  20466933.266 7   -717299.035 7   -547593.37549  20466932.19549
  22820540.469 5   -655010.641 5   -494262.60948  22820538.80148
  22819521.859 6  -1509873.504 6  -1157035.79347  22819518.39547
  21706181.141 6    114259.156 6     87375.92647  21706176.29347
  23197116.266 5    262924.078 5    196232.52747  23197117.34847
  20258985.656 7     32720.328 7     25306.59449  20258984.23849
  23954396.969 5    592434.098 5    443265.44146  23954393.87546
 20  5 16  1 55 41.0000000  0  8G04G08G09G11G16G26G27G31            -0.000022989
  21557160.695 6      5955.980 6      4584.26247  21557158.97347
  20466560.344 7   -719257.176 7   -549119.19949  20466559.63749
  22820201.781 5   -656787.414 5   -495647.10948  22820200.87548
  22818715.727 6  -1514110.570 6  -1160337.40247  22818712.32847
  21706243.570 6    114587.863 6     87632.06647  21706238.73047
  23197263.508 5    263699.688 5    196836.89846  23197265.10546
  20259021.234 7     32907.352 7     25452.32449  20259019.72749
  23954725.281 5    594162.238 5    444612.03146  23954723.01246
 20  5 16  1 55 42.0000000  0  8G04G08G09G11G16G26G27G31            -0.000023594
  21557182.297 6      6068.926 6      4672.27347  21557180.71547
  20466187.945 7   -721214.758 7   -550644.58649  20466187.09849
  22819864.492 5   -658563.625 5   -497031.16448  22819863.21548
  22817909.094 6  -1518347.449 6  -1163638.86347  22817905.91447
  21706305.625 6    114916.613 6     87888.23047  21706301.54347
  23197411.344 5    264475.301 5    197441.27046  23197412.42246
  20259056.953 7     33094.926 7     25598.48849  20259055.30949
  23955055.078 5    595890.633 5    445958.83246  23955051.93046
 20  5 16  1 55 43.0000000  0  8G04G08G09G11G16G26G27G31            -0.000024199
  21557204.141 6      6182.461 6      4760.74647  21557201.96947
  20465815.094 7   -723171.719 7   -552169.48849  20465814.27349
  22819526.313 5   -660339.168 5   -498414.71148  22819525.28948
  22817102.859 6  -1522584.102 6  -1166940.14847  22817099.71147
  21706368.242 6    115245.461 6     88144.48447  21706364.02747
  23197559.000 5    265251.000 5    198045.71146  23197560.28946
  20259092.547 7     33283.098 7     25745.11749  20259090.93049
  23955383.406 5    597619.316 5    447305.85546  23955380.76646
 20  5 16  1 55 44.0000000  0  8G04G08G09G11G16G26G27G31            -0.000024803
  21557225.367 6      6296.551 6      4849.63747  21557223.62147
  20465443.094 6   -725128.125 6   -553693.96949  20465442.42249
  22819188.891 5   -662114.160 5   -499797.82848  22819187.39148
  22816297.016 6  -1526820.578 6  -1170241.30147  22816293.78147
  21706430.883 6    115574.348 6     88400.75447  21706426.89147
  23197706.094 5    266026.664 5    198650.12146  23197707.52046
  20259128.586 7     33471.785 7     25892.13749  20259127.11749
  23955712.563 5    599348.208 5    448653.05546  23955709.88346
 20  5 16  1 55 45.0000000  0  8G04G08G09G11G16G26G27G31            -0.000025408
  21557247.555 6      6411.242 6      4939.01247  21557245.69547
  20465071.055 6   -727083.910 6   -555217.95749  20465070.17249
  22818851.164 5   -663888.508 5   -501180.43848  22818849.82848
  22815490.633 6  -1531056.828 6  -1173542.27747  22815487.37147
  21706493.422 6    115903.328 6     88657.10247  21706489.30147
  23197853.891 5    266802.414 5    199254.60246  23197855.14846
  20259164.523 7     33661.066 7     26039.62949  20259162.95749
  23956041.281 5    601077.434 5    450000.49646  23956038.43846
 20  5 16  1 55 46.0000000  0  8G04G08G09G11G16G26G27G31            -0.000026012
  21557269.055 6      6526.445 6      5028.78147  21557267.78547
  20464698.766 7   -729039.176 7   -556741.54349  20464698.35549
  22818513.586 5   -665662.297 5   -502562.60548  22818512.58248
  22814684.773 6  -1535292.953 6  -1176843.15247  22814681.44147
  21706556.594 6    116232.348 6     88913.47747  21706551.60247
  23198002.000 5    267578.121 5    199859.05147  23198002.76647
  20259200.891 7     33850.875 7     26187.53549  20259198.99249
  23956370.008 5    602806.895 5    451348.13746  23956367.89546
 20  5 16  1 55 47.0000000  0  8G04G08G09G11G16G26G27G31            -0.000026617
  21557290.875 6      6642.211 6      5118.98447  21557289.27047
  20464327.203 6   -730993.867 6   -558264.68049  20464326.17649
  22818175.883 5   -667435.512 5   -503944.33248  22818174.56648
  22813878.336 6  -1539528.887 6  -1180143.87547  22813875.03947
  21706618.844 6    116561.363 6     89169.85547  21706614.43847
  23198149.344 5    268353.855 5    200463.52047  23198150.78947
  20259236.852 7     34041.176 7     26335.82449  20259235.34449
  23956699.594 5    604536.566 5    452695.92646  23956696.96546
 20  5 16  1 55 48.0000000  0  8G04G08G09G11G16G26G27G31            -0.000027222
  21557313.586 6      6758.598 6      5209.67647  21557311.44547
  20463955.305 6   -732947.926 6   -559787.32049  20463954.46949
  22817838.414 5   -669208.066 5   -505325.54348  22817837.61348
  22813072.227 6  -1543764.555 6  -1183444.40247  22813069.06347
  21706681.563 6    116890.527 6     89426.34047  21706677.05147
  23198297.156 5    269129.621 5    201068.00846  23198298.33246
  20259273.492 7     34232.133 7     26484.62549  20259271.46949
  23957028.758 5    606266.531 5    454043.93846  23957026.05146
 20  5 16  1 55 49.0000000  0  8G04G08G09G11G16G26G27G31            -0.000027826
  21557335.727 6      6875.563 6      5300.81647  21557333.62547
  20463583.352 6   -734901.395 6   -561309.50449  20463582.55549
  22817501.617 5   -670980.035 5   -506706.29348  22817500.26248
  22812266.406 6  -1548000.039 6  -1186744.78547  22812263.03947
  21706744.492 6    117219.742 6     89682.87947  21706739.95747
  23198444.414 5    269905.457 5    201672.54746  23198445.93046
  20259309.758 7     34423.605 7     26633.82449  20259308.08649
  23957357.953 5    607996.797 5    455392.19546  23957355.58246
 20  5 16  1 55 50.0000000  0  8G04G08G09G11G16G26G27G31            -0.000028431
  21557358.063 6      6993.102 6      5392.40247  21557356.16847
  20463211.789 6   -736854.281 6   -562831.23449  20463211.34849
  22817164.484 5   -672751.375 5   -508086.56348  22817163.24648
  22811460.516 6  -1552235.336 6  -1190045.00847  22811457.36347
  21706806.813 6    117549.051 6     89939.47347  21706802.40247
  23198592.453 5    270681.340 5    202277.12147  23198593.42247
  20259346.328 7     34615.688 7     26783.49649  20259344.24249
  23957688.344 5    609727.328 5    456740.64846  23957684.75446
 20  5 16  1 55 51.0000000  0  8G04G08G09G11G16G26G27G31            -0.000029036
  21557380.180 6      7111.219 6      5484.43847  21557378.62147
  20462840.359 6   -738806.590 6   -564352.51649  20462839.20349
  22816827.617 5   -674522.098 5   -509466.34448  22816826.28548
  22810654.680 6  -1556470.410 6  -1193345.06647  22810650.99647
  21706869.578 6    117878.430 6     90196.13747  21706865.22747
  23198739.836 5    271457.219 5    202881.70746  23198741.01246
  20259382.961 7     34808.293 7     26933.57849  20259380.96149
  23958017.102 5    611458.125 5    458089.32846  23958013.93846
 20  5 16  1 55 52.0000000  0  8G04G08G09G11G16G26G27G31            -0.000029640
  21557403.203 6      7229.926 6      5576.94147  21557401.32847
  20462468.859 7   -740758.262 7   -565873.29349  20462468.07849
  22816490.688 5   -676292.188 5   -510845.63348  22816489.37948
  22809848.766 6  -1560705.254 6  -1196644.93847  22809845.22747
  21706931.922 6    118207.902 6     90452.87547  21706927.70747
  23198887.563 5    272233.176 5    203486.35547  23198888.80147
  20259419.961 7     35001.508 7     27084.13349  20259418.04349
  23958346.531 5    613189.250 5    459438.25846  23958343.63346
 20  5 16  1 55 53.0000000  0  8G04G08G09G11G16G26G27G31            -0.000030245
  21557426.156 6      7349.176 6      5669.86347  21557423.97747
  20462097.719 6   -742709.438 6   -567393.69549  20462096.40249
  22816154.125 5   -678061.719 5   -512224.49248  22816152.81348
  22809042.758 6  -1564939.957 6  -1199944.71147  22809039.36347
  21706994.813 6    118537.395 6     90709.61347  21706990.49647
  23199035.023 5    273009.082 5    204090.95346  23199036.37146
  20259456.617 7     35195.227 7     27235.09049  20259454.89549
  23958675.516 5    614920.547 5    460787.32446  23958672.90646
 20  5 16  1 55 54.0000000  0  8G04G08G09G11G16G26G27G31            -0.000030849
  21557448.734 6      7469.066 6      5763.28147  21557446.45747
  20461726.477 7   -744659.941 7   -568913.56649  20461725.62549
  22815817.563 5   -679830.613 5   -513602.85548  22815816.25048
  22808237.266 6  -1569174.395 6  -1203244.27047  22808233.70747
  21707057.617 6    118867.020 6     90966.46947  21707053.41447
  23199183.258 5    273785.133 5    204695.66446  23199184.14846
  20259493.297 7     35389.582 7     27386.52749  20259492.03149
  23959005.648 5    616652.203 5    462136.66446  23959002.68046
 20  5 16  1 55 55.0000000  0  8G04G08G09G11G16G26G27G31            -0.000031454
  21557471.828 6      7589.508 6      5857.13347  21557469.72347
  20461355.516 7   -746609.855 7   -570432.97749  20461354.20349
  22815480.813 5   -681598.891 5   -514980.72748  22815479.85948
  22807431.523 6  -1573408.625 6  -1206543.67647  22807428.16447
  21707120.734 6    119196.707 6     91223.36347  21707116.06647
  23199330.383 5    274561.203 5    205300.39546  23199332.16446
  20259530.578 7     35584.496 7     27538.40649  20259528.89849
  23959334.984 5    618384.121 5    463486.20346  23959332.03146
 20  5 16  1 55 56.0000000  0  8G04G08G09G11G16G26G27G31            -0.000032059
  21557494.469 6      7710.480 6      5951.38747  21557492.56347
  20460984.273 7   -748559.273 7   -571952.01249  20460983.69549
  22815144.609 5   -683366.613 5   -516358.17248  22815143.05948
  22806625.789 6  -1577642.727 6  -1209842.97347  22806622.29347
  21707183.078 6    119526.383 6     91480.25047  21707178.87547
  23199477.945 5    275337.195 5    205905.06646  23199479.30146
  20259567.797 7     35779.879 7     27690.65249  20259566.23449
  23959664.828 5    620116.219 5    464835.88346  23959662.22346
 20  5 16  1 55 57.0000000  0  8G04G08G09G11G16G26G27G31            -0.000032663
  21557517.852 6      7831.957 6      6046.04747  21557515.42647
  20460613.500 7   -750508.160 7   -573470.62549  20460612.80949
  22814808.203 5   -685133.781 5   -517735.19148  22814807.22348
  22805819.766 6  -1581876.656 6  -1213142.13747  22805816.58247
  21707245.664 6    119856.086 6     91737.16047  21707241.42247
  23199626.008 5    276113.199 5    206509.74646  23199627.36346
  20259605.445 7     35975.777 7     27843.29749  20259603.51649
  23959994.398 5    621848.563 5    466185.75046  23959991.33646
 20  5 16  1 55 58.0000000  0  8G04G08G09G11G16G26G27G31            -0.000033266
  21557541.094 6      7953.965 6      6141.11747  21557539.15647
  20460242.914 7   -752456.500 7   -574988.81649  20460241.80549
  22814472.656 5   -686900.367 5   -519111.74648  22814470.95748
  22805014.258 6  -1586110.453 6  -1216441.19947  22805011.17247
  21707308.281 6    120185.801 6     91994.07847  21707304.47747
  23199773.195 5    276889.168 5    207114.39146  23199774.85246
  20259642.336 7     36172.203 7     27996.36349  20259641.05949
  23960323.539 5    623581.102 5    467535.78146  23960321.13746
 20  5 16  1 55 59.0000000  0  8G04G08G09G11G16G26G27G31            -0.000033871
  21557564.242 6      8076.566 6      6236.65647  21557562.34847
  20459872.469 6   -754404.234 6   -576506.52349  20459871.46549
  22814136.367 5   -688666.340 5   -520487.82848  22814135.31648
  22804209.016 6  -1590344.008 6  -1219740.07847  22804205.34047
  21707371.039 6    120515.629 6     92251.09047  21707367.32847
  23199921.039 5    277665.230 5    207719.11346  23199922.85246
  20259679.773 7     36369.203 7     28149.86749  20259678.02349
  23960653.508 5    625313.945 5    468886.04746  23960650.94546
 20  5 16  1 56  0.0000000  0  8G04G08G09G11G16G26G27G31            -0.000034475
  21557587.805 6      8199.820 6      6332.69147  21557585.62547
  20459501.883 7   -756351.348 7   -578023.76249  20459500.99649
  22813800.055 5   -690431.648 5   -521863.39848  22813798.60948
  22803403.141 6  -1594577.332 6  -1223038.77347  22803399.78547
  21707433.375 6    120845.563 6     92508.18047  21707429.73447
  23200069.125 5    278441.367 5    208323.89146  23200070.41046
  20259717.523 7     36566.828 7     28303.85949  20259716.12549
  23960983.641 5    627047.137 5    470236.57447  23960980.72347
 20  5 16  1 56  1.0000000  0  8G04G08G09G11G16G26G27G31            -0.000035080
  21557610.719 6      8323.609 6      6429.15247  21557609.22347
  20459131.305 7   -758297.910 7   -579540.55949  20459130.01649
  22813464.328 5   -692196.395 5   -523238.52348  22813463.31348
  22802597.750 6  -1598810.469 6  -1226337.32047  22802594.16447
  21707496.867 6    121175.555 6     92765.31347  21707492.87547
  23200216.602 5    279217.484 5    208928.66047  23200218.02347
  20259754.969 7     36764.984 7     28458.26649  20259753.62949
  23961313.492 5    628780.535 5    471587.27347  23961310.71547
 20  5 16  1 56  2.0000000  0  8G04G08G09G11G16G26G27G31            -0.000035685
  21557634.953 6      8448.188 6      6526.23047  21557633.02047
  20458760.969 7   -760243.660 7   -581056.73049  20458759.93049
  22813128.664 5   -693960.293 5   -524612.98848  22813127.59848
  22801791.938 6  -1603043.168 6  -1229635.52347  22801788.79347
  21707559.602 6    121505.820 6     93022.66847  21707555.32047
  23200364.266 5    279993.836 5    209533.61347  23200365.32447
  20259793.313 7     36963.906 7     28613.26649  20259791.17249
  23961643.297 5    630514.453 5    472938.37146  23961640.64546
 20  5 16  1 56  3.0000000  0  8G04G08G09G11G16G26G27G31            -0.000036289
  21557658.898 6      8573.301 6      6623.71947  21557656.88347
  20458390.953 6   -762188.875 6   -582572.48049  20458389.60949
  22812793.141 5   -695723.676 5   -525987.05548  22812791.91448
  22800986.406 6  -1607275.742 6  -1232933.63747  22800983.34447
  21707622.656 6    121836.102 6     93280.03147  21707618.37147
  23200512.109 5    280770.211 5    210138.57447  23200513.64847
  20259830.922 7     37163.332 7     28768.67249  20259829.17649
  23961973.836 5    632248.551 5    474289.60947  23961970.66447
 20  5 16  1 56  4.0000000  0  8G04G08G09G11G16G26G27G31            -0.000036894
  21557682.430 6      8698.883 6      6721.56647  21557680.25047
  20458020.977 7   -764133.602 7   -584087.85249  20458020.02349
  22812457.844 5   -697486.477 5   -527360.66448  22812456.62548
  22800181.102 6  -1611508.176 6  -1236231.62947  22800177.94147
  21707685.203 6    122166.383 6     93537.39547  21707681.12147
  23200659.805 5    281546.516 5    210743.47746  23200661.27346
  20259869.039 7     37363.254 7     28924.45349  20259867.51649
  23962303.734 5    633982.848 5    475641.00447  23962300.90247
 20  5 16  1 56  5.0000000  0  8G04G08G09G11G16G26G27G31            -0.000037498
  21557706.656 6      8825.168 6      6819.97347  21557704.59047
  20457651.063 7   -766077.641 7   -585602.69149  20457650.04749
  22812122.344 5   -699248.613 5   -528733.75848  22812121.35948
  22799375.938 6  -1615740.316 6  -1239529.40247  22799372.72347
  21707748.320 6    122496.820 6     93794.87147  21707743.89147
  23200807.609 5    282322.973 5    211348.50446  23200808.91046
  20259907.352 7     37563.828 7     29080.74249  20259905.68049
  23962633.820 5    635717.508 5    476992.68447  23962631.19147
 20  5 16  1 56  6.0000000  0  8G04G08G09G11G16G26G27G31            -0.000038101
  21557731.164 6      8952.094 6      6918.87947  21557729.02047
  20457280.953 7   -768021.027 7   -587117.01649  20457279.75849
  22811786.820 5   -701010.059 5   -530106.30948  22811786.38748
  22798570.961 6  -1619972.184 6  -1242826.95747  22798567.44547
  21707811.422 6    122827.418 6     94052.48047  21707806.75447
  23200955.375 5    283099.484 5    211953.58647  23200956.75847
  20259945.398 7     37765.039 7     29237.53149  20259943.71149
  23962963.172 5    637452.531 5    478344.66047  23962961.13747
 20  5 16  1 56  7.0000000  0  8G04G08G09G11G16G26G27G31            -0.000038706
  21557755.273 6      9079.531 6      7018.17647  21557753.43447
  20456911.359 7   -769963.871 7   -588630.92249  20456910.54749
  22811452.164 5   -702770.926 5   -531478.41848  22811451.04348
  22797766.180 6  -1624203.906 6  -1246124.40247  22797762.24647
  21707874.227 6    123158.035 6     94310.10547  21707869.87947
  23201103.320 5    283876.035 5    212558.69147  23201104.54347
  20259984.195 7     37966.746 7     29394.71149  20259982.02049
  23963293.773 5    639187.746 5    479696.77746  23963291.17246
 20  5 16  1 56  8.0000000  0  8G04G08G09G11G16G26G27G31            -0.000039310
  21557779.445 6      9207.496 6      7117.89147  21557778.16047
  20456541.695 7   -771906.203 7   -590144.42649  20456540.84449
  22811117.008 5   -704531.270 5   -532850.11748  22811116.02348
  22796960.469 6  -1628435.465 6  -1249421.72347  22796956.94947
  21707937.242 6    123488.652 6     94567.73047  21707933.10947
  23201250.383 5    284652.516 5    213163.73446  23201252.46546
  20260022.727 7     38168.984 7     29552.29749  20260020.98449
  23963623.367 5    640923.172 5    481049.05546  23963621.94146
 20  5 16  1 56  9.0000000  0  8G04G08G09G11G16G26G27G31            -0.000039915
  21557803.797 6      9336.016 6      7218.03147  21557802.10947
  20456172.102 7   -773847.953 7   -591657.47749  20456171.29349
  22810781.547 5   -706290.988 5   -534221.32848  22810781.10248
  22796154.719 6  -1632666.820 6  -1252718.88347  22796151.60947
  21708000.039 6    123819.340 6     94825.39847  21707996.15247
  23201398.836 5    285429.031 5    213768.81346  23201399.83246
  20260061.008 7     38371.758 7     29710.30149  20260059.68849
  23963953.492 5    642658.875 5    482401.53547  23963951.94147
 20  5 16  1 56 10.0000000  0  8G04G08G09G11G16G26G27G31            -0.000040520
  21557828.195 6      9465.195 6      7318.69547  21557826.61347
  20455802.344 7   -775789.063 7   -593170.02749  20455801.35549
  22810447.695 5   -708050.008 5   -535591.99248  22810446.13348
  22795349.992 6  -1636897.918 6  -1256015.84047  22795346.48047
  21708062.922 6    124150.172 6     95083.18447  21708058.67247
  23201546.367 5    286205.656 5    214373.96946  23201547.85246
  20260099.633 7     38575.168 7     29868.79349  20260097.98849
  23964284.406 5    644394.926 5    483754.28946  23964282.62946
 20  5 16  1 56 11.0000000  0  8G04G08G09G11G16G26G27G31            -0.000041124
  21557853.734 6      9595.109 6      7419.92247  21557851.19147
  20455433.805 7   -777729.426 7   -594682.00449  20455432.72349
  22810112.836 5   -709808.297 5   -536962.08648  22810111.77748
  22794544.922 6  -1641128.637 6  -1259312.50847  22794541.46547
  21708125.883 6    124481.230 6     95341.15247  21708121.89847
  23201694.539 5    286982.521 5    214979.32946  23201695.34846
  20260138.063 7     38779.281 7     30027.84849  20260136.84849
  23964614.922 5    646131.387 5    485107.37547  23964613.20747
 20  5 16  1 56 12.0000000  0  8G04G08G09G11G16G26G27G31            -0.000041727
  21557878.023 6      9725.613 6      7521.61347  21557876.07447
  20455064.227 7   -779669.191 7   -596193.51249  20455063.46949
  22809778.500 5   -711565.957 5   -538331.68848  22809777.27048
  22793740.008 6  -1645359.145 6  -1262609.00847  22793736.75447
  21708189.109 6    124812.355 6     95599.17647  21708184.92247
  23201842.078 5    287759.332 5    215584.62947  23201843.32847
  20260177.461 7     38983.969 7     30187.34449  20260175.92649
  23964945.297 5    647868.156 5    486460.69547  23964943.65247
 20  5 16  1 56 13.0000000  0  8G04G08G09G11G16G26G27G31            -0.000042332
  21557903.055 6      9856.695 6      7623.75847  21557900.90647
  20454695.344 7   -781608.340 7   -597704.53949  20454693.82849
  22809443.805 5   -713322.988 5   -539700.80548  22809442.97748
  22792934.805 6  -1649589.434 6  -1265905.32847  22792931.41847
  21708252.039 6    125143.582 6     95857.27347  21708247.77347
  23201990.094 5    288536.223 5    216190.00046  23201991.29746
  20260216.602 7     39189.234 7     30347.28949  20260215.02049
  23965276.133 5    649605.184 5    487814.22747  23965274.17247
 20  5 16  1 56 14.0000000  0  8G04G08G09G11G16G26G27G31            -0.000042936
  21557927.844 6      9988.238 6      7726.25847  21557926.43047
  20454326.445 7   -783547.035 7   -599215.21149  20454325.15649
  22809109.891 5   -715079.539 5   -541069.54748  22809108.59048
  22792129.750 6  -1653819.648 6  -1269201.59847  22792126.56347
  21708315.156 6    125474.766 6     96115.34047  21708311.00447
  23202138.086 5    289313.066 5    216795.33246  23202139.00446
  20260255.500 7     39394.957 7     30507.59849  20260254.21149
  23965607.023 5    651342.359 5    489167.86346  23965604.54746
 20  5 16  1 56 15.0000000  0  8G04G08G09G11G16G26G27G31            -0.000043541
  21557952.844 6     10120.238 6      7829.11347  21557951.49647
  20453957.414 7   -785485.262 7   -600725.51249  20453956.71949
  22808775.805 5   -716835.570 5   -542437.88348  22808774.75048
  22791325.047 6  -1658049.754 6  -1272497.79347  22791322.02747
  21708377.992 6    125805.910 6     96373.37147  21708373.79347
  23202285.484 4    290089.793 4    217400.57046  23202286.51246
  20260294.797 7     39601.137 7     30668.26249  20260293.23049
  23965937.336 5    653079.730 5    490521.65246  23965935.60946
 20  5 16  1 56 16.0000000  0  8G04G08G09G11G16G26G27G31            -0.000044144
  21557978.211 6     10252.922 6      7932.50047  21557976.65647
  20453589.211 7   -787422.777 7   -602235.27049  20453587.99249
  22808441.273 5   -718590.914 5   -543805.68448  22808440.26648
  22790519.852 6  -1662279.578 6  -1275793.75447  22790516.73447
  21708441.367 6    126137.207 6     96631.52347  21708437.03547
  23202433.234 4    290866.672 4    218005.93447  23202434.83247
  20260334.328 7     39807.934 7     30829.39849  20260332.59049
  23966267.867 5    654817.387 5    491875.66847  23966266.07847
 20  5 16  1 56 17.0000000  0  8G04G08G09G11G16G26G27G31            -0.000044748
  21558004.055 6     10386.195 6      8036.34447  21558001.80947
  20453220.352 7   -789359.707 7   -603744.56349  20453219.30149
  22808107.328 5   -720345.629 5   -545172.99248  22808106.66848
  22789715.250 6  -1666509.168 6  -1279089.54347  22789712.17247
  21708504.328 6    126468.586 6     96889.74247  21708500.02347
  23202581.648 4    291643.598 4    218611.34046  23202582.46946
  20260373.867 7     40015.344 7     30991.01249  20260372.08249
  23966598.969 5    656555.418 5    493229.97747  23966596.82047
 20  5 16  1 56 18.0000000  0  8G04G08G09G11G16G26G27G31            -0.000045353
  21558029.336 6     10520.055 6      8140.65647  21558027.32047
  20452852.031 7   -791296.039 7   -605253.38749  20452851.15649
  22807774.289 5   -722099.750 5   -546539.83648  22807773.04748
  22788910.352 6  -1670738.559 6  -1282385.17247  22788907.12547
  21708567.281 6    126800.043 6     97148.02047  21708563.06647
  23202729.289 4    292420.555 4    219216.77346  23202730.39546
  20260413.398 7     40223.301 7     31153.05949  20260411.62549
  23966929.602 5    658293.684 5    494584.46547  23966927.60247
 20  5 16  1 56 19.0000000  0  8G04G08G09G11G16G26G27G31            -0.000045958
  21558054.984 6     10654.563 6      8245.46947  21558052.82047
  20452483.461 7   -793231.723 7   -606761.71549  20452482.78149
  22807440.383 5   -723853.145 5   -547906.12148  22807439.42648
  22788105.484 6  -1674967.664 6  -1285680.57847  22788102.60947
  21708630.313 6    127131.652 6     97406.41047  21708626.53947
  23202877.148 5    293197.594 5    219822.24247  23202878.25047
  20260453.109 7     40431.910 7     31315.60949  20260451.22349
  23967260.531 5    660032.301 5    495939.22347  23967257.87947
 20  5 16  1 56 20.0000000  0  8G04G08G09G11G16G26G27G31            -0.000046560
  21558080.813 6     10789.617 6      8350.70747  21558078.44547
  20452115.398 7   -795166.777 7   -608269.55149  20452114.30549
  22807106.336 5   -725605.969 5   -549271.95748  22807105.58648
  22787300.852 6  -1679196.539 6  -1288975.80147  22787297.52747
  21708693.523 6    127463.332 6     97664.86347  21708689.51247
  23203025.227 5    293974.746 5    220427.81346  23203025.88346
  20260492.633 7     40641.063 7     31478.58249  20260491.19949
  23967591.328 5    661771.168 5    497294.18047  23967588.91447
 20  5 16  1 56 21.0000000  0  8G04G08G09G11G16G26G27G31            -0.000047165
  21558106.461 6     10925.355 6      8456.47747  21558104.21147
  20451747.438 7   -797101.215 7   -609776.90249  20451746.30949
  22806773.328 5   -727358.078 5   -550637.23848  22806771.89548
  22786495.938 6  -1683425.156 6  -1292270.83247  22786493.07447
  21708756.625 6    127795.160 6     97923.43447  21708753.06647
  23203172.703 5    294751.941 5    221033.41446  23203173.64546
  20260532.891 7     40850.863 7     31642.05949  20260531.08249
  23967922.344 5    663510.418 5    498649.44147  23967919.74247
 20  5 16  1 56 22.0000000  0  8G04G08G09G11G16G26G27G31            -0.000047770
  21558132.367 6     11061.719 6      8562.72747  21558130.27047
  20451379.266 7   -799034.992 7   -611283.74249  20451378.46149
  22806440.164 5   -729109.527 5   -552002.00048  22806438.90248
  22785691.000 6  -1687653.480 6  -1295565.63347  22785688.40647
  21708820.219 6    128127.117 6     98182.10247  21708815.80147
  23203320.734 5    295529.270 5    221639.12946  23203321.79346
  20260572.773 7     41061.273 7     31806.01649  20260571.13349
  23968253.422 5    665249.984 5    500004.94147  23968250.52347
 20  5 16  1 56 23.0000000  0  8G04G08G09G11G16G26G27G31            -0.000048372
  21558158.305 6     11198.637 6      8669.41047  21558156.52347
  20451011.047 7   -800968.219 7   -612790.15649  20451010.39549
  22806107.094 5   -730860.387 5   -553366.30948  22806106.06348
  22784886.398 6  -1691881.652 6  -1298860.30947  22784883.90247
  21708882.789 6    128459.113 6     98440.79747  21708878.91047
  23203468.219 4    296306.566 4    222244.81646  23203469.64546
  20260612.898 7     41272.234 7     31970.40649  20260611.40249
  23968584.297 5    666989.762 5    501360.62146  23968582.37946
 20  5 16  1 56 24.0000000  0  8G04G08G09G11G16G26G27G31            -0.000048977
  21558185.195 6     11336.125 6      8776.54747  21558183.20747
  20450643.195 7   -802900.848 7   -614296.10549  20450642.56349
  22805773.430 5   -732610.637 5   -554730.14148  22805773.00848
  22784081.992 6  -1696109.598 6  -1302154.81647  22784079.30947
  21708945.500 6    128791.180 6     98699.54747  21708942.01647
  23203615.852 4    297083.918 4    222850.53546  23203617.64846
  20260653.367 7     41483.746 7     32135.21949  20260651.80949
  23968915.406 5    668729.840 5    502716.52046  23968913.53946
 20  5 16  1 56 25.0000000  0  8G04G08G09G11G16G26G27G31            -0.000049580
  21558210.945 6     11474.301 6      8884.21147  21558208.73047
  20450275.547 7   -804832.785 7   -615801.50449  20450275.12949
  22805441.063 5   -734360.195 5   -556093.43448  22805439.55148
  22783277.820 6  -1700337.238 6  -1305449.07847  22783274.99247
  21709009.164 6    129123.438 6     98958.45347  21709004.99647
  23203764.313 4    297861.395 4    223456.35546  23203765.59446
  20260693.438 7     41695.918 7     32300.54749  20260691.66849
  23969246.711 5    670470.281 5    504072.71147  23969244.37947
 20  5 16  1 56 26.0000000  0  8G04G08G09G11G16G26G27G31            -0.000050184
  21558237.781 6     11613.078 6      8992.34847  21558235.55147
  20449908.453 7   -806764.090 7   -617306.41849  20449907.52349
  22805108.211 5   -736109.070 5   -557456.19948  22805107.25048
  22782473.023 6  -1704564.629 6  -1308743.14547  22782470.28947
  21709072.977 6    129455.766 6     99217.40647  21709068.62547
  23203912.586 4    298638.953 4    224062.24246  23203913.51246
  20260733.930 7     41908.711 7     32466.35949  20260732.57049
  23969577.844 5    672211.016 5    505429.10546  23969576.07046
 20  5 16  1 56 27.0000000  0  8G04G08G09G11G16G26G27G31            -0.000050787
  21558264.180 6     11752.418 6      9100.92247  21558262.05147
  20449541.180 7   -808694.820 7   -618810.88749  20449540.06349
  22804775.797 5   -737857.344 5   -558818.48848  22804774.18848
  22781668.414 6  -1708791.809 6  -1312037.04347  22781665.85547
  21709135.750 6    129788.199 6     99476.44947  21709131.68447
  23204060.633 5    299416.551 5    224668.16446  23204061.03546
  20260774.961 7     42122.035 7     32632.58649  20260772.80149
  23969909.250 5    673952.059 5    506785.75846  23969907.16046
 20  5 16  1 56 28.0000000  0  8G04G08G09G11G16G26G27G31            -0.000051392
  21558290.297 6     11892.305 6      9209.93047  21558288.76247
  20449173.641 6   -810624.996 6   -620314.92249  20449172.70749
  22804442.336 5   -739605.066 5   -560180.35248  22804441.57448
  22780864.508 6  -1713018.855 6  -1315330.84847  22780861.48047
  21709199.078 6    130120.672 6     99735.52047  21709195.22747
  23204207.953 4    300194.137 4    225274.07047  23204209.10947
  20260815.586 7     42335.883 7     32799.21949  20260814.08249
  23970240.359 5    675693.313 5    508142.58247  23970238.37547
 20  5 16  1 56 29.0000000  0  8G04G08G09G11G16G26G27G31            -0.000051996
  21558317.133 6     12032.758 6      9319.36747  21558315.25447
  20448806.531 6   -812554.625 6   -621818.52349  20448805.59449
  22804110.445 5   -741352.180 5   -561541.73848  22804109.32848
  22780060.281 6  -1717245.680 6  -1318624.46947  22780057.12147
  21709262.008 6    130453.219 6     99994.64547  21709258.16447
  23204356.375 5    300971.715 5    225879.98846  23204357.47346
  20260856.078 7     42550.285 7     32966.28949  20260854.68049
  23970571.477 5    677434.832 5    509499.59846  23970569.79346
 20  5 16  1 56 30.0000000  0  8G04G08G09G11G16G26G27G31            -0.000052599
  21558344.133 6     12173.699 6      9429.19147  21558341.75847
  20448439.656 6   -814483.781 6   -623321.76249  20448438.34449
  22803778.008 5   -743098.762 5   -562902.71148  22803776.91448
  22779256.023 6  -1721472.410 6  -1321918.02747  22779252.53547
  21709325.477 6    130785.742 6    100253.75847  21709321.35247
  23204504.359 5    301749.277 5    226485.89146  23204505.12946
  20260897.195 7     42765.145 7     33133.71149  20260895.24249
  23970903.320 5    679176.488 5    510856.73046  23970901.44146
 20  5 16  1 56 31.0000000  0  8G04G08G09G11G16G26G27G31            -0.000053204
  21558370.797 6     12315.250 6      9539.48847  21558368.86747
  20448072.469 6   -816412.293 6   -624824.50049  20448071.57449
  22803445.938 5   -744844.699 5   -564263.18848  22803444.45748
  22778451.563 6  -1725698.867 6  -1325211.37547  22778448.41047
  21709389.414 6    131118.379 6    100512.95347  21709385.14147
  23204652.688 5    302526.918 5    227091.84846  23204653.08646
  20260938.156 7     42980.602 7     33301.60249  20260936.34049
  23971234.609 5    680918.508 5    512214.14546  23971232.77346
 20  5 16  1 56 32.0000000  0  8G04G08G09G11G16G26G27G31            -0.000053806
  21558397.875 6     12457.328 6      9650.20747  21558396.16047
  20447705.563 6   -818340.250 6   -626326.80549  20447704.85549
  22803113.734 5   -746590.094 5   -565623.23848  22803112.23448
  22777647.484 6  -1729925.152 6  -1328504.57847  22777643.98447
  21709452.445 6    131451.031 6    100772.16847  21709448.08647
  23204800.398 5    303304.527 5    227697.78146  23204800.91446
  20260979.055 7     43196.602 7     33469.91049  20260977.61749
  23971565.867 5    682660.707 5    513571.70746  23971564.62546
 20  5 16  1 56 33.0000000  0  8G04G08G09G11G16G26G27G31            -0.000054411
  21558425.484 6     12600.117 6      9761.46547  21558423.10247
  20447338.844 6   -820267.516 6   -627828.56649  20447337.93849
  22802781.570 5   -748334.750 5   -566982.71548  22802780.50048
  22776843.258 6  -1734151.152 6  -1331797.57047  22776840.00847
  21709515.648 6    131783.871 6    101031.51247  21709511.36747
  23204948.289 4    304082.297 4    228303.83246  23204949.12946
  20261020.602 7     43413.270 7     33638.73849  20261018.95349
  23971897.625 5    684403.324 5    514929.57847  23971896.35247
 20  5 16  1 56 34.0000000  0  8G04G08G09G11G16G26G27G31            -0.000055014
  21558452.445 6     12743.438 6      9873.14847  21558450.41047
  20446972.000 6   -822194.238 6   -629329.90649  20446971.40249
  22802449.500 5   -750078.785 5   -568341.69548  22802448.58248
  22776039.656 6  -1738376.918 6  -1335090.37547  22776035.61747
  21709578.883 6    132116.773 6    101290.91447  21709574.68847
  23205096.211 4    304860.055 4    228909.87146  23205097.05946
  20261061.430 7     43630.496 7     33808.00849  20261059.80549
  23972230.141 5    686146.223 5    516287.68047  23972227.82447
 20  5 16  1 56 35.0000000  0  8G04G08G09G11G16G26G27G31            -0.000055618
  21558479.930 6     12887.363 6      9985.29747  21558477.37947
  20446605.672 6   -824120.332 6   -630830.76649  20446604.34049
  22802118.109 5   -751822.258 5   -569700.24648  22802116.65248
  22775235.063 6  -1742602.480 6  -1338383.01647  22775231.32847
  21709642.391 6    132449.754 6    101550.37547  21709638.30547
  23205244.453 5    305637.887 5    229515.96946  23205245.00846
  20261103.133 7     43848.246 7     33977.68049  20261101.69949
  23972561.406 5    687889.367 5    517645.97346  23972559.14546
 20  5 16  1 56 36.0000000  0  8G04G08G09G11G16G26G27G31            -0.000056221
  21558507.602 6     13031.813 6     10097.85247  21558504.98447
  20446239.117 6   -826045.879 6   -632331.18849  20446238.06649
  22801786.125 5   -753565.137 5   -571058.33248  22801785.08648
  22774431.250 6  -1746827.859 6  -1341675.52047  22774427.60947
  21709705.156 6    132782.750 6    101809.85547  21709701.48447
  23205392.078 5    306415.684 5    230122.04746  23205393.03146
  20261144.609 7     44066.555 7     34147.78949  20261143.23449
  23972893.398 5    689632.723 5    519004.43046  23972891.01646
 20  5 16  1 56 37.0000000  0  8G04G08G09G11G16G26G27G31            -0.000056826
  21558535.414 6     13176.871 6     10210.88347  21558533.15647
  20445873.211 7   -827970.789 7   -633831.11749  20445871.94949
  22801454.617 5   -755307.313 5   -572415.86748  22801453.50448
  22773626.883 6  -1751053.027 6  -1344967.84847  22773623.75447
  21709769.063 6    133115.875 6    102069.43047  21709765.23847
  23205540.391 4    307193.609 4    230728.21546  23205540.67246
  20261186.203 7     44285.469 7     34318.37149  20261185.07849
  23973224.695 5    691376.406 5    520363.13346  23973222.64846
 20  5 16  1 56 38.0000000  0  8G04G08G09G11G16G26G27G31            -0.000057428
  21558562.570 6     13322.543 6     10324.38747  21558560.52347
  20445507.000 6   -829895.082 6   -635330.57049  20445506.38749
  22801123.141 5   -757048.863 5   -573772.91448  22801122.51648
  22772822.906 6  -1755277.953 6  -1348260.00047  22772819.73447
  21709832.250 6    133449.070 6    102329.06647  21709828.63747
  23205688.500 4    307971.547 4    231334.40246  23205688.89846
  20261228.148 7     44504.938 7     34489.39149  20261226.66449
  23973556.727 5    693120.387 5    521722.08246  23973554.40246
 20  5 16  1 56 39.0000000  0  8G04G08G09G11G16G26G27G31            -0.000058033
  21558590.805 6     13468.742 6     10438.30547  21558588.26647
  20445140.773 6   -831818.844 6   -636829.60549  20445140.05949
  22800791.805 5   -758789.879 5   -575129.55548  22800790.91448
  22772019.344 6  -1759502.676 6  -1351551.99247  22772016.12147
  21709896.078 6    133782.297 6    102588.72347  21709891.91047
  23205836.156 5    308749.516 5    231940.60547  23205837.17247
  20261269.734 7     44724.938 7     34660.81349  20261268.27749
  23973889.133 5    694864.582 5    523081.20746  23973886.53946
 20  5 16  1 56 40.0000000  0  8G04G08G09G11G16G26G27G31            -0.000058636
  21558618.219 6     13615.539 6     10552.69147  21558616.36347
  20444774.531 6   -833741.980 6   -638328.14849  20444773.84449
  22800461.055 5   -760530.273 5   -576485.70748  22800459.67248
  22771215.063 6  -1763727.203 6  -1354843.84047  22771211.73047
  21709959.422 6    134115.629 6    102848.44947  21709955.42647
  23205984.938 5    309527.496 5    232546.82446  23205985.13746
  20261311.664 7     44945.523 7     34832.69549  20261310.60949
  23974221.031 5    696609.074 5    524440.55547  23974218.42647
 20  5 16  1 56 41.0000000  0  8G04G08G09G11G16G26G27G31            -0.000059240
  21558646.039 6     13762.859 6     10667.49247  21558644.25447
  20444408.813 6   -835664.590 6   -639826.28549  20444407.95749
  22800129.789 5   -762270.109 5   -577841.41848  22800128.48848
  22770411.672 6  -1767951.559 6  -1358135.53947  22770407.81347
  21710023.203 6    134448.977 6    103108.19947  21710018.91447
  23206131.984 5    310305.508 5    233153.06646  23206133.24646
  20261353.961 7     45166.621 7     35004.98049  20261352.27349
  23974553.172 5    698353.809 5    525800.09046  23974550.30146
 20  5 16  1 56 42.0000000  0  8G04G08G09G11G16G26G27G31            -0.000059843
  21558674.242 6     13910.910 6     10782.85547  21558672.41047
  20444043.570 6   -837586.492 6   -641323.87549  20444042.18049
  22799799.305 5   -764009.137 5   -579196.50848  22799797.95748
  22769607.367 6  -1772175.539 6  -1361426.94547  22769604.26247
  21710086.633 6    134782.559 6    103368.13747  21710082.41047
  23206280.469 5    311083.688 5    233759.44146  23206281.27346
  20261396.047 7     45388.422 7     35177.81349  20261394.71149
  23974885.125 5    700098.918 5    527159.91846  23974882.50446
 20  5 16  1 56 43.0000000  0  8G04G08G09G11G16G26G27G31            -0.000060448
  21558702.828 6     14059.500 6     10898.64547  21558700.68847
  20443677.906 7   -839507.840 7   -642821.02349  20443676.93449
  22799468.344 5   -765747.605 5   -580551.16048  22799467.04748
  22768803.867 6  -1776399.371 6  -1364718.23847  22768800.53547
  21710149.875 6    135116.168 6    103628.09047  21710145.74247
  23206428.852 5    311861.844 5    234365.80546  23206429.32846
  20261438.844 7     45610.754 7     35351.05949  20261437.21549
  23975217.094 5    701844.309 5    528519.95746  23975214.67646
 20  5 16  1 56 44.0000000  0  8G04G08G09G11G16G26G27G31            -0.000061050
  21558731.305 6     14208.691 6     11014.89147  21558729.57447
  20443311.859 6   -841428.551 6   -644317.68449  20443311.11349
  22799136.820 5   -767485.449 5   -581905.32448  22799136.12948
  22767999.766 6  -1780622.922 6  -1368009.32447  22767996.68447
  21710213.805 6    135449.898 6    103888.14147  21710209.12547
  23206577.023 5    312640.117 5    234972.24246  23206577.24646
  20261481.063 7     45833.691 7     35524.77749  20261479.45749
  23975549.055 5    703589.992 5    529880.22746  23975546.73446
 20  5 16  1 56 45.0000000  0  8G04G08G09G11G16G26G27G31            -0.000061653
  21558759.859 6     14358.590 6     11131.69147  21558757.62947
  20442946.742 6   -843348.559 6   -645813.80149  20442945.66449
  22798806.586 5   -769222.563 5   -583258.91848  22798805.58248
  22767196.211 6  -1784846.199 6  -1371300.19947  22767193.11347
  21710277.117 6    135783.785 6    104148.31647  21710272.80147
  23206724.852 5    313418.492 5    235578.76646  23206725.57446
  20261523.336 7     46057.289 7     35699.00849  20261521.92249
  23975881.977 5    705336.066 5    531240.79746  23975879.21546
 20  5 16  1 56 46.0000000  0  8G04G08G09G11G16G26G27G31            -0.000062258
  21558788.266 6     14509.129 6     11248.99647  21558786.45747
  20442581.391 6   -845267.891 6   -647309.38349  20442580.72349
  22798476.609 5   -770958.961 5   -584611.96148  22798475.02048
  22766392.695 6  -1789069.125 6  -1374590.78547  22766389.94947
  21710340.711 6    136117.844 6    104408.61347  21710336.33247
  23206872.883 5    314197.027 5    236185.41846  23206873.66046
  20261566.133 7     46281.543 7     35873.75449  20261564.64149
  23976214.414 5    707082.480 5    532601.62546  23976211.79346
 20  5 16  1 56 47.0000000  0  8G04G08G09G11G16G26G27G31            -0.000062860
  21558817.328 6     14660.293 6     11366.78947  21558814.89147
  20442216.313 6   -847186.617 6   -648804.49249  20442215.13749
  22798146.313 5   -772694.734 5   -585964.51648  22798144.72348
  22765589.578 6  -1793291.855 6  -1377881.22347  22765586.33247
  21710404.133 6    136452.000 6    104668.99647  21710399.94947
  23207020.852 5    314975.629 5    236792.12547  23207021.46547
  20261609.102 7     46506.379 7     36048.94549  20261607.18449
  23976545.984 5    708829.215 5    533962.71147  23976544.06347
 20  5 16  1 56 48.0000000  0  8G04G08G09G11G16G26G27G31            -0.000063463
  21558846.453 6     14811.969 6     11484.98047  21558843.66847
  20441851.336 6   -849104.785 6   -650299.16449  20441850.57849
  22797816.008 5   -774429.930 5   -587316.61348  22797814.60548
  22764785.633 6  -1797514.426 6  -1381171.53547  22764782.71147
  21710467.984 6    136786.180 6    104929.39847  21710463.83647
  23207169.297 5    315754.160 5    237398.77347  23207169.98847
  20261651.797 7     46731.707 7     36224.52049  20261650.10249
  23976878.555 5    710576.152 5    535323.95346  23976876.74646
 20  5 16  1 56 49.0000000  0  8G04G08G09G11G16G26G27G31            -0.000064066
  21558875.484 6     14964.148 6     11603.56347  21558872.75847
  20441485.867 6   -851022.430 6   -651793.43849  20441485.14149
  22797486.000 5   -776164.590 5   -588668.29749  22797484.80549
  22763981.773 6  -1801736.852 6  -1384461.73047  22763979.34047
  21710531.445 5    137120.406 5    105189.83247  21710527.10547
  23207317.906 4    316532.695 4    238005.42646  23207318.29346
  20261694.805 7     46957.531 7     36400.48449  20261693.14849
  23977210.789 5    712323.332 5    536685.39146  23977209.23046
 20  5 16  1 56 50.0000000  0  8G04G08G09G11G16G26G27G31            -0.000064671
  21558904.094 6     15116.930 6     11722.61347  21558902.02047
  20441121.734 6   -852939.480 6   -653287.24249  20441120.69149
  22797156.320 5   -777898.637 5   -590019.51249  22797154.59849
  22763178.461 6  -1805959.043 6  -1387751.74647  22763175.79747
  21710594.508 6    137454.641 6    105450.27747  21710591.24647
  23207466.195 5    317311.297 5    238612.10546  23207466.25446
  20261737.922 7     47183.961 7     36576.92249  20261736.28949
  23977543.492 5    714070.727 5    538046.99246  23977541.27046
 20  5 16  1 56 51.0000000  0  8G04G08G09G11G16G26G27G31            -0.000065273
  21558933.305 6     15270.406 6     11842.19947  21558931.02347
  20440756.836 6   -854855.840 6   -654780.50449  20440756.07449
  22796826.344 5   -779631.984 5   -591370.17248  22796824.93448
  22762375.219 6  -1810180.895 6  -1391041.50847  22762372.19547
  21710658.188 6    137789.113 6    105710.90247  21710654.52747
  23207614.461 5    318090.039 5    239218.91846  23207614.59046
  20261781.320 7     47411.047 7     36753.87149  20261779.18049
  23977876.883 5    715818.547 5    539408.92247  23977874.17247
 20  5 16  1 56 52.0000000  0  8G04G08G09G11G16G26G27G31            -0.000065876
  21558963.180 6     15424.531 6     11962.28547  21558960.91447
  20440392.063 6   -856771.531 6   -656273.25849  20440391.35249
  22796496.141 3   -781364.574 3   -592720.22748  22796495.12148
  22761571.797 6  -1814402.422 6  -1394331.02047  22761568.35547
  21710722.359 6    138123.754 6    105971.66847  21710718.28547
  23207762.914 5    318868.906 5    239825.84046  23207762.79746
  20261824.570 7     47638.789 7     36931.32849  20261823.12549
  23978208.930 5    717566.711 5    540771.11347  23978207.04747
 20  5 16  1 56 53.0000000  0  8G04G08G09G11G16G26G27G31            -0.000066479
  21558992.484 6     15579.156 6     12082.77047  21558989.93447
  20440027.664 7   -858686.676 7   -657765.58249  20440027.05149
  22796166.820 5   -783096.609 5   -594069.85548  22796165.39548
  22760768.734 6  -1818623.887 6  -1397620.47747  22760765.12547
  21710785.898 6    138458.371 6    106232.41447  21710781.94547
  23207911.039 5    319647.734 5    240432.72746  23207910.52746
  20261867.844 7     47867.012 7     37109.16449  20261866.58249
  23978541.992 5    719315.086 5    542133.48846  23978539.37146
 20  5 16  1 56 54.0000000  0  8G04G08G09G11G16G26G27G31            -0.000067083
  21559021.273 6     15734.348 6     12203.70747  21559019.52347
  20439663.672 7   -860601.277 7   -659257.48049  20439662.59049
  22795837.430 5   -784828.098 5   -595419.07048  22795835.92648
  22759965.438 6  -1822845.113 6  -1400909.73847  22759962.28547
  21710849.344 6    138793.047 6    106493.20347  21710845.53947
  23208058.906 5    320426.578 5    241039.60946  23208058.67246
  20261911.523 7     48095.781 7     37287.43449  20261909.77349
  23978874.102 5    721063.695 5    543496.02746  23978872.28946
 20  5 16  1 56 55.0000000  0  8G04G08G09G11G16G26G27G31            -0.000067686
  21559051.195 6     15890.094 6     12325.06647  21559049.21547
  20439299.352 7   -862515.316 7   -660748.93849  20439298.18449
  22795507.859 5   -786558.961 5   -596767.79748  22795506.83248
  22759161.984 6  -1827066.137 6  -1404198.83647  22759158.49647
  21710913.406 6    139127.816 6    106754.05547  21710909.13347
  23208207.102 5    321205.426 5    241646.50847  23208206.47747
  20261955.055 7     48325.074 7     37466.09849  20261953.41049
  23979207.102 5    722812.586 5    544858.80146  23979205.26646
 20  5 16  1 56 56.0000000  0  8G04G08G09G11G16G26G27G31            -0.000068289
  21559081.023 6     16046.398 6     12446.86747  21559078.67647
  20438935.250 7   -864428.770 7   -662239.93449  20438934.37949
  22795178.289 5   -788289.227 5   -598116.07048  22795177.42648
  22758359.203 6  -1831286.992 6  -1407487.80947  22758355.47347
  21710976.938 6    139462.578 6    107014.90247  21710972.80547
  23208354.930 5    321984.316 5    242253.43446  23208355.46546
  20261998.703 7     48554.938 7     37645.21949  20261997.30549
  23979540.430 5    724561.703 5    546221.75047  23979538.45747
 20  5 16  1 56 57.0000000  0  8G04G08G09G11G16G26G27G31            -0.000068892
  21559111.281 6     16203.355 6     12569.16447  21559108.73847
  20438571.484 7   -866341.527 7   -663730.39549  20438570.43049
  22794849.016 5   -790018.824 5   -599463.80548  22794847.99648
  22757555.852 6  -1835507.547 6  -1410776.54747  22757552.49247
  21711040.539 6    139797.500 6    107275.87547  21711036.88347
  23208503.086 5    322763.281 5    242860.42247  23208503.23047
  20262042.531 7     48785.410 7     37824.81349  20262041.50449
  23979872.578 5    726311.172 5    547584.96947  23979871.04347
 20  5 16  1 56 58.0000000  0  8G04G08G09G11G16G26G27G31            -0.000069496
  21559141.242 6     16360.785 6     12691.83647  21559138.46547
  20438207.352 7   -868253.824 7   -665220.49649  20438206.40649
  22794520.273 5   -791747.922 5   -600811.15648  22794519.36348
  22756752.563 6  -1839728.012 6  -1414065.22747  22756749.21947
  21711104.352 6    140132.418 6    107536.84847  21711100.77747
  23208652.078 5    323542.219 5    243467.39146  23208651.82846
  20262086.422 7     49016.363 7     38004.78149  20262085.07849
  23980205.664 5    728060.805 5    548948.30547  23980204.10547
 20  5 16  1 56 59.0000000  0  8G04G08G09G11G16G26G27G31            -0.000070099
  21559170.797 6     16518.844 6     12815.00047  21559168.98047
  20437843.336 7   -870165.496 7   -666710.11349  20437842.62949
  22794191.461 5   -793476.324 5   -602157.96148  22794190.01248
  22755949.023 6  -1843948.188 6  -1417353.68047  22755946.17647
  21711168.141 6    140467.445 6    107797.89847  21711164.35247
  23208799.867 5    324321.223 5    244074.40246  23208800.27046
  20262130.703 7     49247.906 7     38185.19549  20262129.20749
  23980538.758 5    729810.801 5    550311.93046  23980536.97746
 20  5 16  1 57  0.0000000  0  8G04G08G09G11G16G26G27G31            -0.000070702
  21559201.180 6     16677.738 6     12938.81647  21559198.80147
  20437479.703 7   -872076.309 7   -668199.05549  20437479.28149
  22793862.609 5   -795203.895 5   -603504.11348  22793861.71548
  22755146.703 6  -1848167.914 6  -1420641.77347  22755143.15247
  21711231.813 6    140802.801 6    108059.21547  21711227.48847
  23208947.609 5    325100.527 5    244681.64847  23208948.66047
  20262174.742 7     49480.266 7     38366.25849  20262173.51649
  23980872.055 5    731561.238 5    551675.90646  23980870.32846
 20  5 16  1 57  1.0000000  0  8G04G08G09G11G16G26G27G31            -0.000071304
  21559231.344 6     16837.191 6     13063.05947  21559229.31647
  20437116.367 7   -873986.520 7   -669687.53149  20437115.36349
  22793533.852 5   -796930.828 5   -604849.77349  22793532.93849
  22754343.813 6  -1852387.410 6  -1423929.69147  22754340.19547
  21711296.031 6    141138.238 6    108320.60547  21711291.87147
  23209096.547 5    325879.859 5    245288.91847  23209096.69547
  20262219.391 7     49713.215 7     38547.77749  20262217.68449
  23981205.203 5    733312.023 5    553040.14846  23981203.48446
 20  5 16  1 57  2.0000000  0  8G04G08G09G11G16G26G27G31            -0.000071907
  21559262.063 6     16997.227 6     13187.76247  21559259.77047
  20436752.789 6   -875896.160 6   -671175.56349  20436751.95749
  22793205.758 5   -798657.160 5   -606194.97348  22793204.48448
  22753540.906 6  -1856606.723 6  -1427217.46147  22753537.08247
  21711359.695 6    141473.734 6    108582.02747  21711355.41047
  23209244.477 5    326659.262 5    245896.24246  23209245.12546
  20262263.430 7     49946.691 7     38729.70349  20262261.96549
  23981538.617 5    735063.035 5    554404.57047  23981536.77347
 20  5 16  1 57  3.0000000  0  8G04G08G09G11G16G26G27G31            -0.000072510
  21559292.297 6     17157.848 6     13312.92247  21559290.42647
  20436389.594 7   -877805.184 7   -672663.11749  20436388.81349
  22792876.938 6   -800382.844 6   -607539.66048  22792876.04748
  22752737.922 6  -1860825.773 6  -1430505.03547  22752734.28147
  21711423.070 6    141809.328 6    108843.53547  21711419.29347
  23209392.563 5    327438.691 5    246503.59046  23209393.36746
  20262308.148 7     50180.773 7     38912.10949  20262306.32849
  23981871.875 5    736814.363 5    555769.24246  23981869.94146
 20  5 16  1 57  4.0000000  0  8G04G08G09G11G16G26G27G31            -0.000073112
  21559323.375 6     17319.152 6     13438.61347  21559321.03147
  20436026.523 7   -879713.523 7   -674150.13749  20436025.37549
  22792548.828 6   -802107.836 6   -608883.80948  22792547.73048
  22751935.328 6  -1865044.520 6  -1433792.37547  22751931.78147
  21711487.242 6    142145.086 6    109105.16047  21711483.17647
  23209541.148 5    328218.254 5    247111.05146  23209542.15246
  20262352.961 7     50415.496 7     39095.00449  20262351.32849
  23982205.203 5    738566.031 5    557134.17246  23982203.29746
 20  5 16  1 57  5.0000000  0  8G04G08G09G11G16G26G27G31            -0.000073715
  21559354.266 6     17480.980 6     13564.71147  21559352.12147
  20435663.516 6   -881621.320 6   -675636.73049  20435662.89149
  22792220.844 6   -803832.246 6   -610227.50848  22792219.59048
  22751132.492 6  -1869263.086 6  -1437079.56647  22751128.70347
  21711550.875 6    142480.875 6    109366.81347  21711547.47747
  23209689.383 5    328997.828 5    247718.50846  23209690.57046
  20262397.531 7     50650.730 7     39278.30949  20262395.79749
  23982538.500 5    740317.949 5    558499.30546  23982536.36346
 20  5 16  1 57  6.0000000  0  8G04G08G09G11G16G26G27G31            -0.000074318
  21559385.117 6     17643.453 6     13691.31647  21559382.35947
  20435300.656 7   -883528.457 7   -677122.80949  20435299.56649
  22791892.852 5   -805555.980 5   -611570.68048  22791891.44948
  22750329.633 6  -1873481.398 6  -1440366.55947  22750326.01247
  21711615.109 6    142816.805 6    109628.58247  21711611.37947
  23209837.938 5    329777.496 5    248326.04746  23209838.37946
  20262442.563 7     50886.602 7     39462.10249  20262440.88349
  23982872.258 5    742070.203 5    559864.68446  23982869.74646
 20  5 16  1 57  7.0000000  0  8G04G08G09G11G16G26G27G31            -0.000074921
  21559415.797 6     17806.539 6     13818.39547  21559413.96147
  20434937.680 6   -885434.965 6   -678608.39549  20434936.84049
  22791564.695 5   -807279.078 5   -612913.35248  22791563.62948
  22749526.656 6  -1877699.457 6  -1443653.36747  22749523.15647
  21711678.789 6    143152.836 6    109890.42247  21711675.45347
  23209986.273 5    330557.199 5    248933.60547  23209986.82447
  20262487.227 7     51123.051 7     39646.35249  20262485.77749
  23983205.672 5    743822.762 5    561230.31647  23983203.49247
 20  5 16  1 57  8.0000000  0  8G04G08G09G11G16G26G27G31            -0.000075523
  21559447.258 6     17970.363 6     13946.04347  21559444.92647
  20434575.305 7   -887340.727 7   -680093.41049  20434574.17249
  22791236.828 5   -809001.383 5   -614255.41048  22791235.66848
  22748724.555 6  -1881917.129 6  -1446939.85947  22748720.91847
  21711743.047 6    143489.117 6    110152.45747  21711738.93047
  23210134.773 5    331337.141 5    249541.34847  23210135.39847
  20262532.484 7     51360.234 7     39831.16449  20262531.24649
  23983539.469 5    745575.742 5    562596.28147  23983536.71547
 20  5 16  1 57  9.0000000  0  8G04G08G09G11G16G26G27G31            -0.000076126
  21559478.633 6     18134.703 6     14074.10247  21559476.22747
  20434212.211 7   -889245.953 7   -681578.00449  20434211.91849
  22790909.750 5   -810723.141 5   -615597.03948  22790908.37948
  22747921.352 6  -1886134.629 6  -1450226.22347  22747918.18447
  21711807.266 6    143825.414 6    110414.50047  21711802.85247
  23210283.086 5    332117.090 5    250149.09846  23210284.09846
  20262577.781 7     51597.938 7     40016.38349  20262576.29349
  23983872.750 5    747328.938 5    563962.39547  23983870.44547
 20  5 16  1 57 10.0000000  0  8G04G08G09G11G16G26G27G31            -0.000076729
  21559509.789 6     18299.711 6     14202.68047  21559507.71547
  20433850.102 7   -891150.531 7   -683062.08649  20433849.14849
  22790582.352 5   -812444.207 5   -616938.13348  22790581.09848
  22747119.375 6  -1890351.863 6  -1453512.37547  22747115.59847
  21711871.352 6    144161.852 6    110676.65647  21711866.85547
  23210431.586 4    332897.113 4    250756.90246  23210432.24246
  20262623.344 7     51836.266 7     40202.09849  20262621.75849
  23984206.906 5    749082.477 5    565328.79347  23984204.09847
 20  5 16  1 57 11.0000000  0  8G04G08G09G11G16G26G27G31            -0.000077332
  21559540.742 6     18465.406 6     14331.78947  21559539.04347
  20433488.164 7   -893054.363 7   -684545.59849  20433487.03949
  22790255.133 5   -814164.516 5   -618278.63348  22790253.23448
  22746316.625 6  -1894568.746 6  -1456798.25847  22746313.33247
  21711935.211 6    144498.523 6    110939.00447  21711930.96947
  23210580.234 5    333677.316 5    251364.85546  23210580.96146
  20262668.484 7     52075.293 7     40388.35249  20262666.99249
  23984540.109 5    750836.461 5    566695.53146  23984537.66846
 20  5 16  1 57 12.0000000  0  8G04G08G09G11G16G26G27G31            -0.000077934
  21559573.109 6     18631.691 6     14461.35947  21559570.93447
  20433125.547 7   -894957.625 7   -686028.64849  20433124.97349
  22789927.383 5   -815884.227 5   -619618.66048  22789926.23048
  22745514.383 6  -1898785.406 6  -1460083.96147  22745510.91047
  21711999.469 6    144835.250 6    111201.37947  21711995.30147
  23210728.633 5    334457.531 5    251972.81346  23210729.45746
  20262714.289 7     52314.855 7     40575.02749  20262712.77349
  23984874.180 5    752590.660 5    568062.44546  23984871.47346
 20  5 16  1 57 13.0000000  0  8G04G08G09G11G16G26G27G31            -0.000078537
  21559604.695 6     18798.609 6     14591.42247  21559602.41447
  20432763.563 6   -896860.211 6   -687511.19149  20432762.86749
  22789600.508 5   -817603.250 5   -620958.16049  22789599.19149
  22744711.695 6  -1903001.789 6  -1463369.46147  22744708.71547
  21712063.570 6    145172.117 6    111463.87547  21712059.42247
  23210876.445 5    335237.871 5    252580.86347  23210877.64547
  20262760.070 7     52555.078 7     40762.20749  20262758.40249
  23985207.313 5    754345.215 5    569429.63346  23985205.40646
 20  5 16  1 57 14.0000000  0  8G04G08G09G11G16G26G27G31            -0.000079140
  21559636.680 6     18966.051 6     14721.89847  21559634.29347
  20432401.594 6   -898762.266 6   -688993.30549  20432400.95749
  22789272.945 5   -819321.684 5   -622297.20348  22789272.03548
  22743909.359 6  -1907218.000 6  -1466654.82047  22743906.49247
  21712127.648 6    145509.012 6    111726.38347  21712123.80947
  23211025.320 5    336018.234 5    253188.93846  23211026.13346
  20262805.617 7     52795.789 7     40949.78149  20262804.36349
  23985541.828 5    756100.051 5    570797.03547  23985539.04747
 20  5 16  1 57 15.0000000  0  8G04G08G09G11G16G26G27G31            -0.000079741
  21559668.469 6     19134.066 6     14852.82047  21559666.14847
  20432039.828 6   -900663.746 6   -690474.97349  20432038.91049
  22788946.047 5   -821039.547 5   -623635.79748  22788944.80948
  22743107.367 6  -1911434.004 6  -1469940.01647  22743104.11347
  21712191.414 6    145845.992 6    111988.96947  21712187.83247
  23211174.109 5    336798.586 5    253797.00446  23211174.24646
  20262851.531 7     53037.063 7     41137.78149  20262850.05149
  23985874.922 5    757855.090 5    572164.59447  23985873.30547
 20  5 16  1 57 16.0000000  0  8G04G08G09G11G16G26G27G31            -0.000080343
  21559701.039 6     19302.625 6     14984.16447  21559698.49647
  20431678.156 7   -902564.680 7   -691956.22749  20431677.34049
  22788619.844 6   -822756.809 6   -624973.92648  22788618.14548
  22742304.938 6  -1915649.832 6  -1473225.07847  22742301.88347
  21712255.641 6    146182.988 6    112251.56647  21712252.07447
  23211323.008 5    337578.957 5    254405.08646  23211323.13746
  20262897.586 7     53278.863 7     41326.19549  20262896.10949
  23986209.359 5    759610.371 5    573532.33647  23986207.58647
 20  5 16  1 57 17.0000000  0  8G04G08G09G11G16G26G27G31            -0.000080946
  21559732.852 6     19471.793 6     15115.99247  21559730.24247
  20431316.172 6   -904464.988 6   -693436.98449  20431315.75449
  22788292.813 6   -824473.434 6   -626311.55548  22788292.13748
  22741502.891 6  -1919865.398 6  -1476509.93447  22741499.70747
  21712319.820 6    146520.105 6    112514.25447  21712315.78947
  23211471.547 5    338359.414 5    255013.23446  23211471.53946
  20262943.602 7     53521.266 7     41515.08249  20262941.85549
  23986543.680 5    761366.000 5    574900.34846  23986541.25846
 20  5 16  1 57 18.0000000  0  8G04G08G09G11G16G26G27G31            -0.000081549
  21559765.102 6     19641.605 6     15248.30947  21559763.08247
  20430955.008 6   -906364.648 6   -694917.24249  20430954.31349
  22787966.734 6   -826189.387 6   -627648.66048  22787965.30948
  22740700.734 6  -1924080.699 6  -1479794.57847  22740697.26647
  21712383.953 6    146857.328 6    112777.02347  21712380.26247
  23211620.070 5    339139.957 5    255621.44546  23211620.37146
  20262990.195 7     53764.266 7     41704.43049  20262988.29349
  23986877.266 5    763121.926 5    576268.60246  23986875.94146
 20  5 16  1 57 19.0000000  0  8G04G08G09G11G16G26G27G31            -0.000082151
  21559797.352 6     19811.973 6     15381.05547  21559795.15647
  20430593.648 7   -908263.730 7   -696397.05149  20430592.55549
  22787640.359 5   -827904.734 5   -628985.29348  22787638.69148
  22739898.984 6  -1928295.820 6  -1483079.08647  22739895.02347
  21712448.500 6    147194.625 6    113039.85247  21712444.13347
  23211768.258 5    339920.508 5    256229.66446  23211768.94946
  20263036.516 7     54007.824 7     41894.21949  20263034.73049
  23987211.633 5    764878.090 5    577637.03946  23987210.00446
 20  5 16  1 57 20.0000000  0  8G04G08G09G11G16G26G27G31            -0.000082752
  21559830.141 6     19982.914 6     15514.25847  21559827.83247
  20430232.281 6   -910162.199 6   -697876.37149  20430231.58249
  22787313.258 5   -829619.422 5   -630321.41449  22787312.53549
  22739096.797 6  -1932510.664 6  -1486363.37947  22739093.13747
  21712512.484 6    147532.016 6    113302.75047  21712508.54347
  23211916.742 5    340701.145 5    256837.95346  23211917.07846
  20263083.031 7     54251.977 7     42084.46949  20263081.02049
  23987546.398 5    766634.590 5    579005.72747  23987544.37147
 20  5 16  1 57 21.0000000  0  8G04G08G09G11G16G26G27G31            -0.000083355
  21559862.945 6     20154.434 6     15647.90647  21559860.28547
  20429870.977 7   -912060.094 7   -699355.25449  20429870.14549
  22786987.078 5   -831333.535 5   -631657.09048  22786986.23448
  22738294.836 6  -1936725.324 6  -1489647.53147  22738291.44947
  21712576.578 6    147869.469 6    113565.70347  21712572.69947
  23212065.070 5    341481.813 5    257446.27046  23212065.89546
  20263129.477 7     54496.648 7     42275.12149  20263127.96149
  23987880.281 5    768391.309 5    580374.60246  23987878.38746
 20  5 16  1 57 22.0000000  0  8G04G08G09G11G16G26G27G31            -0.000083958
  21559895.750 6     20326.551 6     15782.02347  21559893.19147
  20429510.063 7   -913957.379 7   -700833.65649  20429509.62949
  22786661.391 5   -833047.027 5   -632992.27748  22786660.27748
  22737492.047 6  -1940939.781 6  -1492931.52747  22737488.98847
  21712641.172 6    148207.012 6    113828.72347  21712636.86347
  23212213.836 5    342262.496 5    258054.59447  23212214.54747
  20263176.203 7     54741.910 7     42466.23449  20263174.51249
  23988214.711 5    770148.359 5    581743.72346  23988212.46146
 20  5 16  1 57 23.0000000  0  8G04G08G09G11G16G26G27G31            -0.000084558
  21559928.742 6     20499.289 6     15916.62947  21559926.37147
  20429149.133 6   -915854.027 6   -702311.56349  20429148.55949
  22786335.570 5   -834759.848 5   -634326.94548  22786334.43448
  22736690.609 6  -1945153.926 6  -1496215.27347  22736687.50847
  21712705.703 6    148544.680 6    114091.83647  21712700.59447
  23212363.188 5    343043.293 5    258663.01646  23212363.56646
  20263222.898 7     54987.781 7     42657.81649  20263221.59849
  23988549.352 5    771905.688 5    583113.05946  23988547.10246
 20  5 16  1 57 24.0000000  0  8G04G08G09G11G16G26G27G31            -0.000085161
  21559961.492 6     20672.527 6     16051.61747  21559959.14847
  20428788.227 7   -917750.145 7   -703789.05949  20428787.81349
  22786009.820 5   -836472.109 5   -635661.17249  22786008.64149
  22735888.961 6  -1949367.926 6  -1499498.91447  22735885.27747
  21712769.656 6    148882.359 6    114354.96147  21712765.19147
  23212511.117 5    343824.074 5    259271.40646  23212511.73846
  20263269.813 7     55234.133 7     42849.78149  20263267.96149
  23988883.844 5    773663.246 5    584482.58246  23988881.88346
 20  5 16  1 57 25.0000000  0  8G04G08G09G11G16G26G27G31            -0.000085764
  21559994.594 6     20846.250 6     16186.98447  21559992.20347
  20428427.664 6   -919645.805 6   -705266.19949  20428426.70349
  22785684.125 6   -838183.844 6   -636994.98849  22785682.93449
  22735086.773 6  -1953581.844 6  -1502782.48047  22735083.75447
  21712833.852 6    149219.988 6    114618.04747  21712829.67247
  23212659.969 5    344604.734 5    259879.70746  23212660.30946
  20263316.773 7     55480.953 7     43042.10949  20263314.90649
  23989218.602 5    775420.938 5    585852.21546  23989216.39146
 20  5 16  1 57 26.0000000  0  8G04G08G09G11G16G26G27G31            -0.000086367
  21560027.336 6     21020.617 6     16322.84847  21560025.24647
  20428067.352 6   -921540.801 6   -706742.81349  20428066.33649
  22785358.430 6   -839894.926 6   -638328.30548  22785356.99248
  22734284.984 6  -1957795.453 6  -1506065.81347  22734281.21947
  21712897.961 6    149557.773 6    114881.25047  21712893.58647
  23212808.484 5    345385.555 5    260488.13346  23212808.71546
  20263363.750 7     55728.402 7     43234.92249  20263361.98849
  23989552.953 5    777179.012 5    587222.13346  23989551.15246
 20  5 16  1 57 27.0000000  0  8G04G08G09G11G16G26G27G31            -0.000086967
  21560061.031 6     21195.742 6     16459.30947  21560058.86347
  20427706.648 6   -923435.023 6   -708218.83649  20427705.57849
  22785033.563 6   -841605.176 6   -639660.96949  22785031.89849
  22733483.547 6  -1962008.652 6  -1509348.82047  22733479.71147
  21712962.383 6    149895.832 6    115144.68047  21712958.36747
  23212956.422 5    346166.594 5    261096.74246  23212957.44946
  20263411.156 7     55976.594 7     43428.32449  20263409.28949
  23989887.984 5    778937.555 5    588592.41846  23989885.37946
 20  5 16  1 57 28.0000000  0  8G04G08G09G11G16G26G27G31            -0.000087570
  21560094.188 6     21371.594 6     16596.33647  21560091.80947
  20427346.281 6   -925328.512 6   -709694.28149  20427345.59049
  22784708.289 6   -843314.719 6   -640993.07849  22784706.50849
  22732681.180 6  -1966221.527 6  -1512631.57847  22732678.23847
  21713026.477 6    150234.094 6    115408.26247  21713022.61347
  23213105.352 5    346947.797 5    261705.46946  23213106.08246
  20263458.406 7     56225.496 7     43622.27749  20263456.72349
  23990222.320 5    780696.469 5    589963.00846  23990220.34846
 20  5 16  1 57 29.0000000  0  8G04G08G09G11G16G26G27G31            -0.000088171
  21560127.844 6     21548.102 6     16733.87147  21560125.81647
  20426986.070 6   -927221.328 6   -711169.19949  20426985.07449
  22784382.195 6   -845023.547 6   -642324.63748  22784381.24648
  22731879.906 6  -1970434.070 6  -1515914.08647  22731876.33247
  21713090.977 6    150572.508 6    115671.96147  21713086.91447
  23213253.742 5    347729.125 5    262314.30546  23213254.89546
  20263505.734 7     56475.035 7     43816.72349  20263504.23049
  23990557.523 5    782455.766 5    591333.89146  23990555.13346
 20  5 16  1 57 30.0000000  0  8G04G08G09G11G16G26G27G31            -0.000088774
  21560161.555 6     21725.203 6     16871.87547  21560159.38347
  20426626.070 6   -929113.500 6   -712643.61749  20426624.90249
  22784057.609 6   -846731.672 6   -643655.64149  22784055.87549
  22731078.141 6  -1974646.348 6  -1519196.37947  22731075.07847
  21713155.648 6    150911.051 6    115935.76247  21713151.50447
  23213403.063 5    348510.586 5    262923.23046  23213403.28546
  20263553.516 7     56725.180 7     44011.64549  20263551.96149
  23990892.344 5    784215.371 5    592705.01647  23990889.69547
 20  5 16  1 57 31.0000000  0  8G04G08G09G11G16G26G27G31            -0.000089375
  21560195.586 6     21902.914 6     17010.34847  21560193.23847
  20426265.773 6   -931005.063 6   -714117.56349  20426264.99249
  22783732.469 6   -848439.207 6   -644986.18849  22783731.26649
  22730276.469 6  -1978858.430 6  -1522478.52047  22730273.07047
  21713219.945 6    151249.672 6    116199.62147  21713215.85547
  23213551.250 5    349292.016 5    263532.12547  23213552.28947
  20263601.008 7     56975.879 7     44206.98849  20263599.44149
  23991227.133 5    785975.238 5    594076.33646  23991225.12546
 20  5 16  1 57 32.0000000  0  8G04G08G09G11G16G26G27G31            -0.000089977
  21560229.484 6     22081.203 6     17149.27047  21560226.81647
  20425906.234 6   -932896.023 6   -715591.04349  20425905.16849
  22783407.539 6   -850146.082 6   -646316.21549  22783406.37949
  22729475.203 6  -1983070.270 6  -1525760.47347  22729471.55947
  21713284.492 6    151588.395 6    116463.55947  21713280.30147
  23213700.219 5    350073.578 5    264141.13347  23213701.07447
  20263649.195 7     57227.176 7     44402.80549  20263647.70349
  23991561.680 5    787735.430 5    595447.90247  23991559.90647
 20  5 16  1 57 33.0000000  0  8G04G08G09G11G16G26G27G31            -0.000090578
  21560263.430 6     22260.086 6     17288.66047  21560261.20347
  20425546.188 6   -934786.375 6   -717064.04349  20425545.77349
  22783083.359 6   -851852.367 6   -647645.78549  22783081.76649
  22728674.148 6  -1987281.840 6  -1529042.22347  22728670.19547
  21713348.703 6    151927.211 6    116727.56647  21713344.65247
  23213849.180 5    350855.137 5    264750.13747  23213849.60947
  20263696.859 7     57479.027 7     44599.05149  20263695.41049
  23991896.664 5    789495.891 5    596819.68046  23991894.94946
 20  5 16  1 57 34.0000000  0  8G04G08G09G11G16G26G27G31            -0.000091181
  21560297.680 6     22439.559 6     17428.51247  21560295.08647
  20425186.719 6   -936676.121 6   -718536.57049  20425186.10949
  22782758.484 6   -853558.008 6   -648974.86749  22782757.00049
  22727872.805 6  -1991493.203 6  -1532323.80947  22727868.57847
  21713413.531 6    152266.109 6    116991.64547  21713409.30547
  23213998.008 5    351636.758 5    265359.18846  23213998.26646
  20263745.148 7     57731.480 7     44795.77049  20263743.58249
  23992231.398 5    791256.645 5    598191.69146  23992230.40246
 20  5 16  1 57 35.0000000  0  8G04G08G09G11G16G26G27G31            -0.000091782
  21560332.117 6     22619.605 6     17568.80947  21560329.49647
  20424827.383 6   -938565.289 6   -720008.64849  20424826.20749
  22782433.586 6   -855263.063 6   -650303.48049  22782432.50449
  22727071.000 6  -1995704.387 6  -1535605.24647  22727067.64147
  21713477.781 6    152605.055 6    117255.75847  21713473.62547
  23214146.844 5    352418.422 5    265968.28146  23214147.36346
  20263793.227 7     57984.449 7     44992.88749  20263791.57449
  23992566.930 5    793017.648 5    599563.89547  23992565.51647
 20  5 16  1 57 36.0000000  0  8G04G08G09G11G16G26G27G31            -0.000092384
  21560366.148 6     22800.379 6     17709.67247  21560363.82047
  20424468.227 6   -940453.695 6   -721480.13349  20424467.26649
  22782109.711 6   -856967.285 6   -651631.44549  22782108.37149
  22726269.719 6  -1999915.137 6  -1538886.34447  22726266.41447
  21713542.578 6    152944.277 6    117520.08647  21713538.22747
  23214295.375 5    353200.297 5    266577.54746  23214296.02746
  20263841.422 7     58238.172 7     45190.59449  20263839.89549
  23992901.664 5    794779.086 5    600936.44547  23992900.25847
 20  5 16  1 57 37.0000000  0  8G04G08G09G11G16G26G27G31            -0.000092985
  21560400.555 6     22981.766 6     17851.01247  21560398.11347
  20424108.852 6   -942341.492 6   -722951.14849  20424107.75849
  22781785.273 6   -858670.922 6   -652958.95348  22781783.80148
  22725468.094 6  -2004125.648 6  -1542167.26247  22725465.37147
  21713606.969 6    153283.578 6    117784.46947  21713602.71547
  23214443.781 5    353982.246 5    267186.84846  23214444.48446
  20263890.016 7     58492.461 7     45388.73449  20263888.18049
  23993237.625 5    796540.824 5    602309.22747  23993235.44547
 20  5 16  1 57 38.0000000  0  8G04G08G09G11G16G26G27G31            -0.000093588
  21560435.258 6     23163.711 6     17992.78547  21560432.96147
  20423749.750 6   -944228.719 6   -724421.71549  20423749.19549
  22781461.094 6   -860373.926 6   -654285.97349  22781460.00849
  22724667.406 6  -2008336.016 6  -1545448.06347  22724663.82047
  21713671.430 6    153622.965 6    118048.92647  21713667.84847
  23214592.742 5    354764.195 5    267796.15247  23214593.38747
  20263938.055 7     58747.305 7     45587.32049  20263936.35949
  23993572.555 5    798302.859 5    603682.22746  23993570.79346
 20  5 16  1 57 39.0000000  0  8G04G08G09G11G16G26G27G31            -0.000094189
  21560469.914 6     23346.219 6     18134.99247  21560467.57847
  20423390.641 6   -946115.371 6   -725891.83249  20423389.89849
  22781137.789 6   -862076.320 6   -655612.51248  22781136.38748
  22723866.063 6  -2012546.121 6  -1548728.66047  22723862.82447
  21713735.711 6    153962.379 6    118313.40647  21713732.43447
  23214741.719 5    355546.195 5    268405.50847  23214742.64847
  20263986.813 7     59002.695 7     45786.32449  20263985.19149
  23993908.313 5    800065.109 5    605055.41046  23993905.97746
 20  5 16  1 57 40.0000000  0  8G04G08G09G11G16G26G27G31            -0.000094790
  21560505.000 6     23529.313 6     18277.66047  21560502.90647
  20423031.844 6   -948001.441 6   -727361.49249  20423030.81349
  22780813.453 6   -863778.086 6   -656938.55948  22780812.36348
  22723064.688 6  -2016756.020 6  -1552009.10547  22723061.50447
  21713800.805 6    154301.883 6    118577.94947  21713796.91047
  23214891.039 5    356328.207 5    269014.85946  23214891.20346
  20264035.594 7     59258.652 7     45985.77049  20264034.02749
  23994243.102 5    801827.664 5    606428.83246  23994241.39546
 20  5 16  1 57 41.0000000  0  8G04G08G09G11G16G26G27G31            -0.000095392
  21560540.031 6     23712.969 6     18420.77047  21560537.64547
  20422673.320 6   -949886.902 6   -728830.68049  20422672.23849
  22780489.992 5   -865479.254 5   -658264.14848  22780488.44148
  22722264.148 6  -2020965.695 6  -1555289.37547  22722260.47347
  21713865.320 6    154641.457 6    118842.55547  21713861.27347
  23215039.641 5    357110.273 5    269624.26246  23215039.90646
  20264084.477 7     59515.176 7     46185.66049  20264082.84849
  23994578.766 5    803590.469 5    607802.43847  23994576.93047
 20  5 16  1 57 42.0000000  0  8G04G08G09G11G16G26G27G31            -0.000095993
  21560575.133 6     23897.281 6     18564.39147  21560573.13347
  20422314.523 6   -951771.715 6   -730299.37149  20422313.50449
  22780166.352 5   -867179.734 5   -659589.20348  22780165.02348
  22721462.945 6  -2025175.059 6  -1558569.39847  22721459.55147
  21713929.883 6    154981.188 6    119107.28147  21713925.84847
  23215188.500 5    357892.465 5    270233.76246  23215188.74646
  20264133.086 7     59772.332 7     46386.04349  20264131.52049
  23994914.688 5    805353.641 5    609176.33246  23994912.49646
 20  5 16  1 57 43.0000000  0  8G04G08G09G11G16G26G27G31            -0.000096594
  21560610.383 6     24082.203 6     18708.48847  21560607.96947
  20421956.109 6   -953655.898 6   -731767.55949  20421954.51249
  22779843.023 6   -868879.547 6   -660913.72748  22779841.41048
  22720662.313 6  -2029384.215 6  -1561849.25847  22720658.07047
  21713994.695 6    155321.043 6    119372.10247  21713991.00047
  23215337.117 5    358674.777 5    270843.35546  23215337.56646
  20264182.391 7     60030.059 7     46586.86749  20264180.59049
  23995250.516 5    807117.102 5    610550.45747  23995247.93847
 20  5 16  1 57 44.0000000  0  8G04G08G09G11G16G26G27G31            -0.000097197
  21560645.188 6     24267.656 6     18852.99647  21560643.23047
  20421597.430 6   -955539.535 6   -733235.33249  20421596.41449
  22779519.250 6   -870578.797 6   -662237.81649  22779518.13349
  22719861.438 6  -2033593.156 6  -1565128.95347  22719857.53547
  21714059.211 6    155660.930 6    119636.94147  21714055.23447
  23215486.383 5    359457.012 5    271452.88746  23215486.28546
  20264231.695 7     60288.328 7     46788.11349  20264230.00849
  23995585.859 5    808880.832 5    611924.78947  23995583.49647
 20  5 16  1 57 45.0000000  0  8G04G08G09G11G16G26G27G31            -0.000097797
  21560680.445 6     24453.707 6     18997.97347  21560678.73847
  20421238.953 6   -957422.559 6   -734702.62949  20421238.14849
  22779196.172 6   -872277.418 6   -663561.41848  22779194.83248
  22719060.523 6  -2037801.879 6  -1568408.46947  22719056.72347
  21714124.031 6    156000.914 6    119901.86747  21714120.38747
  23215635.047 5    360239.320 5    272062.48046  23215635.34046
  20264280.641 7     60547.164 7     46989.80549  20264279.14549
  23995921.313 5    810644.813 5    613299.32047  23995919.23847
 20  5 16  1 57 46.0000000  0  8G04G08G09G11G16G26G27G31            -0.000098398
  21560716.117 6     24640.324 6     19143.38347  21560713.90247
  20420880.516 6   -959305.016 6   -736169.47749  20420879.68449
  22778873.109 6   -873975.438 6   -664884.55149  22778871.88349
  22718259.883 6  -2042010.371 6  -1571687.81347  22718255.93847
  21714188.758 6    156340.941 6    120166.81647  21714184.76247
  23215783.648 5    361021.656 5    272672.09446  23215784.03946
  20264330.031 7     60806.555 7     47191.93049  20264328.64149
  23996256.555 5    812409.063 5    614674.05546  23996254.99646
 20  5 16  1 57 47.0000000  0  8G04G08G09G11G16G26G27G31            -0.000098999
  21560751.711 6     24827.500 6     19289.22747  21560749.53947
  20420522.680 6   -961186.871 6   -737635.85549  20420521.94149
  22778550.047 5   -875672.836 5   -666207.19549  22778548.79349
  22717458.273 6  -2046218.664 6  -1574967.01247  22717455.21947
  21714253.625 6    156681.043 6    120431.83247  21714249.70747
  23215932.742 5    361804.063 5    273281.75846  23215932.96946
  20264379.656 7     61066.508 7     47394.48849  20264378.17649
  23996592.484 5    814173.578 5    616049.00446  23996590.32446
 20  5 16  1 57 48.0000000  0  8G04G08G09G11G16G26G27G31            -0.000099602
  21560787.953 6     25015.281 6     19435.55547  21560785.58247
  20420164.500 6   -963068.113 6   -739101.75849  20420164.02749
  22778227.203 5   -877369.613 5   -667529.36349  22778225.67649
  22716657.930 6  -2050426.727 6  -1578246.01647  22716654.32847
  21714318.258 6    157021.246 6    120696.92647  21714314.24247
  23216081.930 5    362586.492 5    273891.43446  23216082.06346
  20264429.148 7     61327.016 7     47597.48049  20264427.71149
  23996928.375 5    815938.383 5    617424.16846  23996926.13746
 20  5 16  1 57 49.0000000  0  8G04G08G09G11G16G26G27G31            -0.000100203
  21560823.500 6     25203.789 6     19582.44547  21560821.49247
  20419806.555 6   -964948.582 6   -740567.05949  20419805.74649
  22777904.641 5   -879065.598 5   -668850.91049  22777903.08249
  22715857.180 6  -2054634.391 6  -1581524.70347  22715853.54347
  21714383.031 6    157361.672 6    120962.19547  21714378.87947
  23216230.570 5    363369.125 5    274501.27747  23216230.89847
  20264479.094 7     61588.262 7     47801.05149  20264477.14549
  23997264.000 5    817703.613 5    618799.67247  23997262.74247
 20  5 16  1 57 50.0000000  0  8G04G08G09G11G16G26G27G31            -0.000100803
  21560859.313 6     25392.898 6     19729.80947  21560857.08647
  20419449.125 6   -966828.461 6   -742031.89849  20419448.36749
  22777581.813 5   -880760.934 5   -670171.94948  22777580.21948
  22715056.039 6  -2058841.805 6  -1584803.21147  22715052.94547
  21714447.859 6    157702.211 6    121227.54747  21714444.05547
  23216379.578 5    364151.836 5    275111.18447  23216379.72747
  20264528.617 7     61850.074 7     48005.06349  20264527.02049
  23997600.125 5    819469.172 5    620175.43047  23997598.27047
 20  5 16  1 57 51.0000000  0  8G04G08G09G11G16G26G27G31            -0.000101404
  21560895.938 6     25582.691 6     19877.69947  21560893.52047
  20419091.422 6   -968707.633 6   -743496.19149  20419091.00849
  22777259.453 5   -882455.570 5   -671492.44948  22777258.10948
  22714255.820 6  -2063048.906 6  -1588081.47347  22714252.33647
  21714512.648 6    158042.941 6    121493.05147  21714508.68447
  23216528.031 5    364934.691 5    275721.20746  23216528.65246
  20264578.344 7     62112.555 7     48209.59449  20264577.20349
  23997936.445 5    821235.063 5    621551.44546  23997934.34046
 20  5 16  1 57 52.0000000  0  8G04G08G09G11G16G26G27G31            -0.000102005
  21560932.078 6     25773.035 6     20026.01647  21560929.75447
  20418733.992 6   -970586.262 6   -744960.05149  20418733.18049
  22776937.328 5   -884149.594 5   -672812.46949  22776935.85549
  22713455.398 6  -2067255.828 6  -1591359.59047  22713452.07447
  21714577.742 6    158383.727 6    121758.60547  21714573.58647
  23216677.227 5    365717.578 5    276331.25447  23216677.50447
  20264628.688 7     62375.563 7     48414.53149  20264627.19149
  23998272.320 5    823001.230 5    622927.69146  23998270.52746
 20  5 16  1 57 53.0000000  0  8G04G08G09G11G16G26G27G31            -0.000102608
  21560968.320 6     25964.121 6     20174.91447  21560965.66847
  20418376.727 6   -972464.121 6   -746423.32449  20418375.38349
  22776615.148 5   -885842.863 5   -674131.90248  22776613.16848
  22712654.820 6  -2071462.367 6  -1594637.41447  22712651.08247
  21714642.648 6    158724.738 6    122024.32047  21714638.53947
  23216826.109 5    366500.645 5    276941.43046  23216826.72346
  20264678.805 7     62639.324 7     48620.06349  20264677.46549
  23998608.414 5    824767.820 5    624304.24646  23998606.66846
 20  5 16  1 57 54.0000000  0  8G04G08G09G11G16G26G27G31            -0.000103209
  21561004.258 6     26155.770 6     20324.25047  21561002.43847
  20418019.578 6   -974341.398 6   -747886.13349  20418018.72749
  22776292.508 5   -887535.488 5   -675450.83248  22776291.57048
  22711854.852 6  -2075668.660 6  -1597915.04747  22711850.90247
  21714707.273 6    159065.832 6    122290.10947  21714703.26647
  23216975.227 5    367283.762 5    277551.64546  23216975.69546
  20264729.000 7     62903.625 7     48826.00849  20264727.71949
  23998945.000 5    826534.676 5    625681.01647  23998942.74647
 20  5 16  1 57 55.0000000  0  8G04G08G09G11G16G26G27G31            -0.000103809
  21561041.680 6     26347.977 6     20474.02047  21561038.98047
  20417662.695 6   -976218.113 6   -749348.51249  20417661.34049
  22775970.586 5   -889227.508 5   -676769.28948  22775969.21148
  22711054.234 6  -2079874.754 6  -1601192.52047  22711050.71147
  21714772.219 6    159406.969 6    122555.92247  21714768.14147
  23217124.305 5    368066.931 5    278161.90546  23217125.05946
  20264779.813 7     63168.477 7     49032.38349  20264778.29349
  23999281.531 5    828301.801 5    627057.99247  23999279.33647
 20  5 16  1 57 56.0000000  0  8G04G08G09G11G16G26G27G31            -0.000104410
  21561078.172 6     26540.773 6     20624.25047  21561075.32847
  20417305.508 6   -978094.230 6   -750810.42249  20417304.61349
  22775648.844 5   -890918.945 5   -678087.29348  22775647.52048
  22710253.883 6  -2084080.660 6  -1604469.85247  22710250.53147
  21714836.992 6    159748.180 6    122821.80147  21714833.25447
  23217273.383 5    368850.094 5    278772.16046  23217273.97346
  20264829.992 7     63433.875 7     49239.18849  20264828.44549
  23999617.328 5    830069.172 5    628435.16047  23999615.27747
 20  5 16  1 57 57.0000000  0  8G04G08G09G11G16G26G27G31            -0.000105011
  21561114.945 6     26734.023 6     20774.83247  21561112.76647
  20416948.344 6   -979969.848 6   -752271.94549  20416947.30549
  22775327.156 5   -892609.875 5   -679404.89548  22775325.86348
  22709453.492 6  -2088286.418 6  -1607747.06647  22709449.95747
  21714902.086 6    160089.391 6    123087.68447  21714897.77047
  23217422.781 5    369633.207 5    279382.36746  23217422.94546
  20264880.656 7     63699.734 7     49446.34849  20264879.32049
  23999953.672 5    831836.750 5    629812.48047  23999951.35547
 20  5 16  1 57 58.0000000  0  8G04G08G09G11G16G26G27G31            -0.000105612
  21561151.586 6     26927.785 6     20925.81347  21561149.07447
  20416591.313 6   -981844.996 6   -753733.09449  20416590.41449
  22775005.172 5   -894300.258 5   -680722.07848  22775004.11348
  22708653.313 6  -2092492.059 6  -1611024.18847  22708649.48847
  21714966.828 6    160430.563 6    123353.53147  21714963.00447
  23217571.750 5    370416.270 5    279992.54746  23217571.98446
  20264931.523 7     63966.039 7     49653.86349  20264929.98049
  24000290.063 5    833604.484 5    631189.93446  24000287.95746
 20  5 16  1 57 59.0000000  0  8G04G08G09G11G16G26G27G31            -0.000106213
  21561188.859 6     27122.109 6     21077.23847  21561186.10247
  20416234.617 6   -983719.496 6   -755193.74649  20416233.90249
  22774683.695 5   -895990.008 5   -682038.77048  22774682.62148
  22707852.977 6  -2096697.453 6  -1614301.11747  22707849.20747
  21715031.727 6    160771.816 6    123619.44147  21715027.81347
  23217720.938 5    371199.379 5    280602.76246  23217721.00046
  20264982.039 7     64232.945 7     49861.83649  20264980.79349
  24000626.727 5    835372.484 5    632567.58647  24000624.79747
 20  5 16  1 58  0.0000000  0  8G04G08G09G11G16G26G27G31            -0.000106813
  21561226.086 6     27317.086 6     21229.16047  21561223.28147
  20415878.320 6   -985593.363 6   -756653.90249  20415877.08649
  22774362.297 5   -897679.066 5   -683354.91448  22774361.16848
  22707052.961 6  -2100902.570 6  -1617577.83247  22707049.19947
  21715096.969 6    161113.230 6    123885.47347  21715092.64847
  23217869.828 5    371982.621 5    281213.08246  23217870.14546
  20265032.977 7     64500.488 7     50070.30949  20265031.43849
  24000963.414 5    837140.887 5    633945.56346  24000961.18446
 20  5 16  1 58  1.0000000  0  8G04G08G09G11G16G26G27G31            -0.000107414
  21561262.797 6     27512.727 6     21381.60947  21561260.64847
  20415522.156 6   -987466.555 6   -758113.53149  20415521.16849
  22774040.508 5   -899367.434 5   -684670.53148  22774039.71148
  22706252.633 6  -2105107.371 6  -1620854.29747  22706249.18047
  21715161.875 6    161454.801 6    124151.63347  21715157.51647
  23218018.836 5    372765.980 5    281823.49646  23218019.14146
  20265084.180 7     64768.633 7     50279.26249  20265082.37149
  24001300.609 5    838909.598 5    635323.78147  24001297.75047
 20  5 16  1 58  2.0000000  0  8G04G08G09G11G16G26G27G31            -0.000108015
  21561300.383 6     27708.809 6     21534.40247  21561298.13747
  20415165.539 6   -989339.250 6   -759572.77349  20415164.80549
  22773719.813 5   -901055.301 5   -685985.75048  22773718.63748
  22705452.578 6  -2109312.035 6  -1624130.66447  22705448.93847
  21715227.672 6    161796.359 6    124417.78947  21715222.56647
  23218167.930 5    373549.297 5    282433.87146  23218167.86746
  20265135.219 7     65037.270 7     50488.58249  20265133.87949
  24001636.523 5    840678.516 5    636702.15647  24001634.25847
 20  5 16  1 58  3.0000000  0  8G04G08G09G11G16G26G27G31            -0.000108616
  21561337.727 6     27905.664 6     21687.80147  21561335.33247
  20414809.273 6   -991211.156 6   -761031.39849  20414808.42649
  22773398.547 5   -902742.340 5   -687300.32448  22773397.36348
  22704652.547 6  -2113516.332 6  -1627406.73447  22704648.82847
  21715292.445 6    162138.160 6    124684.12547  21715287.93447
  23218317.031 5    374332.797 5    283044.39146  23218317.39846
  20265186.320 7     65306.637 7     50698.48049  20265185.19949
  24001973.109 5    842447.852 5    638080.85246  24001971.23846
 20  5 16  1 58  4.0000000  0  8G04G08G09G11G16G26G27G31            -0.000109217
  21561375.180 6     28103.152 6     21841.68047  21561373.06647
  20414453.258 6   -993082.434 6   -762489.53549  20414451.94149
  22773077.977 5   -904428.719 5   -688614.38748  22773076.53548
  22703852.492 6  -2117720.320 6  -1630682.56647  22703848.97747
  21715357.555 6    162480.082 6    124950.55947  21715352.82047
  23218465.914 5    375116.387 5    283654.98046  23218466.35946
  20265237.680 7     65576.617 7     50908.85549  20265236.38749
  24002309.859 5    844217.535 5    639459.81647  24002307.98847
 20  5 16  1 58  5.0000000  0  8G04G08G09G11G16G26G27G31            -0.000109818
  21561413.383 6     28301.164 6     21995.98047  21561410.69147
  20414096.922 6   -994953.184 6   -763947.26649  20414096.28549
  22772757.188 5   -906114.531 5   -689928.00448  22772755.96548
  22703052.648 6  -2121924.148 6  -1633958.27747  22703048.78947
  21715421.930 6    162822.031 6    125217.00847  21715418.11347
  23218615.242 5    375900.008 5    284265.59046  23218615.33246
  20265289.250 7     65847.102 7     51119.62149  20265287.98449
  24002646.953 5    845987.426 5    640838.96146  24002644.96546
 20  5 16  1 58  6.0000000  0  8G04G08G09G11G16G26G27G31            -0.000110418
  21561450.820 6     28499.727 6     22150.70347  21561448.99247
  20413741.117 6   -996823.371 6   -765404.55549  20413740.53549
  22772436.320 6   -907799.789 6   -691241.19548  22772435.01248
  22702252.359 6  -2126127.793 6  -1637233.84847  22702248.59847
  21715487.086 6    163164.035 6    125483.49647  21715483.05947
  23218764.297 5    376683.645 5    284876.21146  23218764.27346
  20265340.891 7     66118.113 7     51330.80149  20265339.41849
  24002983.594 5    847757.543 5    642218.27047  24002981.64847
 20  5 16  1 58  7.0000000  0  8G04G08G09G11G16G26G27G31            -0.000111019
  21561488.742 6     28698.824 6     22305.83647  21561486.29747
  20413385.461 7   -998692.945 7   -766861.37149  20413384.88749
  22772116.438 6   -909484.398 6   -692553.87548  22772115.09848
  22701453.008 6  -2130331.250 6  -1640509.27347  22701448.70747
  21715552.258 6    163506.086 6    125750.03547  21715548.06347
  23218913.578 5    377467.250 5    285486.80546  23218913.60946
  20265392.469 7     66389.652 7     51542.38349  20265391.10249
  24003320.172 5    849527.938 5    643597.79746  24003318.78146
 20  5 16  1 58  8.0000000  0  8G04G08G09G11G16G26G27G31            -0.000111620
  21561526.609 6     28898.504 6     22461.43847  21561524.29347
  20413030.070 7  -1000561.926 7   -768317.71549  20413028.75449
  22771795.852 6   -911168.402 6   -693866.08649  22771794.27749
  22700653.055 6  -2134534.441 6  -1643784.48047  22700649.01647
  21715617.320 6    163848.246 6    126016.65647  21715613.07447
  23219062.727 5    378250.969 5    286097.49647  23219062.62147
  20265444.469 7     66661.773 7     51754.42649  20265443.10549
  24003657.234 5    851298.609 5    644977.53146  24003655.45746
 20  5 16  1 58  9.0000000  0  8G04G08G09G11G16G26G27G31            -0.000112221
  21561564.773 6     29098.855 6     22617.55147  21561562.50047
  20412674.133 7  -1002430.258 7   -769773.55949  20412673.07049
  22771475.227 6   -912851.742 6   -695177.77749  22771473.75849
  22699852.969 6  -2138737.359 6  -1647059.48047  22699849.11747
  21715682.602 6    164190.523 6    126283.36347  21715678.63347
  23219211.719 5    379034.742 5    286708.22746  23219211.77746
  20265496.086 7     66934.516 7     51966.95349  20265495.01249
  24003994.273 5    853069.617 5    646357.53946  24003992.75446
 20  5 16  1 58 10.0000000  0  8G04G08G09G11G16G26G27G31            -0.000112822
  21561602.734 6     29299.785 6     22774.11347  21561600.52747
  20412319.133 6  -1004297.992 6   -771228.94149  20412318.16049
  22771154.953 6   -914534.438 6   -696488.97348  22771153.82448
  22699053.117 6  -2142940.063 6  -1650334.30947  22699049.52047
  21715747.867 6    164532.883 6    126550.13747  21715743.70347
  23219360.227 5    379818.582 5    287319.01246  23219361.10546
  20265548.086 7     67207.813 7     52179.91049  20265546.85949
  24004331.500 5    854840.902 5    647737.75047  24004329.34447
 20  5 16  1 58 11.0000000  0  8G04G08G09G11G16G26G27G31            -0.000113422
  21561641.703 6     29501.277 6     22931.11347  21561639.16047
  20411963.359 7  -1006165.125 7   -772683.84449  20411962.56349
  22770835.047 5   -916216.500 5   -697799.66848  22770833.83648
  22698253.508 6  -2147142.508 6  -1653608.93847  22698249.50047
  21715812.797 6    164875.316 6    126816.97347  21715808.60547
  23219509.891 5    380602.465 5    287929.82446  23219510.36746
  20265600.328 7     67481.699 7     52393.33249  20265599.14549
  24004668.438 5    856612.457 5    649118.17247  24004666.91447
 20  5 16  1 58 12.0000000  0  8G04G08G09G11G16G26G27G31            -0.000114021
  21561679.820 6     29703.367 6     23088.58647  21561677.86747
  20411608.492 6  -1008031.652 6   -774138.28149  20411607.82049
  22770515.172 6   -917897.922 6   -699109.86348  22770513.48048
  22697454.047 6  -2151344.719 6  -1656883.38747  22697450.16847
  21715877.844 6    165217.863 6    127083.88747  21715873.55947
  23219658.828 5    381386.438 5    288540.71146  23219659.58246
  20265652.828 7     67756.148 7     52607.18449  20265651.10249
  24005005.516 5    858384.332 5    650498.85247  24005003.55947
 20  5 16  1 58 13.0000000  0  8G04G08G09G11G16G26G27G31            -0.000114622
  21561718.742 6     29906.055 6     23246.52347  21561716.12547
  20411253.359 7  -1009897.539 7   -775592.21949  20411252.27349
  22770195.164 6   -919578.754 6   -700419.60548  22770193.60548
  22696654.375 6  -2155546.664 6  -1660157.64147  22696650.60247
  21715943.258 6    165560.527 6    127350.89847  21715939.30947
  23219808.383 5    382170.453 5    289151.63346  23219808.80146
  20265704.898 7     68031.188 7     52821.50049  20265703.44949
  24005342.914 5    860156.500 5    651879.77047  24005341.37947
 20  5 16  1 58 14.0000000  0  8G04G08G09G11G16G26G27G31            -0.000115223
  21561756.984 6     30109.336 6     23404.92647  21561754.70747
  20410898.555 6  -1011762.824 6   -777045.68849  20410897.81349
  22769875.953 6   -921258.867 6   -701728.78948  22769874.03148
  22695854.414 6  -2159748.391 6  -1663431.71547  22695851.25847
  21716008.750 6    165903.277 6    127617.97347  21716004.38347
  23219957.617 5    382954.527 5    289762.60246  23219958.41046
  20265757.320 7     68306.805 7     53036.27049  20265756.14549
  24005680.906 5    861928.945 5    653260.88746  24005678.61346
 20  5 16  1 58 15.0000000  0  8G04G08G09G11G16G26G27G31            -0.000115824
  21561796.008 6     30313.270 6     23563.83647  21561793.69547
  20410543.563 6  -1013627.480 6   -778498.66449  20410542.70349
  22769556.680 5   -922938.375 5   -703037.49648  22769554.69548
  22695055.109 6  -2163949.820 6  -1666705.55947  22695051.73447
  21716073.672 6    166246.148 6    127885.14847  21716069.52347
  23220106.750 5    383738.754 5    290373.68846  23220106.95746
  20265810.102 7     68583.043 7     53251.51649  20265808.38349
  24006017.797 5    863701.742 5    654642.28947  24006015.85247
 20  5 16  1 58 16.0000000  0  8G04G08G09G11G16G26G27G31            -0.000116425
  21561835.016 6     30517.766 6     23723.18847  21561832.78147
  20410189.047 7  -1015491.551 7   -779951.18449  20410188.15249
  22769236.609 6   -924617.227 6   -704345.69148  22769234.71148
  22694255.781 6  -2168151.023 6  -1669979.21947  22694252.50847
  21716138.320 6    166589.105 6    128152.38347  21716134.86747
  23220255.984 5    384522.938 5    290984.73446  23220256.34446
  20265862.758 7     68859.836 7     53467.20349  20265861.13749
  24006355.000 5    865474.785 5    656023.87947  24006353.34847
 20  5 16  1 58 17.0000000  0  8G04G08G09G11G16G26G27G31            -0.000117023
  21561873.734 6     30722.949 6     23883.07447  21561871.74647
  20409834.320 7  -1017354.883 7   -781403.13349  20409833.65649
  22768917.023 6   -926295.320 6   -705653.30148  22768915.45748
  22693456.484 6  -2172351.871 6  -1673252.60547  22693453.05147
  21716204.195 6    166932.297 6    128419.80547  21716200.32847
  23220404.930 5    385307.355 5    291595.96946  23220405.39846
  20265915.219 7     69137.320 7     53683.42649  20265913.91049
  24006692.828 5    867248.242 5    657405.78547  24006691.00047
 20  5 16  1 58 18.0000000  0  8G04G08G09G11G16G26G27G31            -0.000117624
  21561913.273 6     30928.648 6     24043.35547  21561911.11747
  20409479.773 7  -1019217.738 7   -782854.70749  20409478.59049
  22768597.742 6   -927972.922 6   -706960.52048  22768596.41448
  22692657.047 6  -2176552.598 6  -1676525.89147  22692653.22747
  21716269.313 6    167275.426 6    128687.17647  21716265.53547
  23220554.695 5    386091.668 5    292207.11746  23220554.71946
  20265968.352 7     69415.238 7     53899.98049  20265966.95749
  24007030.445 5    869021.871 5    658787.82847  24007028.19147
