     2.10           OBSERVATION DATA    GPS(GPS)            RINEX VERSION / TYPE
cnvtToRINEX 2.50.0  convertToRINEX OPR  30-May-18 13:32 UTC PGM / RUN BY / DATE 
----------------------------------------------------------- COMMENT             
GE182                                                       MARKER NAME         
GE182                                                       MARKER NUMBER       
GNSS Observer       Trimble                                 OBSERVER / AGENCY   
0220327801          5700                2.32                REC # / TYPE / VERS 
                    TRM39105-00                             ANT # / TYPE
 -2967051.1422  5005393.1686  2603832.9973                  APPROX POSITION XYZ 
        1.4630        1.4213        1.4673                  ANTENNA: DELTA H/E/N
     1     1     0                                          WAVELENGTH FACT L1/2
     4    C1    L1    L2    P2                              # / TYPES OF OBSERV 
  2018     5    30     0    16   25.0000000     GPS         TIME OF FIRST OBS   
  2018     5    30     1    35   20.0000000     GPS         TIME OF LAST OBS    
     0                                                      RCV CLOCK OFFS APPL 
    17                                                      LEAP SECONDS        
    12                                                      # OF SATELLITES     
   G03   542   509   349   349                              PRN / # OF OBS      
   G08   438   437   412   412                              PRN / # OF OBS      
   G14   948   948   948   948                              PRN / # OF OBS      
   G16   948   948   948   948                              PRN / # OF OBS      
   G21   129   109     0     0                              PRN / # OF OBS      
   G22   854   851   854   854                              PRN / # OF OBS      
   G23   451   430   367   367                              PRN / # OF OBS      
   G26   922   912   840   840                              PRN / # OF OBS      
   G27   943   943   943   943                              PRN / # OF OBS      
   G29   250   245   123   123                              PRN / # OF OBS      
   G31   948   948   948   948                              PRN / # OF OBS      
   G32   666   656   518   518                              PRN / # OF OBS      
CARRIER PHASE MEASUREMENTS: PHASE SHIFTS REMOVED            COMMENT             
                                                            END OF HEADER       
 18  5 30  0 16 25.0000000  0  7G14G16G22G26G29G31G32                0.000070141
  20544731.10916     -6749.21516     -4319.59858  20544727.52358
  20761535.25816    -94991.69516    -58745.78958  20761531.18458
  23595615.43815    -11608.43415     -6265.02356  23595610.31356
  20605352.49217    -19667.80917    -12041.40258  20605352.22358
  23458937.15617     44604.54317     26315.39157  23458933.97757
  21601362.75016    -32070.26616    -19900.27056  21601358.40256
  22354527.99216     63400.24616     35002.60956  22354527.40256
 18  5 30  0 16 30.0000000  0  7G14G16G22G26G29G31G32                0.000066135
  20544558.766 6     -7658.461 6     -5028.10548  20544554.70348
  20759432.688 6   -106040.832 6    -67355.50848  20759428.89848
  23595327.430 5    -13117.840 5     -7441.20346  23595322.28546
  20604893.852 7    -22078.051 7    -13919.51648  20604893.20748
  23459890.508 7     49615.793 7     30220.24647  23459887.39547
  21600617.055 6    -35987.191 6    -22952.41446  21600613.02046
  22356086.219 6     71589.367 6     41383.74647  22356085.46547
 18  5 30  0 16 35.0000000  0  7G14G16G22G26G29G31G32                0.000062119
  20544384.695 6     -8573.113 6     -5740.82848  20544381.05148
  20757328.477 6   -117097.340 6    -75970.96548  20757324.77748
  23595038.609 4    -14638.465 4     -8626.09046  23595032.92646
  20604433.250 7    -24499.402 7    -15806.29348  20604432.59448
  23460842.484 7     54619.438 7     34119.19547  23460839.71147
  21599867.961 6    -39921.465 6    -26018.07446  21599864.14146
  22357642.461 5     79767.949 5     47756.65647  22357642.58247
 18  5 30  0 16 40.0000000  0  7G14G16G22G26G29G31G32                0.000058090
  20544210.523 7     -9490.027 7     -6455.30948  20544206.07048
  20755223.813 6   -128158.109 6    -84589.74648  20755219.85248
  23594746.813 4    -16167.125 4     -9817.28146  23594741.68046
  20603971.266 7    -26928.738 7    -17699.28548  20603969.89148
  23461793.602 7     59618.512 7     38014.56347  23461791.17247
  21599117.180 6    -43869.988 6    -29094.85946  21599112.74646
  22359197.273 5     87939.098 5     54123.77746  22359197.74246
 18  5 30  0 16 45.0000000  0  7G14G16G22G26G29G31G32                0.000054052
  20544035.250 7    -10407.629 7     -7170.31648  20544031.44948
  20753118.344 6   -139221.516 6    -93210.58248  20753114.49648
  23594454.484 5    -17702.316 5    -11013.53146  23594448.54746
  20603507.563 7    -29364.477 7    -19597.26648  20603506.71148
  23462744.938 7     64614.602 7     41907.60947  23462741.70347
  21598363.055 6    -47831.145 6    -32181.47346  21598358.55546
  22360750.609 5     96104.402 5     60486.34046  22360751.21546
 18  5 30  0 16 50.0000000  0  8G14G16G22G26G27G29G31G32             0.000050007
  20543861.156 6    -11324.789 6     -7884.99248  20543857.21148
  20751013.039 6   -150286.477 6   -101832.63748  20751008.72748
  23594161.766 5    -19242.797 5    -12213.92246  23594155.75046
  20603043.297 7    -31805.469 7    -21499.34048  20603042.31348
  23150089.80514   -140855.21914    -76848.99656  23150090.38356
  23463695.086 7     69608.922 7     45799.27047  23463692.24247
  21597606.859 6    -51803.793 6    -35277.05946  21597602.61346
  22362304.109 5    104264.973 5     66845.25046  22362304.16446
 18  5 30  0 16 55.0000000  0  8G14G16G22G26G27G29G31G32             0.000045950
  20543686.805 7    -12240.727 7     -8598.72348  20543683.02348
  20748907.273 6   -161352.184 6   -110455.26248  20748903.10548
  23593867.594 5    -20787.805 5    -13417.86746  23593861.84446
  20602577.469 7    -34250.953 7    -23404.92248  20602576.35248
  23145392.805 5   -165539.703 5    -96083.64146  23145393.11746
  23464645.430 7     74602.191 7     49690.14147  23464642.08247
  21596848.891 6    -55787.168 6    -38380.99246  21596844.37946
  22363856.727 5    112421.633 5     73201.06646  22363856.52046
 18  5 30  0 17  0.0000000  0  8G14G16G22G26G27G29G31G32             0.000041887
  20543513.250 7    -13154.855 7     -9311.02748  20543509.14848
  20746801.367 6   -172418.004 6   -119077.98448  20746797.34048
  23593572.461 4    -22336.891 4    -14624.96146  23593566.39146
  20602111.180 7    -36700.332 7    -25313.52348  20602110.74648
  23140693.453 5   -190233.902 5   -115325.85946  23140693.92246
  23465595.227 6     79595.008 6     53580.62147  23465592.85247
  21596089.258 6    -59780.684 6    -41492.82846  21596084.63746
  22365407.352 5    120574.902 5     79554.26246  22365407.60946
 18  5 30  0 17  5.0000000  0  8G14G16G22G26G27G29G31G32             0.000037817
  20543339.211 7    -14067.098 7    -10021.87148  20543335.59848
  20744695.828 6   -183483.906 6   -127700.76248  20744691.92648
  23593277.117 5    -23889.832 5    -15835.05146  23593270.96146
  20601644.297 7    -39153.551 7    -27225.12148  20601643.50848
  23135992.508 5   -214937.734 5   -134575.62147  23135992.89547
  23466545.672 6     84587.480 6     57470.85547  23466542.30947
  21595327.523 6    -63784.215 6    -44612.47746  21595322.73446
  22366958.602 5    128724.855 5     85904.87546  22366958.73046
 18  5 30  0 17 10.0000000  0  8G14G16G22G26G27G29G31G32             0.000033739
  20543166.102 7    -14977.410 7    -10731.20348  20543162.76648
  20742589.281 6   -194549.809 6   -136323.54348  20742586.32048
  23592981.680 5    -25446.727 5    -17048.26246  23592974.66846
  20601176.766 7    -41610.551 7    -29139.67248  20601175.85248
  23131289.266 5   -239651.152 5   -153832.80946  23131289.44546
  23467495.273 6     89579.602 6     61360.82447  23467492.88747
  21594563.016 6    -67797.707 6    -47739.87946  21594559.36746
  22368508.758 5    136871.629 5     92253.00447  22368508.93447
 18  5 30  0 17 15.0000000  0  8G14G16G22G26G27G29G31G32             0.000029652
  20542993.438 7    -15886.070 7    -11439.25448  20542990.00048
  20740483.711 6   -205616.031 6   -144946.56348  20740480.09848
  23592684.945 5    -27007.871 5    -18264.74246  23592678.49646
  20600709.000 7    -44071.637 7    -31057.41048  20600707.75848
  23126584.180 4   -264374.434 4   -173097.69146  23126585.18846
  23468445.445 6     94571.078 6     65250.27747  23468442.68047
  21593797.938 6    -71821.469 6    -50875.28946  21593793.71946
  22370058.422 5    145014.805 5     98598.32047  22370058.71147
 18  5 30  0 17 20.0000000  0  8G14G16G22G26G27G29G31G32             0.000025557
  20542820.625 7    -16792.711 7    -12145.72748  20542816.93048
  20738378.195 6   -216682.199 6   -153569.55948  20738374.91448
  23592387.289 5    -28572.797 5    -19484.19946  23592380.69946
  20600239.547 7    -46536.453 7    -32978.03548  20600238.76648
  23121877.758 4   -289107.152 4   -192369.91846  23121878.32046
  23469395.008 6     99562.273 6     69139.51647  23469393.35247
  21593029.633 6    -75855.121 6    -54018.41446  21593025.43846
  22371607.047 5    153154.832 5    104941.20346  22371607.66846
 18  5 30  0 17 25.0000000  0  8G14G16G22G26G27G29G31G32             0.000021456
  20542648.445 7    -17696.750 7    -12850.16448  20542645.02048
  20736272.508 6   -227747.730 6   -162192.05148  20736269.12148
  23592088.805 5    -30140.973 5    -20706.14546  23592082.55946
  20599769.945 7    -49004.438 7    -34901.15648  20599769.25848
  23117169.461 4   -313848.758 4   -211649.07446  23117169.93846
  23470345.273 6    104553.785 6     73029.00047  23470342.71947
  21592260.508 6    -79898.121 6    -57168.80546  21592256.66446
  22373155.625 5    161292.211 5    111282.00447  22373156.78547
 18  5 30  0 17 30.0000000  0  8G14G16G22G26G27G29G31G32             0.000017347
  20542477.203 7    -18597.398 7    -13551.97748  20542474.02048
  20734166.813 6   -238811.844 6   -170813.43048  20734163.43448
  23591790.461 5    -31711.625 5    -21930.04746  23591783.59846
  20599299.633 7    -51474.762 7    -36826.08648  20599299.37948
  23112460.297 3   -338598.426 3   -230934.53146  23112460.09446
  23471295.211 6    109546.348 6     76919.31347  23471292.68447
  21591489.602 6    -83949.617 6    -60325.81346  21591485.50846
  22374704.133 5    169427.797 5    117621.41847  22374704.69547
 18  5 30  0 17 35.0000000  0  8G14G16G22G26G27G29G31G32             0.000013231
  20542306.578 7    -19494.086 7    -14250.69148  20542303.05148
  20732061.461 6   -249873.961 6   -179433.25848  20732058.36748
  23591491.367 5    -33284.230 5    -23155.45746  23591484.37546
  20598829.750 7    -53946.910 7    -38752.43448  20598828.50448
  23107749.688 3   -363355.598 3   -250225.81646  23107748.47746
  23472245.680 6    114540.551 6     80810.90647  23472243.35547
  21590717.227 6    -88009.063 6    -63489.03946  21590712.95746
  22376251.898 5    177562.121 5    123959.82447  22376252.90247
 18  5 30  0 17 40.0000000  0  8G14G16G22G26G27G29G31G32             0.000009109
  20542136.672 7    -20386.926 7    -14946.42248  20542132.80548
  20729957.508 6   -260934.223 6   -188051.65248  20729953.16848
  23591191.102 6    -34858.867 6    -24382.43046  23591184.63746
  20598358.961 7    -56421.035 7    -40680.32448  20598358.00048
  23103037.750 3   -388120.305 3   -269522.99646  23103036.12946
  23473196.367 6    119536.199 6     84703.61347  23473194.19147
  21589942.969 6    -92076.613 6    -66658.57446  21589938.58246
  22377800.023 5    185694.984 5    130297.12947  22377801.02747
 18  5 30  0 17 45.0000000  0  8G14G16G22G26G27G29G31G32             0.000004980
  20541967.508 7    -21276.324 7    -15639.45748  20541963.59048
  20727852.867 6   -271993.039 6   -196668.90248  20727849.50448
  23590891.188 6    -36435.945 6    -25611.32846  23590884.75446
  20597887.680 7    -58897.477 7    -42610.02048  20597886.75448
  23098322.984 3   -412893.027 3   -288826.41046  23098321.77746
  23474147.219 6    124532.957 6     88597.17647  23474144.96947
  21589167.656 6    -96152.586 6    -69834.66446  21589162.63746
  22379346.664 5    193826.043 5    136632.99647  22379347.84847
 18  5 30  0 17 50.0000000  0  8G14G16G22G26G27G29G31G32             0.000000845
  20541799.305 7    -22161.305 7    -16329.06348  20541795.15648
  20725748.758 6   -283049.426 6   -205284.27748  20725745.38748
  23590590.734 6    -38014.543 6    -26841.37146  23590584.16446
  20597416.477 7    -61375.309 7    -44540.80948  20597415.40248
  23093609.211 2   -437672.691 2   -308135.26246  23093605.85546
  23475098.656 6    129531.754 6     92492.33647  23475096.34447
  21588390.820 6   -100236.051 6    -73016.59046  21588385.89846
  22380894.688 5    201956.250 5    142968.22347  22380895.05147
 18  5 30  0 17 55.0000000  0  8G14G16G22G26G27G29G31G32            -0.000003298
  20541631.453 7    -23042.438 7    -17015.65248  20541627.42648
  20723645.156 6   -294103.957 6   -213898.19148  20723641.44148
  23590290.078 5    -39595.180 5    -28073.03946  23590283.25046
  20596944.625 7    -63855.102 7    -46473.12148  20596943.61348
  23088892.969 1   -462459.879 1   -327449.96146  23088889.31346
  23476050.180 6    134531.996 6     96388.62547  23476048.05147
  21587612.492 6   -104327.547 6    -76204.77046  21587607.52046
  22382440.844 5    210085.039 5    149302.32447  22382441.59447
 18  5 30  0 18  0.0000000  0  8G14G16G22G26G27G29G31G32            -0.000007446
  20541464.703 7    -23919.207 7    -17698.85548  20541460.31648
  20721541.961 6   -305156.129 6   -222510.27348  20721538.45348
  23589988.492 5    -41177.465 5    -29305.97746  23589982.19546
  20596472.508 7    -66336.355 7    -48406.57048  20596471.57048
  23084175.125 1   -487254.125 1   -346770.16846  23084170.57446
  23477001.680 6    139534.215 6    100286.44947  23476999.90247
  21586832.188 6   -108426.574 6    -79398.82446  21586827.49246
  22383987.945 5    218212.902 5    155635.73047  22383988.14547
 18  5 30  0 18  5.0000000  0  8G14G16G22G26G27G29G31G32            -0.000011600
  20541298.688 7    -24790.859 7    -18378.07448  20541294.45348
  20719439.438 7   -316205.156 7   -231119.91048  20719435.42248
  23589687.469 5    -42760.500 5    -30539.51246  23589681.26246
  20595999.945 7    -68818.285 7    -50340.54748  20595999.08648
  23079455.789 2   -512054.547 2   -366095.19946  23079451.43446
  23477954.320 7    144539.191 7    104186.43447  23477951.96547
  21586050.648 6   -112532.348 6    -82598.12146  21586046.38746
  22385534.750 5    226340.641 5    161969.01647  22385534.75447
 18  5 30  0 18 10.0000000  0  8G14G16G22G26G27G29G31G32            -0.000015762
  20541133.445 7    -25658.977 7    -19054.53548  20541129.41848
  20717337.500 7   -327252.676 7   -239728.37148  20717332.87948
  23589384.891 5    -44346.020 5    -31774.96946  23589379.69546
  20595527.352 7    -71302.543 7    -52276.33648  20595526.52348
  23074734.734 3   -536862.871 3   -385426.37146  23074730.50846
  23478906.367 7    149545.270 7    108087.26247  23478904.96147
  21585267.430 6   -116646.441 6    -85803.91846  21585263.57846
  22387081.156 5    234466.555 5    168300.88747  22387080.99247
 18  5 30  0 18 15.0000000  0  8G14G16G22G26G27G29G31G32            -0.000019928
  20540969.070 7    -26522.188 7    -19727.16448  20540965.42248
  20715235.703 7   -338297.285 7   -248334.55148  20715230.88748
  23589083.180 5    -45932.535 5    -33011.23446  23589078.08246
  20595054.250 7    -73787.688 7    -54212.81648  20595052.87548
  23070013.516 4   -561677.523 4   -404762.45346  23070008.66446
  23479859.898 7    154553.863 7    111990.05947  23479858.14147
  21584483.594 6   -120767.469 6    -89015.11346  21584479.56346
  22388627.508 6    242592.137 6    174632.49247  22388627.45347
 18  5 30  0 18 20.0000000  0  8G14G16G22G26G27G29G31G32            -0.000024103
  20540805.719 7    -27380.324 7    -20395.85548  20540801.98048
  20713134.414 6   -349338.750 6   -256938.30548  20713129.45348
  23588780.375 5    -47519.898 5    -34248.14846  23588776.40646
  20594581.195 7    -76273.590 7    -56149.87948  20594580.32848
  23065289.766 4   -586498.395 4   -424103.38746  23065286.07046
  23480813.273 7    159565.172 7    115894.97347  23480811.54347
  21583697.672 6   -124895.258 6    -92231.58646  21583694.38346
  22390173.352 6    250717.508 6    180963.93847  22390173.32847
 18  5 30  0 18 25.0000000  0  8G14G16G22G26G27G29G31G32            -0.000028282
  20540643.430 7    -28233.961 7    -21061.02748  20540639.28548
  20711033.570 6   -360377.723 6   -265540.10948  20711028.82848
  23588478.891 5    -49108.754 5    -35486.22346  23588473.85546
  20594108.211 7    -78760.793 7    -58087.96548  20594107.44548
  23060565.227 5   -611326.086 5   -443449.63746  23060561.50446
  23481767.633 6    164578.566 6    119801.50447  23481765.71147
  21582911.180 6   -129030.430 6    -95453.79346  21582907.82446
  22391719.805 6    258842.082 6    187294.75447  22391719.43847
 18  5 30  0 18 30.0000000  0  8G14G16G22G26G27G29G31G32            -0.000032467
  20540482.070 7    -29081.578 7    -21721.51248  20540478.20348
  20708933.930 6   -371412.727 6   -274138.81348  20708928.64148
  23588176.602 4    -50697.539 4    -36724.26646  23588172.09446
  20593634.469 7    -81247.918 7    -60025.98048  20593633.56348
  23055839.164 5   -636159.031 5   -462799.96547  23055835.32447
  23482722.031 6    169595.531 6    123710.83247  23482720.49647
  21582122.789 6   -133171.480 6    -98680.59446  21582119.47746
  22393265.750 6    266967.266 6    193626.06347  22393265.71147
 18  5 30  0 18 35.0000000  0  7G14G16G22G26G27G29G31               -0.000036657
  20540321.523 7    -29923.242 7    -22377.36348  20540317.94148
  20706835.172 6   -382443.746 6   -282734.42648  20706830.02348
  23587875.008 5    -52286.406 5    -37962.37546  23587869.53946
  20593161.016 6    -83734.934 6    -61963.91448  20593160.34848
  23051117.344 5   -660997.168 5   -482154.22746  23051109.91846
  23483677.648 6    174615.977 6    127622.85947  23483675.95747
  21581333.719 6   -137318.387 6   -101911.93046  21581330.27346
 18  5 30  0 18 40.0000000  0  8G14G16G22G26G27G29G31G32            -0.000040854
  20540162.703 7    -30758.789 7    -23028.44148  20540159.00448
  20704736.531 6   -393470.750 6   -291326.88348  20704731.58248
  23587572.664 5    -53875.133 5    -39200.35246  23587567.57446
  20592687.727 7    -86221.723 7    -63901.67648  20592686.80548
  23046384.031 5   -685840.711 5   -501512.98047  23046382.37547
  23484633.922 6    179640.082 6    131537.73847  23484632.01647
  21580543.977 6   -141471.070 6   -105147.82846  21580540.07846
  22396358.11716      9425.68416    202743.27157  22396358.46157
 18  5 30  0 18 45.0000000  0  8G14G16G22G26G27G29G31G32            -0.000045053
  20540004.938 7    -31588.215 7    -23674.76248  20540001.07048
  20702638.766 7   -404493.625 7   -299916.13748  20702633.72748
  23587270.070 5    -55463.766 5    -40438.25046  23587265.38346
  20592214.789 6    -88708.266 6    -65839.23848  20592214.06648
  23041656.070 5   -710689.250 5   -520875.41847  23041653.61747
  23485590.258 6    184667.883 6    135455.51247  23485589.08647
  21579752.789 6   -145629.453 6   -108388.12546  21579748.32846
  22397904.742 6     17553.086 6    209076.28547  22397904.60547
 18  5 30  0 18 50.0000000  0  8G14G16G22G26G27G29G31G32            -0.000049259
  20539848.750 7    -32410.656 7    -24315.63348  20539844.73848
  20700542.172 7   -415511.492 7   -308501.49248  20700537.35948
  23586968.227 5    -57051.426 5    -41675.40646  23586963.56646
  20591741.563 6    -91193.676 6    -67775.91848  20591741.06648
  23036925.930 5   -735541.996 5   -540241.18847  23036924.44547
  23486547.859 6    189700.219 6    139376.80547  23486546.23447
  21578960.656 7   -149792.645 7   -111632.18446  21578956.53946
  22399451.859 5     25682.090 5    215410.55947  22399451.54347
 18  5 30  0 18 55.0000000  0  8G14G16G22G26G27G29G31G32            -0.000053469
  20539693.313 7    -33226.488 7    -24951.35248  20539689.24248
  20698446.180 7   -426524.785 7   -317083.28148  20698441.29348
  23586666.188 5    -58638.516 5    -42912.09847  23586662.02747
  20591269.094 7    -93678.402 7    -69712.06648  20591268.35548
  23032195.961 5   -760399.336 5   -559610.53547  23032194.09047
  23487506.242 6    194736.703 6    143301.32847  23487504.59847
  21578167.461 7   -153961.063 7   -114880.30946  21578162.86346
  22400998.656 5     33812.332 5    221745.80547  22400999.20347
 18  5 30  0 19  0.0000000  0  8G14G16G22G26G27G29G31G32            -0.000057686
  20539539.391 7    -34036.918 7    -25582.86348  20539535.64148
  20696351.445 7   -437534.688 7   -325662.43048  20696346.50848
  23586363.898 6    -60226.254 6    -44149.30947  23586360.26247
  20590796.031 7    -96163.625 7    -71648.60548  20590795.43448
  23027464.906 5   -785262.445 5   -578984.37547  23027463.18847
  23488465.711 6    199776.082 6    147228.12547  23488463.61347
  21577372.664 6   -158135.887 6   -118133.41846  21577367.96546
  22402545.898 5     41942.570 5    228081.05547  22402546.38347
 18  5 30  0 19  5.0000000  0  8G14G16G22G26G27G29G31G32            -0.000061907
  20539386.188 7    -34840.637 7    -26209.14548  20539382.35548
  20694257.000 7   -448539.832 7   -334237.87148  20694252.55948
  23586062.141 6    -61813.297 6    -45385.94947  23586058.19147
  20590323.047 7    -98648.023 7    -73584.49648  20590322.69548
  23022732.711 6   -810130.016 6   -598361.68447  23022730.96547
  23489424.953 6    204819.699 6    151158.19947  23489423.78147
  21576577.563 7   -162315.816 7   -121390.52046  21576572.41846
  22404093.211 5     50074.184 5    234417.35947  22404093.61747
 18  5 30  0 19 10.0000000  0  8G14G16G22G26G27G29G31G32            -0.000066133
  20539234.719 7    -35637.039 7    -26829.73048  20539231.14548
  20692163.828 7   -459539.668 7   -342809.17648  20692159.26248
  23585760.469 6    -63399.074 6    -46621.62947  23585756.66447
  20589850.797 6   -101131.012 6    -75519.30148  20589850.22348
  23017999.781 6   -835001.398 6   -617741.99247  23017998.44147
  23490386.055 6    209868.148 6    155092.04747  23490384.29347
  21575780.852 7   -166500.207 7   -124651.07846  21575775.97746
  22405640.914 5     58207.773 5    240755.22747  22405641.23047
 18  5 30  0 19 15.0000000  0  8G14G16G22G26G27G29G31G32            -0.000070364
  20539084.039 7    -36426.121 7    -27444.60548  20539080.64548
  20690071.563 7   -470534.223 7   -351376.35948  20690067.60948
  23585459.414 6    -64983.594 6    -47856.32047  23585455.18447
  20589378.242 7   -103612.586 7    -77452.99248  20589378.29348
  23013265.430 5   -859876.578 5   -637125.23047  23013264.70747
  23491347.352 6    214921.430 6    159029.66847  23491345.19147
  21574984.336 6   -170689.098 6   -127915.16846  21574978.91846
  22407189.516 5     66343.207 5    247094.52047  22407189.12147
 18  5 30  0 19 20.0000000  0  8G14G16G22G26G27G29G31G32            -0.000074598
  20538935.398 7    -37209.133 7    -28054.75448  20538931.98448
  20687980.211 6   -481524.727 6   -359940.39148  20687976.27748
  23585157.727 6    -66568.094 6    -49091.00047  23585153.18047
  20588906.008 6   -106094.055 6    -79386.61348  20588905.51648
  23008531.156 5   -884756.848 5   -656512.45747  23008529.93847
  23492309.891 6    219978.227 6    162970.02747  23492307.55947
  21574185.742 6   -174883.746 6   -131183.74246  21574181.05946
  22408737.625 5     74479.309 5    253434.34047  22408737.44547
 18  5 30  0 19 25.0000000  0  8G14G16G22G26G27G29G31G32            -0.000078838
  20538787.367 7    -37985.879 7    -28660.01648  20538784.42648
  20685889.391 7   -492510.980 7   -368501.10948  20685885.94548
  23584855.703 6    -68152.422 6    -50325.54747  23584851.34047
  20588433.938 7   -108575.184 7    -81319.95748  20588433.79748
  23003795.992 5   -909641.953 5   -675903.44947  23003794.75047
  23493272.695 6    225038.797 6    166913.30947  23493270.37547
  21573386.875 6   -179083.902 6   -134456.59446  21573381.85946
  22410285.977 5     82616.313 5    259774.84847  22410285.53147
 18  5 30  0 19 30.0000000  0  8G14G16G22G26G27G29G31G32            -0.000083084
  20538641.344 7    -38754.430 7    -29258.89548  20538637.98048
  20683800.156 7   -503491.105 7   -377057.05148  20683796.55548
  23584554.891 6    -69734.613 6    -51558.41446  23584549.40646
  20587962.242 7   -111054.051 7    -83251.54348  20587962.19148
  22999060.148 5   -934529.910 5   -695296.65247  22999058.45747
  23494237.227 6    230105.047 6    170861.03946  23494234.30946
  21572586.688 6   -183287.641 6   -137732.23046  21572582.04346
  22411834.758 6     90756.078 6    266117.51247  22411835.13347
 18  5 30  0 19 35.0000000  0  8G14G16G22G26G27G29G31G32            -0.000087332
  20538496.156 7    -39515.566 7    -29851.99648  20538493.10248
  20681711.789 7   -514465.766 7   -385608.73048  20681707.86348
  23584253.438 6    -71315.484 6    -52790.27347  23584248.43447
  20587491.008 7   -113531.395 7    -85181.94148  20587490.76648
  22994323.516 5   -959421.500 5   -714692.69947  22994321.84847
  23495201.703 6    235176.230 6    174812.59046  23495198.78946
  21571785.984 6   -187495.711 6   -141011.26247  21571781.27747
  22413383.891 5     98897.848 5    272461.74647  22413384.40247
 18  5 30  0 19 40.0000000  0  8G14G16G22G26G27G29G31G32            -0.000091587
  20538352.602 7    -40270.270 7    -30440.07048  20538349.22748
  20679624.102 7   -525436.004 7   -394156.95748  20679620.41448
  23583952.383 5    -72896.008 5    -54021.85946  23583947.45746
  20587019.422 7   -116008.242 7    -87111.96548  20587019.88348
  22989586.523 5   -984317.676 5   -734092.32047  22989583.97347
  23496167.711 6    240251.313 6    178767.21946  23496164.47346
  21570984.297 6   -191709.121 6   -144294.44547  21570979.98447
  22414933.766 5    107040.637 5    278806.75047  22414933.94147
 18  5 30  0 19 45.0000000  0  8G14G16G22G26G27G29G31G32            -0.000095844
  20538210.680 7    -41017.094 7    -31022.01248  20538207.44948
  20677537.539 7   -536400.465 7   -402700.69548  20677533.85548
  23583651.219 5    -74474.773 5    -55252.08246  23583646.75446
  20586548.336 7   -118483.238 7    -89040.53148  20586548.46148
  22984848.305 5  -1009217.066 5   -753494.44147  22984845.48447
  23497134.781 6    245331.688 6    182725.93846  23497131.08646
  21570181.766 6   -195926.449 6   -147580.68847  21570177.39847
  22416484.063 5    115185.836 5    285153.65246  22416483.50846
 18  5 30  0 19 50.0000000  0  9G03G14G16G22G26G27G29G31G32         -0.000100107
  23727450.14112    -40613.59412                
  20538070.180 7    -41755.898 7    -31597.71148  20538066.77048
  20675452.031 6   -547358.898 6   -411239.73848  20675448.58648
  23583350.797 5    -76051.688 5    -56480.84446  23583346.60246
  20586077.922 6   -120956.160 6    -90967.48848  20586078.28948
  22980110.352 5  -1034119.449 5   -772898.89547  22980106.86747
  23498102.211 6    250417.535 6    186688.94546  23498098.87946
  21569377.859 6   -200147.523 6   -150869.83247  21569373.79347
  22418034.000 5    123333.668 5    291502.59846  22418034.20346
 18  5 30  0 19 55.0000000  0  9G03G14G16G22G26G27G29G31G32         -0.000104374
  23726414.031 2    -46048.711 2                
  20537930.898 7    -42487.488 7    -32167.79348  20537927.62548
  20673367.891 6   -558312.191 6   -419774.77348  20673364.30148
  23583050.930 5    -77627.539 5    -57708.80946  23583046.60946
  20585607.492 6   -123427.895 6    -92893.51648  20585607.58248
  22975370.406 5  -1059025.660 5   -792306.33647  22975366.74247
  23499071.125 6    255508.008 6    190655.51646  23499067.57446
  21568574.477 6   -204373.141 6   -154162.53147  21568570.19547
  22419584.969 5    131483.172 5    297852.84047  22419585.11347
 18  5 30  0 20  0.0000000  0  9G03G14G16G22G26G27G29G31G32         -0.000108644
  23725380.344 1    -51478.141 1                
  20537793.320 7    -43211.223 7    -32731.74248  20537790.01248
  20671284.383 6   -569259.668 6   -428305.27348  20671281.50448
  23582751.148 4    -79201.641 4    -58935.37546  23582746.87946
  20585137.313 6   -125897.727 6    -94818.06348  20585137.79748
  22970631.477 6  -1083935.008 6   -811716.21147  22970627.48847
  23500040.359 6    260603.762 6    194626.23046  23500037.40646
  21567769.367 6   -208602.695 6   -157458.28947  21567765.38747
  22421135.477 5    139635.043 5    304204.96546  22421136.12546
 18  5 30  0 20  5.0000000  0  9G03G14G16G22G26G27G29G31G32         -0.000112921
  23724346.063 1    -56903.270 1                
  20537656.695 7    -43928.625 7    -33290.76648  20537653.39148
  20669202.086 7   -580202.836 7   -436832.41848  20669198.64548
  23582452.633 4    -80775.547 4    -60161.83246  23582447.23446
  20584667.531 6   -128367.242 6    -96742.35948  20584668.02748
  22965889.797 6  -1108849.031 6   -831129.74247  22965886.12947
  23501010.883 6    265703.289 6    198599.87546  23501007.75846
  21566963.672 6   -212837.684 6   -160758.29746  21566959.76246
  22422687.000 5    147787.793 5    310557.73847  22422687.49247
 18  5 30  0 20 10.0000000  0  9G03G14G16G22G26G27G29G31G32         -0.000117203
  23723314.148 1    -62322.867 1                
  20537521.898 7    -44638.340 7    -33843.78948  20537518.47348
  20667121.047 6   -591140.348 6   -445355.16448  20667117.34048
  23582154.727 4    -82347.898 4    -61387.05946  23582148.43046
  20584197.609 6   -130835.086 6    -98665.34848  20584197.87548
  22961148.172 6  -1133766.316 6   -850545.80947  22961144.64847
  23501983.000 6    270807.898 6    202577.50447  23501979.81647
  21566156.742 6   -217076.715 6   -164061.44946  21566152.62546
  22424238.984 5    155942.723 5    316912.22647  22424239.41847
 18  5 30  0 20 15.0000000  0  9G03G14G16G22G26G27G29G31G32         -0.000121485
  23722281.97711                                
  20537388.305 7    -45340.887 7    -34391.23448  20537384.59448
  20665040.789 6   -602072.699 6   -453873.88348  20665037.04348
  23581855.281 4    -83919.289 4    -62611.54746  23581849.62946
  20583728.672 6   -133301.730 6   -100587.41048  20583728.50848
  22956405.969 6  -1158687.398 6   -869964.84047  22956401.96147
  23502954.359 6    275917.105 6    206558.69146  23502952.44546
  21565348.984 6   -221320.324 6   -167368.16446  21565344.89146
  22425792.219 5    164099.410 5    323268.08246  22425791.66046
 18  5 30  0 20 20.0000000  0  8G14G16G22G26G27G29G31G32            -0.000125774
  20537256.227 7    -46035.629 7    -34932.59448  20537252.03948
  20662961.367 6   -612999.262 6   -462388.08648  20662957.50448
  23581557.445 5    -85489.047 5    -63834.74646  23581550.72346
  20583259.586 6   -135766.563 6   -102508.05148  20583259.17648
  22951663.172 6  -1183611.563 6   -889386.27047  22951659.36747
  23503927.555 6    281031.457 6    210543.88746  23503925.26246
  21564540.297 6   -225567.840 6   -170677.91846  21564536.54346
  22427344.188 4    172258.375 4    329625.69546  22427344.25046
 18  5 30  0 20 25.0000000  0  8G14G16G22G26G27G29G31G32            -0.000130068
  20537125.266 7    -46721.582 7    -35467.11348  20537121.48048
  20660883.328 6   -623919.047 6   -470897.00848  20660879.69948
  23581259.508 5    -87056.152 5    -65055.87546  23581253.01246
  20582790.961 6   -138228.629 6   -104426.54748  20582791.01648
  22946919.352 6  -1208537.840 6   -908809.35547  22946916.26647
  23504902.625 6    286152.008 6    214533.91046  23504899.96146
  21563732.320 6   -229818.324 6   -173989.98446  21563727.70346
  22428897.867 5    180420.648 5    335985.88346  22428897.29746
 18  5 30  0 20 30.0000000  0  8G14G16G22G26G27G29G31G32            -0.000134363
  20536996.852 7    -47399.250 7    -35995.15248  20536992.68848
  20658806.977 6   -634832.594 6   -479401.07048  20658802.85248
  23580960.820 5    -88621.199 5    -66275.34446  23580955.48446
  20582322.664 6   -140688.453 6   -106343.29748  20582323.00448
  22942176.172 6  -1233466.801 6   -928234.45347  22942172.84847
  23505878.578 6    291278.199 6    218528.32846  23505875.70346
  21562922.719 6   -234072.285 6   -177304.75446  21562918.15646
  22430451.32815                                
 18  5 30  0 20 35.0000000  0  8G14G16G22G26G27G29G31G32            -0.000138664
  20536868.969 7    -48069.441 7    -36517.38348  20536864.76648
  20656730.977 7   -645740.730 7   -487900.90248  20656727.27748
  23580663.211 5    -90184.953 5    -67493.89847  23580657.39547
  20581855.219 6   -143146.813 6   -108258.90248  20581854.95348
  22937431.867 6  -1258399.090 6   -947662.25847  22937428.58247
  23506855.125 6    296409.199 6    222526.51646  23506852.43046
  21562111.922 6   -238330.414 6   -180622.78547  21562107.76247
  22432005.438 5    196752.637 5    348457.09056  22432004.66056
 18  5 30  0 20 40.0000000  0  8G14G16G22G26G27G29G31G32            -0.000142969
  20536742.891 7    -48731.387 7    -37033.19548  20536738.82448
  20654656.609 7   -656642.664 7   -496395.92648  20654652.19548
  23580366.500 5    -91746.641 5    -68710.81646  23580360.34446
  20581387.578 6   -145602.980 6   -110172.80548  20581387.60248
  22932686.063 6  -1283334.070 6   -967092.13747  22932683.64547
  23507832.195 6    301545.828 6    226529.06346  23507830.38746
  21561300.820 6   -242592.043 6   -183943.53146  21561296.64846
  22433559.695 5    204922.316 5    354823.07446  22433559.45346
 18  5 30  0 20 45.0000000  0  8G14G16G22G26G27G29G31G32            -0.000147278
  20536618.586 7    -49386.195 7    -37543.43848  20536614.53948
  20652583.086 6   -667539.520 6   -504886.98048  20652578.77048
  23580069.445 5    -93307.402 5    -69926.99246  23580063.16046
  20580920.352 6   -148058.066 6   -112085.86348  20580920.30948
  22927941.203 6  -1308272.711 6   -986524.82847  22927938.14147
  23508810.664 6    306686.969 6    230535.14847  23508808.76247
  21560489.258 6   -246858.176 6   -187267.79746  21560484.92246
  22435114.773 5    213093.582 5    361190.28547  22435114.30547
 18  5 30  0 20 50.0000000  0  8G14G16G22G26G27G29G31G32            -0.000151590
  20536495.656 7    -50032.707 7    -38047.21948  20536491.66048
  20650510.695 6   -678430.117 6   -513373.15248  20650506.09448
  23579772.766 5    -94866.121 5    -71141.57046  23579766.19946
  20580453.469 6   -150510.902 6   -113997.16048  20580453.64548
  22923194.125 6  -1333213.863 6  -1005959.49647  22923192.13347
  23509789.898 6    311833.715 6    234545.59446  23509788.31346
  21559676.516 6   -251127.719 6   -190594.72346  21559672.34846
  22436670.461 5    221267.668 5    367559.68046  22436669.77046
 18  5 30  0 20 55.0000000  0  8G14G16G22G26G27G29G31G32            -0.000155907
  20536374.188 7    -50669.703 7    -38543.58248  20536370.34048
  20648439.773 6   -689313.301 6   -521853.55548  20648435.02048
  23579476.570 5    -96421.582 5    -72353.61346  23579470.06346
  20579987.461 6   -152960.320 6   -115905.80548  20579987.78548
  22918447.172 6  -1358156.383 6  -1025395.23047  22918445.97347
  23510770.773 6    316987.270 6    238561.34046  23510768.93846
  21558864.219 6   -255399.480 6   -193923.37146  21558859.37146
  22438226.047 5    229445.617 5    373932.10546  22438226.44146
 18  5 30  0 21  0.0000000  0  8G14G16G22G26G27G29G31G32            -0.000160227
  20536254.664 7    -51297.875 7    -39033.06348  20536251.21948
  20646369.891 6   -700189.727 6   -530328.68848  20646365.29748
  23579180.945 6    -97974.492 6    -73563.68446  23579174.41046
  20579521.547 7   -155406.973 7   -117812.28948  20579522.00848
  22913700.609 6  -1383100.863 6  -1044832.48847  22913699.51247
  23511752.563 6    322146.961 6    242581.87546  23511750.57446
  21558050.406 6   -259674.148 6   -197254.28946  21558045.61746
  22439782.570 5    237626.863 5    380307.08647  22439782.81647
 18  5 30  0 21  5.0000000  0  8G14G16G22G26G27G29G31G32            -0.000164551
  20536136.656 7    -51918.309 7    -39516.52048  20536133.02748
  20644301.172 6   -711060.445 6   -538799.37948  20644296.59048
  23578885.016 5    -99525.898 5    -74772.56346  23578879.18046
  20579056.758 6   -157851.934 6   -119717.46148  20579056.98448
  22908953.438 6  -1408048.379 6  -1064272.10947  22908952.10547
  23512735.242 6    327311.758 6    246606.39146  23512733.30546
  21557236.313 6   -263952.703 6   -200588.23046  21557231.43046
  22441339.656 5    245810.273 5    386683.74247  22441340.19947
 18  5 30  0 21 10.0000000  0  8G14G16G22G26G27G29G31G32            -0.000168879
  20536019.805 7    -52531.484 7    -39994.32848  20536016.18848
  20642233.297 7   -721925.980 7   -547266.03148  20642228.43848
  23578590.063 5   -101076.340 5    -75980.69146  23578584.10246
  20578591.859 6   -160295.711 6   -121621.71148  20578591.57448
  22904204.695 6  -1432999.387 6  -1083714.44947  22904204.60247
  23513718.867 6    332481.121 6    250634.44946  23513716.79346
  21556421.477 6   -268235.707 6   -203925.62146  21556416.44146
  22442897.797 5    253995.418 5    393061.75046  22442897.72346
 18  5 30  0 21 15.0000000  0  8G14G16G22G26G27G29G31G32            -0.000173212
  20535904.680 7    -53135.527 7    -40465.00848  20535901.38348
  20640166.867 7   -732784.391 7   -555727.12548  20640162.54748
  23578295.836 5   -102623.832 5    -77186.51246  23578289.28546
  20578127.070 6   -162736.441 6   -123523.57448  20578127.07448
  22899456.078 6  -1457952.000 6  -1103158.04747  22899456.39547
  23514703.789 6    337656.957 6    254667.55946  23514701.60246
  21555605.891 6   -272521.215 6   -207265.00046  21555600.40646
  22444456.578 5    262184.098 5    399442.52746  22444456.69946
 18  5 30  0 21 20.0000000  0  8G14G16G22G26G27G29G31G32            -0.000177547
  20535791.375 7    -53730.918 7    -40928.95748  20535787.62148
  20638101.977 6   -743636.258 6   -564183.13348  20638097.36748
  23578000.953 5   -104168.988 5    -78390.54746  23577995.87946
  20577663.133 6   -165174.637 6   -125423.46548  20577663.00848
  22894707.094 6  -1482906.707 6  -1122603.28947  22894708.00047
  23515689.820 6    342838.750 6    258705.32446  23515687.85946
  21554790.039 6   -276809.762 6   -210606.71547  21554784.27047
  22446015.320 5    270375.828 5    405825.66446  22446015.59046
 18  5 30  0 21 25.0000000  0  8G14G16G22G26G27G29G31G32            -0.000181887
  20535679.422 7    -54317.758 7    -41386.24248  20535676.14148
  20636038.266 7   -754481.609 7   -572634.05948  20636033.76248
  23577706.820 5   -105711.867 5    -79592.79746  23577702.31346
  20577199.461 6   -167610.391 6   -127321.46548  20577199.40648
  22889958.109 6  -1507863.605 6  -1142050.23847  22889958.82047
  23516677.117 6    348026.344 6    262747.61346  23516674.93446
  21553972.898 6   -281101.445 6   -213950.87146  21553967.16446
  22447574.836 4    278570.492 4    412211.11747  22447574.59847
 18  5 30  0 21 30.0000000  0  8G14G16G22G26G27G29G31G32            -0.000186230
  20535569.289 7    -54896.602 7    -41837.28548  20535566.05548
  20633975.484 7   -765321.078 7   -581080.41048  20633971.22748
  23577413.461 5   -107253.070 5    -80793.73846  23577409.20746
  20576737.000 6   -170044.266 6   -129217.98448  20576736.74248
  22885208.570 5  -1532823.207 5  -1161499.28947  22885208.99247
  23517665.258 6    353219.188 6    266793.97346  23517663.68446
  21553155.969 6   -285396.793 6   -217297.91846  21553150.41046
  22449135.016 4    286767.570 4    418598.43846  22449135.14846
 18  5 30  0 21 35.0000000  0  8G14G16G22G26G27G29G31G32            -0.000190577
  20535461.125 7    -55466.414 7    -42281.30948  20535457.31348
  20631914.133 7   -776153.605 7   -589521.35248  20631910.05148
  23577120.945 5   -108791.543 5    -81992.57446  23577116.16446
  20576273.992 6   -172475.250 6   -131112.25048  20576273.38348
  22880458.781 5  -1557784.469 5  -1180949.64147  22880459.18047
  23518654.719 6    358418.359 6    270845.29346  23518652.53146
  21552337.891 6   -289694.758 6   -220646.98046  21552331.97346
  22450695.531 4    294968.016 4    424988.38346  22450695.70746
 18  5 30  0 21 40.0000000  0  8G14G16G22G26G27G29G31G32            -0.000194925
  20535354.102 7    -56027.934 7    -42718.85948  20535350.41048
  20629854.031 7   -786979.875 7   -597957.39548  20629850.03948
  23576829.211 5   -110327.988 5    -83189.81346  23576823.52746
  20575811.883 6   -174904.012 6   -133004.79748  20575811.52748
  22875708.422 5  -1582748.082 5  -1200401.82047  22875708.61747
  23519645.016 6    363623.070 6    274900.89547  23519643.51647
  21551519.352 6   -293996.082 6   -223998.64546  21551513.73046
  22452256.734 4    303171.125 4    431380.41846  22452256.68446
 18  5 30  0 21 45.0000000  0  8G14G16G22G26G27G29G31G32            -0.000199280
  20535248.977 7    -56580.945 7    -43149.78548  20535245.39848
  20627794.914 7   -797799.715 7   -606388.44148  20627790.97748
  23576537.875 5   -111862.277 5    -84385.37547  23576531.87947
  20575350.172 6   -177330.430 6   -134895.52348  20575349.82848
  22870957.773 5  -1607713.895 5  -1219855.71547  22870957.59047
  23520636.586 6    368833.531 6    278961.00046  23520635.37946
  21550700.719 6   -298300.535 6   -227352.78546  21550694.62946
  22453818.203 4    311377.168 4    437774.73447  22453818.39547
 18  5 30  0 21 50.0000000  0  8G14G16G22G26G27G29G31G32            -0.000203638
  20535145.414 7    -57124.914 7    -43573.65648  20535141.89148
  20625737.484 7   -808612.563 7   -614814.05148  20625733.49248
  23576246.992 5   -113393.836 5    -85578.82047  23576241.05147
  20574889.023 6   -179753.941 6   -136783.96948  20574888.16848
  22866205.813 5  -1632681.242 5  -1239310.78947  22866206.08647
  23521629.648 6    374050.309 6    283026.00846  23521627.96146
  21549881.039 6   -302607.531 6   -230708.88346  21549875.27346
  22455379.930 4    319586.586 4    444171.65246  22455380.37946
 18  5 30  0 21 55.0000000  0  8G14G16G22G26G27G29G31G32            -0.000207998
  20535043.758 7    -57660.777 7    -43991.21548  20535039.72348
  20623681.133 6   -819419.371 6   -623234.94148  20623677.27748
  23575955.781 6   -114923.625 6    -86770.86347  23575949.85247
  20574428.445 6   -182175.484 6   -138670.87948  20574427.43848
  22861454.688 5  -1657651.148 5  -1258767.87147  22861454.84847
  23522623.086 6    379272.434 6    287095.18446  23522621.54746
  21549060.586 6   -306918.055 6   -234067.73446  21549054.93046
  22456942.820 4    327798.457 4    450570.51246  22456943.27046
 18  5 30  0 22  0.0000000  0  8G14G16G22G26G27G29G31G32            -0.000212364
  20534943.000 7    -58188.270 7    -44402.25448  20534939.84048
  20621625.766 6   -830219.898 6   -631650.94148  20621621.57848
  23575665.469 6   -116451.461 6    -87961.40647  23575659.54747
  20573967.945 6   -184594.855 6   -140556.10948  20573967.00448
  22856702.531 6  -1682623.305 6  -1278226.69947  22856702.34847
  23523617.727 6    384500.133 6    291168.74646  23523616.08246
  21548239.734 6   -311231.859 6   -237429.12946  21548234.18846
  22458506.422 4    336012.945 4    456971.44546  22458506.44946
 18  5 30  0 22  5.0000000  0  8G14G16G22G26G27G29G31G32            -0.000216732
  20534844.664 7    -58705.625 7    -44805.39148  20534841.46548
  20619571.750 6   -841012.395 6   -640060.68048  20619568.45748
  23575375.242 6   -117975.504 6    -89148.97347  23575369.09047
  20573508.094 6   -187010.199 6   -142438.19948  20573507.23848
  22851949.922 5  -1707595.941 5  -1297685.92247  22851950.18847
  23524613.867 6    389735.219 6    295247.98446  23524611.82446
  21547418.648 6   -315547.148 6   -240791.69947  21547413.22747
  22460070.250 4    344232.043 4    463375.89146  22460070.46146
 18  5 30  0 22 10.0000000  0  8G14G16G22G26G27G29G31G32            -0.000221104
  20534747.758 7    -59214.328 7    -45201.79748  20534744.62948
  20617519.297 7   -851798.316 7   -648465.28148  20617515.71948
  23575085.977 6   -119497.242 6    -90334.77047  23575079.83647
  20573049.023 6   -189423.109 6   -144318.39148  20573048.48448
  22847197.852 6  -1732570.492 6  -1317146.62547  22847197.44147
  23525611.320 6    394976.117 6    299331.79746  23525609.05146
  21546596.938 6   -319865.383 6   -244156.55547  21546591.35247
  22461634.547 5    352454.077 5    469782.65146  22461635.05546
 18  5 30  0 22 15.0000000  0  8G14G16G22G26G27G29G31G32            -0.000225479
  20534652.914 7    -59715.254 7    -45592.14148  20534649.44948
  20615467.625 7   -862578.547 7   -656865.46948  20615464.10548
  23574796.023 6   -121017.621 6    -91519.49247  23574790.53147
  20572590.063 6   -191834.379 6   -146197.31348  20572589.39848
  22842445.164 5  -1757547.805 5  -1336609.46547  22842444.59447
  23526609.367 6    400222.074 6    303419.52346  23526607.09046
  21545774.625 7   -324187.422 7   -247524.38747  21545768.91847
  22463199.172 5    360678.146 5    476191.00746  22463199.62146
 18  5 30  0 22 20.0000000  0  8G14G16G22G26G27G29G31G32            -0.000229858
  20534558.797 7    -60206.836 7    -45975.19548  20534556.12148
  20613417.773 6   -873351.508 6   -665259.98048  20613414.18048
  23574507.164 6   -122535.020 6    -92701.89847  23574501.48847
  20572132.117 6   -194242.520 6   -148073.78148  20572131.11748
  22837691.555 5  -1782526.340 5  -1356073.25847  22837691.62147
  23527608.992 6    405474.547 6    307512.38746  23527606.55946
  21544951.781 7   -328511.641 7   -250893.91047  21544946.79747
  22464765.156 4    368905.957 4    482602.26246  22464765.53546
 18  5 30  0 22 25.0000000  0  9G03G14G16G22G26G27G29G31G32         -0.000234240
  23695918.59411    -18561.88711                
  20534467.094 7    -60689.531 7    -46351.31648  20534464.42248
  20611369.031 7   -884117.656 7   -673649.18448  20611364.88748
  23574218.828 5   -124049.879 5    -93882.28547  23574212.92647
  20571674.445 6   -196647.910 6   -149948.11348  20571673.45348
  22832937.797 5  -1807506.461 5  -1375538.29347  22832937.27047
  23528609.961 6    410733.105 6    311609.92646  23528606.79346
  21544128.609 7   -332838.574 7   -254265.54747  21544123.43047
  22466331.539 5    377136.957 5    489016.00846  22466331.74646
 18  5 30  0 22 30.0000000  0  9G03G14G16G22G26G27G29G31G32         -0.000238613
  23694921.617 2    -23806.539 2                
  20534377.273 7    -61163.051 7    -46720.29748  20534374.38748
  20609321.742 6   -894876.715 6   -682032.85948  20609317.62548
  23573931.844 5   -125561.977 5    -95060.57046  23573925.25446
  20571217.070 6   -199050.320 6   -151820.13348  20571216.57448
  22828183.891 5  -1832487.895 5  -1395004.32047  22828184.15247
  23529611.930 6    415997.969 6    315712.39546  23529608.56346
  21543304.391 7   -337168.016 7   -257639.13747  21543299.16847
  22467898.773 5    385371.434 5    495432.46546  22467898.53146
 18  5 30  0 22 35.0000000  0  9G03G14G16G22G26G27G29G31G32         -0.000243002
  23693924.938 1    -29043.898 1                
  20534288.813 7    -61627.059 7    -47081.86748  20534285.84448
  20607276.289 7   -905628.328 7   -690410.74648  20607271.72348
  23573643.984 4   -127070.961 4    -96236.41446  23573638.06346
  20570760.711 6   -201449.434 6   -153689.56648  20570759.74648
  22823429.430 5  -1857470.367 5  -1414471.21547  22823429.83647
  23530614.766 6    421269.516 6    319820.08646  23530611.21946
  21542479.852 6   -341499.539 6   -261014.34447  21542475.21147
  22469465.836 5    393609.734 5    501851.91046  22469466.55146
 18  5 30  0 22 40.0000000  0  9G03G14G16G22G26G27G29G31G32         -0.000247393
  23692927.586 1    -34274.285 1                
  20534202.133 7    -62081.801 7    -47436.21548  20534199.28548
  20605231.594 7   -916372.715 7   -698782.99248  20605227.29748
  23573356.852 5   -128577.035 5    -97409.98046  23573351.32446
  20570304.828 6   -203845.414 6   -155556.57048  20570304.28148
  22818675.297 5  -1882453.379 5  -1433938.20347  22818675.83247
  23531618.711 6    426547.512 6    323932.79346  23531615.20746
  21541655.797 7   -345833.348 7   -264391.35247  21541650.71947
  22471034.703 5    401851.590 5    508274.12147  22471034.43847
 18  5 30  0 22 45.0000000  0  9G03G14G16G22G26G27G29G31G32         -0.000251789
  23691932.023 1    -39497.914 1                
  20534117.594 6    -62527.531 6    -47783.54748  20534114.12148
  20603188.406 7   -927110.215 7   -707149.87548  20603184.11748
  23573070.281 4   -130080.559 4    -98581.56346  23573065.06346
  20569849.172 6   -206238.645 6   -157421.42648  20569848.83248
  22813920.281 5  -1907438.434 5  -1453407.03947  22813921.38747
  23532624.414 6    431831.660 6    328050.32446  23532620.51646
  21540830.016 6   -350169.762 6   -267770.37947  21540825.57847
  22472603.617 4    410096.691 4    514698.87947  22472603.27047
 18  5 30  0 22 50.0000000  0  9G03G14G16G22G26G27G29G31G32         -0.000256199
  23690935.93011                                
  20534034.180 7    -62963.898 7    -48123.57448  20534031.12948
  20601146.508 7   -937840.500 7   -715511.14148  20601142.16448
  23572784.453 4   -131581.172 4    -99750.89146  23572779.37946
  20569394.703 6   -208628.777 6   -159283.86348  20569394.01248
  22809166.391 5  -1932424.586 5  -1472876.72347  22809166.43047
  23533631.539 6    437122.246 6    332172.83246  23533627.58246
  21540005.047 6   -354508.414 6   -271151.15247  21540000.37947
  22474174.375 4    418345.410 4    521126.44147  22474173.14147
 18  5 30  0 22 55.0000000  0  8G14G16G22G26G27G29G31G32            -0.000260601
  20533952.891 7    -63390.906 7    -48456.31648  20533949.85248
  20599106.031 7   -948563.480 7   -723866.71548  20599101.99248
  23572500.188 3   -133078.898 3   -100917.97346  23572494.94546
  20568940.281 6   -211015.738 6   -161143.82448  20568939.55148
  22804411.359 5  -1957411.844 5  -1492347.30147  22804412.11347
  23534639.203 6    442419.410 6    336300.46546  23534635.39146
  21539178.391 6   -358849.215 6   -274533.58647  21539174.23847
  22475744.211 4    426597.762 4    527556.82846  22475743.69146
 18  5 30  0 23  0.0000000  0  8G14G16G22G26G27G29G31G32            -0.000265007
  20533873.367 6    -63809.113 6    -48782.19548  20533870.50048
  20597066.969 7   -959279.770 7   -732217.07048  20597062.86348
  23572215.320 4   -134574.273 4   -102083.20746  23572210.24646
  20568486.594 6   -213400.164 6   -163001.82048  20568485.58248
  22799655.734 4  -1982400.723 4  -1511819.14847  22799656.67647
  23535648.453 6    447722.453 6    340432.71146  23535644.70746
  21538351.883 6   -363192.805 6   -277918.21547  21538347.35547
  22477315.117 5    434853.156 5    533989.59847  22477314.30147
 18  5 30  0 23  5.0000000  0  9G03G14G16G22G26G27G29G31G32         -0.000269415
  23687971.78911                                
  20533795.477 6    -64218.121 6    -49100.91048  20533792.96148
  20595028.852 7   -969988.961 7   -740561.89848  20595024.45748
  23571931.945 4   -136066.883 4   -103246.30546  23571926.62546
  20568033.250 6   -215781.621 6   -164857.50048  20568032.87148
  22794900.422 4  -2007390.793 4  -1531291.92647  22794900.78947
  23536659.031 6    453031.840 6    344569.85546  23536655.42646
  21537524.922 6   -367538.707 6   -281304.63347  21537520.19947
  22478886.992 5    443111.953 5    540425.02747  22478885.76647
 18  5 30  0 23 10.0000000  0  9G03G14G16G22G26G27G29G31G32         -0.000273813
  23686982.898 2    -65515.863 2                
  20533719.867 6    -64616.898 6    -49411.64848  20533716.82048
  20592992.469 7   -980690.008 7   -748900.37148  20592988.44148
  23571648.164 5   -137555.727 5   -104406.42647  23571643.21947
  20567580.727 6   -218159.082 6   -166710.06648  20567580.22348
  22790145.477 4  -2032380.984 4  -1550764.80947  22790145.78147
  23537670.297 6    458348.551 6    348712.76646  23537667.71546
  21536697.297 6   -371885.973 6   -284692.12147  21536693.80147
  22480459.258 5    451375.328 5    546864.01246  22480457.44146
 18  5 30  0 23 15.0000000  0  9G03G14G16G22G26G27G29G31G32         -0.000278227
  23685997.969 1    -70697.551 1                
  20533645.414 6    -65006.961 6    -49715.60248  20533642.51248
  20590957.625 7   -991384.445 7   -757233.70748  20590953.06648
  23571365.750 5   -139042.344 5   -105564.83646  23571360.33646
  20567128.766 6   -220534.074 6   -168560.70748  20567127.85948
  22785389.484 4  -2057372.859 4  -1570239.00047  22785390.25047
  23538683.055 6    463671.117 6    352860.21146  23538680.55946
  21535869.461 6   -376236.043 6   -288081.78947  21535866.07447
  22482032.430 5    459641.590 5    553305.23447  22482030.85247
 18  5 30  0 23 20.0000000  0  9G03G14G16G22G26G27G29G31G32         -0.000282644
  23685013.875 1    -75871.523 1                
  20533573.352 6    -65386.965 6    -50011.71948  20533570.57448
  20588924.094 7  -1002070.941 7   -765560.84848  20588919.92248
  23571083.742 5   -140525.344 5   -106720.41047  23571078.37547
  20566677.602 6   -222905.273 6   -170408.40648  20566676.48448
  22780633.672 4  -2082365.008 4  -1589713.41447  22780634.79347
  23539696.969 6    469000.824 6    357013.21946  23539695.16046
  21535041.008 6   -380587.582 6   -291472.59447  21535037.74647
  22483605.719 6    467912.125 6    559749.80947  22483604.81647
 18  5 30  0 23 25.0000000  0  9G03G14G16G22G26G27G29G31G32         -0.000287066
  23684028.898 1    -81038.480 1                
  20533502.742 6    -65757.602 6    -50300.53148  20533499.32448
  20586891.617 7  -1012750.148 7   -773882.30948  20586887.14148
  23570801.789 5   -142005.527 5   -107873.81347  23570796.94947
  20566226.961 6   -225273.355 6   -172253.66048  20566225.85548
  22775877.883 4  -2107358.109 4  -1609188.54747  22775878.87947
  23540712.742 5    474336.988 5    361171.25446  23540710.23846
  21534212.531 6   -384941.266 6   -294865.09447  21534209.40647
  22485180.016 6    476186.234 6    566197.15247  22485179.51647
 18  5 30  0 23 30.0000000  0  9G03G14G16G22G26G27G29G31G32         -0.000291500
  23683045.82011                                
  20533434.070 6    -66118.445 6    -50581.71548  20533430.61748
  20584861.250 7  -1023421.734 7   -782197.83648  20584856.76248
  23570520.742 5   -143482.391 5   -109024.60547  23570516.13347
  20565777.141 6   -227637.953 6   -174096.21148  20565776.09848
  22771121.875 4  -2132351.738 4  -1628664.11747  22771122.90247
  23541729.266 5    479679.980 5    365334.63745  23541727.05945
  21533383.414 6   -389296.707 6   -298258.94947  21533380.05947
  22486755.594 6    484464.348 6    572647.61347  22486754.75847
 18  5 30  0 23 35.0000000  0  9G03G14G16G22G26G27G29G31G32         -0.000295927
  23682067.85211                                
  20533367.266 6    -66469.734 6    -50855.45748  20533363.95748
  20582831.633 7  -1034085.855 7   -790507.54348  20582827.61748
  23570240.414 5   -144956.191 5   -110173.02047  23570235.57447
  20565327.859 6   -229999.313 6   -175936.23048  20565326.75848
  22766365.648 4  -2157346.160 4  -1648140.29746  22766366.53146
  23542747.211 5    485029.570 5    369503.14845  23542744.77745
  21532554.680 6   -393654.148 6   -301654.35947  21532551.10247
  22488332.180 6    492746.188 6    579100.98047  22488330.98447
 18  5 30  0 23 40.0000000  0  9G03G14G16G22G26G27G29G31G32         -0.000300356
  23681082.82811    -96495.45311                
  20533302.109 6    -66811.801 6    -51122.00848  20533298.87548
  20580803.711 7  -1044742.816 7   -798811.66048  20580799.32848
  23569960.781 5   -146427.328 5   -111319.36347  23569955.59847
  20564878.898 6   -232357.668 6   -177773.91448  20564877.85548
  22761608.578 3  -2182341.566 3  -1667617.25447  22761609.89147
  23543767.211 5    490385.543 5    373676.62945  23543764.21945
  21531725.102 6   -398013.789 6   -305051.47747  21531721.71547
  22489908.602 6    501031.484 6    585557.04347  22489907.43447
 18  5 30  0 23 45.0000000  0  8G14G16G22G26G27G29G31G32            -0.000304789
  20533238.805 6    -67144.492 6    -51381.25848  20533235.29748
  20578776.914 7  -1055392.559 7   -807110.16848  20578772.47748
  23569680.891 5   -147895.645 5   -112463.50447  23569676.19547
  20564430.977 6   -234712.984 6   -179609.23048  20564429.28948
  22756851.672 4  -2207337.910 4  -1687094.93046  22756853.09046
  23544787.258 5    495747.855 5    377855.07045  23544784.32845
  21530895.328 6   -402375.590 6   -308450.29747  21530891.26247
  22491486.055 6    509320.305 6    592015.85547  22491484.93847
 18  5 30  0 23 50.0000000  0  8G14G16G22G26G27G29G31G32            -0.000309225
  20533177.438 6    -67468.227 6    -51633.52748  20533174.22348
  20576751.328 7  -1066035.469 7   -815403.33648  20576747.19548
  23569402.008 5   -149361.543 5   -113605.77347  23569397.64847
  20563982.961 6   -237065.648 6   -181442.47748  20563982.08648
  22752094.531 4  -2232335.570 4  -1706573.62146  22752096.41446
  23545809.250 5    501116.250 5    382038.22345  23545805.66445
  21530065.180 6   -406739.930 6   -311851.10247  21530061.34847
  22493064.008 6    517612.250 6    598477.08647  22493063.02747
 18  5 30  0 23 55.0000000  0  8G14G16G22G26G27G29G31G32            -0.000313663
  20533117.492 6    -67783.109 6    -51878.89548  20533114.26648
  20574727.469 6  -1076671.613 6   -823691.24248  20574723.31648
  23569123.680 5   -150825.082 5   -114746.21547  23569118.83247
  20563535.570 6   -239415.742 6   -183273.72348  20563534.69548
  22747337.680 4  -2257334.578 4  -1726053.36746  22747339.21146
  23546832.172 5    506490.570 5    386225.99645  23546828.21945
  21529234.359 6   -411106.875 6   -315253.91847  21529230.50847
  22494642.438 6    525907.246 6    604940.72347  22494641.68447
 18  5 30  0 24  0.0000000  0  8G14G16G22G26G27G29G31G32            -0.000318106
  20533059.156 6    -68088.531 6    -52116.89548  20533055.83248
  20572705.219 7  -1087300.449 7   -831973.44948  20572700.76648
  23568845.484 5   -152285.727 5   -115884.37147  23568840.96147
  20563089.672 6   -241762.684 6   -185102.50848  20563088.02348
  22742580.547 5  -2282334.336 5  -1745533.69946  22742581.13746
  23547855.875 5    511871.371 5    390418.85945  23547852.19945
  21528402.453 6   -415475.852 6   -318658.31647  21528398.60947
  22496221.453 5    534205.836 5    611407.13347  22496220.92247
 18  5 30  0 24  5.0000000  0  8G14G16G22G26G27G29G31G32            -0.000322552
  20533002.750 6    -68384.789 6    -52347.75048  20532999.68448
  20570683.609 7  -1097922.227 7   -840250.15648  20570679.58248
  23568567.203 5   -153743.785 5   -117020.53946  23568562.94546
  20562643.500 6   -244106.770 6   -186929.07448  20562641.87948
  22737822.664 5  -2307335.156 5  -1765014.85246  22737823.33246
  23548881.578 5    517258.352 5    394616.47745  23548877.08245
  21527570.984 7   -419847.137 7   -322064.52047  21527567.02747
  22497801.039 5    542507.770 5    617876.16447  22497800.69147
 18  5 30  0 24 10.0000000  0  8G14G16G22G26G27G29G31G32            -0.000327000
  20532948.445 6    -68670.410 6    -52570.32048  20532945.53148
  20568664.016 7  -1108535.469 7   -848520.21948  20568660.14848
  23568290.625 5   -155197.695 5   -118153.46546  23568286.16046
  20562197.891 6   -246446.535 6   -188752.27048  20562196.64148
  22733065.570 5  -2332335.461 5  -1784495.61746  22733066.25846
  23549907.906 5    522653.063 5    398820.13345  23549903.59845
  21526738.523 7   -424219.211 7   -325471.33247  21526735.47347
  22499381.523 5    550814.492 5    624348.92247  22499381.53147
 18  5 30  0 24 15.0000000  0  8G14G16G22G26G27G29G31G32            -0.000331450
  20532895.797 6    -68945.992 6    -52785.07048  20532892.90648
  20566645.906 6  -1119140.789 6   -856784.10948  20566641.81348
  23568015.227 5   -156648.219 5   -119283.76646  23568010.01646
  20561753.164 6   -248782.617 6   -190572.58248  20561752.49648
  22728307.586 5  -2357335.949 5  -1803976.49646  22728308.27046
  23550935.430 5    528054.754 5    403029.20345  23550931.42245
  21525906.977 7   -428592.742 7   -328879.30547  21525902.90247
  22500962.977 5    559125.410 5    630824.95747  22500963.07047
 18  5 30  0 24 20.0000000  0  8G14G16G22G26G27G29G31G32            -0.000335905
  20532845.078 6    -69212.066 6    -52992.41048  20532842.63348
  20564628.891 7  -1129738.691 7   -865042.20748  20564625.02348
  23567739.422 5   -158095.770 5   -120411.75446  23567734.46146
  20561309.484 6   -251115.453 6   -192390.37948  20561308.80148
  22723550.336 5  -2382337.004 5  -1823457.83246  22723550.05946
  23551965.359 6    533463.117 6    407243.55145  23551961.12545
  21525073.648 6   -432968.176 6   -332288.73447  21525070.14547
  22502546.016 5    567439.969 5    637303.83647  22502545.23847
 18  5 30  0 24 25.0000000  0  8G14G16G22G26G27G29G31G32            -0.000340361
  20532796.289 6    -69469.039 6    -53192.66048  20532793.25848
  20562613.641 6  -1140329.625 6   -873294.89548  20562609.29748
  23567464.102 5   -159540.824 5   -121537.77746  23567459.49646
  20560866.000 6   -253445.563 6   -194206.05148  20560865.16448
  22718792.477 4  -2407339.090 4  -1842939.98046  22718792.46946
  23552995.047 6    538877.543 6    411462.52745  23552991.69545
  21524240.969 7   -437345.996 7   -335700.01247  21524237.56647
  22504129.109 5    575757.781 5    643785.24647  22504128.34047
 18  5 30  0 24 30.0000000  0  8G14G16G22G26G27G29G31G32            -0.000344822
  20532749.406 6    -69716.801 6    -53385.72748  20532746.48448
  20560599.398 7  -1150913.465 7   -881542.03948  20560595.31348
  23567189.461 5   -160983.230 5   -122661.74647  23567184.74647
  20560422.969 6   -255772.820 6   -196019.49248  20560422.31348
  22714034.641 5  -2432342.086 5  -1862422.81646  22714034.10246
  23554027.031 5    544298.121 5    415686.41445  23554022.60945
  21523407.336 7   -441726.043 7   -339113.03947  21523403.95747
  22505711.945 5    584078.887 5    650269.21947  22505711.94947
 18  5 30  0 24 35.0000000  0  9G03G14G16G22G26G27G29G31G32         -0.000349272
  23670409.71911    -32158.20311                
  20532703.836 6    -69954.699 6    -53571.10948  20532701.20748
  20558586.891 6  -1161489.543 6   -889783.14148  20558582.73448
  23566915.906 5   -162422.375 5   -123783.16846  23566911.01646
  20559980.531 6   -258096.539 6   -197830.19148  20559979.82048
  22709276.281 5  -2457345.340 5  -1881905.84446  22709275.32446
  23555059.219 5    549725.527 5    419915.49245  23555056.08645
  21522573.813 7   -446107.672 7   -342527.28947  21522570.43847
  22507295.617 5    592404.008 5    656756.31647  22507296.00847
 18  5 30  0 24 40.0000000  0  8G03G14G16G22G26G27G29G31            -0.000353735
  23669445.21912    -37218.13712                
  20532660.734 6    -70182.977 6    -53748.98448  20532657.60248
  20556576.305 7  -1172058.195 7   -898018.45348  20556571.53148
  23566642.672 4   -163858.495 4   -124902.21246  23566637.19946
  20559539.484 6   -260417.016 6   -199638.35548  20559538.89148
  22704518.750 2  -2482348.961 2  -1901389.19146  22704517.44546
  23556092.367 4    555159.534 4    424149.82545  23556090.17645
  21521739.117 7   -450491.125 7   -345942.98447  21521736.33647
 18  5 30  0 24 45.0000000  0  9G03G14G16G22G26G27G29G31G32         -0.000358206
  23668483.28111    -42270.03511                
  20532619.492 6    -70401.332 6    -53919.14848  20532616.41448
  20554566.203 7  -1182618.984 7   -906247.64848  20554561.80548
  23566370.648 5   -165291.254 5   -126018.69946  23566364.54346
  20559098.813 6   -262733.918 6   -201443.73448  20559097.62148
  22699759.898 4  -2507352.828 4  -1920872.67246  22699759.00446
  23557128.406 5    560600.398 5    428389.37145  23557125.96545
  21520905.242 7   -454876.043 7   -349359.78947  21520902.14147
  22510466.50816      7665.68816    665845.41057  22510466.05557
 18  5 30  0 24 50.0000000  0  9G03G14G16G22G26G27G29G31G32         -0.000362690
  23667522.57811                                
  20532579.594 6    -70608.801 6    -54080.80948  20532576.61748
  20552558.297 6  -1193171.016 6   -914470.00448  20552553.91448
  23566099.102 5   -166719.777 5   -127131.80546  23566092.57846
  20558658.250 6   -265046.297 6   -203245.57848  20558657.17648
  22695001.703 4  -2532355.801 4  -1940355.54346  22695000.57046
  23558165.695 5    566049.125 5    432635.13745  23558162.79345
  21520070.852 7   -459261.500 7   -352777.05147  21520067.64847
  22512053.906 5     16003.559 5    672342.44957  22512053.03157
 18  5 30  0 24 55.0000000  0  8G14G16G22G26G27G29G31G32            -0.000367163
  20532542.383 6    -70807.039 6    -54235.28948  20532539.09448
  20550551.680 6  -1203715.965 6   -922686.86348  20550547.24248
  23565827.789 5   -168145.684 5   -128242.91446  23565821.12546
  20558218.688 6   -267355.820 6   -205045.23447  20558218.05947
  22690244.719 4  -2557359.516 4  -1959838.92646  22690242.65646
  23559203.633 5    571504.031 5    436885.69945  23559200.63745
  21519235.445 7   -463649.090 7   -356195.94547  21519232.91047
  22513640.586 5     24344.711 5    678842.03947  22513640.65647
 18  5 30  0 25  0.0000000  0  8G14G16G22G26G27G29G31G32            -0.000371639
  20532506.023 6    -70995.102 6    -54381.82448  20532503.43048
  20548546.797 6  -1214252.840 6   -930897.41448  20548542.39148
  23565557.086 6   -169568.043 6   -129351.23847  23565550.36347
  20557780.203 6   -269661.523 6   -206841.89148  20557778.98448
  22685486.484 4  -2582363.078 4  -1979322.23446  22685484.42246
  23560243.078 5    576966.070 5    441141.83645  23560240.55945
  21518400.328 7   -468037.871 7   -359615.77347  21518397.27347
  22515228.914 5     32690.152 5    685344.95747  22515228.91447
 18  5 30  0 25  5.0000000  0  8G14G16G22G26G27G29G31G32            -0.000376120
  20532472.531 6    -71172.766 6    -54520.26648  20532469.69948
  20546543.297 7  -1224781.473 7   -939101.54748  20546538.65248
  23565286.680 6   -170986.668 6   -130456.66446  23565280.14846
  20557341.664 6   -271963.238 6   -208635.43047  20557341.10947
  22680728.352 4  -2607366.254 4  -1998805.23846  22680726.82446
  23561283.672 5    582435.379 5    445403.63345  23561281.23045
  21517565.164 6   -472427.680 6   -363036.39547  21517561.34047
  22516817.625 5     41040.066 5    691851.38347  22516818.13347
 18  5 30  0 25 10.0000000  0  8G14G16G22G26G27G29G31G32            -0.000380600
  20532440.195 6    -71339.848 6    -54650.46148  20532437.31348
  20544541.516 7  -1235301.660 7   -947299.10248  20544537.16848
  23565018.070 6   -172401.387 6   -131559.04346  23565011.20346
  20556905.086 6   -274260.754 6   -210425.70747  20556903.92247
  22675971.344 4  -2632368.844 4  -2018287.77746  22675969.16446
  23562325.922 4    587912.230 4    449671.28145  23562324.07845
  21516729.461 6   -476818.285 6   -366457.64847  21516725.74647
  22518407.453 5     49394.598 5    698361.39847  22518407.46547
 18  5 30  0 25 15.0000000  0  8G14G16G22G26G27G29G31G32            -0.000385084
  20532410.375 6    -71497.262 6    -54773.12948  20532407.71148
  20542540.836 7  -1245814.313 7   -955490.78148  20542536.67248
  23564749.758 6   -173813.105 6   -132659.07046  23564742.88746
  20556468.773 6   -276555.035 6   -212213.47348  20556468.13748
  22671213.852 4  -2657371.691 4  -2037770.53546  22671211.34446
  23563369.055 4    593395.707 4    453944.09445  23563367.51245
  21515893.477 6   -481210.594 6   -369880.22747  21515889.68047
  22519998.156 4     57752.859 4    704874.32847  22519998.14847
 18  5 30  0 25 20.0000000  0  8G14G16G22G26G27G29G31G32            -0.000389572
  20532382.805 6    -71644.852 6    -54888.13348  20532379.49648
  20540542.227 7  -1256319.273 7   -963676.48048  20540537.88748
  23564481.563 6   -175221.672 6   -133756.65647  23564474.43847
  20556032.781 6   -278845.879 6   -213998.55147  20556031.43047
  22666456.508 4  -2682374.664 4  -2057253.38346  22666453.66846
  23564413.852 4    598885.844 4    458222.05945  23564413.06645
  21515057.648 6   -485604.504 6   -373304.05547  21515053.41847
  22521589.367 5     66114.992 5    711390.25046  22521589.25046
 18  5 30  0 25 25.0000000  0  8G14G16G22G26G27G29G31G32            -0.000394060
  20532356.508 6    -71782.004 6    -54995.00448  20532353.14548
  20538544.773 7  -1266815.930 7   -971855.68448  20538540.75848
  23564214.109 6   -176626.500 6   -134851.32046  23564207.04746
  20555597.523 6   -281132.672 6   -215780.47748  20555597.06648
  22661698.109 5  -2707377.148 5  -2076735.82846  22661695.52046
  23565460.453 3    604383.383 3    462505.99645  23565459.31645
  21514221.125 6   -489999.293 6   -376728.56347  21514216.84047
  22523181.953 4     74481.609 4    717909.70347  22523181.37147
 18  5 30  0 25 30.0000000  0  8G14G16G22G26G27G29G31G32            -0.000398552
  20532332.484 6    -71908.691 6    -55093.71548  20532328.94948
  20536548.750 7  -1277304.281 7   -980028.44148  20536544.98848
  23563947.109 6   -178027.617 6   -135943.09447  23563940.42647
  20555163.141 6   -283415.488 6   -217559.28948  20555161.84448
  22656940.602 5  -2732379.059 5  -2096217.85547  22656938.19547
  23566507.531 3    609888.215 3    466795.33645  23566506.99245
  21513384.281 6   -494394.961 6   -380153.76647  21513379.88347
  22524774.617 5     82852.688 5    724432.60546  22524773.61346
 18  5 30  0 25 35.0000000  0  8G14G16G22G26G27G29G31G32            -0.000403048
  20532310.313 6    -72024.723 6    -55184.12948  20532307.01248
  20534554.672 7  -1287784.129 7   -988194.55148  20534550.76648
  23563680.781 5   -179424.727 5   -137031.75846  23563675.18846
  20554729.266 6   -285694.023 6   -219334.77048  20554728.50448
  22652182.227 5  -2757380.230 5  -2115699.29347  22652180.69547
  23567556.789 3    615400.617 3    471090.82445  23567555.69145
  21512547.664 6   -498791.359 6   -383579.53947  21512543.53947
  22526368.250 5     91228.488 5    730959.20746  22526368.07046
 18  5 30  0 25 40.0000000  0  8G14G16G22G26G27G29G31G32            -0.000407543
  20532290.008 6    -72131.273 6    -55267.15648  20532286.55948
  20532561.750 7  -1298256.672 7   -996354.97748  20532558.30948
  23563415.836 5   -180819.086 5   -138118.27746  23563410.02046
  20554296.641 6   -287969.547 6   -221107.90248  20554295.66048
  22647425.031 5  -2782381.727 5  -2135180.98447  22647423.51647
  23568606.500 3    620919.406 3    475391.19945  23568606.35545
  21511710.469 6   -503189.582 6   -387006.71547  21511706.22747
  22527962.805 5     99607.773 5    737488.50446  22527962.22746
 18  5 30  0 25 45.0000000  0  8G14G16G22G26G27G29G31G32            -0.000412043
  20532271.734 6    -72226.668 6    -55341.49248  20532268.54348
  20530570.523 7  -1308720.180 7  -1004508.35548  20530567.14548
  23563150.859 5   -182209.043 5   -139201.36746  23563145.47346
  20553864.703 6   -290240.336 6   -222877.34047  20553863.87147
  22642668.258 5  -2807382.000 5  -2154661.70747  22642666.11747
  23569658.852 4    626446.227 4    479697.77745  23569658.07045
  21510873.977 6   -507588.004 6   -390434.06347  21510869.28547
  22529558.523 5    107992.238 5    744021.83247  22529558.07447
 18  5 30  0 25 50.0000000  0  8G14G16G22G26G27G29G31G32            -0.000416546
  20532254.977 6    -72312.547 6    -55408.41048  20532252.03948
  20528580.383 7  -1319176.273 7  -1012655.96148  20528577.26648
  23562886.789 5   -183596.145 5   -140282.24246  23562881.32846
  20553432.813 6   -292508.031 6   -224644.37947  20553432.42247
  22637910.641 6  -2832382.520 6  -2174142.64147  22637908.93447
  23570711.734 4    631979.418 4    484009.36345  23570711.21545
  21510036.469 6   -511988.266 6   -393862.83247  21510032.02747
  22531154.477 6    116380.242 6    750557.93847  22531153.84847
 18  5 30  0 25 55.0000000  0  8G14G16G22G26G27G29G31G32            -0.000421049
  20532241.297 6    -72387.762 6    -55467.01648  20532237.99248
  20526592.305 7  -1329623.852 7  -1020796.92648  20526589.13348
  23562624.195 5   -184979.293 5   -141360.03546  23562618.55146
  20553002.438 6   -294771.488 6   -226408.10248  20553001.58248
  22633152.961 6  -2857382.187 6  -2193622.88847  22633152.17247
  23571766.445 4    637520.188 4    488326.84445  23571765.89545
  21509199.211 6   -516389.176 6   -397292.11747  21509194.55947
  22532751.961 6    124772.926 6    757097.68047  22532751.20747
 18  5 30  0 26  0.0000000  0  8G14G16G22G26G27G29G31G32            -0.000425556
  20532228.742 6    -72453.020 6    -55517.86748  20532225.43048
  20524605.664 6  -1340063.688 6  -1028931.86348  20524602.18848
  23562361.000 5   -186359.262 5   -142435.32846  23562355.59446
  20552571.938 6   -297031.520 6   -228169.18048  20552571.42648
  22628396.008 6  -2882381.781 6  -2213103.07447  22628395.33247
  23572821.609 4    643067.676 4    492649.58645  23572821.21145
  21508361.641 6   -520791.492 6   -400722.50847  21508356.70347
  22534350.102 6    133169.496 6    763640.42247  22534348.47347
 18  5 30  0 26  5.0000000  0  8G14G16G22G26G27G29G31G32            -0.000430065
  20532218.500 6    -72508.066 6    -55560.76648  20532215.51248
  20522620.609 6  -1350495.422 6  -1037060.49248  20522617.13348
  23562098.930 5   -187735.742 5   -143507.91446  23562093.59046
  20552142.969 6   -299287.758 6   -229927.28548  20552142.23848
  22623638.984 6  -2907380.914 6  -2232582.93047  22623638.11747
  23573879.383 5    648622.269 5    496977.77245  23573878.50445
  21507523.680 6   -525194.883 6   -404153.72747  21507518.74647
  22535948.766 6    141570.297 6    770186.50847  22535947.44947
 18  5 30  0 26 10.0000000  0  8G14G16G22G26G27G29G31G32            -0.000434578
  20532209.430 6    -72553.574 6    -55596.23048  20532207.13348
  20520637.250 6  -1360919.820 6  -1045183.39848  20520633.52748
  23561837.539 5   -189109.465 5   -144578.36346  23561832.67646
  20551714.078 6   -301540.965 6   -231683.03148  20551713.36748
  22618881.406 6  -2932380.188 6  -2252062.85947  22618880.80947
  23574936.813 5    654183.184 5    501310.95745  23574936.87545
  21506685.758 6   -529600.102 6   -407586.36747  21506680.73047
  22537547.891 6    149974.574 6    776735.27047  22537546.81347
 18  5 30  0 26 15.0000000  0  8G14G16G22G26G27G29G31G32            -0.000439093
  20532202.602 6    -72588.965 6    -55623.81648  20532200.14848
  20518654.297 6  -1371336.188 6  -1053300.04748  20518651.14148
  23561577.016 5   -190479.785 5   -145646.15646  23561571.71546
  20551286.086 6   -303790.496 6   -233435.92248  20551284.96948
  22614124.125 6  -2957379.176 6  -2271542.59447  22614124.30147
  23575995.992 4    659751.078 4    505649.59045  23575995.83645
  21505846.781 6   -534006.484 6   -411019.92247  21505842.30547
  22539147.750 6    158382.961 6    783287.24647  22539146.78147
 18  5 30  0 26 20.0000000  0  8G14G16G22G26G27G29G31G32            -0.000443611
  20532198.180 6    -72614.898 6    -55644.03148  20532195.14548
  20516673.844 6  -1381745.320 6  -1061411.04348  20516670.18448
  23561317.469 5   -191847.504 5   -146711.92246  23561311.65246
  20550858.664 6   -306037.102 6   -235186.53148  20550857.48048
  22609367.227 6  -2982378.516 6  -2291022.59447  22609367.24647
  23577057.305 5    665325.164 5    509993.02345  23577056.95745
  21505007.703 6   -538414.758 6   -414454.93047  21505003.57447
  22540748.695 6    166794.707 6    789841.84447  22540747.47747
 18  5 30  0 26 25.0000000  0  8G14G16G22G26G27G29G31G32            -0.000448132
  20532195.016 6    -72629.883 6    -55655.71148  20532192.50448
  20514694.781 6  -1392145.648 6  -1069515.18848  20514691.30148
  23561058.750 5   -193211.012 5   -147774.41446  23561052.08646
  20550432.227 6   -308279.234 6   -236933.64848  20550431.29748
  22604609.930 6  -3007376.605 6  -2310501.62547  22604609.95747
  23578118.344 4    670907.000 4    514342.53945  23578118.93045
  21504169.039 6   -542823.340 6   -417890.19147  21504164.88747
  22542350.859 6    175211.387 6    796400.28147  22542349.52047
 18  5 30  0 26 30.0000000  0  8G14G16G22G26G27G29G31G32            -0.000452654
  20532194.094 7    -72634.785 7    -55659.52748  20532191.86748
  20512716.945 6  -1402538.066 6  -1077613.18048  20512713.34448
  23560798.844 5   -194571.246 5   -148834.34846  23560793.22746
  20550006.367 6   -310517.777 6   -238677.96148  20550005.09048
  22599852.914 6  -3032374.332 6  -2329980.35547  22599853.10547
  23579183.266 4    676495.762 4    518697.35245  23579182.42245
  21503329.945 6   -547233.137 6   -421326.39147  21503326.05547
  22543952.414 6    183632.063 6    802961.82847  22543951.48047
 18  5 30  0 26 35.0000000  0  8G14G16G22G26G27G29G31G32            -0.000457180
  20532195.180 6    -72629.461 6    -55655.39148  20532193.02048
  20510740.398 6  -1412922.391 6  -1085704.85248  20510737.25448
  23560541.305 5   -195928.012 5   -149891.57846  23560535.16046
  20549580.992 6   -312752.574 6   -240419.37148  20549579.66448
  22595096.211 6  -3057371.477 6  -2349458.63747  22595096.13347
  23580248.086 4    682091.590 4    523057.77745  23580246.97345
  21502490.461 6   -551643.930 6   -424763.37547  21502487.12147
  22545555.773 6    192056.938 6    809526.65647  22545554.72347
 18  5 30  0 26 40.0000000  0  8G14G16G22G26G27G29G31G32            -0.000461708
  20532198.313 6    -72613.828 6    -55643.21548  20532195.89148
  20508766.602 6  -1423298.582 6  -1093790.18448  20508762.76648
  23560284.164 5   -197281.328 5   -150946.11346  23560277.79346
  20549156.281 6   -314983.563 6   -242157.80948  20549155.34848
  22590339.352 6  -3082367.969 6  -2368936.41447  22590339.18447
  23581313.844 4    687694.418 4                
  21501651.016 6   -556055.625 6   -428201.07047  21501647.19547
  22547159.891 6    200486.047 6    816094.77747  22547158.84047
 18  5 30  0 26 45.0000000  0  8G14G16G22G26G27G29G31G32            -0.000466238
  20532202.625 7    -72588.863 7    -55623.76248  20532200.64848
  20506793.180 6  -1433667.578 6  -1101869.92248  20506789.82048
  23560026.352 6   -198632.039 6   -151998.62546  23560020.92246
  20548732.508 7   -317211.660 7   -243893.98848  20548731.34848
  22585582.469 6  -3107364.723 6  -2388414.39547  22585582.76647
  23582381.578 4    693303.512 4                
  21500811.281 6   -560469.238 6   -431640.25047  21500807.38347
  22548764.016 6    208918.473 6    822665.49647  22548763.04747
 18  5 30  0 26 50.0000000  0  8G14G16G22G26G27G29G31G32            -0.000470772
  20532209.617 6    -72553.250 6    -55596.01648  20532207.32448
  20504822.102 6  -1444028.059 6  -1109943.02748  20504818.39848
  23559770.531 5   -199978.969 5   -153048.18047  23559764.68047
  20548309.008 6   -319435.652 6   -245626.96948  20548307.78948
  22580826.125 6  -3132360.473 6  -2407891.59047  22580826.08247
  23583450.867 4    698919.996 4                
  21499970.945 6   -564883.449 6   -435079.89847  21499967.48447
  22550370.383 5    217355.473 5    829239.77746  22550368.78946
 18  5 30  0 26 55.0000000  0  8G14G16G22G26G27G29G31G32            -0.000475307
  20532218.203 6    -72507.594 6    -55560.44548  20532216.02048
  20502851.609 6  -1454380.699 6  -1118010.01648  20502848.09848
  23559514.500 6   -201322.656 6   -154095.22346  23559508.30546
  20547886.070 6   -321656.133 6   -247357.21148  20547885.39148
  22576069.672 6  -3157355.789 6  -2427368.46147  22576069.16447
  23584520.258 4    704543.270 4                
  21499131.414 6   -569298.855 6   -438520.47347  21499127.51247
  22551976.781 5    225796.410 5    835817.13746  22551974.79746
 18  5 30  0 27  0.0000000  0  8G14G16G22G26G27G29G31G32            -0.000479845
  20532229.219 6    -72451.258 6    -55516.54348  20532226.44148
  20500883.484 6  -1464724.813 6  -1126070.36748  20500879.76248
  23559259.141 5   -202662.510 5   -155139.25046  23559253.56646
  20547464.555 7   -323872.445 7   -249084.20348  20547463.69548
  22571313.852 6  -3182350.035 6  -2446844.49247  22571312.68047
  23585592.406 4    710173.941 4                
  21498290.664 6   -573714.832 6   -441961.51647  21498287.44147
  22553583.859 5    234241.914 5    842398.04347  22553582.01247
 18  5 30  0 27  5.0000000  0  8G14G16G22G26G27G29G31G32            -0.000484386
  20532241.594 6    -72384.750 6    -55464.72748  20532239.36748
  20498916.469 6  -1475060.926 6  -1134124.48848  20498912.51648
  23559004.836 5   -203999.031 5   -156180.70746  23558999.27746
  20547043.383 6   -326085.125 6   -250808.37948  20547042.67248
  22566556.898 6  -3207343.672 6  -2466320.04347  22566556.27047
  23586664.406 2    715811.598 2                
  21497450.297 6   -578131.852 6   -445403.34047  21497446.39147
  22555191.828 6    242691.504 6    848982.12547  22555190.00847
 18  5 30  0 27 10.0000000  0  8G14G16G22G26G27G29G31G32            -0.000488930
  20532256.195 7    -72308.336 7    -55405.18048  20532253.20348
  20496951.336 7  -1485389.355 7  -1142172.60948  20496947.22748
  23558750.664 5   -205332.551 5   -157219.80146  23558745.07846
  20546623.000 6   -328294.484 6   -252529.95348  20546622.27048
  22561801.398 6  -3232337.023 6  -2485795.38347  22561800.48447
  23587739.109 3    721455.895 3                
  21496609.672 6   -582550.207 6   -448846.22347  21496606.15247
  22556800.500 6    251144.848 6    855569.15647  22556798.62147
 18  5 30  0 27 15.0000000  0  8G14G16G22G26G27G29G31G32            -0.000493475
  20532273.023 6    -72221.246 6    -55337.32048  20532270.04348
  20494987.828 7  -1495709.223 7  -1150214.07448  20494983.30948
  23558497.508 5   -206662.230 5   -158255.92246  23558492.25046
  20546203.703 6   -330499.656 6   -254248.26648  20546203.02748
  22557045.641 6  -3257329.172 6  -2505269.78147  22557044.62147
  23588813.938 3    727107.582 3                
  21495768.883 6   -586969.121 6   -452289.53947  21495765.07047
  22558410.266 6    259602.781 6    862159.74247  22558408.07847
 18  5 30  0 27 20.0000000  0  8G14G16G22G26G27G29G31G32            -0.000498022
  20532291.273 6    -72123.102 6    -55260.84448  20532288.47348
  20493025.547 7  -1506020.199 7  -1158248.60948  20493021.11748
  23558245.008 5   -207987.707 5   -159288.74646  23558239.43446
  20545784.938 6   -332700.320 6   -255963.07048  20545784.29348
  22552290.047 6  -3282319.832 6  -2524743.03147  22552288.32847
  23589891.289 3    732767.105 3                
  21494928.016 6   -591388.207 6   -455732.99647  21494923.44947
  22560020.359 6    268065.656 6    868754.18847  22560018.32447
 18  5 30  0 27 24.9990000  0  8G14G16G22G26G27G29G31G32             0.000497429
  20532311.597 6    -72015.469 6    -55176.97748  20532308.53448
  20491065.003 6  -1516321.781 6  -1166275.82048  20491060.22248
  23557993.792 5   -209310.258 5   -160319.30946  23557987.80846
  20545366.495 6   -334897.641 6   -257675.27348  20545365.72248
  22547535.565 6  -3307305.469 6  -2544212.34847  22547534.22247
  23590968.519 3    738431.645 3                
  21494086.183 6   -595808.031 6   -459177.00847  21494082.95647
  22561631.097 6    276530.207 6    875349.90646  22561629.24546
 18  5 30  0 27 29.9990000  0  8G14G16G22G26G27G29G31G32             0.000492876
  20532334.581 6    -71896.918 6    -55084.59848  20532331.57348
  20489105.917 7  -1526616.727 7  -1174297.85548  20489100.89748
  23557742.159 5   -210629.109 5   -161346.97746  23557737.12046
  20544949.417 6   -337091.027 6   -259384.40648  20544948.63248
  22542779.980 6  -3332294.762 6  -2563684.52047  22542778.74547
  23592048.245 3    744104.938 3                
  21493245.659 6   -600229.090 6   -462621.98447  21493241.89747
  22563243.175 6    285001.249 6    881950.74047  22563241.42547
 18  5 30  0 27 34.9990000  0  8G14G16G22G26G27G29G31G32             0.000488321
  20532358.745 6    -71767.980 6    -54984.13348  20532355.73048
  20487148.425 7  -1536903.422 7  -1182313.47348  20487143.25348
  23557491.878 5   -211944.422 5   -162371.90246  23557486.92146
  20544532.815 7   -339280.590 7   -261090.56648  20544532.15948
  22538024.815 6  -3357283.070 6  -2583155.92247  22538023.92947
  23593130.214 3    749785.277 3                
  21492403.831 6   -604650.926 6   -466067.59447  21492400.14747
  22564855.745 6    293476.488 6    888554.77347  22564854.06947
 18  5 30  0 27 39.9990000  0  8G14G16G22G26G27G29G31G32             0.000483763
  20532384.753 6    -71629.383 6    -54876.13748  20532381.88248
  20485192.605 7  -1547182.672 7  -1190323.28148  20485187.24948
  23557242.565 5   -213257.016 5   -163394.71946  23557237.52646
  20544116.925 6   -341467.090 6   -262794.34448  20544116.21448
  22533270.269 6  -3382271.227 6  -2602627.21547  22533268.77247
  23594211.245 4    755472.061 4                
  21491561.753 6   -609074.293 6   -469514.35547  21491558.45247
  22566469.089 6    301955.254 6    895161.60947  22566467.83147
 18  5 30  0 27 44.9990000  0  8G14G16G22G26G27G29G31G32             0.000479202
  20532413.651 6    -71480.418 6    -54760.06648  20532410.36648
  20483238.105 7  -1557453.715 7  -1198326.70348  20483232.52248
  23556993.589 5   -214566.172 5   -164414.84046  23556988.24546
  20543701.159 6   -343649.793 6   -264495.15248  20543701.11248
  22528514.940 6  -3407258.453 6  -2622097.77047  22528514.26147
  23595296.120 4    761165.809 4                
  21490719.714 6   -613498.465 6   -472961.77347  21490716.32347
  22568082.964 6    310438.230 6    901771.69947  22568082.19847
 18  5 30  0 27 49.9990000  0  8G14G16G22G26G27G29G31G32             0.000474640
  20532443.284 6    -71322.520 6    -54637.03548  20532440.79248
  20481284.605 7  -1567718.055 7  -1206324.89848  20481279.87448
  23556745.026 5   -215873.305 5   -165433.37546  23556739.78046
  20543286.440 6   -345830.125 6   -266194.11748  20543286.13248
  22523759.644 6  -3432246.145 6  -2641568.69947  22523759.31547
  23596379.323 5    766865.227 5                
  21489877.862 6   -617924.918 6   -476410.95747  21489873.50747
  22569697.987 6    318923.953 6    908383.94546  22569697.27646
 18  5 30  0 27 54.9990000  0  8G14G16G22G26G27G29G31G32             0.000470074
  20532475.683 6    -71153.773 6    -54505.55148  20532472.85848
  20479333.573 7  -1577973.750 7  -1214316.35548  20479328.50348
  23556497.198 5   -217176.543 5   -166448.91046  23556491.76946
  20542872.284 6   -348006.293 6   -267889.84048  20542871.94448
  22519004.987 6  -3457232.461 6  -2661038.53547  22519004.48047
  23597465.831 4    772572.094 4                
  21489035.620 6   -622351.684 6   -479860.38347  21489031.35547
  22571313.542 5    327414.301 5    914999.80147  22571313.21847
 18  5 30  0 27 59.9990000  0  8G14G16G22G26G27G29G31G32             0.000465506
  20532509.737 6    -70974.129 6    -54365.57448  20532507.25348
  20477383.245 6  -1588220.664 6  -1222300.96548  20477378.55848
  23556249.698 5   -218475.742 5   -167461.26646  23556245.21446
  20542458.722 6   -350178.066 6   -269582.12948  20542458.35148
  22514250.175 6  -3482217.195 6  -2680507.16447  22514249.76147
  23598552.925 4    778286.617 4                
  21488193.081 6   -626778.664 6   -483309.97347  21488188.73747
  22572930.167 5    335909.438 5    921619.37946  22572929.75746
 18  5 30  0 28  4.9990000  0  8G14G16G22G26G27G29G31G32             0.000460936
  20532546.058 6    -70783.605 6    -54217.12548  20532543.55448
  20475434.730 7  -1598458.934 7  -1230278.84848  20475430.40948
  23556003.339 5   -219771.031 5   -168470.59846  23555998.55446
  20542046.394 6   -352345.559 6   -271271.09448  20542045.82748
  22509496.261 6  -3507200.426 6  -2699974.61347  22509495.79647
  23599642.378 4    784008.730 4                
  21487350.425 6   -631205.934 6   -486759.78947  21487346.17947
  22574547.683 5    344409.250 5    928242.60946  22574547.14746
 18  5 30  0 28  9.9990000  0  8G14G16G22G26G27G29G31G32             0.000456364
  20532584.230 6    -70583.023 6    -54060.82848  20532582.21848
  20473488.081 6  -1608689.336 6  -1238250.57848  20473484.14748
  23555756.448 5   -221063.188 5   -169477.47746  23555752.95246
  20541634.815 6   -354509.641 6   -272957.39848  20541634.54248
  22504741.894 5  -3532182.941 5  -2719441.50047  22504741.67147
  23600732.597 3    789737.465 3                
  21486507.472 6   -635634.262 6   -490210.44547  21486503.64447
  22576166.230 5    352912.918 5    934868.84046  22576165.37846
 18  5 30  0 28 14.9990000  0  8G14G16G22G26G27G29G31G32             0.000451790
  20532624.526 6    -70372.047 6    -53896.43848  20532621.94048
  20471543.003 7  -1618911.539 7  -1246215.93848  20471538.89748
  23555511.253 5   -222351.910 5   -170481.69946  23555507.56546
  20541223.542 6   -356669.887 6   -274640.70748  20541223.05848
  22499988.144 5  -3557164.410 5  -2738907.58247  22499987.56547
  23601824.159 3    795473.320 3                
  21485665.089 6   -640063.305 6   -493661.64847  21485660.64047
  22577785.284 5    361420.844 5    941498.37946  22577784.46846
 18  5 30  0 28 19.9990000  0  8G14G16G22G26G27G29G31G32             0.000447212
  20532666.690 6    -70150.379 6    -53723.71948  20532664.18748
  20469598.839 6  -1629125.230 6  -1254174.65648  20469595.11648
  23555267.190 5   -223636.824 5   -171482.94946  23555263.20246
  20540814.011 6   -358826.066 6   -276320.85248  20540812.87848
  22495234.690 5  -3582144.438 5  -2758372.54747  22495233.77647
  23602916.815 3    801216.520 3                
  21484822.097 6   -644492.766 6   -497113.19147  21484817.89747
  22579404.675 5    369933.219 5    948131.39546  22579404.22246
 18  5 30  0 28 24.9990000  0  9G03G14G16G22G26G27G29G31G32          0.000442633
  23627644.58111     -4521.34411                
  20532710.980 6    -69918.461 6    -53543.00048  20532708.10848
  20467657.198 7  -1639330.809 7  -1262127.05548  20467653.83948
  23555024.073 5   -224918.473 5   -172481.67646  23555019.13646
  20540403.925 6   -360978.570 6   -277998.12948  20540403.25348
  22490481.487 5  -3607123.520 5  -2777836.76247  22490480.47647
  23604010.105 3    806966.574 3                
  21483978.886 6   -648923.066 6   -500565.36347  21483974.76147
  22581025.589 5    378449.699 5    954767.61346  22581024.49546
 18  5 30  0 28 29.9990000  0  9G03G14G16G22G26G27G29G31G32          0.000438066
  23626747.636 1     -9224.609 1                
  20532756.636 6    -69676.086 6    -53354.14848  20532754.30448
  20465717.042 7  -1649528.129 7  -1270073.00848  20465713.39448
  23554780.214 5   -226196.664 5   -173477.65646  23554775.67546
  20539994.901 6   -363127.320 6   -279672.48048  20539994.31548
  22485728.362 5  -3632101.438 5  -2797300.07447  22485727.45247
  23605106.136 3    812723.727 3                
  21483135.909 6   -653354.020 6   -504018.06347  21483132.12447
  22582646.956 5    386970.320 5    961407.05946  22582646.13646
 18  5 30  0 28 34.9990000  0  9G03G14G16G22G26G27G29G31G32          0.000433483
  23625855.214 1    -13920.852 1                
  20532805.230 6    -69424.125 6    -53157.82048  20532802.01148
  20463777.706 7  -1659718.082 7  -1278013.23448  20463774.22648
  23554537.433 5   -227472.316 5   -174471.68446  23554533.20246
  20539586.776 6   -365273.102 6   -281344.51248  20539585.99948
  22480975.065 5  -3657079.047 5  -2816763.13747  22480974.08547
  23606203.339 3    818486.996 3                
  21482292.440 6   -657786.535 6   -507471.98047  21482288.67147
  22584269.261 5    395494.293 5    968049.10546  22584268.50746
 18  5 30  0 28 39.9990000  0  9G03G14G16G22G26G27G29G31G32          0.000428896
  23624960.526 1    -18609.211 1                
  20532855.089 6    -69161.539 6    -52953.21148  20532851.69048
  20461840.315 6  -1669899.582 6  -1285946.86748  20461836.82348
  23554295.026 5   -228744.324 5   -175462.87946  23554290.86246
  20539178.948 6   -367414.930 6   -283013.47348  20539178.23748
  22476222.151 5  -3682055.332 5  -2836225.18447  22476221.25747
  23607301.308 3    824257.473 3                
  21481448.683 6   -662219.465 6   -510926.21547  21481445.04647
  22585892.315 6    404022.703 6    974694.60246  22585891.38646
 18  5 30  0 28 44.9990000  0  9G03G14G16G22G26G27G29G31G32          0.000424307
  23624069.878 2    -23289.457 2                
  20532906.675 6    -68888.336 6    -52740.33648  20532904.08548
  20459904.347 6  -1680072.629 6  -1293873.91848  20459900.67148
  23554054.269 5   -230012.664 5   -176451.21546  23554049.37046
  20538771.987 6   -369552.781 6   -284679.32448  20538771.05848
  22471469.722 5  -3707030.188 5  -2855686.11347  22471468.83547
  23608399.878 3    830035.188 3                
  21480605.230 6   -666652.914 6   -514380.84846  21480601.61646
  22587516.284 5    412555.477 5    981343.52046  22587515.40946
 18  5 30  0 28 49.9990000  0  9G03G14G16G22G26G27G29G31G32          0.000419714
  23623178.206 2    -27961.699 2                
  20532961.183 6    -68604.465 6    -52519.14548  20532957.53048
  20457970.019 6  -1690237.281 6  -1301794.42648  20457966.65148
  23553814.214 5   -231277.375 5   -177436.74246  23553808.94846
  20538366.230 6   -371686.637 6   -286342.07048  20538365.05448
  22466716.862 5  -3732003.609 5  -2875145.93447  22466716.06947
  23609500.972 3    835820.121 3                
  21479761.534 6   -671086.746 6   -517835.80147  21479757.94047
  22589141.019 6    421092.605 6    987995.81346  22589139.39446
 18  5 30  0 28 54.9990000  0  9G03G14G16G22G26G27G29G31G32          0.000415121
  23622289.776 1    -32626.602 1                
  20533016.964 6    -68310.742 6    -52290.27048  20533013.18748
  20456037.003 7  -1700394.242 7  -1309708.93848  20456033.87048
  23553574.065 5   -232539.219 5   -178419.98846  23553568.52246
  20537960.948 6   -373817.250 6   -288002.29348  20537959.23048
  22461964.956 5  -3756976.344 5  -2894605.19947  22461963.21447
  23610603.472 2    841611.500 2                
  21478917.644 6   -675521.750 6   -521291.63347  21478913.94847
  22590766.253 5    429633.414 5    994650.96546  22590765.04246
 18  5 30  0 28 59.9990000  0  9G03G14G16G22G26G27G29G31G32          0.000410522
  23621403.440 1    -37284.551 1                
  20533074.597 6    -68007.320 6    -52053.84048  20533071.13248
  20454105.589 7  -1710543.754 7  -1317617.64848  20454102.51148
  23553334.589 5   -233798.449 5   -179401.20346  23553329.13646
  20537555.698 6   -375944.875 6   -289660.18848  20537554.55848
  22457212.730 5  -3781948.594 5  -2914064.09847  22457211.14047
  23611707.698 3    847409.129 3                
  21478073.565 6   -679958.223 6   -524748.62146  21478069.45246
  22592392.003 5    438177.609 5   1001308.77346  22592390.83546
 18  5 30  0 29  4.9990000  0  9G03G14G16G22G26G27G29G31G32          0.000405910
  23620518.12811                                
  20533134.308 6    -67693.328 6    -51809.17248  20533130.90948
  20452175.964 6  -1720684.801 6  -1325519.75448  20452172.41748
  23553094.972 5   -235054.102 5   -180379.61346  23553089.51546
  20537151.956 6   -378068.547 6   -291315.00048  20537150.66348
  22452460.917 5  -3806919.355 5  -2933521.83247  22452459.78447
  23612810.800 2    853214.000 2                
  21477228.425 6   -684395.117 6   -528205.95747  21477225.42947
  22594018.323 5    446726.156 5   1007969.94946  22594017.92946
 18  5 30  0 29  9.9990000  0  9G03G14G16G22G26G27G29G31G32          0.000401321
  23619634.62811    -46576.74211                
  20533196.222 6    -67369.043 6    -51556.48048  20533192.83948
  20450247.581 7  -1730817.793 7  -1333415.59048  20450244.40948
  23552857.401 5   -236306.453 5   -181355.44946  23552851.11646
  20536748.347 6   -380188.582 6   -292966.97348  20536746.92948
  22447709.058 5  -3831888.996 5  -2952978.68447  22447708.37847
  23613918.019 2    859025.680 2                
  21476384.948 6   -688832.773 6   -531663.86747  21476380.92947
  22595645.519 5    455278.703 5   1014634.25446  22595645.35146
 18  5 30  0 29 14.9990000  0  9G03G14G16G22G26G27G29G31G32          0.000396717
  23618753.88611    -51211.98411                
  20533259.894 6    -67035.074 6    -51296.25448  20533256.30448
  20448320.714 6  -1740943.328 6  -1341305.62148  20448317.62048
  23552619.058 5   -237556.164 5   -182329.23846  23552613.00346
  20536345.409 7   -382305.652 7   -294616.63748  20536343.95648
  22442958.081 5  -3856858.070 5  -2972435.10947  22442956.55047
  23615024.831 2    864843.594 2                
  21475540.300 6   -693271.824 6   -535122.85947  21475536.14747
  22597273.565 5    463834.664 5   1021301.24646  22597273.64746
 18  5 30  0 29 19.9990000  0  9G03G14G16G22G26G27G29G31G32          0.000392099
  23617871.11211                                
  20533325.628 6    -66689.598 6    -51027.06648  20533321.91348
  20446395.878 6  -1751059.563 6  -1349188.40248  20446392.49948
  23552381.948 5   -238801.422 5   -183299.56646  23552375.87846
  20535943.190 6   -384417.887 6   -296262.53548  20535942.72648
  22438206.815 5  -3881824.754 5  -2991889.66047  22438205.46047
  23616134.323 2    870669.578 2                
  21474695.480 6   -697710.359 6   -538581.47347  21474691.49147
  22598902.690 4    472395.813 4   1027972.21146  22598902.74946
 18  5 30  0 29 24.9990000  0  8G14G16G22G26G27G29G31G32             0.000387491
  20533393.308 6    -66334.418 6    -50750.30148  20533389.60848
  20444472.073 6  -1761168.273 6  -1357065.31348  20444468.44048
  23552146.081 5   -240044.117 5   -184267.84846  23552139.08946
  20535542.472 6   -386527.086 6   -297906.06648  20535541.17148
  22433456.315 5  -3906790.793 5  -3011343.71147  22433454.93747
  23617243.105 3    876501.816 3                
  21473850.948 6   -702150.242 6   -542041.11746  21473846.33546
  22600532.683 4    480960.379 4   1034645.89146  22600532.29646
 18  5 30  0 29 29.9990000  0  8G14G16G22G26G27G29G31G32             0.000382879
  20533462.808 6    -65968.219 6    -50464.94148  20533459.08948
  20442550.237 6  -1771268.188 6  -1364935.39848  20442546.83948
  23551909.894 5   -241282.813 5   -185233.11346  23551903.38646
  20535141.815 6   -388631.977 6   -299546.23048  20535140.73348
  22428705.714 3  -3931754.910 3  -3030796.24246  22428704.41746
  23618354.214 2    882341.559 2                
  21473005.198 6   -706590.105 6   -545500.77347  21473001.67547
  22602165.55012                   1041322.96156  22602164.18756
 18  5 30  0 29 34.9990000  0  8G14G16G22G26G27G29G31G32             0.000378267
  20533534.847 6    -65591.055 6    -50171.07848  20533531.03048
  20440629.706 6  -1781359.313 6  -1372798.60248  20440626.69448
  23551674.440 5   -242517.629 5   -186195.25446  23551668.53846
  20534741.722 6   -390732.617 6   -301183.10948  20534741.27248
  22423955.214 5  -3956717.129 5  -3050247.34247  22423953.71847
  23619466.909 3    888188.902 3                
  21472160.784 6   -711030.035 6   -548960.44147  21472157.61647
  22603794.495 3    498103.625 3   1048004.28146  22603794.67546
 18  5 30  0 29 39.9990000  0  8G14G16G22G26G27G29G31G32             0.000373653
  20533608.480 6    -65204.262 6    -49869.68048  20533604.71448
  20438710.925 6  -1791442.984 6  -1380656.01248  20438707.44448
  23551440.292 5   -243749.895 5   -187155.44546  23551434.19446
  20534342.347 6   -392830.246 6   -302817.63348  20534342.29648
  22419205.050 5  -3981678.672 5  -3069697.89546  22419204.21046
  23620581.003 3    894042.402 3                
  21471315.183 6   -715471.332 6   -552421.20747  21471311.86247
  22605427.644 2    506680.867 2   1054687.83246  22605426.65146
 18  5 30  0 29 44.9990000  0  8G14G16G22G26G27G29G31G32             0.000369034
  20533683.800 6    -64807.504 6    -49560.52048  20533680.22248
  20436793.503 6  -1801518.957 6  -1388507.43048  20436790.65148
  23551206.628 5   -244979.281 5   -188113.43046  23551199.98046
  20533943.417 6   -394924.695 6   -304449.67648  20533943.74148
  22414455.425 5  -4006639.313 5  -3089147.71547  22414454.67147
  23621696.058 3    899902.387 3                
  21470470.175 6   -719913.617 6   -555882.71147  21470466.64747
  22607061.503 2    515261.750 2   1061374.25446  22607059.68346
 18  5 30  0 29 49.9990000  0  8G14G16G22G26G27G29G31G32             0.000364414
  20533761.175 6    -64400.117 6    -49243.08248  20533757.81948
  20434877.573 6  -1811586.527 6  -1396352.28548  20434874.41348
  23550972.730 5   -246205.141 5   -189068.66446  23550967.24146
  20533545.659 6   -397015.227 6   -306078.64848  20533546.07348
  22409705.394 5  -4031598.320 5  -3108596.28946  22409705.26546
  23622812.886 3    905769.508 3                
  21469624.894 6   -724356.219 6   -559344.48447  21469621.41747
  22608694.878 2    523846.957 2   1068063.99246  22608692.99946
 18  5 30  0 29 54.9990000  0  8G14G16G22G26G27G29G31G32             0.000359793
  20533840.940 6    -63981.957 6    -48917.24648  20533836.92148
  20432963.808 6  -1821645.547 6  -1404190.49248  20432960.08948
  23550740.058 5   -247427.336 5   -190021.01246  23550734.83946
  20533149.073 6   -399101.680 6   -307704.45348  20533148.99548
  22404956.792 5  -4056555.531 5  -3128043.45347  22404956.24547
  23623930.706 3    911643.836 3                
  21468779.714 6   -728799.023 6   -562806.43047  21468776.10147
  22610329.159 3    532436.500 3   1074757.14146  22610328.10546
 18  5 30  0 29 59.9990000  0  8G14G16G22G26G27G29G31G32             0.000355167
  20533922.347 6    -63553.945 6    -48583.73448  20533918.81248
  20431051.105 6  -1831696.898 6  -1412022.70748  20431047.62048
  23550507.964 5   -248646.727 5   -190971.20746  23550503.50746
  20532752.456 6   -401185.023 6   -309327.84848  20532752.80848
  22400207.722 5  -4081511.805 5  -3147489.88747  22400206.98047
  23625050.636 4    917524.523 4                
  21467933.808 6   -733242.945 6   -566269.20347  21467930.35147
  22611964.620 4    541029.641 4   1081453.09746  22611963.26146
 18  5 30  0 30  4.9990000  0  8G14G16G22G26G27G29G31G32             0.000350540
  20534005.776 6    -63115.273 6    -48241.91848  20534002.14048
  20429139.862 6  -1841739.820 6  -1419848.35548  20429135.96848
  23550277.331 5   -249862.598 5   -191918.65246  23550272.19446
  20532356.526 6   -403264.383 6   -310948.12548  20532357.09748
  22395459.245 5  -4106466.363 5  -3166935.00047  22395458.37047
  23626171.417 3    923412.383 3                
  21467088.105 6   -737687.129 6   -569732.21946  21467084.81946
  22613600.534 4    549627.141 4   1088152.42646  22613599.70246
 18  5 30  0 30  9.9990000  0  8G14G16G22G26G27G29G31G32             0.000345913
  20534091.355 6    -62666.051 6    -47891.87548  20534087.42148
  20427230.206 7  -1851774.406 7  -1427667.50848  20427225.84748
  23550046.542 5   -251075.012 5   -192863.43046  23550041.03446
  20531961.940 6   -405339.984 6   -312565.48048  20531962.06248
  22390711.120 5  -4131419.336 5  -3186378.85947  22390709.73047
  23627293.308 3    929307.230 3                
  21466242.198 6   -742131.750 6   -573195.55546  21466238.58546
  22615236.823 5    558228.793 5   1094854.98846  22615236.26546
 18  5 30  0 30 14.9990000  0  8G14G16G22G26G27G29G31G32             0.000341280
  20534179.042 6    -62206.836 6    -47534.05548  20534174.71048
  20425322.644 6  -1861801.168 6  -1435480.57448  20425317.76948
  23549816.284 5   -252284.590 5   -193805.96546  23549810.93346
  20531566.808 6   -407412.289 6   -314180.26248  20531567.84348
  22385963.058 5  -4156371.152 5  -3205821.83647  22385961.76547
  23628416.534 3    935208.586 3                
  21465395.878 6   -746577.301 6   -576659.59846  21465392.64046
  22616874.761 5    566834.176 5   1101560.45346  22616873.74546
 18  5 30  0 30 19.9990000  0  8G14G16G22G26G27G29G31G32             0.000336647
  20534267.839 6    -61737.258 6    -47168.15248  20534264.00748
  20423415.667 7  -1871819.840 7  -1443287.33248  20423410.85148
  23549585.847 5   -253490.953 5   -194745.96946  23549580.57746
  20531173.597 6   -409480.996 6   -315792.23848  20531173.80048
  22381214.956 5  -4181321.535 5  -3225263.68847  22381213.59747
  23629540.847 3    941116.727 3                
  21464549.972 6   -751023.391 6   -580124.09046  21464546.56546
  22618512.964 5    575443.453 5   1108268.96546  22618512.12446
 18  5 30  0 30 24.9990000  0  8G14G16G22G26G27G29G31G32             0.000332010
  20534359.948 6    -61256.734 6    -46793.72348  20534355.39748
  20421511.378 6  -1881829.695 6  -1451087.22748  20421506.60548
  23549357.581 5   -254693.480 5   -195683.01646  23549351.78846
  20530780.769 6   -411545.445 6   -317400.91848  20530781.30448
  22376466.800 5  -4206269.801 5  -3244703.89547  22376466.65147
  23630666.464 3    947032.262 3                
  21463703.565 6   -755469.516 6   -583588.62146  21463700.52646
  22620151.659 5    584057.363 5   1114981.08646  22620151.11646
 18  5 30  0 30 29.9990000  0  8G14G16G22G26G27G29G31G32             0.000327372
  20534452.839 6    -60765.848 6    -46411.21148  20534448.51948
  20419608.151 6  -1891831.469 6  -1458880.80948  20419603.09348
  23549128.722 5   -255892.848 5   -196617.56346  23549123.76546
  20530388.456 6   -413606.305 6   -319006.78548  20530388.98048
  22371720.753 5  -4231216.574 5  -3264142.92247  22371719.67147
  23631792.706 2    952954.637 2                
  21462857.651 6   -759916.156 6   -587053.52746  21462854.66346
  22621791.745 5    592675.246 5   1121696.30146  22621791.17146
 18  5 30  0 30 34.9990000  0  8G14G16G22G26G27G29G31G32             0.000322731
  20534547.940 6    -60265.047 6    -46020.97348  20534544.10848
  20417705.995 6  -1901825.535 6  -1466668.39548  20417701.26948
  23548901.964 5   -257089.395 5   -197549.95346  23548895.92946
  20529996.855 6   -415664.055 6   -320610.23848  20529996.80448
  22366973.784 5  -4256162.273 5  -3283581.12947  22366972.57347
  23632922.019 2    958883.352 2                
  21462010.808 5   -764363.840 5   -590519.27346  21462008.27646
  22623430.940 5    601296.645 5   1128414.25446  22623432.31946
 18  5 30  0 30 39.9990000  0  8G14G16G22G26G27G29G31G32             0.000318089
  20534645.519 6    -59753.664 6    -45622.48848  20534641.16748
  20415806.034 6  -1911811.285 6  -1474449.49648  20415800.64048
  23548674.573 5   -258282.531 5   -198479.68046  23548668.53046
  20529605.878 6   -417717.980 6   -322210.69948  20529606.07748
  22362227.565 6  -4281106.242 6  -3303017.98447  22362226.08947
  23634051.237 1    964819.090 1                
  21461165.308 6   -768811.906 6   -593985.30946  21461161.65546
  22625073.487 5    609922.227 5   1135135.45346  22625073.69446
 18  5 30  0 30 44.9990000  0  8G14G16G22G26G27G29G31G32             0.000313442
  20534744.628 6    -59231.789 6    -45215.83648  20534740.56548
  20413907.565 6  -1921788.754 6  -1482224.15648  20413902.20648
  23548448.347 5   -259472.391 5   -199406.83646  23548442.11646
  20529216.073 6   -419768.211 6   -323808.29748  20529216.24948
  22357480.565 6  -4306048.465 6  -3322453.48847  22357479.84347
  23635181.323 1    970761.723 1                
  21460318.847 6   -773260.363 6   -597451.64146  21460315.57746
  22626715.612 5    618551.871 5   1141859.82846  22626715.92946
 18  5 30  0 30 49.9990000  0  8G14G16G22G26G27G29G31G32             0.000308794
  20534845.730 6    -58700.371 6    -44801.73848  20534841.75348
  20412009.940 6  -1931758.914 6  -1489993.11348  20412004.73048
  23548222.167 5   -260659.914 5   -200332.18846  23548215.96046
  20528827.003 6   -421815.641 6   -325403.70748  20528826.60848
  22352734.448 6  -4330989.961 6  -3341888.41047  22352733.62847
  23636314.105 1    976710.234 1                
  21459471.894 6   -777710.168 6   -600919.02046  21459469.28046
  22628357.847 5    627184.660 5   1148586.66046  22628358.72246
 18  5 30  0 30 54.9990000  0  8G14G16G22G26G27G29G31G32             0.000304146
  20534949.573 6    -58157.875 6    -44379.02348  20534945.46848
  20410114.558 6  -1941720.199 6  -1497755.16048  20410109.92148
  23547997.105 5   -261843.508 5   -201254.47346  23547991.10146
  20528437.589 6   -423858.754 6   -326995.73848  20528437.58548
  22347988.972 6  -4355929.117 6  -3361321.51647  22347988.17147
  23637446.058 1    982666.332 1                
  21458624.831 6   -782159.738 6   -604386.22346  21458622.01546
  22630001.925 4    635822.121 4   1155317.12946  22630002.48746
 18  5 30  0 30 59.9990000  0  8G14G16G22G26G27G29G31G32             0.000299492
  20535054.409 6    -57604.969 6    -43948.18848  20535050.49148
  20408220.761 6  -1951673.355 6  -1505510.87148  20408215.56948
  23547772.222 5   -263024.008 5   -202174.34446  23547765.62846
  20528049.503 6   -425898.301 6   -328585.00048  20528049.43348
  22343243.214 6  -4380866.621 6  -3380753.32847  22343242.96847
  23638581.534 1    988629.168 1                
  21457778.159 6   -786609.809 6   -607853.81346  21457775.14046
  22631645.886 4    644463.527 4   1162050.69946  22631647.12046
 18  5 30  0 31  4.9990000  0  8G14G16G22G26G27G29G31G32             0.000294838
  20535161.690 6    -57040.516 6    -43508.35248  20535157.72248
  20406328.026 7  -1961617.125 7  -1513259.25848  20406323.62848
  23547548.815 5   -264200.063 5   -203090.77046  23547543.02646
  20527662.151 6   -427933.039 6   -330170.52748  20527662.21048
  22338499.026 6  -4405801.262 6  -3400182.91047  22338498.74147
  23639717.073 1    994600.020 1                
  21456931.222 6   -791059.125 6   -611320.80946  21456928.58146
  22633291.730 4    653110.109 4   1168788.28546  22633292.57346
 18  5 30  0 31  9.9990000  0  8G14G16G22G26G27G29G31G32             0.000290178
  20535270.659 6    -56466.617 6    -43061.16048  20535266.66348
  20404436.964 6  -1971553.730 6  -1521002.07448  20404432.98748
  23547325.222 5   -265373.941 5   -204005.49646  23547319.62446
  20527275.862 6   -429965.180 6   -331754.01648  20527276.01148
  22333754.448 6  -4430735.230 6  -3419611.97347  22333753.60547
  23640851.38611   1000576.55511                
  21456084.042 6   -795509.988 6   -614789.01246  21456081.82746
  22634937.769 5    661759.645 5   1175528.16446  22634938.29646
 18  5 30  0 31 14.9990000  0  7G14G16G22G26G27G31G32                0.000285521
  20535382.370 6    -55881.523 6    -42605.24648  20535378.03448
  20402547.964 6  -1981481.340 6  -1528737.87148  20402544.05848
  23547102.198 5   -266543.805 5   -204917.06346  23547097.31546
  20526889.784 6   -431992.895 6   -333334.05548  20526890.12848
  22329009.815 6  -4455666.641 6  -3439039.03147  22329009.04647
  21455237.378 6   -799960.430 6   -618256.88746  21455234.63246
  22636584.730 5    670413.961 5   1182271.80946  22636585.71846
 18  5 30  0 31 19.9990000  0  7G14G16G22G26G27G31G32                0.000280859
  20535495.222 6    -55286.793 6    -42141.82048  20535491.39048
  20400660.136 6  -1991401.551 6  -1536467.91448  20400656.61248
  23546880.269 5   -267711.293 5   -205826.81646  23546875.45646
  20526504.589 6   -434017.793 6   -334911.89548  20526504.12048
  22324265.394 6  -4480597.094 6  -3458465.35947  22324264.97247
  21454390.347 6   -804412.059 6   -621725.69146  21454387.77646
  22638232.073 5    679071.453 5   1189017.89146  22638232.93346
 18  5 30  0 31 24.9990000  0  7G14G16G22G26G27G31G32                0.000276196
  20535610.534 6    -54680.711 6    -41669.54348  20535606.65548
  20398774.315 6  -2001312.641 6  -1544190.84448  20398770.50348
  23546659.456 5   -268874.688 5   -206733.34446  23546654.23746
  20526119.917 6   -436038.156 6   -336486.20748  20526120.38248
  22319521.675 6  -4505524.855 6  -3477889.57447  22319521.55047
  21453542.487 6   -808863.188 6   -625194.12146  21453540.40946
  22639880.339 6    687733.859 6   1195767.80946  22639881.48046
 18  5 30  0 31 29.9990000  0  8G03G14G16G22G26G27G31G32             0.000271530
  23595511.41711                                
  20535728.026 6    -54064.379 6    -41189.29348  20535724.33148
  20396889.503 6  -2011215.703 6  -1551907.52348  20396886.14748
  23546438.237 5   -270035.020 5   -207637.53546  23546433.28846
  20525736.183 6   -438055.043 6   -338057.80548  20525736.07748
  22314778.362 6  -4530450.969 6  -3497312.51647  22314778.51947
  21452695.956 6   -813314.832 6   -628662.93446  21452693.47246
  22641529.230 6    696400.074 6   1202520.69946  22641530.64746
 18  5 30  0 31 34.9990000  0  8G03G14G16G22G26G27G31G32             0.000266897
  23594668.464 2    -12028.379 2                
  20535847.503 6    -53437.027 6    -40700.44948  20535844.04648
  20395006.690 6  -2021109.949 6  -1559617.32448  20395003.19448
  23546217.573 5   -271191.609 5   -208538.77346  23546213.46446
  20525353.456 6   -440067.723 6   -339626.12148  20525353.10548
  22310035.526 6  -4555374.680 6  -3516733.57447  22310035.36647
  21451849.089 6   -817766.313 6   -632131.61746  21451846.14446
  22643179.987 6    705070.836 6   1209277.12146  22643181.06246
 18  5 30  0 31 39.9990000  0  8G03G14G16G22G26G27G31G32             0.000262230
  23593827.534 2    -16437.941 2                
  20535968.980 6    -52799.230 6    -40203.46548  20535965.23348
  20393125.894 6  -2030996.012 6  -1567320.74648  20393121.91348
  23545998.808 5   -272344.973 5   -209437.51246  23545994.02246
  20524971.151 6   -442076.781 6   -341191.62948  20524971.25348
  22305293.480 6  -4580296.527 6  -3536153.19147  22305293.70647
  21451001.784 6   -822218.152 6   -635600.59446  21450998.58146
  22644831.026 6    713745.609 6   1216036.65646  22644831.64046
 18  5 30  0 31 44.9990000  0  8G03G14G16G22G26G27G31G32             0.000257557
  23592989.800 2    -20839.547 2                
  20536091.925 6    -52150.789 6    -39698.19148  20536088.76948
  20391245.808 6  -2040873.672 6  -1575017.62948  20391242.65948
  23545779.683 5   -273494.996 5   -210333.62546  23545775.64746
  20524589.690 6   -444082.055 6   -342754.18448  20524589.40548
  22300550.245 6  -4605216.320 6  -3555571.20747  22300551.32747
  21450155.065 6   -826670.125 6   -639069.66046  21450151.04246
  22646481.925 6    722424.500 6   1222799.39546  22646483.25746
 18  5 30  0 31 49.9990000  0  8G03G14G16G22G26G27G31G32             0.000252882
  23592152.620 2    -25232.395 2                
  20536217.511 6    -51490.887 6    -39183.98848  20536214.81548
  20389367.870 6  -2050742.125 6  -1582707.32848  20389364.50348
  23545561.894 4   -274640.859 4   -211226.51646  23545557.48746
  20524209.097 6   -446082.695 6   -344313.12548  20524208.58148
  22295809.401 5  -4630133.203 5  -3574986.95747  22295809.31547
  21449307.605 6   -831121.473 6   -642538.24646  21449304.10546
  22648134.136 6    731108.402 6   1229566.04346  22648135.24146
 18  5 30  0 31 54.9990000  0  8G03G14G16G22G26G27G31G32             0.000248205
  23591317.284 2    -29618.875 2                
  20536344.808 6    -50821.789 6    -38662.62148  20536342.05448
  20387491.315 6  -2060603.605 6  -1590391.59048  20387487.92948
  23545344.519 5   -275784.695 5   -212117.85546  23545339.49546
  20523828.362 6   -448080.926 6   -345870.20348  20523828.17548
  22291067.206 5  -4655049.414 5  -3594402.18847  22291067.73747
  21448460.425 6   -835574.352 6   -646008.03546  21448456.64446
  22649787.433 6    739795.027 6   1236334.83646  22649788.39046
 18  5 30  0 31 59.9990000  0  8G03G14G16G22G26G27G31G32             0.000243526
  23590485.050 1    -33996.984 1                
  20536474.589 6    -50141.563 6    -38132.57848  20536471.20248
  20385616.183 6  -2070456.270 6  -1598068.98848  20385613.21048
  23545128.011 5   -276924.766 5   -213006.23046  23545122.68346
  20523449.409 6   -450074.914 6   -347423.95348  20523449.28448
  22286326.433 5  -4679963.055 5  -3613815.41447  22286327.10847
  21447613.526 6   -840026.953 6   -649477.60246  21447609.64446
  22651441.480 6    748486.215 6   1243107.14146  22651442.18346
 18  5 30  0 32  4.9990000  0  8G03G14G16G22G26G27G31G32             0.000238848
  23589656.073 1    -38365.867 1                
  20536605.933 6    -49449.336 6    -37593.18848  20536603.59748
  20383743.636 6  -2080299.113 6  -1605738.74248  20383739.95248
  23544911.980 5   -278060.074 5   -213890.87946  23544906.75746
  20523070.808 6   -452063.727 6   -348973.68848  20523070.49148
  22281586.456 5  -4704873.164 5  -3633225.87947  22281587.11647
  21446766.894 6   -844478.262 6   -652946.14146  21446762.25746
  22653096.589 6    757183.004 6   1249883.83246  22653096.98746
 18  5 30  0 32  9.9990000  0  8G14G16G22G26G27G29G31G32             0.000234190
  20536739.855 6    -48747.070 6    -37045.97348  20536737.17148
  20381872.128 6  -2090134.164 6  -1613402.40248  20381867.93748
  23544696.526 6   -279192.652 6   -214773.39546  23544690.82346
  20522692.839 6   -454049.332 6   -350520.92248  20522692.51148
  22276846.573 5  -4729781.691 5  -3652635.12147  22276847.39447
  23654623.93311     25611.06311                
  21445919.003 6   -848930.305 6   -656415.28546  21445914.82346
  22654751.808 6    765883.270 6   1256663.21145  22654752.28445
 18  5 30  0 32 14.9990000  0  8G14G16G22G26G27G29G31G32             0.000229458
  20536875.253 6    -48034.129 6    -36490.43848  20536872.78048
  20380002.206 6  -2099960.801 6  -1621059.51248  20379998.57748
  23544481.292 6   -280321.883 6   -215653.30946  23544475.99146
  20522315.565 6   -456031.164 6   -352065.21948  20522315.48348
  22272107.355 6  -4754688.063 6  -3672042.67247  22272107.77247
  23655762.386 1     31679.266 1                
  21445072.315 6   -853382.434 6   -659884.48046  21445067.42546
  22656408.909 6    774587.656 6   1263445.84846  22656408.40146
 18  5 30  0 32 19.9990000  0  8G14G16G22G26G27G29G31G32             0.000224770
  20537013.190 6    -47309.418 6    -35925.74248  20537010.58148
  20378133.917 6  -2109777.906 6  -1628709.20348  20378130.14748
  23544266.878 6   -281446.691 6   -216529.78146  23544262.24146
  20521939.487 6   -458008.105 6   -353605.69548  20521939.28448
  22267368.690 5  -4779591.102 5  -3691447.63747  22267369.18747
  23656917.995 1     37755.355 1                
  21444224.847 6   -857833.590 6   -663352.93446  21444220.23346
  22658066.183 6    783297.293 6   1270232.54345  22658065.81245
 18  5 30  0 32 24.9990000  0  8G14G16G22G26G27G29G31G32             0.000220079
  20537153.105 6    -46574.719 6    -35353.25848  20537150.15148
  20376266.948 6  -2119587.223 6  -1636352.83648  20376263.45648
  23544053.034 6   -282568.766 6   -217404.14846  23544048.21046
  20521563.839 6   -459981.875 6   -355143.70348  20521563.94848
  22262629.831 5  -4804492.531 5  -3710851.35947  22262630.78447
  23658076.456 1     43837.926 1                
  21443378.198 6   -862285.379 6   -666821.87146  21443373.69446
  22659723.167 5    792010.418 5   1277021.93445  22659723.34745
 18  5 30  0 32 29.9990000  0  8G14G16G22G26G27G29G31G32             0.000215389
  20537294.909 6    -45829.238 6    -34772.37548  20537292.07748
  20374402.417 6  -2129388.031 6  -1643989.81348  20374398.32348
  23543840.745 5   -283687.465 5   -218275.84846  23543835.32346
  20521188.542 6   -461951.730 6   -356678.65648  20521188.96448
  22257891.690 6  -4829391.629 6  -3730253.25047  22257892.64447
  23659234.698 1     49927.570 1                
  21442531.081 5   -866737.133 5   -670290.77346  21442526.71046
  22661382.292 5    800727.777 5   1283814.73045  22661382.24945
 18  5 30  0 32 34.9990000  0  8G14G16G22G26G27G29G31G32             0.000210699
  20537438.464 6    -45072.547 6    -34182.74248  20537435.87848
  20372539.206 6  -2139179.867 6  -1651619.82848  20372534.89748
  23543627.690 6   -284802.227 6   -219144.50446  23543623.08946
  20520814.909 6   -463917.262 6   -358210.24248  20520815.19048
  22253153.956 6  -4854287.863 6  -3749652.90247  22253154.80447
  23660394.22211     56024.53511                
  21441684.120 6   -871188.363 6   -673759.28946  21441679.22246
  22663042.503 5    809449.859 5   1290611.05145  22663042.16345
 18  5 30  0 32 39.9990000  0  8G14G16G22G26G27G29G31G32             0.000206005
  20537584.628 6    -44305.578 6    -33585.10948  20537581.67148
  20370677.636 6  -2148963.688 6  -1659243.58248  20370673.01948
  23543416.589 5   -285914.078 5   -220010.87946  23543411.81946
  20520441.542 6   -465879.395 6   -359739.18448  20520441.72648
  22248416.362 6  -4879182.199 6  -3769051.09047  22248417.84347
  23661556.222 1     62128.160 1                
  21440836.980 6   -875640.102 6   -677228.17246  21440832.28446
  22664702.487 5    818175.625 5   1297410.35545  22664703.10545
 18  5 30  0 32 44.9990000  0  8G14G16G22G26G27G29G31G32             0.000201307
  20537732.886 6    -43528.664 6    -32979.73048  20537729.39048
  20368817.105 6  -2158739.828 6  -1666861.35948  20368812.50748
  23543205.323 5   -287023.363 5   -220875.27346  23543200.21846
  20520068.417 6   -467838.500 6   -361265.75848  20520068.99948
  22243679.440 6  -4904075.012 6  -3788448.09047  22243680.39447
  23662717.644 1     68237.934 1                
  21439989.276 6   -880092.598 6   -680697.64546  21439985.20646
  22666364.019 5    826904.730 5   1304212.24245  22666363.15145
 18  5 30  0 32 49.9990000  0  8G14G16G22G26G27G29G31G32             0.000196608
  20537882.972 6    -42741.430 6    -32366.30948  20537878.92948
  20366957.792 6  -2168507.875 6  -1674472.82848  20366953.68348
  23542994.815 5   -288129.668 5   -221737.34846  23542989.84346
  20519697.190 6   -469794.168 6   -362789.66048  20519696.91348
  22238943.159 6  -4928965.813 6  -3807843.51247  22238943.94447
  23663882.081 1     74354.211 1                
  21439141.956 6   -884545.484 6   -684167.42646  21439137.31546
  22668025.745 5    835637.590 5   1311017.01645  22668024.99145
 18  5 30  0 32 54.9990000  0  8G14G16G22G26G27G29G31G32             0.000191906
  20538034.440 6    -41943.746 6    -31744.74648  20538030.62448
  20365100.730 6  -2178267.758 6  -1682077.92648  20365096.78848
  23542785.081 5   -289232.887 5   -222597.00046  23542779.48746
  20519325.394 6   -471746.266 6   -364310.77748  20519325.56948
  22234207.026 6  -4953854.465 6  -3827237.27347  22234207.92547
  23665047.472 1     80477.238 1                
  21438294.401 6   -888998.609 6   -687637.38746  21438290.80046
  22669689.198 5    844374.355 5   1317824.87145  22669687.34345
 18  5 30  0 32 59.9990000  0  8G14G16G22G26G27G29G31G32             0.000187204
  20538188.362 6    -41135.031 6    -31114.57448  20538184.72648
  20363245.730 6  -2188018.863 6  -1689676.19148  20363241.31248
  23542575.378 5   -290332.496 5   -223453.84446  23542570.72246
  20518954.589 6   -473694.266 6   -365828.70748  20518955.03448
  22229470.956 6  -4978740.406 6  -3846628.92247  22229471.74147
  23666212.370 1     86607.539 1                
  21437446.862 6   -893451.402 6   -691107.08246  21437443.15946
  22671352.081 5    853115.582 5   1324636.19145  22671350.10545
 18  5 30  0 33  4.9990000  0  9G03G14G16G22G26G27G29G31G32          0.000182499
  23579782.87811                                
  20538344.839 6    -40315.391 6    -30475.90648  20538340.66748
  20361391.925 6  -2197761.324 6  -1697267.72348  20361387.28848
  23542367.214 5   -291428.582 5   -224307.94146  23542361.93346
  20518584.831 6   -475638.250 6   -367343.49248  20518585.04648
  22224735.745 6  -5003623.711 6  -3866018.50447  22224736.14747
  23667379.737 1     92744.832 1                
  21436600.487 6   -897903.883 6   -694576.55946  21436596.11246
  22673015.995 5    861861.145 5   1331450.87945  22673014.20245
 18  5 30  0 33  9.9990000  0  9G03G14G16G22G26G27G29G31G32          0.000177797
  23578970.886 2    -15221.238 2                
  20538502.675 6    -39484.785 6    -29828.68048  20538498.62048
  20359539.292 6  -2207495.063 6  -1704852.45748  20359534.58948
  23542159.964 5   -292521.059 5   -225159.23046  23542154.30446
  20518215.870 6   -477578.160 6   -368855.12948  20518215.85148
  22220001.073 5  -5028504.301 5  -3885405.97747  22220001.93347
  23668551.144 1     98889.387 1                
  21435752.831 6   -902356.000 6   -698045.72746  21435748.95646
  22674680.980 6    870611.082 6   1338269.01645  22674678.85145
 18  5 30  0 33 14.9990000  0  9G03G14G16G22G26G27G29G31G32          0.000173088
  23578159.456 2    -19480.707 2                
  20538662.815 6    -38643.855 6    -29173.41048  20538658.51948
  20357688.573 6  -2217220.711 6  -1712430.88348  20357684.10848
  23541951.440 5   -293610.586 5   -226008.23046  23541946.98046
  20517846.995 6   -479514.664 6   -370364.09448  20517847.55848
  22215266.651 5  -5053382.785 5  -3904791.80147  22215267.64047
  23669722.99511    105040.51611                
  21434905.542 6   -906808.406 6   -701515.11746  21434901.74946
  22676347.065 6    879364.777 6   1345090.03945  22676344.56245
 18  5 30  0 33 19.9990000  0  9G03G14G16G22G26G27G29G31G32          0.000168377
  23577350.292 2    -23732.906 2                
  20538824.519 6    -37792.824 6    -28510.27348  20538820.74948
  20355839.347 6  -2226938.523 6  -1720003.21548  20355835.00748
  23541744.847 5   -294697.387 5   -226855.11746  23541740.04246
  20517478.972 6   -481447.941 6   -371870.55148  20517479.56948
  22210533.167 5  -5078259.398 5  -3924176.16847  22210533.55847
  23670895.128 1    111197.895 1                
  21434057.847 6   -911261.422 6   -704984.99646  21434054.66346
  22678013.706 6    888122.000 6   1351913.78945  22678010.98045
 18  5 30  0 33 24.9990000  0  9G03G14G16G22G26G27G29G31G32          0.000163666
  23576546.823 2    -27975.941 2                
  20538988.878 6    -36929.805 6    -27837.79348  20538985.06948
  20353991.886 6  -2236646.602 6  -1727567.95348  20353987.36648
  23541539.050 5   -295779.609 5   -227698.41046  23541534.11646
  20517112.401 6   -483376.164 6   -373373.06348  20517112.50348
  22205799.425 5  -5103132.172 5  -3943557.55147  22205799.64047
  23672067.636 1    117363.563 1                
  21433210.862 6   -915713.059 6   -708453.81646  21433207.65546
  22679680.987 6    896884.629 6   1358741.84445  22679678.03445
 18  5 30  0 33 29.9990000  0  9G03G14G16G22G26G27G29G31G32          0.000158951
  23575736.800 2    -32210.773 2                
  20539155.019 6    -36055.652 6    -27156.63748  20539150.95248
  20352145.886 6  -2246345.793 6  -1735125.77048  20352141.76148
  23541333.878 5   -296858.066 5   -228538.77346  23541328.98346
  20516745.972 6   -485300.164 6   -374872.28548  20516746.44448
  22201066.378 5  -5128002.023 5  -3962936.65647  22201067.48747
  23673244.19011    123536.49611                
  21432363.987 6   -920164.191 6   -711922.22746  21432360.69046
  22681349.394 6    905651.750 6   1365573.29346  22681346.40946
 18  5 30  0 33 34.9990000  0  9G03G14G16G22G26G27G29G31G32          0.000154236
  23574932.058 1    -36437.969 1                
  20539323.417 6    -35171.016 6    -26467.32048  20539319.16748
  20350301.933 6  -2256036.766 6  -1742677.17248  20350297.10848
  23541129.761 5   -297933.492 5   -229376.78546  23541124.24146
  20516380.448 6   -487220.629 6   -376368.76248  20516381.17148
  22196335.089 5  -5152869.574 5  -3982313.96947  22196335.53847
  23674421.839 1    129716.207 1                
  21431517.175 6   -924615.629 6   -715390.89546  21431513.96846
  22683018.144 6    914422.723 6   1372407.79746  22683015.77646
 18  5 30  0 33 39.9990000  0  9G03G14G16G22G26G27G29G31G32          0.000149517
  23574128.855 1    -40657.895 1                
  20539493.855 6    -34276.332 6    -25770.16048  20539489.69448
  20348458.980 6  -2265719.926 6  -1750222.50848  20348455.06548
  23540925.487 6   -299006.293 6   -230212.75046  23540920.69846
  20516015.612 6   -489137.961 6   -377862.79348  20516016.04648
  22191603.394 5  -5177735.223 5  -4001689.81347  22191603.62447
  23675598.878 1    135902.133 1                
  21430669.472 6   -929067.555 6   -718859.93846  21430667.21046
  22684687.784 6    923197.137 6   1379244.97746  22684685.43746
 18  5 30  0 33 44.9990000  0  9G03G14G16G22G26G27G29G31G32          0.000144794
  23573325.45611    -44870.43011                
  20539665.972 6    -33371.371 6    -25065.00448  20539661.52648
  20346618.222 6  -2275395.090 6  -1757761.59448  20346613.64748
  23540721.886 5   -300076.270 5   -231046.49646  23540717.24146
  20515651.050 6   -491051.973 6   -379354.23448  20515651.89448
  22186872.120 5  -5202598.711 5  -4021063.95747  22186872.16747
  23676776.855 1    142094.453 1                
  21429821.940 5   -933519.813 5   -722329.22347  21429819.88647
  22686358.698 6    931975.184 6   1386084.98046  22686355.78446
 18  5 30  0 33 49.9990000  0  9G03G14G16G22G26G27G29G31G32          0.000140072
  23572523.933 1    -49075.371 1                
  20539839.870 6    -32455.863 6    -24351.61748  20539835.50748
  20344778.550 6  -2285061.988 6  -1765294.24248  20344774.19048
  23540519.019 6   -301143.141 6   -231877.82446  23540514.07746
  20515287.847 6   -492962.371 6   -380842.85948  20515288.06948
  22182141.550 5  -5227459.805 5  -4040436.24647  22182141.17547
  23677953.331 1    148293.461 1                
  21428974.995 5   -937972.090 5   -725798.54346  21428972.45246
  22688029.730 6    940757.133 6   1392928.03546  22688027.19446
 18  5 30  0 33 54.9990000  0  9G03G14G16G22G26G27G29G31G32          0.000135340
  23571722.98711                                
  20540016.370 6    -31528.602 6    -23629.07448  20540011.99148
  20342940.690 6  -2294719.348 6  -1772819.46148  20342936.76948
  23540316.456 6   -302205.711 6   -232705.82446  23540311.95246
  20514924.698 6   -494867.973 6   -382327.74648  20514925.64748
  22177411.097 5  -5252317.137 5  -4059805.60247  22177411.22647
  23679133.23011                                
  21428128.261 6   -942423.129 6   -729266.91046  21428125.84346
  22689701.394 6    949544.230 6   1399775.09846  22689699.43346
 18  5 30  0 33 59.9990000  0  9G03G14G16G22G26G27G29G31G32          0.000130613
  23570929.44011                                
  20540195.058 6    -30590.457 6    -22898.06348  20540190.80848
  20341103.925 6  -2304368.145 6  -1780338.00048  20341100.74548
  23540114.753 6   -303264.879 6   -233531.15246  23540110.63646
  20514563.644 6   -496769.660 6   -383809.57848  20514563.44448
  22172681.190 5  -5277171.770 5  -4079172.84447  22172681.46047
  23680314.17511                                
  21427280.761 5   -946873.934 5   -732735.06346  21427278.56546
  22691373.980 6    958335.516 6   1406625.44146  22691372.31946
 18  5 30  0 34  4.9990000  0  8G03G14G16G22G26G27G31G32             0.000125883
  23570136.12011                                
  20540375.784 6    -29641.539 6    -22158.64548  20540371.74548
  20339269.362 6  -2314008.441 6  -1787849.92248  20339265.96848
  23539914.058 5   -304320.730 5   -234353.89146  23539909.53446
  20514201.839 6   -498667.531 6   -385288.43848  20514202.01548
  22167952.237 6  -5302023.652 6  -4098537.94947  22167952.05847
  21426433.894 5   -951324.488 5   -736203.03546  21426431.45246
  22693047.792 5    967130.918 5   1413479.01246  22693046.26546
 18  5 30  0 34  9.9990000  0  8G03G14G16G22G26G27G31G32             0.000121155
  23569342.31511                                
  20540558.253 6    -28681.637 6    -21410.67648  20540554.15948
  20337436.651 6  -2323639.973 6  -1795355.01648  20337433.64748
  23539713.870 5   -305373.031 5   -235173.87546  23539710.00746
  20513841.878 6   -500561.383 6   -386764.17248  20513841.67548
  22163223.464 5  -5326872.590 5  -4117900.75047  22163224.03047
  21425586.776 5   -955774.602 5   -739670.67646  21425584.86646
  22694722.940 5    975930.676 5   1420335.91046  22694721.29246
 18  5 30  0 34 14.9990000  0  8G03G14G16G22G26G27G31G32             0.000116428
  23568553.87811    -69975.17611                
  20540743.206 7    -27710.441 7    -20653.90648  20540739.19848
  20335605.495 6  -2333262.512 6  -1802853.09448  20335602.50748
  23539514.409 5   -306421.547 5   -235990.90646  23539510.05846
  20513482.433 6   -502450.926 6   -388236.55948  20513482.36648
  22158495.862 6  -5351718.293 6  -4137261.03147  22158495.36247
  21424740.776 5   -960223.988 5   -743137.71546  21424738.17946
  22696398.136 6    984735.000 6   1427196.40646  22696396.50746
 18  5 30  0 34 19.9990000  0  8G03G14G16G22G26G27G31G32             0.000111689
  23567763.77611    -74131.37511                
  20540930.409 7    -26728.863 7    -19889.03948  20540926.14048
  20333776.237 6  -2342876.930 6  -1810344.84048  20333772.75348
  23539314.683 5   -307467.137 5   -236805.63346  23539310.70246
  20513123.190 6   -504336.992 6   -389706.22348  20513123.47648
  22153769.034 6  -5376561.547 6  -4156619.42247  22153768.28047
  21423894.136 5   -964673.469 5   -746604.87946  21423891.54646
  22698074.355 5    993543.105 5   1434059.87546  22698072.99546
 18  5 30  0 34 24.9990000  0  7G14G16G22G26G27G31G32                0.000106953
  20541119.136 7    -25735.398 7    -19114.90248  20541115.26548
  20331948.425 6  -2352481.703 6  -1817829.07448  20331944.71848
  23539117.183 5   -308508.301 5   -237616.94946  23539111.64446
  20512765.237 6   -506218.184 6   -391172.08648  20512765.48748
  22149041.995 6  -5401400.887 6  -4175974.73447  22149041.39747
  21423048.065 5   -969121.633 5   -750070.98847  21423044.93347
  22699750.933 6   1002356.434 6   1440927.40646  22699750.10546
 18  5 30  0 34 29.9990000  0  7G14G16G22G26G27G31G32                0.000102215
  20541310.159 6    -24731.656 6    -18332.78548  20541306.09748
  20330122.026 6  -2362078.484 6  -1825307.07848  20330119.13248
  23538919.612 5   -309546.715 5   -238426.10546  23538914.05446
  20512407.597 6   -508096.074 6   -392635.37148  20512408.06248
  22144315.128 6  -5426237.945 6  -4195328.29747  22144314.76147
  21422201.761 5   -973570.055 5   -753537.31346  21422198.20646
  22701428.855 6   1011173.273 6   1447797.62546  22701427.88246
 18  5 30  0 34 34.9990000  0  7G14G16G22G26G27G31G32                0.000097475
  20541503.214 6    -23717.328 6    -17542.40648  20541499.50348
  20328297.378 6  -2371666.957 6  -1832778.61748  20328294.29248
  23538723.269 5   -310582.090 5   -239232.90646  23538716.86646
  20512051.480 6   -509970.336 6   -394095.84448  20512051.11648
  22139589.401 6  -5451072.309 6  -4214679.75047  22139589.03447
  21421355.034 5   -978018.355 5   -757003.54346  21421351.82746
  22703107.753 6   1019994.094 6   1454670.98446  22703106.44846
 18  5 30  0 34 39.9990000  0  7G14G16G22G26G27G31G32                0.000092733
  20541698.269 6    -22692.668 6    -16743.97348  20541694.28048
  20326474.198 6  -2381247.348 6  -1840243.85548  20326471.43348
  23538525.855 5   -311614.547 5   -240037.42646  23538520.61246
  20511695.089 6   -511841.254 6   -395553.70748  20511695.20248
  22134864.550 6  -5475904.258 6  -4234029.32047  22134864.15947
  21420508.940 5   -982466.859 5   -760469.91046  21420505.10546
  22704787.605 6   1028818.520 6   1461547.14146  22704785.78846
 18  5 30  0 34 44.9990000  0  7G14G16G22G26G27G31G32                0.000087990
  20541895.339 6    -21657.883 6    -15937.65648  20541891.38248
  20324652.612 6  -2390819.930 6  -1847703.01248  20324649.55448
  23538330.730 5   -312644.496 5   -240839.98446  23538324.58946
  20511339.753 6   -513709.039 6   -397009.13348  20511339.88648
  22130139.136 6  -5500734.008 6  -4253377.17647  22130139.16347
  21419662.417 6   -986915.734 6   -763936.57046  21419658.84346
  22706466.956 6   1037646.352 6   1468425.94546  22706466.19446
 18  5 30  0 34 49.9990000  0  7G14G16G22G26G27G31G32                0.000083244
  20542094.808 7    -20611.078 7    -15121.96948  20542090.58548
  20322833.230 6  -2400382.758 6  -1855154.55948  20322829.91348
  23538135.253 5   -313669.926 5   -241639.05546  23538129.13246
  20510985.300 6   -515571.820 6   -398460.65648  20510985.43748
  22125415.230 6  -5525559.629 6  -4272721.81347  22125415.35147
  21418816.409 6   -991363.059 6   -767402.02346  21418812.48046
  22708147.714 6   1046479.512 6   1475308.93446  22708146.75746
 18  5 30  0 34 54.9990000  0  8G14G16G22G26G27G29G31G32             0.000078499
  20542296.112 7    -19553.172 7    -14297.62948  20542291.85548
  20321014.878 6  -2409936.742 6  -1862599.22348  20321012.05048
  23537941.339 5   -314691.777 5   -242435.30946  23537934.68746
  20510631.503 6   -517430.512 6   -399908.98848  20510631.49148
  22120691.839 6  -5550382.016 6  -4292063.92247  22120691.81947
  23693411.57311     23390.71511                
  21417969.675 6   -995809.785 6   -770867.00447  21417966.39047
  22709829.776 6   1055317.035 6   1482195.26246  22709828.33946
 18  5 30  0 34 59.9990000  0  8G14G16G22G26G27G29G31G32             0.000073751
  20542499.206 7    -18485.367 7    -13465.57048  20542494.99148
  20319198.550 6  -2419483.121 6  -1870037.95748  20319195.08548
  23537746.909 5   -315711.234 5   -243229.71146  23537740.94046
  20510278.581 6   -519286.281 6   -401355.02748  20510278.55048
  22115968.894 6  -5575202.332 6  -4311404.42247  22115968.50347
  23694608.980 2     29687.645 2                
  21417123.901 6  -1000257.023 6   -774332.39547  21417119.67147
  22711512.722 6   1064157.797 6   1489084.16046  22711510.90946
 18  5 30  0 35  4.9990000  0  8G14G16G22G26G27G29G31G32             0.000068998
  20542704.042 7    -17406.605 7    -12624.97748  20542700.33148
  20317384.011 6  -2429020.813 6  -1877469.93448  20317380.29248
  23537554.409 6   -316727.324 6   -244021.46947  23537547.92947
  20509925.401 6   -521138.064 6   -402797.97748  20509925.81548
  22111246.276 6  -5600019.531 6  -4330742.49247  22111245.97247
  23695808.90912                                
  21416277.722 6  -1004703.758 6   -777797.38746  21416273.48346
  22713195.081 6   1073002.746 6   1495976.30946  22713194.60146
 18  5 30  0 35  9.9990000  0  8G14G16G22G26G27G29G31G32             0.000064247
  20542911.526 6    -16316.664 6    -11775.68448  20542907.69848
  20315570.605 6  -2438549.539 6  -1884894.92248  20315566.56248
  23537361.175 5   -317739.746 5   -244810.37546  23537355.54246
  20509573.776 6   -522985.754 6   -404237.73047  20509574.03447
  22106523.433 6  -5624833.348 6  -4350077.93847  22106523.38647
  23697011.08911     42303.86711                
  21415431.558 6  -1009149.742 6   -781261.79346  21415427.41746
  22714879.339 6   1081852.184 6   1502871.93046  22714878.96046
 18  5 30  0 35 14.9990000  0  8G14G16G22G26G27G29G31G32             0.000059494
  20543120.995 7    -15215.277 7    -10917.46948  20543117.32748
  20313759.472 6  -2448069.109 6  -1892312.77048  20313755.01948
  23537169.253 6   -318748.230 6   -245596.23046  23537163.59746
  20509223.120 6   -524828.953 6   -405673.98848  20509223.49148
  22101803.183 6  -5649643.449 6  -4369410.47347  22101802.08147
  23698211.776 1     48622.586 1                
  21414585.183 6  -1013594.695 6   -784725.38746  21414581.28446
  22716564.386 6   1090706.313 6   1509771.26646  22716563.49546
 18  5 30  0 35 19.9990000  0  8G14G16G22G26G27G29G31G32             0.000054737
  20543332.940 7    -14103.609 7    -10051.23448  20543328.96048
  20311948.995 6  -2457580.707 6  -1899724.40648  20311945.00748
  23536977.800 6   -319753.996 6   -246379.94946  23536972.22246
  20508873.065 6   -526668.891 6   -407107.69548  20508873.51948
  22097082.120 6  -5674451.066 6  -4388741.08247  22097081.51547
  23699415.245 1     54947.719 1                
  21413739.034 5  -1018039.824 5   -788189.12147  21413735.40147
  22718249.401 6   1099563.980 6   1516673.32046  22718249.09346
 18  5 30  0 35 24.9990000  0  8G14G16G22G26G27G29G31G32             0.000049976
  20543546.425 7    -12981.926 7     -9177.19948  20543542.11248
  20310140.347 6  -2467084.500 6  -1907129.96548  20310136.62048
  23536787.339 5   -320757.258 5   -247161.70746  23536780.92146
  20508523.581 6   -528505.773 6   -408539.03548  20508523.71448
  22092362.003 6  -5699256.371 6  -4408069.87947  22092360.72247
  23700620.511 1     61278.891 1                
  21412892.980 6  -1022485.316 6   -791653.12546  21412889.11246
  22719935.480 6   1108424.961 6   1523577.97346  22719935.48746
 18  5 30  0 35 29.9990000  0  8G14G16G22G26G27G29G31G32             0.000045216
  20543762.042 6    -11849.582 6     -8294.85948  20543758.46048
  20308333.339 6  -2476579.914 6  -1914528.98448  20308329.68348
  23536596.464 5   -321757.379 5   -247941.03546  23536590.36246
  20508174.753 6   -530339.012 6   -409967.53548  20508174.94448
  22087642.230 6  -5724058.742 6  -4427396.38347  22087640.85147
  23701827.011 1     67616.820 1                
  21412047.503 6  -1026930.559 6   -795116.93046  21412043.18746
  22721622.370 5   1117289.848 5   1530485.66846  22721622.19446
 18  5 30  0 35 34.9990000  0  8G14G16G22G26G27G29G31G32             0.000040453
  20543979.175 7    -10706.754 7     -7404.35248  20543975.44848
  20306528.323 6  -2486067.195 6  -1921921.67648  20306524.54248
  23536406.503 5   -322754.734 5   -248718.19546  23536400.59746
  20507826.714 6   -532168.871 6   -411393.40648  20507827.15148
  22082922.644 6  -5748858.395 6  -4446720.78947  22082921.72247
  23703033.980 1     73961.234 1                
  21411201.761 6  -1031375.813 6   -798580.77746  21411197.53046
  22723310.542 5   1126158.438 5   1537396.24646  22723310.46046
 18  5 30  0 35 39.9990000  0  8G14G16G22G26G27G29G31G32             0.000035686
  20544198.495 7     -9554.168 7     -6506.23848  20544194.81948
  20304724.230 6  -2495546.949 6  -1929308.50048  20304720.58548
  23536216.987 5   -323749.875 5   -249493.62946  23536210.58946
  20507478.972 6   -533995.957 6   -412817.10548  20507479.44448
  22078204.089 6  -5773655.934 6  -4466043.54347  22078202.91347
  23704242.519 1     80311.359 1                
  21410355.198 6  -1035821.621 6   -802045.02046  21410351.21446
  22724998.198 5   1135030.000 5   1544309.14546  22724998.73346
 18  5 30  0 35 44.9990000  0  8G14G16G22G26G27G29G31G32             0.000030920
  20544420.167 7     -8389.793 7     -5598.93848  20544416.26148
  20302922.190 6  -2505017.211 6  -1936687.93848  20302918.44048
  23536029.011 5   -324740.867 5   -250265.82846  23536022.69046
  20507132.190 6   -535818.340 6   -414237.14848  20507132.81548
  22073485.839 6  -5798449.414 6  -4485363.12947  22073484.20647
  23705452.511 1     86669.336 1                
  21409509.019 6  -1040266.047 6   -805508.21146  21409505.50746
  22726687.331 6   1143906.594 6   1551225.96146  22726688.03846
 18  5 30  0 35 49.9990000  0  8G14G16G22G26G27G29G31G32             0.000026150
  20544643.573 7     -7215.324 7     -4683.76648  20544640.01948
  20301121.605 6  -2514479.676 6  -1944061.28148  20301117.76148
  23535839.948 5   -325729.434 5   -251036.13746  23535834.87046
  20506786.003 6   -537637.652 6   -415654.80948  20506786.55048
  22068768.386 6  -5823240.418 6  -4504680.79347  22068766.50747
  23706662.948 1     93033.340 1                
  21408663.659 6  -1044710.719 6   -808971.59846  21408659.80446
  22728377.003 5   1152786.523 5   1558145.36346  22728378.13646
 18  5 30  0 35 54.9990000  0  8G14G16G22G26G27G29G31G32             0.000021379
  20544869.026 7     -6030.594 7     -3760.60548  20544865.24148
  20299322.495 6  -2523934.148 6  -1951428.41048  20299319.03048
  23535653.105 5   -326715.410 5   -251804.43046  23535647.17146
  20506440.347 6   -539453.801 6   -417069.99648  20506441.06548
  22064051.089 6  -5848028.820 6  -4523996.42247  22064049.67947
  23707874.980 1     99403.578 1                
  21407817.964 6  -1049155.531 6   -812435.09446  21407813.91746
  22730067.558 5   1161669.848 5   1565067.42246  22730068.98046
 18  5 30  0 35 59.9990000  0  8G14G16G22G26G27G29G31G32             0.000016607
  20545096.839 7     -4834.145 7     -2828.31348  20545092.85548
  20297525.831 6  -2533379.133 6  -1958788.13748  20297521.74548
  23535465.776 5   -327697.156 5   -252569.42647  23535460.10147
  20506095.831 6   -541265.203 6   -418481.48448  20506096.45248
  22059335.230 6  -5872813.070 6  -4543308.82447  22059333.34747
  23709089.589 2    105781.594 2                
  21406972.097 6  -1053598.961 6   -815897.46546  21406968.36246
  22731758.956 5   1170558.184 5   1571993.37946  22731760.60546
 18  5 30  0 36  4.9990000  0  8G14G16G22G26G27G29G31G32             0.000011831
  20545326.472 7     -3627.715 7     -1888.23848  20545322.04248
  20295729.073 6  -2542816.516 6  -1966141.94948  20295725.67548
  23535279.730 5   -328676.637 5   -253332.66447  23535274.97647
  20505751.315 6   -543073.746 6   -419890.73448  20505752.89448
  22054619.425 6  -5897595.023 6  -4562619.43047  22054617.50747
  23710304.308 1    112165.488 1                
  21406126.269 6  -1058042.785 6   -819360.19546  21406122.97646
  22733450.815 6   1179449.652 6   1578921.79346  22733452.72246
 18  5 30  0 36  9.9990000  0  8G14G16G22G26G27G29G31G32             0.000007053
  20545557.940 7     -2411.090 7      -940.21948  20545553.89448
  20293935.378 6  -2552245.957 6  -1973489.57048  20293931.79648
  23535093.003 5   -329653.488 5   -254093.85247  23535089.24547
  20505407.972 6   -544879.184 6   -421297.58248  20505409.12048
  22049903.972 6  -5922374.340 6  -4581927.99647  22049902.35547
  23711521.440 2    118555.605 2                
  21405279.847 5  -1062486.770 5   -822823.03946  21405277.73046
  22735143.784 6   1188344.484 6   1585852.81646  22735145.70646
 18  5 30  0 36 14.9990000  0  8G14G16G22G26G27G29G31G32             0.000002275
  20545791.315 7     -1183.445 7        16.39148  20545787.31548
  20292142.480 6  -2561666.680 6  -1980830.38748  20292138.95648
  23534908.581 5   -330626.930 5   -254852.38347  23534904.26147
  20505065.464 6   -546680.590 6   -422701.27348  20505066.28048
  22045189.511 6  -5947150.152 6  -4601233.82447  22045187.94447
  23712738.870 2    124952.680 2                
  21404434.315 5  -1066929.992 5   -826285.30546  21404432.31546
  22736837.815 6   1197243.574 6   1592787.16446  22736839.15146
 18  5 30  0 36 19.9990000  0  8G14G16G22G26G27G29G31G32            -0.000002504
  20546027.511 7        55.777 7       982.01648  20546023.15948
  20290351.534 6  -2571078.066 6  -1988163.94148  20290347.89048
  23534724.081 5   -331596.430 5   -255607.85247  23534719.90147
  20504723.308 6   -548477.527 6   -424101.48848  20504724.88248
  22040475.690 6  -5971921.941 6  -4620536.51647  22040474.09747
  23713956.855 3    131357.375 3                
  21403588.956 5  -1071372.012 5   -829746.62546  21403586.96846
  22738531.730 6   1206147.434 6   1599725.23446  22738533.73046
 18  5 30  0 36 24.9990000  0  8G14G16G22G26G27G29G31G32            -0.000007288
  20546265.050 7      1305.344 7      1955.69948  20546260.94048
  20288561.839 6  -2580481.395 6  -1995491.20748  20288558.20648
  23534540.144 5   -332563.254 5   -256361.21547  23534536.08147
  20504381.597 6   -550271.191 6   -425499.14548  20504383.31248
  22035761.940 6  -5996690.906 6  -4639837.00847  22035760.91747
  23715178.776 3    137768.355 3                
  21402744.112 5  -1075813.926 5   -833207.89046  21402741.84346
  22740226.808 6   1215054.773 6   1606665.98846  22740228.21446
 18  5 30  0 36 29.9990000  0  8G14G16G22G26G27G29G31G32            -0.000012072
  20546504.980 7      2566.781 7      2938.63348  20546501.08548
  20286774.409 6  -2589875.152 6  -2002811.02348  20286770.62448
  23534356.870 5   -333525.848 5   -257111.29347  23534353.08147
  20504041.003 6   -552060.047 6   -426893.06648  20504042.98748
  22031049.862 6  -6021455.488 6  -4659134.08647  22031048.56947
  23716399.847 3    144187.098 3                
  21401899.511 5  -1080254.281 5   -836667.92246  21401897.15546
  22741922.292 6   1223967.203 6   1613610.71546  22741924.00346
 18  5 30  0 36 34.9990000  0  8G14G16G22G26G27G29G31G32            -0.000016857
  20546747.230 7      3839.250 7      3930.16848  20546743.05048
  20284988.480 6  -2599260.188 6  -2010124.03548  20284984.81248
  23534174.073 5   -334485.094 5   -257858.78147  23534170.56947
  20503701.831 6   -553844.953 6   -428283.90248  20503703.53448
  22026337.948 6  -6046216.563 6  -4678428.42647  22026336.69047
  23717623.206 3    150612.734 3                
  21401055.128 5  -1084693.840 5   -840127.35946  21401052.46846
  22743619.495 6   1232883.816 6   1620558.71147  22743620.80447
 18  5 30  0 36 39.9990000  0  8G14G16G22G26G27G29G31G32            -0.000021643
  20546991.558 7      5122.938 7      4930.43848  20546987.56248
  20283204.409 6  -2608636.297 6  -2017430.09848  20283200.21848
  23533993.526 5   -335440.754 5   -258603.46547  23533988.98047
  20503363.284 6   -555625.707 6   -429671.50848  20503364.65548
  22021626.417 6  -6070973.820 6  -4697719.79747  22021625.68747
  23718846.855 3    157045.543 3                
  21400211.128 5  -1089132.441 5   -843586.00846  21400207.63646
  22745317.214 6   1241804.801 6   1627510.11346  22745318.63646
 18  5 30  0 36 44.9990000  0  8G14G16G22G26G27G29G31G32            -0.000026432
  20547237.628 6      6417.281 6      5939.01648  20547233.85848
  20281422.003 6  -2618004.070 6  -2024729.66048  20281417.32348
  23533811.581 5   -336393.508 5   -259345.87947  23533807.53847
  20503025.058 6   -557402.938 6   -431056.36348  20503026.06548
  22016915.667 6  -6095727.895 6  -4717008.68847  22016915.51947
  23720072.237 3    163484.984 3                
  21399366.151 5  -1093570.656 5   -847044.38346  21399363.67946
  22747015.737 6   1250729.605 6   1634464.48047  22747016.80047
 18  5 30  0 36 49.9990000  0  8G14G16G22G26G27G29G31G32            -0.000031223
  20547485.925 6      7722.082 6      6955.73448  20547482.37048
  20279640.698 6  -2627363.656 6  -2032022.84048  20279636.33548
  23533629.995 5   -337343.426 5   -260086.07447  23533626.40547
  20502687.550 6   -559176.754 6   -432438.56348  20502688.52648
  22012205.526 6  -6120478.918 6  -4736295.19947  22012205.39747
  23721298.284 2    169930.895 2                
  21398522.378 5  -1098008.629 5   -850502.56346  21398518.89046
  22748715.003 6   1259658.016 6   1641421.66447  22748715.36247
 18  5 30  0 36 54.9990000  0  8G14G16G22G26G27G29G31G32            -0.000036015
  20547736.167 6      9038.211 6      7981.29348  20547732.67148
  20277861.558 6  -2636714.223 6  -2039309.00848  20277856.81548
  23533449.972 5   -338289.715 5   -260823.44547  23533445.70247
  20502350.675 6   -560946.355 6   -433817.48048  20502351.87048
  22007496.323 6  -6145226.047 6  -4755578.67647  22007495.84747
  23722527.362 3    176384.004 3                
  21397677.847 5  -1102445.613 5   -853959.95346  21397674.80846
  22750414.323 6   1268590.906 6   1648382.34447  22750415.24147
 18  5 30  0 36 59.9990000  0  8G14G16G22G26G27G29G31G32            -0.000040810
  20547988.753 6     10365.512 6      9015.54348  20547985.82748
  20276083.706 6  -2646055.898 6  -2046588.23848  20276079.01948
  23533269.948 5   -339232.484 5   -261558.07046  23533266.15546
  20502014.808 6   -562711.848 6   -435193.19548  20502016.04648
  22002787.589 6  -6169969.332 6  -4774859.15647  22002787.38247
  23723756.605 3    182844.234 3                
  21396833.651 6  -1106881.672 6   -857416.64146  21396830.59346
  22752115.339 6   1277528.125 6   1655346.39147  22752115.74947
 18  5 30  0 37  4.9990000  0  8G14G16G22G26G27G29G31G32            -0.000045605
  20548243.128 6     11702.906 6     10057.65648  20548239.99948
  20274307.417 6  -2655389.801 6  -2053861.40648  20274302.87848
  23533091.901 5   -340172.863 5   -262290.84447  23533086.93347
  20501679.698 6   -564474.359 6   -436566.58248  20501680.46448
  21998079.730 6  -6194709.938 6  -4794137.55147  21998079.19447
  23724987.683 3    189310.441 3                
  21395989.581 6  -1111317.898 6   -860873.43046  21395986.21046
  22753816.659 6   1286468.566 6   1662312.94947  22753817.00347
 18  5 30  0 37  9.9990000  0  8G14G16G22G26G27G29G31G32            -0.000050404
  20548499.651 6     13051.414 6     11108.43448  20548496.70648
  20272532.987 6  -2664714.902 6  -2061127.71948  20272527.98748
  23532913.355 5   -341109.805 5   -263020.94546  23532908.11646
  20501345.120 6   -566232.840 6   -437936.82448  20501345.28048
  21993372.230 6  -6219446.719 6  -4813412.96547  21993372.01947
  23726219.776 3    195783.609 3                
  21395144.573 6  -1115753.289 6   -864329.59046  21395141.43346
  22755518.659 6   1295413.262 6   1669282.82447  22755518.94047
 18  5 30  0 37 14.9990000  0  8G14G16G22G26G27G29G31G32            -0.000055202
  20548758.628 6     14411.000 6     12167.84448  20548755.37448
  20270760.136 6  -2674031.191 6  -2068387.16048  20270755.49148
  23532735.980 5   -342043.426 5   -263748.44146  23532730.49146
  20501011.237 6   -567987.363 6   -439303.99248  20501011.40548
  21988666.019 6  -6244179.758 6  -4832685.46547  21988665.41347
  23727451.972 2    202263.887 2                
  21394300.940 6  -1120187.816 6   -867785.08246  21394298.15946
  22757221.409 6   1304362.156 6   1676255.96147  22757221.52647
 18  5 30  0 37 19.9990000  0  8G14G16G22G26G27G29G31G32            -0.000060003
  20549019.073 6     15780.832 6     13235.23448  20549016.56248
  20268988.776 6  -2683339.523 6  -2075640.40648  20268983.98048
  23532558.675 5   -342974.512 5   -264473.98446  23532553.33546
  20500678.355 6   -569738.742 6   -440668.70748  20500678.23348
  21983959.761 6  -6268909.871 6  -4851955.69147  21983958.91347
  23728686.151 2    208750.215 2                
  21393457.440 6  -1124622.313 6   -871240.53146  21393454.11246
  22758925.058 6   1313314.414 6   1683231.73846  22758925.31946
 18  5 30  0 37 24.9990000  0  8G14G16G22G26G27G29G31G32            -0.000064808
  20549281.894 6     17161.727 6     14311.24648  20549279.32748
  20267218.987 6  -2692639.098 6  -2082886.83248  20267214.37848
  23532382.698 5   -343902.289 5   -265196.93446  23532375.92546
  20500345.409 7   -571486.203 7   -442030.36748  20500345.40148
  21979254.073 5  -6293636.211 5  -4871222.95747  21979253.72247
  23729921.261 1    215243.496 1                
  21392613.901 6  -1129055.984 6   -874695.33647  21392610.17147
  22760629.753 6   1322270.836 6   1690210.76647  22760629.83147
 18  5 30  0 37 29.9990000  0  8G14G16G22G26G27G29G31G32            -0.000069613
  20549546.675 6     18553.625 6     15395.83648  20549543.09748
  20265450.940 6  -2701929.930 6  -2090126.43448  20265446.70248
  23532206.073 5   -344826.734 5   -265917.28946  23532200.51146
  20500013.605 6   -573229.703 6   -443388.94548  20500013.58148
  21974549.581 6  -6318358.762 6  -4890487.28947  21974549.18747
  23731158.362 1    221743.723 1                
  21391770.417 6  -1133488.785 6   -878149.46546  21391766.74546
  22762335.089 6   1331231.410 6   1697193.00847  22762334.34747
 18  5 30  0 37 34.9990000  0  8G14G16G22G26G27G29G31G32            -0.000074419
  20549814.144 6     19957.402 6     16489.67648  20549811.22648
  20263684.870 6  -2711211.199 6  -2097358.60248  20263680.46048
  23532031.386 5   -345747.074 5   -266634.42646  23532025.35846
  20499682.862 6   -574968.496 6   -444743.86348  20499683.05848
  21969846.464 6  -6343076.711 6  -4909748.02047  21969845.67547
  23732395.550 1    228251.730 1                
  21390926.464 6  -1137919.844 6   -881602.23846  21390923.46846
  22764041.019 6   1340196.941 6   1704179.13747  22764040.71847
 18  5 30  0 37 39.9990000  0  9G03G14G16G22G26G27G29G31G32         -0.000079226
  23537349.28411     -9093.59411                
  20550083.323 6     21371.758 6     17591.76648  20550080.18748
  20261919.644 6  -2720484.215 6  -2104584.32848  20261915.85848
  23531856.308 5   -346664.598 5   -267349.39147  23531851.23747
  20499352.737 6   -576703.867 6   -446096.11348  20499352.61248
  21965142.972 6  -6367791.355 6  -4929006.17247  21965142.99547
  23733634.105 1    234766.027 1                
  21390083.526 6  -1142350.563 6   -885054.75446  21390080.39046
  22765747.644 6   1349166.129 6   1711168.09447  22765747.37847
 18  5 30  0 37 44.9990000  0  9G03G14G16G22G26G27G29G31G32         -0.000084028
  23536620.933 2    -12928.238 2                
  20550354.362 6     22797.008 6     18702.34048  20550351.31948
  20260156.917 6  -2729748.613 6  -2111803.33248  20260153.18348
  23531682.628 5   -347578.969 5   -268061.89146  23531677.15946
  20499023.276 6   -578435.457 6   -447445.41448  20499023.14748
  21960441.206 6  -6392502.254 6  -4948261.42247  21960440.80447
  23734876.659 1    241287.207 1                
  21389241.042 6  -1146780.516 6   -888506.64546  21389236.59346
  22767454.901 5   1358139.297 5   1718160.16847  22767454.92547
 18  5 30  0 37 49.9990000  0  9G03G14G16G22G26G27G29G31G32         -0.000088840
  23535892.315 1    -16756.121 1                
  20550627.058 6     24232.082 6     19820.57448  20550624.22248
  20258395.675 6  -2739005.445 6  -2119016.46148  20258391.75748
  23531509.050 5   -348491.223 5   -268772.74646  23531503.37446
  20498694.362 6   -580164.320 6   -448792.58248  20498694.01148
  21955738.737 6  -6417210.508 6  -4967514.60547  21955738.61647
  23736117.323 1    247814.090 1                
  21388397.112 6  -1151210.750 6   -891958.78946  21388393.16746
  22769163.409 6   1367115.430 6   1725154.55546  22769163.44446
 18  5 30  0 37 54.9990000  0  9G03G14G16G22G26G27G29G31G32         -0.000093655
  23535165.808 1    -20575.715 1                
  20550902.948 6     25678.484 6     20947.62948  20550899.53048
  20256635.886 6  -2748253.277 6  -2126222.55948  20256631.41348
  23531336.776 5   -349399.938 5   -269480.86747  23531330.99147
  20498366.026 6   -581888.992 6   -450136.48848  20498365.73048
  21951037.714 5  -6441914.578 5  -4986764.52047  21951037.87447
  23737361.58111    254348.07011                
  21387554.526 6  -1155639.813 6   -895409.99246  21387550.39046
  22770872.198 6   1376095.941 6   1732152.34447  22770872.12847
 18  5 30  0 37 59.9990000  0  9G03G14G16G22G26G27G29G31G32         -0.000098469
  23534441.550 1    -24387.465 1                
  20551180.097 6     27135.852 6     22083.23848  20551177.32348
  20254877.894 6  -2757492.484 6  -2133421.93448  20254873.53448
  23531163.901 5   -350305.480 5   -270186.48447  23531158.62047
  20498038.808 6   -583609.891 6   -451477.45348  20498038.40548
  21946337.776 6  -6466614.902 6  -5006011.50847  21946337.23347
  23738606.714 1    260888.848 1                
  21386711.292 6  -1160068.086 6   -898860.59046  21386707.99546
  22772582.034 6   1385080.488 6   1739153.25847  22772582.21847
 18  5 30  0 38  4.9990000  0  9G03G14G16G22G26G27G29G31G32         -0.000103285
  23533718.097 1    -28192.094 1                
  20551459.198 6     28603.414 6     23226.77748  20551456.53448
  20253121.042 6  -2766723.754 6  -2140615.13348  20253117.01148
  23530992.323 6   -351208.566 6   -270890.16447  23530986.96847
  20497711.675 6   -585327.676 6   -452816.00448  20497711.40548
  21941638.050 6  -6491312.090 6  -5025256.06347  21941637.98047
  23739851.722 1    267435.672 1                
  21385869.097 6  -1164496.191 6   -902311.06646  21385865.11246
  22774292.558 6   1394068.336 6   1746156.76247  22774292.26547
 18  5 30  0 38  9.9990000  0  9G03G14G16G22G26G27G29G31G32         -0.000108101
  23532997.33911    -31989.37511                
  20551740.878 6     30081.387 6     24378.44148  20551737.23748
  20251366.386 6  -2775946.938 6  -2147802.03948  20251361.70648
  23530820.136 5   -352109.066 5   -271591.86747  23530816.15947
  20497385.792 6   -587042.215 6   -454152.00448  20497385.69048
  21936939.042 6  -6516006.012 6  -5044498.07847  21936938.78847
  23741096.30811                                
  21385027.300 5  -1168924.066 5   -905761.36346  21385022.68346
  22776003.120 6   1403059.633 6   1753162.94147  22776003.14047
 18  5 30  0 38 14.9990000  0  7G14G16G22G26G27G31G32               -0.000112940
  20552024.058 6     31570.930 6     25539.12148  20552021.03448
  20249613.198 6  -2785160.813 6  -2154981.67648  20249608.54248
  23530649.120 5   -353005.750 5   -272290.56347  23530645.07747
  20497060.175 6   -588752.301 6   -455484.53948  20497059.58948
  21932240.644 6  -6540695.430 6  -5063736.56347  21932240.27647
  21384184.065 5  -1173350.430 5   -909210.46946  21384180.44446
  22777714.855 6   1412055.566 6   1760172.74246  22777715.71046
 18  5 30  0 38 19.9990000  0  7G14G16G22G26G27G31G32               -0.000117762
  20552309.175 6     33071.516 6     26708.40648  20552306.69048
  20247861.331 7  -2794365.953 7  -2162154.52348  20247856.77648
  23530479.808 5   -353899.148 5   -272986.72347  23530475.47647
  20496735.800 7   -590458.523 7   -456814.06648  20496735.23348
  21927543.245 6  -6565380.895 6  -5082971.98847  21927542.50347
  21383341.464 5  -1177775.857 5   -912658.83946  21383338.37046
  22779427.987 6   1421055.598 6   1767185.72746  22779428.06246
 18  5 30  0 38 24.9990000  0  7G14G16G22G26G27G31G32               -0.000122587
  20552597.495 6     34583.320 6     27886.41848  20552594.50348
  20246111.386 6  -2803562.184 6  -2169320.41448  20246106.35848
  23530310.675 5   -354789.168 5   -273680.25047  23530306.37047
  20496412.058 6   -592160.676 6   -458140.41848  20496411.47248
  21922846.026 6  -6590062.156 6  -5102204.13747  21922846.51547
  21382499.433 5  -1182200.078 5   -916106.29346  21382496.66746
  22781140.964 6   1430059.863 6   1774202.00846  22781141.68746
 18  5 30  0 38 29.9990000  0  7G14G16G22G26G27G31G32               -0.000127413
  20552886.972 6     36105.402 6     29072.45348  20552883.61648
  20244363.003 7  -2812750.461 7  -2176480.11748  20244358.14048
  23530141.940 5   -355676.746 5   -274371.85947  23530137.53847
  20496088.269 7   -593859.711 7   -459464.35248  20496087.61248
  21918150.222 6  -6614740.219 6  -5121433.80547  21918150.16347
  21381658.183 5  -1186624.113 5   -919553.62146  21381654.91346
  22782854.839 5   1439067.484 5   1781220.92646  22782855.71046
 18  5 30  0 38 34.9990000  0  7G14G16G22G26G27G31G32               -0.000132240
  20553178.292 6     37637.738 6     30266.46548  20553175.65148
  20242615.980 6  -2821930.785 6  -2183633.62148  20242611.53048
  23529973.183 5   -356561.906 5   -275061.61347  23529968.85847
  20495765.925 7   -595555.688 7   -460785.90648  20495765.37448
  21913454.472 6  -6639415.027 6  -5140660.92647  21913454.52647
  21380816.159 4  -1191047.996 4   -923000.81346  21380813.00346
  22784570.433 5   1448078.352 5   1788242.35947  22784570.27247
 18  5 30  0 38 39.9990000  0  8G14G16G22G23G26G27G31G32            -0.000137011
  20553472.378 6     39180.953 6     31468.96948  20553469.60548
  20240870.878 7  -2831102.520 7  -2190780.43448  20240866.14048
  23529805.487 5   -357443.988 5   -275748.94947  23529801.90547
  23607633.15111   -543123.71111                
  20495443.823 7   -597247.938 7   -462104.53948  20495443.14448
  21908760.081 6  -6664085.938 6  -5159885.00447  21908759.72647
  21379974.589 5  -1195471.039 5   -926447.34046  21379970.69046
  22786285.394 5   1457093.141 5   1795266.87147  22786286.05847
 18  5 30  0 38 44.9990000  0  8G14G16G22G23G26G27G31G32            -0.000141842
  20553768.261 6     40735.363 6     32680.19148  20553765.39448
  20239127.503 7  -2840265.355 7  -2197920.30148  20239122.54648
  23529638.394 5   -358322.703 5   -276433.66847  23529634.37047
  23603054.987 1   -567176.023 1                
  20495122.198 6   -598936.168 6   -463420.05148  20495121.69848
  21904066.362 6  -6688752.648 6  -5179105.82447  21904065.90947
  21379133.128 4  -1199892.867 4   -929892.92646  21379129.35846
  22788001.558 5   1466112.137 5   1802294.63747  22788001.94047
 18  5 30  0 38 49.9990000  0  8G14G16G22G23G26G27G31G32            -0.000146677
  20554065.933 6     42300.090 6     33899.44948  20554062.69448
  20237385.073 7  -2849420.195 7  -2205053.94948  20237381.01948
  23529471.745 6   -359198.914 6   -277116.44147  23529467.30847
  23598476.47211   -591226.88311                
  20494801.886 7   -600621.262 7   -464733.10948  20494801.17148
  21899373.089 6  -6713415.977 6  -5198323.99647  21899372.46447
  21378291.495 5  -1204314.465 5   -933338.34046  21378288.13246
  22789718.487 5   1475134.438 5   1809324.98446  22789718.66746
 18  5 30  0 38 54.9990000  0  8G14G16G22G23G26G27G31G32            -0.000151571
  20554365.909 6     43875.645 6     35127.15648  20554362.75748
  20235644.714 6  -2858566.516 6  -2212180.94948  20235640.18748
  23529305.073 5   -360072.148 5   -277796.90647  23529301.40547
  23593899.26111                                
  20494481.558 7   -602302.703 7   -466043.33248  20494481.06548
  21894680.690 6  -6738075.438 6  -5217539.15647  21894680.17947
  21377450.300 5  -1208735.184 5   -936783.05146  21377447.02246
  22791436.190 5   1484160.637 5   1816358.37946  22791436.67146
 18  5 30  0 38 59.9990000  0  8G14G16G22G23G26G27G31G32            -0.000156410
  20554667.784 6     45461.832 6     36363.13748  20554664.82348
  20233905.784 6  -2867704.473 6  -2219301.43848  20233901.75348
  23529139.308 5   -360942.570 5   -278475.16047  23529135.12447
  23589323.25311                                
  20494161.605 6   -603980.672 6   -467350.84448  20494161.71448
  21889988.433 6  -6762731.145 6  -5236751.39847  21889988.37447
  21376609.269 5  -1213155.352 5   -940227.34846  21376605.88246
  22793155.034 5   1493190.438 5   1823394.56646  22793155.37046
 18  5 30  0 39  4.9990000  0  9G03G14G16G22G23G26G27G31G32         -0.000161249
  23525144.35511                                
  20554970.886 6     47058.961 6     37607.66048  20554968.28048
  20232168.519 6  -2876833.789 6  -2226415.19948  20232164.26948
  23528974.558 5   -361809.879 5   -279151.00447  23528969.79647
  23584745.81511                                
  20493843.534 6   -605654.895 6   -468655.43448  20493843.26548
  21885297.151 6  -6787382.813 6  -5255960.48847  21885297.37047
  21375768.972 5  -1217574.555 5   -943670.87546  21375765.05046
  22794873.690 5   1502224.188 5   1830433.85546  22794874.38246
 18  5 30  0 39  9.9990000  0  9G03G14G16G22G23G26G27G31G32         -0.000166033
  23524439.628 2     -8420.840 2                
  20555277.315 6     48666.688 6     38860.43048  20555273.90148
  20230432.831 6  -2885954.844 6  -2233522.51648  20230428.51148
  23528810.605 6   -362674.504 6   -279824.75447  23528805.30847
  23580170.331 1   -687410.473 1                
  20493524.847 6   -607325.719 6   -469957.38348  20493525.57348
  21880607.792 6  -6812030.758 6  -5275166.68447  21880607.55047
  21374927.675 6  -1221993.160 6   -947113.93846  21374923.92946
  22796593.222 5   1511261.527 5   1837475.91446  22796593.71046
 18  5 30  0 39 14.9990000  0 10G03G14G16G22G23G26G27G29G31G32      -0.000170895
  23523734.526 2    -12117.055 2                
  20555585.589 6     50286.211 6     40122.39148  20555582.33548
  20228699.144 6  -2895066.406 6  -2240622.44148  20228694.88648
  23528647.151 6   -363535.156 6   -280495.39147  23528641.33147
  23575595.23711                                
  20493207.722 6   -608991.930 6   -471255.73048  20493208.83948
  21875917.972 6  -6836673.750 6  -5294369.00847  21875918.07347
  23757427.74512     14814.97312                
  21374087.401 6  -1226409.914 6   -950555.56346  21374083.19846
  22798314.401 5   1520303.691 5   1844521.73446  22798314.87446
 18  5 30  0 39 19.9990000  0 10G03G14G16G22G23G26G27G29G31G32      -0.000175760
  23523030.784 2    -15806.699 2                
  20555895.659 6     51915.441 6     41391.92648  20555893.12848
  20226966.175 6  -2904170.598 6  -2247716.60948  20226962.28848
  23528483.745 6   -364393.984 6   -281164.61746  23528477.11246
  23571018.84711                                
  20492891.440 6   -610655.629 6   -472552.12548  20492892.42148
  21871228.839 6  -6861313.891 6  -5313569.11347  21871228.70247
  23758692.456 2     21460.180 2                
  21373246.831 6  -1230827.020 6   -953997.45746  21373242.92946
  22800036.315 5   1529348.516 5   1851569.64146  22800035.18746
 18  5 30  0 39 24.9990000  0 10G03G14G16G22G23G26G27G29G31G32      -0.000180607
  23522327.370 1    -19488.613 1                
  20556207.542 6     53555.660 6     42670.01248  20556204.69048
  20225235.401 6  -2913266.141 6  -2254804.04748  20225231.11648
  23528321.355 6   -365249.750 6   -281831.44546  23528313.61646
  23566445.37811                                
  20492575.472 6   -612315.605 6   -473845.62148  20492576.42548
  21866541.050 6  -6885949.898 6  -5332765.99647  21866540.64447
  23759959.472 1     28112.039 1                
  21372406.823 6  -1235243.109 6   -957438.56646  21372402.42146
  22801758.144 5   1538397.266 5   1858620.58646  22801757.96046
 18  5 30  0 39 29.9990000  0 10G03G14G16G22G23G26G27G29G31G32      -0.000185453
  23521629.362 1    -23162.227 1                
  20556522.409 6     55207.223 6     43956.93448  20556518.94448
  20223506.144 6  -2922352.691 6  -2261884.46948  20223502.46848
  23528158.409 6   -366102.090 6   -282495.57446  23528151.31246
  23561872.98711                                
  20492260.308 6   -613971.426 6   -475135.86747  20492261.03847
  21861854.347 6  -6910581.352 6  -5351959.33647  21861853.61647
  23761226.894 2     34771.031 2                
  21371566.886 6  -1239657.852 6   -960878.61746  21371561.47246
  22803480.956 5   1547450.320 5   1865674.93446  22803480.75746
 18  5 30  0 39 34.9990000  0  8G03G14G16G22G26G27G31G32            -0.000190317
  23520933.48012                                
  20556838.698 6     56869.906 6     45252.53948  20556835.53848
  20221778.878 6  -2931430.410 6  -2268958.02048  20221774.25748
  23527997.284 6   -366951.121 6   -283157.16846  23527989.38246
  20491945.870 6   -615623.266 6   -476423.01648  20491946.79248
  21857167.753 6  -6935208.426 6  -5371149.23447  21857166.97247
  21370726.644 6  -1244071.313 6   -964317.69946  21370721.82346
  22805205.948 3   1556507.559 3   1872732.40646  22805204.02646
 18  5 30  0 39 39.9990000  0  9G03G14G16G22G26G27G29G31G32         -0.000195152
  23520233.80811    -30487.40211                
  20557156.784 6     58542.848 6     46556.12148  20557153.67948
  20220052.503 6  -2940500.242 6  -2276025.42248  20220048.81948
  23527836.253 6   -367797.832 6   -283816.93046  23527828.20646
  20491631.909 6   -617272.125 6   -477707.85248  20491632.52648
  21852481.464 6  -6959832.008 6  -5390336.46147  21852481.29647
  23763765.42511                                
  21369886.394 5  -1248484.559 5   -967756.55547  21369882.21847
  22806928.878 5   1565567.922 5   1879792.48846  22806928.39746
 18  5 30  0 39 44.9990000  0  9G03G14G16G22G26G27G29G31G32         -0.000200010
  23519539.43311    -34138.37511                
  20557476.823 6     60226.570 6     47868.11348  20557474.27648
  20218327.894 6  -2949561.578 6  -2283086.20348  20218324.03048
  23527675.589 5   -368641.617 5   -284474.41446  23527667.32746
  20491319.269 6   -618917.344 6   -478989.84448  20491319.53448
  21847797.198 6  -6984451.520 6  -5409520.48847  21847796.76547
  23765037.448 1     54788.008 1                
  21369047.198 6  -1252896.848 6   -971194.72346  21369042.72646
  22808653.651 5   1574632.043 5   1886855.41846  22808653.30046
 18  5 30  0 39 49.9990000  0  9G03G14G16G22G26G27G29G31G32         -0.000204865
  23518845.245 1    -37781.324 1                
  20557799.628 6     61921.352 6     49188.71548  20557797.06248
  20216605.823 6  -2958614.156 6  -2290140.15248  20216601.83548
  23527515.058 6   -369482.262 6   -285129.47746  23527507.23046
  20491007.284 6   -620558.730 6   -480268.84048  20491007.34348
  21843113.659 6  -7009066.633 6  -5428701.09847  21843111.85147
  23766307.32311     61473.19511                
  21368207.550 5  -1257308.035 5   -974632.02046  21368203.35146
  22810379.011 5   1583700.258 5   1893921.53946  22810378.52246
 18  5 30  0 39 54.9990000  0  9G03G14G16G22G26G27G29G31G32         -0.000209721
  23518152.448 1    -41416.754 1                
  20558124.347 6     63626.879 6     50517.69548  20558121.46448
  20214884.386 6  -2967658.289 6  -2297187.52748  20214880.69848
  23527355.323 5   -370320.078 5   -285782.29746  23527347.64746
  20490695.222 6   -622196.586 6   -481545.10248  20490695.61648
  21838429.628 6  -7033677.754 6  -5447878.58647  21838428.65547
  23767582.07311     68164.63311                
  21367369.112 5  -1261718.348 5   -978068.62147  21367364.46847
  22812105.190 5   1592772.141 5   1900990.52746  22812105.03446
 18  5 30  0 39 59.9990000  0  9G03G14G16G22G26G27G29G31G32         -0.000214573
  23517464.870 1    -45044.078 1                
  20558451.112 6     65343.684 6     51855.45348  20558448.06548
  20213165.050 6  -2976693.438 6  -2304227.90248  20213161.15548
  23527196.136 6   -371154.547 6   -286432.54346  23527188.96046
  20490384.292 6   -623830.410 6   -482818.21548  20490384.48348
  21833747.347 6  -7058284.293 6  -5467052.51247  21833745.97647
  23768857.542 1     74862.992 1                
  21366530.362 6  -1266127.305 6   -981504.18847  21366525.54247
  22813831.417 5   1601848.207 5   1908062.76646  22813832.33946
 18  5 30  0 40  4.9990000  0  7G14G16G22G26G27G31G32               -0.000219446
  20558779.230 6     67069.973 6     53200.60948  20558776.56548
  20211446.940 6  -2985721.426 6  -2311262.69548  20211443.34748
  23527038.097 6   -371987.457 6   -287081.56647  23527031.22247
  20490073.972 6   -625461.945 6   -484089.54347  20490074.15547
  21829065.620 6  -7082888.004 6  -5486224.22747  21829064.04247
  21365691.472 5  -1270536.664 5   -984940.05947  21365686.45647
  22815559.901 4   1610926.766 4   1915136.94146  22815559.43746
 18  5 30  0 40  9.9990000  0  7G14G16G22G26G27G31G32               -0.000224308
  20559109.855 6     68806.723 6     54553.91848  20559106.95248
  20209730.323 6  -2994741.277 6  -2318291.14548  20209727.20648
  23526880.628 6   -372817.844 6   -287728.63346  23526873.12046
  20489764.050 6   -627090.281 6   -485358.37948  20489764.18748
  21824383.847 6  -7107487.898 6  -5505392.96547  21824382.88247
  21364852.480 6  -1274945.410 6   -988375.44547  21364847.38647
  22817287.917 5   1620008.609 5   1922213.66046  22817287.28846
 18  5 30  0 40 14.9990000  0  7G14G16G22G26G27G31G32               -0.000229170
  20559442.792 6     70555.355 6     55916.48048  20559439.99148
  20208015.917 6  -3003751.480 6  -2325312.08248  20208012.53048
  23526722.636 6   -373644.289 6   -288372.62147  23526716.39447
  20489455.198 6   -628713.934 6   -486623.56647  20489455.07347
  21819704.034 6  -7132082.492 6  -5524557.57847  21819703.01147
  21364013.753 6  -1279352.188 6   -991809.31347  21364009.18747
  22819017.151 4   1629095.371 4   1929294.23046  22819016.22246
 18  5 30  0 40 19.9990000  0  7G14G16G22G26G27G31G32               -0.000234035
  20559777.573 6     72314.621 6     57287.33248  20559774.57748
  20206303.300 6  -3012753.375 6  -2332326.53948  20206299.97248
  23526565.870 6   -374468.082 6   -289014.55147  23526559.64447
  20489146.808 6   -630334.199 6   -487886.10547  20489146.52247
  21815024.409 6  -7156673.086 6  -5543719.07447  21815023.55847
  21363175.089 6  -1283758.184 6   -995242.56647  21363170.60147
  22820746.909 4   1638185.613 4   1936377.51646  22820746.13246
 18  5 30  0 40 24.9990000  0  7G14G16G22G26G27G31G32               -0.000238901
  20560114.683 6     74085.352 6     58667.12148  20560111.59348
  20204591.558 6  -3021746.168 6  -2339333.91448  20204588.49548
  23526409.769 5   -375288.309 5   -289653.68447  23526403.87847
  20488839.519 6   -631950.238 6   -489145.35947  20488838.86247
  21810345.987 6  -7181258.770 6  -5562876.74647  21810345.42147
  21362336.370 6  -1288162.555 6   -998674.55547  21362332.88647
  22822477.417 4   1647280.230 4   1943464.21146  22822476.47646
 18  5 30  0 40 29.9990000  0  7G14G16G22G26G27G31G32               -0.000243769
  20560453.065 6     75865.777 6     60054.46948  20560450.08948
  20202881.659 6  -3030731.598 6  -2346335.54748  20202878.64748
  23526254.331 6   -376106.797 6   -290291.48847  23526248.60147
  20488531.855 6   -633563.844 6   -490402.70347  20488532.12047
  21805668.003 6  -7205841.336 6  -5582031.98847  21805667.37447
  21361498.659 6  -1292567.098 6  -1002106.64847  21361494.32747
  22824209.042 4   1656377.434 4   1950552.94146  22824207.73046
 18  5 30  0 40 34.9990000  0  7G14G16G22G26G27G31G32               -0.000248638
  20560794.581 6     77657.836 6     61450.87148  20560791.34348
  20201173.870 6  -3039707.688 6  -2353329.90248  20201170.74948
  23526099.308 6   -376921.582 6   -290926.40247  23526093.87447
  20488226.081 6   -635173.035 6   -491656.62148  20488225.63648
  21800991.386 6  -7230418.770 6  -5601183.22747  21800990.26547
  21360661.206 6  -1296969.750 6  -1005537.30947  21360656.71847
  22825939.894 3   1665479.223 3   1957645.23446  22825939.78046
 18  5 30  0 40 39.9990000  0  7G14G16G22G26G27G31G32               -0.000253511
  20561137.605 6     79459.402 6     62854.69548  20561134.23348
  20199466.784 6  -3048676.523 6  -2360318.60548  20199463.98348
  23525944.206 6   -377734.820 6   -291560.10947  23525939.24947
  20487919.706 6   -636779.891 6   -492908.71548  20487920.24148
  21796315.159 6  -7254993.176 6  -5620332.10247  21796315.05847
  21359823.167 6  -1301372.676 6  -1008968.16847  21359819.24947
  22827673.097 2   1674583.387 2   1964739.38346  22827671.92146
 18  5 30  0 40 44.9990000  0  7G14G16G22G26G27G31G32               -0.000258385
  20561481.995 6     81271.895 6     64267.02348  20561478.71048
  20197762.003 6  -3057636.719 6  -2367300.58248  20197758.91348
  23525790.206 6   -378545.031 6   -292191.44547  23525785.57747
  20487615.019 6   -638383.086 6   -494157.95347  20487615.02247
  21791639.472 6  -7279563.098 6  -5639477.50447  21791639.14047
  21358985.417 6  -1305774.480 6  -1012398.12547  21358981.78047
  22829406.644 3   1683691.465 3   1971836.58246  22829405.52246
 18  5 30  0 40 49.9990000  0  7G14G16G22G26G27G31G32               -0.000263260
  20561829.019 6     83095.164 6     65687.74648  20561825.72648
  20196058.839 6  -3066588.457 6  -2374275.95748  20196055.49148
  23525637.386 6   -379352.473 6   -292820.64147  23525631.85847
  20487310.440 6   -639982.703 6   -495404.42248  20487310.50348
  21786964.519 6  -7304128.734 6  -5658619.55147  21786964.54647
  21358147.706 6  -1310175.285 6  -1015827.33646  21358144.42946
  22831139.503 2   1692803.184 2   1978936.60546  22831139.61646
 18  5 30  0 40 54.9990000  0  7G14G16G22G26G27G31G32               -0.000268135
  20562178.355 6     84930.758 6     67118.07848  20562175.08148
  20194357.190 6  -3075530.215 6  -2381243.56648  20194353.82748
  23525484.214 6   -380155.543 6   -293446.39847  23525478.99547
  20487006.745 6   -641577.281 6   -496646.94148  20487006.94448
  21782291.440 6  -7328688.484 6  -5677757.02047  21782291.18747
  21357310.870 6  -1314573.539 6  -1019254.54346  21357307.19446
  22832874.159 3   1701920.211 3   1986040.75046  22832874.74546
 18  5 30  0 40 59.9990000  0  8G03G14G16G22G26G27G31G32            -0.000273008
  23509292.06511     -5036.14111                
  20562529.644 6     86776.684 6     68556.45348  20562526.46848
  20192656.940 6  -3084463.973 6  -2388204.94148  20192653.67948
  23525331.870 6   -380956.297 6   -294070.37947  23525326.65147
  20486704.284 6   -643168.770 6   -497887.05948  20486704.60148
  21777617.972 6  -7353244.375 6  -5696891.47347  21777618.22247
  21356474.519 6  -1318971.223 6  -1022681.30546  21356470.69446
  22834610.331 3   1711040.328 3   1993147.33246  22834610.42946
 18  5 30  0 41  4.9990000  0  8G03G14G16G22G26G27G31G32            -0.000277885
  23508621.362 1     -8565.023 1                
  20562883.003 6     88633.512 6     70003.33648  20562879.60548
  20190958.394 6  -3093389.195 6  -2395159.65648  20190955.17948
  23525179.386 6   -381754.184 6   -294692.11347  23525174.90147
  20486401.933 6   -644756.660 6   -499124.38748  20486402.40548
  21772946.362 6  -7377795.777 6  -5716022.42647  21772946.48747
  21355636.933 6  -1323367.836 6  -1026107.25446  21355633.61646
  22836347.222 4   1720164.297 4   2000256.89546  22836346.89746
 18  5 30  0 41  9.9990000  0  8G03G14G16G22G26G27G31G32            -0.000282766
  23507953.190 1    -12086.379 1                
  20563238.261 6     90501.035 6     71458.54348  20563235.15148
  20189262.050 6  -3102306.059 6  -2402107.87148  20189258.09348
  23525028.323 6   -382549.371 6   -295311.73447  23525023.67547
  20486100.206 6   -646341.051 6   -500358.98448  20486100.99548
  21768275.073 6  -7402342.887 6  -5735150.02347  21768275.06247
  21354799.675 6  -1327763.438 6  -1029532.41046  21354797.28046
  22838083.183 4   1729291.758 4   2007369.18446  22838083.69446
 18  5 30  0 41 14.9990000  0  8G03G14G16G22G26G27G31G32            -0.000287647
  23507283.237 1    -15599.961 1                
  20563595.839 6     92379.652 6     72922.40248  20563592.64748
  20187566.917 6  -3111214.168 6  -2409049.25848  20187562.96048
  23524877.776 6   -383341.449 6   -295928.96947  23524872.78047
  20485799.628 6   -647921.680 6   -501590.65647  20485800.19047
  21763604.894 6  -7426885.281 6  -5754273.96547  21763604.53047
  21353963.706 5  -1332157.734 5  -1032956.53146  21353961.32346
  22839821.190 4   1738423.215 4   2014484.59846  22839821.52246
 18  5 30  0 41 19.9990000  0  8G03G14G16G22G26G27G31G32            -0.000292532
  23506616.769 1    -19106.539 1                
  20563955.565 6     94268.430 6     74394.17648  20563952.07748
  20185872.862 6  -3120114.461 6  -2415984.54748  20185869.26948
  23524727.581 6   -384131.406 6   -296544.54347  23524722.98747
  20485499.753 6   -649499.395 6   -502820.04748  20485500.17148
  21758935.464 6  -7451423.852 6  -5773394.92647  21758934.90947
  21353126.737 5  -1336551.535 5  -1036380.28946  21353124.48746
  22841559.534 4   1747557.633 4   2021602.28946  22841559.71846
 18  5 30  0 41 24.9990000  0  8G03G14G16G22G26G27G31G32            -0.000297419
  23505948.144 1    -22605.992 1                
  20564316.784 6     96167.656 6     75874.08248  20564313.37848
  20184181.276 6  -3129006.625 6  -2422913.51248  20184177.23348
  23524577.597 6   -384918.957 6   -297158.21147  23524573.51947
  20485199.956 6   -651073.918 6   -504046.94948  20485200.48348
  21754266.644 6  -7475958.340 6  -5792512.69947  21754266.24147
  21352291.776 5  -1340944.621 5  -1039803.49646  21352288.37046
  22843298.487 5   1756695.434 5   2028722.61746  22843298.42546
 18  5 30  0 41 29.9990000  0  8G03G14G16G22G26G27G31G32            -0.000302307
  23505283.690 1    -26098.051 1                
  20564680.597 6     98077.484 6     77362.25448  20564677.05448
  20182490.526 6  -3137890.488 6  -2429835.99648  20182486.45248
  23524428.526 6   -385703.871 6   -297769.84447  23524423.32747
  20484900.940 6   -652645.121 6   -505271.26648  20484901.54248
  21749598.737 6  -7500488.516 6  -5811627.12147  21749598.14747
  21351456.589 5  -1345336.813 5  -1043225.98046  21351452.68346
  22845038.128 5   1765836.637 5   2035845.62546  22845038.19846
 18  5 30  0 41 34.9990000  0  8G03G14G16G22G26G27G31G32            -0.000307198
  23504625.065 1    -29582.871 1                
  20565045.378 6     99997.859 6     78858.65648  20565042.27648
  20180801.792 6  -3146766.125 6  -2436752.08648  20180797.19848
  23524279.776 6   -386486.273 6   -298379.51647  23524274.16747
  20484602.847 6   -654213.063 6   -506493.04748  20484603.12448
  21744931.675 6  -7525014.434 6  -5830738.22347  21744930.55847
  21350621.308 5  -1349728.172 5  -1046647.82046  21350616.79246
  22846778.683 5   1774981.262 5   2042971.26646  22846778.54646
 18  5 30  0 41 39.9990000  0  8G03G14G16G22G26G27G31G32            -0.000312088
  23503965.58111    -33060.17211                
  20565412.886 6    101928.898 6     80363.35248  20565409.97248
  20179113.917 7  -3155633.383 7  -2443661.63348  20179109.91748
  23524131.019 6   -387266.039 6   -298987.10947  23524125.56947
  20484304.925 6   -655777.559 6   -507712.13348  20484305.62848
  21740264.901 6  -7549535.926 6  -5849845.87547  21740264.09747
  21349785.417 5  -1354118.520 5  -1050068.89546  21349780.96046
  22848519.878 5   1784129.473 5   2050099.70346  22848519.38646
 18  5 30  0 41 44.9990000  0  8G03G14G16G22G26G27G31G32            -0.000316980
  23503306.878 1    -36529.586 1                
  20565782.378 6    103871.090 6     81876.75048  20565779.37448
  20177428.745 7  -3164491.832 7  -2450564.32848  20177424.53848
  23523983.425 6   -388042.672 6   -299592.29747  23523978.23347
  20484008.222 6   -657338.195 6   -508928.21948  20484008.65148
  21735599.909 6  -7574052.520 6  -5868949.70747  21735598.52247
  21348950.347 5  -1358507.410 5  -1053488.82446  21348945.92146
  22850261.581 5   1793281.609 5   2057231.21146  22850260.88246
 18  5 30  0 41 49.9990000  0  8G03G14G16G22G26G27G31G32            -0.000321875
  23502647.472 1    -39990.813 1                
  20566154.519 6    105824.629 6     83398.99248  20566151.02248
  20175745.026 7  -3173341.223 7  -2457459.95748  20175740.37048
  23523836.573 6   -388815.980 6   -300194.87147  23523831.03047
  20483712.151 6   -658894.750 6   -510141.11348  20483712.38248
  21730935.128 6  -7598563.953 6  -5888049.53147  21730934.24947
  21348116.183 5  -1362894.570 5  -1056907.38346  21348111.51946
  22852004.487 5   1802437.945 5   2064365.98846  22852003.31546
 18  5 30  0 41 54.9990000  0  8G03G14G16G22G26G27G31G32            -0.000326769
  23501989.433 1    -43445.051 1                
  20566527.753 6    107788.473 6     84929.25048  20566524.66748
  20174062.339 6  -3182182.605 6  -2464349.34448  20174058.21048
  23523689.722 6   -389587.031 6   -300795.70347  23523683.87447
  20483416.300 6   -660448.266 6   -511351.65248  20483416.43748
  21726271.214 6  -7623071.324 6  -5907146.17647  21726270.55047
  21347280.487 5  -1367281.099 5  -1060325.45646  21347277.00746
  22853747.480 6   1811597.434 6   2071503.23846  22853746.65546
 18  5 30  0 41 59.9990000  0  8G03G14G16G22G26G27G31G32            -0.000331667
  23501332.956 1    -46891.480 1                
  20566903.628 6    109763.328 6     86468.09448  20566900.74948
  20172381.644 7  -3191015.344 7  -2471232.00448  20172377.16748
  23523543.792 6   -390355.160 6   -301394.23847  23523537.84747
  20483121.519 6   -661998.105 6   -512559.32048  20483121.49148
  21721608.745 6  -7647573.910 6  -5926239.09447  21721607.68747
  21346446.433 5  -1371666.301 5  -1063742.49646  21346442.47646
  22855491.565 6   1820760.711 6   2078643.43046  22855490.46446
 18  5 30  0 42  4.9990000  0  8G03G14G16G22G26G27G31G32            -0.000336578
  23500679.01911                                
  20567281.401 6    111749.176 6     88015.50448  20567278.35148
  20170702.409 7  -3199839.363 7  -2478107.87548  20170698.01548
  23523397.620 6   -391120.375 6   -301990.51247  23523391.80847
  20482827.526 6   -663544.207 6   -513764.07048  20482827.42948
  21716946.987 6  -7672071.613 6  -5945328.21147  21716945.55847
  21345611.972 5  -1376050.086 5  -1067158.41847  21345607.79247
  22857236.386 6   1829927.816 6   2085786.59846  22857235.17946
 18  5 30  0 42  9.9990000  0  8G03G14G16G22G26G27G31G32            -0.000341465
  23500023.60511    -53762.28911                
  20567661.144 6    113744.965 6     89570.66048  20567658.37448
  20169024.925 6  -3208655.816 6  -2484977.84048  20169020.35548
  23523252.706 6   -391883.727 6   -302585.35247  23523246.87847
  20482533.823 6   -665087.688 6   -514966.79748  20482533.73048
  21712286.159 6  -7696565.586 6  -5964414.43847  21712284.62447
  21344778.183 5  -1380433.566 5  -1070574.12946  21344773.71046
  22858981.081 6   1839097.625 6   2092931.91446  22858979.62446
 18  5 30  0 42 14.9990000  0  8G03G14G16G22G26G27G31G32            -0.000346382
  23499372.23711                                
  20568043.284 6    115751.488 6     91134.18048  20568040.07748
  20167348.503 7  -3217463.840 7  -2491841.23848  20167343.84748
  23523107.503 6   -392644.387 6   -303178.06347  23523102.45647
  20482240.355 6   -666627.754 6   -516166.84048  20482240.63248
  21707626.136 6  -7721054.973 6  -5983497.06647  21707624.40947
  21343944.605 5  -1384815.918 5  -1073988.95346  21343939.90546
  22860725.190 5   1848271.008 5   2100079.98446  22860725.10546
 18  5 30  0 42 19.9990000  0  7G14G16G22G26G27G31G32               -0.000351286
  20568427.511 6    117769.281 6     92706.48448  20568424.15948
  20165674.151 6  -3226262.922 6  -2498697.67248  20165669.62448
  23522963.722 6   -393401.895 6   -303768.34847  23522958.54247
  20481948.503 6   -668163.840 6   -517363.78948  20481948.11648
  21702966.948 6  -7745539.152 6  -6002575.64847  21702965.21847
  21343111.128 5  -1389196.633 5  -1077402.50046  21343106.01546
  22862471.636 5   1857448.441 5   2107231.20746  22862471.60546
 18  5 30  0 42 24.9990000  0  7G14G16G22G26G27G31G32               -0.000356194
  20568812.862 6    119796.996 6     94286.51248  20568809.66348
  20164001.269 7  -3235054.438 7  -2505548.21148  20163996.91748
  23522818.980 6   -394157.586 6   -304357.19147  23522814.69447
  20481656.714 6   -669697.285 6   -518558.67648  20481656.40548
  21698308.190 6  -7770019.527 6  -6021651.26247  21698306.77247
  21342277.183 6  -1393577.000 6  -1080815.78146  21342272.25346
  22864219.105 5   1866628.582 5   2114384.55546  22864218.95246
 18  5 30  0 42 29.9990000  0  7G14G16G22G26G27G31G32               -0.000361101
  20569200.948 6    121835.465 6     95874.92248  20569198.04248
  20162330.276 7  -3243837.531 7  -2512392.18048  20162325.73048
  23522676.636 6   -394910.641 6   -304944.00047  23522670.93347
  20481365.612 6   -671227.309 6   -519750.90248  20481365.06248
  21693650.917 6  -7794495.273 6  -6040723.28147  21693649.44047
  21341443.894 6  -1397956.258 6  -1084228.16047  21341439.31547
  22865966.378 5   1875812.234 5   2121540.62146  22865966.42546
 18  5 30  0 42 34.9990000  0  7G14G16G22G26G27G31G32               -0.000366011
  20569590.542 6    123883.098 6     97470.47748  20569586.88648
  20160659.534 6  -3252613.789 6  -2519230.82848  20160655.65548
  23522532.909 5   -395662.617 5   -305529.99647  23522527.89747
  20481074.597 6   -672755.477 6   -520941.69148  20481074.53848
  21688993.753 6  -7818967.855 6  -6059792.82047  21688992.58547
  21340611.175 6  -1402335.957 6  -1087640.92247  21340605.85847
  22867714.214 5   1884997.848 5   2128698.23446  22867714.14746
 18  5 30  0 42 39.9990000  0  7G14G16G22G26G27G31G32               -0.000370924
  20569982.300 6    125940.938 6     99073.98448  20569979.10548
  20158990.745 6  -3261382.129 6  -2526063.30948  20158987.10548
  23522390.097 6   -396412.453 6   -306114.27747  23522385.32747
  20480784.097 6   -674280.738 6   -522130.21548  20480783.83948
  21684337.542 6  -7843436.258 6  -6078859.10247  21684336.01147
  21339778.058 6  -1406714.957 6  -1091053.10947  21339772.85847
  22869462.323 5   1894186.488 5   2135858.18446  22869463.05846
 18  5 30  0 42 44.9990000  0  8G03G14G16G22G26G27G31G32            -0.000375835
  23495497.78411     -6678.96111                
  20570376.347 6    128010.188 6    100686.37948  20570372.58948
  20157324.425 6  -3270141.449 6  -2532888.74648  20157320.15948
  23522248.073 5   -397159.039 5   -306696.05946  23522242.70646
  20480494.909 6   -675801.938 6   -523315.56648  20480494.78448
  21679682.526 6  -7867899.258 6  -6097921.19147  21679680.92547
  21338944.480 6  -1411092.160 6  -1094463.92647  21338940.27647
  22871211.573 5   1903379.250 5   2143021.35546  22871212.33546
 18  5 30  0 42 49.9990000  0  8G03G14G16G22G26G27G31G32            -0.000380728
  23494854.987 1    -10052.918 1                
  20570771.659 6    130090.488 6    102307.39148  20570768.61648
  20155658.675 6  -3278892.023 6  -2539707.38348  20155655.22248
  23522107.089 5   -397902.723 5   -307275.51646  23522100.98746
  20480205.823 6   -677319.371 6   -524497.98048  20480205.85848
  21675027.831 6  -7892357.211 6  -6116979.34047  21675026.40547
  21338111.940 6  -1415467.785 6  -1097873.50047  21338107.73747
  22872962.198 4   1912575.848 4   2150187.52346  22872962.60146
 18  5 30  0 42 54.9990000  0  8G03G14G16G22G26G27G31G32            -0.000385645
  23494212.472 1    -13419.820 1                
  20571169.792 6    132181.105 6    103936.43848  20571166.21448
  20153995.175 6  -3287634.563 6  -2546519.74648  20153991.19848
  23521965.112 5   -398644.160 5   -307853.29346  23521959.88646
  20479917.925 6   -678833.762 6   -525678.02048  20479917.83948
  21670375.198 6  -7916810.793 6  -6136034.08247  21670373.65947
  21337279.620 6  -1419842.594 6  -1101282.46147  21337274.87047
  22874712.347 4   1921775.566 4   2157356.12546  22874713.53046
 18  5 30  0 42 59.9990000  0  8G03G14G16G22G26G27G31G32            -0.000390566
  23493577.065 1    -16780.238 1                
  20571569.456 6    134281.547 6    105573.13748  20571566.15148
  20152333.237 6  -3296369.664 6  -2553326.32848  20152328.64448
  23521824.847 5   -399383.926 5   -308429.71946  23521818.89446
  20479629.964 6   -680345.711 6   -526856.16448  20479629.72648
  21665722.401 6  -7941260.551 6  -6155085.83647  21665721.02647
  21336447.284 6  -1424217.184 6  -1104691.21147  21336442.42547
  22876464.128 4   1930977.848 4   2164526.73046  22876464.33946
 18  5 30  0 43  4.9990000  0  8G03G14G16G22G26G27G31G32            -0.000395487
  23492936.30011    -20134.74611                
  20571970.925 6    136391.191 6    107217.00848  20571967.23048
  20150671.933 6  -3305097.855 6  -2560127.50848  20150667.80048
  23521684.190 5   -400122.551 5   -309005.28946  23521677.79646
  20479342.862 6   -681855.742 6   -528032.82048  20479342.59348
  21661069.792 6  -7965706.965 6  -6174134.99247  21661068.90147
  21335614.597 6  -1428592.023 6  -1108100.18447  21335610.39747
  22878214.972 4   1940182.078 4   2171698.85946  22878215.83546
 18  5 30  0 43  9.9990000  0  7G14G16G22G26G27G31G32               -0.000400436
  20572374.917 6    138511.586 6    108869.24648  20572370.80448
  20149012.776 6  -3313817.605 6  -2566922.12148  20149008.35848
  23521544.386 5   -400858.566 5   -309578.81346  23521537.18346
  20479056.378 6   -683362.305 6   -529206.76648  20479055.76948
  21656418.690 6  -7990148.508 6  -6193180.34847  21656417.85847
  21334782.034 6  -1432965.563 6  -1111508.13747  21334777.83547
  22879967.503 4   1949389.887 4   2178873.75045  22879968.20245
 18  5 30  0 43 14.9990000  0  7G14G16G22G26G27G31G32               -0.000405361
  20572779.964 6    140642.344 6    110529.57848  20572776.11248
  20147354.792 6  -3322529.316 6  -2573710.47348  20147350.89048
  23521404.722 5   -401592.391 5   -310150.63346  23521397.13646
  20478769.800 6   -684865.871 6   -530378.38348  20478769.33148
  21651769.019 6  -8014585.605 6  -6212222.24247  21651768.19047
  21333949.815 6  -1437338.242 6  -1114915.42247  21333945.95647
  22881719.683 4   1958600.746 4   2186051.03946  22881720.70646
 18  5 30  0 43 19.9990000  0  7G14G16G22G26G27G31G32               -0.000410290
  20573187.550 6    142782.852 6    112197.49648  20573183.36248
  20145698.753 6  -3331233.605 6  -2580493.03148  20145694.71048
  23521264.925 5   -402324.598 5   -310721.20346  23521257.79246
  20478484.323 6   -686366.965 6   -531548.07848  20478484.42948
  21647119.503 6  -8039018.793 6  -6231261.07047  21647118.05447
  21333117.925 6  -1441710.648 6  -1118322.50047  21333113.75747
  22883472.722 4   1967814.156 4   2193230.30946  22883474.36646
 18  5 30  0 43 24.9990000  0  7G14G16G22G26G27G31G32               -0.000415218
  20573596.644 6    144934.434 6    113874.05548  20573593.12048
  20144043.753 7  -3339929.125 7  -2587268.76248  20144039.49548
  23521126.409 5   -403053.875 5   -311289.45346  23521119.30846
  20478199.558 6   -687864.316 6   -532714.84847  20478198.89447
  21642470.831 6  -8063446.785 6  -6250295.88747  21642469.95247
  21332286.105 6  -1446081.430 6  -1121728.29747  21332282.20647
  22885226.722 4   1977031.344 4   2200412.51246  22885227.86246
 18  5 30  0 43 29.9990000  0  7G14G16G22G26G27G31G32               -0.000420149
  20574008.565 7    147096.672 7    115558.90248  20574004.80048
  20142391.081 6  -3348616.375 6  -2594038.03548  20142386.49548
  23520988.456 5   -403780.676 5   -311855.80946  23520980.98346
  20477914.894 6   -689358.418 6   -533879.09048  20477914.72248
  21637823.362 6  -8087869.973 6  -6269326.92647  21637822.44047
  21331454.847 6  -1450451.063 6  -1125133.20347  21331450.49547
  22886982.589 4   1986251.883 4   2207597.33646  22886983.02646
 18  5 30  0 43 34.9990000  0  7G14G16G22G26G27G31G32               -0.000425083
  20574421.542 6    149268.945 6    117251.57848  20574418.23748
  20140739.237 7  -3357295.953 7  -2600801.35248  20140734.70248
  23520850.409 5   -404505.629 5   -312420.73846  23520843.19446
  20477631.573 6   -690849.832 6   -535041.23448  20477630.60848
  21633176.503 6  -8112288.949 6  -6288354.69947  21633175.36247
  21330623.526 6  -1454820.121 6  -1128537.67247  21330619.58147
  22888736.800 4   1995475.188 4   2214784.26246  22888738.24146
 18  5 30  0 43 39.9990000  0  7G14G16G22G26G27G31G32               -0.000430017
  20574837.503 7    151451.887 7    118952.55948  20574833.84748
  20139089.237 7  -3365967.160 7  -2607558.13348  20139084.49148
  23520713.081 5   -405228.027 5   -312983.58246  23520705.80046
  20477348.261 6   -692337.910 6   -536200.77348  20477347.92948
  21628530.589 6  -8136703.012 6  -6307378.63747  21628529.30047
  21329792.456 6  -1459187.926 6  -1131941.15647  21329787.87047
  22890493.355 4   2004701.902 4   2221973.91846  22890494.30846
 18  5 30  0 43 44.9990000  0  7G14G16G22G26G27G31G32               -0.000434952
  20575255.011 6    153645.863 6    120662.15248  20575251.26148
  20137440.855 6  -3374629.684 6  -2614308.14848  20137436.26548
  23520576.440 5   -405947.586 5   -313544.31346  23520569.24546
  20477065.894 6   -693822.277 6   -537357.42648  20477065.71448
  21623885.683 6  -8161111.789 6  -6326398.46947  21623884.99947
  21328960.933 6  -1463554.102 6  -1135343.36347  21328957.00747
  22892249.808 4   2013932.324 4   2229166.44146  22892251.30046
 18  5 30  0 43 49.9990000  0  7G14G16G22G26G27G31G32               -0.000439890
  20575674.144 6    155849.512 6    122379.27348  20575670.75748
  20135793.972 7  -3383284.883 7  -2621052.45348  20135789.14748
  23520439.300 5   -406665.738 5   -314103.91046  23520433.35546
  20476783.667 6   -695304.348 6   -538512.28948  20476783.45648
  21619241.347 6  -8185516.699 6  -6345415.27347  21619240.86247
  21328129.714 6  -1467920.047 6  -1138745.41047  21328126.33147
  22894006.870 4   2023165.133 4   2236360.77046  22894008.33546
 18  5 30  0 43 54.9990000  0  7G14G16G22G26G27G31G32               -0.000444830
  20576095.284 6    158063.523 6    124104.47748  20576092.09748
  20134148.308 7  -3391932.020 7  -2627790.48048  20134143.77248
  23520303.636 5   -407381.645 5   -314661.79346  23520296.56546
  20476502.370 6   -696783.371 6   -539664.78147  20476501.63247
  21614598.909 6  -8209916.918 6  -6364428.42647  21614597.28047
  21327299.198 6  -1472284.977 6  -1142146.66047  21327295.30047
  22895763.995 4   2032401.051 4   2243557.57046  22895765.92146
 18  5 30  0 43 59.9990000  0  7G14G16G22G26G27G31G32               -0.000449772
  20576518.980 6    160288.520 6    125838.23448  20576515.59348
  20132504.565 7  -3400570.543 7  -2634521.80548  20132500.00748
  23520168.394 5   -408094.801 5   -315217.49246  23520161.57746
  20476221.362 6   -698258.805 6   -540814.47347  20476220.77247
  21609956.362 6  -8234311.914 6  -6383437.50447  21609955.01547
  21326469.159 6  -1476648.383 6  -1145546.71547  21326465.18347
  22897521.894 3   2041640.605 3   2250757.23846  22897524.15146
 18  5 30  0 44  4.9990000  0  7G14G16G22G26G27G31G32               -0.000454716
  20576944.269 7    162523.422 7    127579.71548  20576941.32748
  20130862.144 7  -3409201.438 7  -2641247.17248  20130857.53048
  23520032.573 6   -408806.176 6   -315771.81646  23520026.12846
  20475941.323 6   -699731.605 6   -541962.11347  20475940.93747
  21605314.909 6  -8258702.629 6  -6402443.25447  21605313.77247
  21325638.644 6  -1481011.191 6  -1148946.32047  21325634.65547
  22899280.995 3   2050882.797 3   2257958.91846  22899282.74546
 18  5 30  0 44  9.9990000  0  7G14G16G22G26G27G31G32               -0.000459660
  20577371.308 6    164768.762 6    129329.33648  20577368.40548
  20129221.253 7  -3417824.215 7  -2647966.23048  20129216.93748
  23519897.245 5   -409515.340 5   -316324.41447  23519891.61647
  20475661.237 6   -701201.355 6   -543107.38347  20475661.08147
  21600674.901 6  -8283088.570 6  -6421445.28547  21600673.16747
  21324808.706 6  -1485372.957 6  -1152345.10547  21324804.94047
  22901040.714 2   2060128.109 2   2265163.01646  22901042.08546
 18  5 30  0 44 14.9990000  0  8G14G16G22G23G26G27G31G32            -0.000464607
  20577800.651 7    167023.699 7    131086.42648  20577797.76548
  20127582.026 7  -3426439.750 7  -2654679.62948  20127577.44048
  23519762.323 5   -410223.117 5   -316875.93446  23519756.93346
  23301927.70612    -22909.96512                
  20475382.370 6   -702668.836 6   -544250.87547  20475381.43747
  21596034.839 6  -8307470.563 6  -6440444.22347  21596033.45247
  21323978.753 6  -1489734.453 6  -1155743.69947  21323975.18347
  22902800.659 3   2069375.695 3   2272368.91846  22902801.92546
 18  5 30  0 44 19.9990000  0  8G14G16G22G23G26G27G31G32            -0.000469513
  20578231.636 7    169289.441 7    132851.93048  20578229.08948
  20125944.245 7  -3435046.809 7  -2661386.43848  20125939.71848
  23519627.925 5   -410928.297 5   -317425.42647  23519622.86647
  23297380.980 2    -46802.766 2                
  20475103.675 6   -704132.902 6   -545391.71547  20475102.87047
  21591396.480 6  -8331847.371 6  -6459439.13747  21591394.82747
  21323149.464 6  -1494094.500 6  -1159141.15247  21323144.99547
  22904560.987 2   2078626.777 2   2279577.59446  22904561.95646
 18  5 30  0 44 24.9990000  0  8G14G16G22G23G26G27G31G32            -0.000474461
  20578664.730 7    171566.082 7    134625.93448  20578662.13648
  20124307.847 7  -3443645.277 7  -2668086.54348  20124303.89748
  23519494.105 5   -411630.773 5   -317972.82046  23519489.14446
  23292834.511 2    -70692.238 2                
  20474825.706 6   -705593.387 6   -546529.76247  20474825.29247
  21586758.769 6  -8356218.875 6  -6478429.91047  21586757.10847
  21322319.901 6  -1498452.980 6  -1162537.37547  21322315.84347
  22906322.073 2   2087881.461 2   2286789.00446  22906323.41746
 18  5 30  0 44 29.9990000  0  8G14G16G22G23G26G27G31G32            -0.000479412
  20579099.995 7    173852.359 7    136407.44148  20579096.96848
  20122672.690 7  -3452236.391 7  -2674780.92648  20122668.26148
  23519360.808 5   -412331.852 5   -318519.13746  23519356.65546
  23288288.776 2    -94579.668 2                
  20474548.222 6   -707051.625 6   -547666.05947  20474547.69447
  21582121.339 6  -8380586.313 6  -6497417.51647  21582119.96847
  21321490.964 6  -1502811.109 6  -1165933.33647  21321486.12047
  22908083.011 2   2097138.441 2   2294002.19946  22908084.30046
 18  5 30  0 44 34.9990000  0  8G14G16G22G23G26G27G31G32            -0.000484365
  20579537.198 7    176149.926 7    138197.75048  20579534.43748
  20121039.948 7  -3460818.598 7  -2681468.36748  20121035.60848
  23519228.253 5   -413029.887 5   -319063.06347  23519223.50747
  23283744.636 2   -118463.352 2                
  20474270.870 6   -708505.891 6   -548799.24647  20474271.22647
  21577485.956 6  -8404947.992 6  -6516400.65247  21577484.57747
  21320661.433 6  -1507167.332 6  -1169327.78947  21320657.30847
  22909844.706 2   2106399.430 2   2301218.57846  22909847.87446
 18  5 30  0 44 39.9990000  0  8G14G16G22G23G26G27G31G32            -0.000489321
  20579976.073 6    178457.316 6    139995.71548  20579973.23348
  20119408.315 7  -3469393.270 7  -2688149.94148  20119404.13648
  23519096.105 5   -413726.305 5   -319605.72746  23519090.81546
  23279200.019 2   -142344.762 2                
  20473995.081 6   -709957.703 6   -549930.54347  20473994.39447
  21572850.644 6  -8429305.367 6  -6535380.42247  21572849.87847
  21319833.136 6  -1511522.992 6  -1172721.82047  21319828.11247
  22911607.542 2   2115662.891 2   2308436.84446  22911610.28846
 18  5 30  0 44 44.9990000  0  8G14G16G22G23G26G27G31G32            -0.000494280
  20580417.151 7    180775.063 7    141801.74248  20580414.23348
  20117778.112 7  -3477959.895 7  -2694825.22748  20117773.92948
  23518964.378 5   -414420.660 5   -320146.78946  23518958.56246
  23274655.300 2   -166223.434 2                
  20473719.198 6   -711406.539 6   -551059.51247  20473719.15147
  21568216.112 6  -8453657.926 6  -6554356.43047  21568215.47247
  21319004.347 6  -1515877.578 6  -1176114.99247  21318999.36647
  22913371.597 2   2124929.395 2   2315657.46946  22913373.72246
 18  5 30  0 44 49.9990000  0  8G14G16G22G23G26G27G31G32            -0.000499239
  20580860.245 6    183103.926 6    143616.43448  20580858.03048
  20116149.706 7  -3486517.723 7  -2701493.66048  20116145.52648
  23518832.339 5   -415112.090 5   -320685.56646  23518826.74946
  23270110.628 1   -190098.430 1                
  20473444.386 6   -712851.578 6   -552185.52747  20473444.57347
  21563583.683 6  -8478004.805 6  -6573328.03547  21563582.62847
  21318176.440 6  -1520230.285 6  -1179506.70747  21318171.23347
  22915135.237 1   2134199.664 1   2322881.03945  22915137.47245
 18  5 30  0 44 54.9980000  0  8G14G16G22G23G26G27G31G32             0.000495802
  20581305.537 6    185442.891 6    145439.00048  20581303.08848
  20114522.998 7  -3495065.605 7  -2708154.35548  20114519.06448
  23518701.490 6   -415801.063 6   -321222.42247  23518695.52547
  23265569.537 2   -213965.543 2                
  20473169.670 6   -714293.109 6   -553308.79747  20473169.81847
  21558951.982 6  -8502341.742 6  -6592291.88747  21558951.52247
  21317348.240 6  -1524580.797 6  -1182896.72347  21317343.35047
  22916899.326 2   2143471.367 2   2330105.73045  22916901.63945
 18  5 30  0 44 59.9980000  0  8G14G16G22G23G26G27G31G32             0.000490839
  20581752.357 7    187792.496 7    147269.85248  20581749.92048
  20112897.537 7  -3503607.383 7  -2714810.28548  20112893.36948
  23518570.279 5   -416488.258 5   -321757.90647  23518564.72547
  23261023.897 1   -237834.824 1                
  20472896.490 6   -715732.188 6   -554430.17247  20472896.07647
  21554321.412 6  -8526678.832 6  -6611255.85247  21554320.32647
  21316520.912 6  -1528931.316 6  -1186286.73447  21316515.58047
  22918665.178 2   2152747.668 2   2337333.97745  22918666.34245
 18  5 30  0 45  4.9980000  0  8G14G16G22G23G26G27G31G32             0.000485872
  20582201.381 6    190150.906 6    149107.56648  20582198.72148
  20111273.092 7  -3512142.703 7  -2721461.18848  20111269.46348
  23518439.076 5   -417174.898 5   -322292.94147  23518433.65847
  23256483.686 1   -261702.707 1                
  20472622.686 6   -717169.813 6   -555550.39547  20472622.27247
  21549690.920 6  -8551012.574 6  -6630217.20347  21549689.54947
  21315692.662 6  -1533282.266 6  -1189677.09447  21315687.51847
  22920430.467 2   2162025.445 2   2344563.41045  22920432.14745
 18  5 30  0 45  9.9980000  0  8G14G16G22G23G26G27G31G32             0.000480906
  20582652.350 7    192520.379 7    150953.90648  20582649.75248
  20109650.592 7  -3520669.254 7  -2728105.25048  20109646.54148
  23518309.350 5   -417858.789 5   -322825.86346  23518303.79946
  23251940.631 1   -285566.961 1                
  20472349.818 6   -718603.750 6   -556667.76647  20472349.82247
  21545060.834 6  -8575340.629 6  -6649174.14147  21545060.34647
  21314865.147 6  -1537631.355 6  -1193065.99247  21314860.28747
  22922197.068 3   2171306.906 3   2351795.67245  22922198.47945
 18  5 30  0 45 14.9980000  0  8G14G16G22G23G26G27G31G32             0.000475937
  20583104.990 6    194899.113 6    152807.45748  20583102.39748
  20108029.193 7  -3529188.848 7  -2734743.89848  20108025.46748
  23518180.006 5   -418541.656 5   -323357.96146  23518173.83046
  23247400.459 1   -309429.457 1                
  20472077.287 6   -720035.777 6   -557783.64147  20472077.11547
  21540432.404 6  -8599664.848 6  -6668128.07447  21540431.15847
  21314037.865 6  -1541980.402 6  -1196454.86347  21314033.08447
  22923963.857 3   2180590.320 3   2359029.46545  22923964.95145
 18  5 30  0 45 19.9980000  0  8G14G16G22G23G26G27G31G32             0.000470964
  20583559.092 6    197288.285 6    154669.14848  20583556.45548
  20106409.850 7  -3537700.367 7  -2741376.25448  20106405.68948
  23518050.373 5   -419222.340 5   -323888.38346  23518044.17446
  23242858.865 1   -333288.754 1                
  20471805.748 6   -721464.742 6   -558897.11747  20471805.20147
  21535803.818 6  -8623983.973 6  -6687078.03147  21535803.30747
  21313209.686 6  -1546328.223 6  -1199842.76247  21313205.72547
  22925730.701 3   2189876.758 3   2366265.62945  22925731.84245
 18  5 30  0 45 24.9980000  0  8G14G16G22G23G26G27G31G32             0.000465992
  20584015.717 6    199687.309 6    156538.52348  20584012.86548
  20104791.342 6  -3546204.395 6  -2748002.77048  20104787.27548
  23517921.186 6   -419901.457 6   -324417.54346  23517914.79546
  23238321.873 1   -357145.641 1                
  20471534.303 6   -722891.277 6   -560008.71547  20471533.24847
  21531177.107 6  -8648298.617 6  -6706024.50047  21531176.17447
  21312383.006 6  -1550675.441 6  -1203230.20747  21312378.52947
  22927498.006 3   2199165.684 3   2373503.74646  22927499.39346
 18  5 30  0 45 29.9980000  0  8G14G16G22G23G26G27G31G32             0.000461018
  20584474.576 6    202096.426 6    158415.74648  20584471.34648
  20103174.537 6  -3554700.652 6  -2754623.23048  20103170.68948
  23517792.115 6   -420578.805 6   -324945.35946  23517786.11546
  23233782.506 1   -380999.723 1                
  20471263.381 6   -724315.105 6   -561118.20347  20471262.42047
  21526551.592 6  -8672608.504 6  -6724967.27347  21526550.06447
  21311555.693 6  -1555021.758 6  -1206616.94547  21311551.75647
  22929266.623 2   2208457.316 2   2380743.95346  22929268.04946
 18  5 30  0 45 34.9980000  0  8G14G16G22G23G26G27G31G32             0.000456041
  20584934.256 6    204515.520 6    160300.75048  20584931.56848
  20101559.404 6  -3563189.316 6  -2761237.77348  20101555.04948
  23517663.881 5   -421254.465 5   -325471.84446  23517657.97546
  23229242.639 1   -404851.262 1                
  20470993.006 6   -725736.375 6   -562225.68847  20470992.31147
  21521926.029 6  -8696913.754 6  -6743906.42247  21521925.08847
  21310729.139 6  -1559367.305 6  -1210003.09047  21310725.02947
  22931035.045 2   2217751.461 2   2387986.12145  22931036.29145
 18  5 30  0 45 39.9980000  0  8G14G16G22G23G26G27G31G32             0.000451063
  20585396.803 6    206945.379 6    162194.13348  20585393.85448
  20099945.490 6  -3571669.523 6  -2767845.72348  20099941.37348
  23517535.061 5   -421927.711 5   -325996.43846  23517529.03746
  23224703.412 1   -428699.395 1                
  20470722.764 6   -727154.223 6   -563330.51247  20470722.62347
  21517301.732 6  -8721213.453 6  -6762841.25847  21517300.77547
  21309902.084 6  -1563711.168 6  -1213387.91847  21309898.63147
  22932804.506 2   2227049.078 2   2395231.00445  22932805.03345
 18  5 30  0 45 44.9980000  0  8G14G16G22G23G26G27G31G32             0.000446085
  20585861.850 6    209387.152 6    164096.80948  20585858.75248
  20098333.756 7  -3580140.063 7  -2774446.14848  20098329.74848
  23517407.123 5   -422597.266 5   -326518.17646  23517401.82646
  23220165.670 1   -452542.840 1                
  20470453.857 6   -728567.512 6   -564431.78547  20470453.16247
  21512679.295 6  -8745506.484 6  -6781770.89547  21512678.11547
  21309076.420 6  -1568052.258 6  -1216770.58247  21309072.43247
  22934573.990 2   2236351.297 2   2402479.45745  22934575.08845
 18  5 30  0 45 49.9980000  0  8G14G16G22G23G26G27G31G32             0.000441103
  20586328.475 6    211839.574 6    166007.78148  20586324.96748
  20096722.975 7  -3588602.328 7  -2781040.12148  20096719.02248
  23517280.568 5   -423264.504 5   -327038.09846  23517274.54946
  23215627.623 1   -476382.977 1                
  20470185.553 6   -729977.566 6   -565530.52347  20470185.14747
  21508057.397 6  -8769794.121 6  -6800696.32447  21508056.43947
  21308250.490 6  -1572391.867 6  -1220152.09847  21308246.76847
  22936345.717 2   2245656.676 2   2409730.38345  22936345.96345
 18  5 30  0 45 54.9980000  0  9G03G14G16G22G23G26G27G31G32          0.000436081
  23472020.24012     -7251.32812                
  20586797.272 6    214301.746 6    167926.35548  20586793.64748
  20095114.178 6  -3597057.129 6  -2787628.27348  20095110.13548
  23517153.162 5   -423930.250 5   -327556.86746  23517148.30746
  23211093.31811                                
  20469918.451 6   -731385.199 6   -566627.38347  20469917.39347
  21503436.037 6  -8794077.207 6  -6819618.20747  21503435.68947
  21307424.818 6  -1576730.840 6  -1223533.10547  21307420.97547
  22938116.186 2   2254964.441 2   2416983.18045  22938117.34245
 18  5 30  0 45 59.9980000  0  9G03G14G16G22G23G26G27G31G32          0.000431133
  23471428.100 2    -10360.645 2                
  20587267.678 6    216774.867 6    169853.46148  20587263.93948
  20093506.607 6  -3605503.355 6  -2794209.74648  20093502.76048
  23517027.772 5   -424593.426 5   -328073.64146  23517021.56446
  23206554.764 1   -524054.645 1                
  20469650.998 6   -732789.359 6   -567721.53147  20469649.87747
  21498816.225 6  -8818354.621 6  -6838535.67247  21498815.79547
  21306599.092 6  -1581068.043 6  -1226912.75047  21306595.07647
  22939888.615 3   2264275.730 3   2424238.69545  22939888.92845
 18  5 30  0 46  4.9980000  0  9G03G14G16G22G23G26G27G31G32          0.000426117
  23470838.107 1    -13464.031 1                
  20587740.404 6    219257.277 6    171787.80148  20587736.02948
  20091900.818 6  -3613942.598 6  -2800785.78548  20091896.84648
  23516901.443 5   -425255.582 5   -328589.60946  23516896.08446
  23202020.45911                                
  20469383.936 6   -734191.574 6   -568814.16447  20469383.33447
  21494198.107 6  -8842627.895 6  -6857449.91047  21494196.48647
  21305773.256 6  -1585405.078 6  -1230292.27047  21305769.97147
  22941660.764 3   2273588.887 3   2431495.66045  22941661.37745
 18  5 30  0 46  9.9980000  0  9G03G14G16G22G23G26G27G31G32          0.000421158
  23470249.092 1    -16560.285 1                
  20588214.522 6    221750.355 6    173730.46148  20588210.39348
  20090296.529 7  -3622373.504 7  -2807355.32448  20090291.93948
  23516775.357 5   -425915.395 5   -329103.74246  23516770.86146
  23197482.30311   -571715.03511                
  20469117.865 6   -735590.535 6   -569904.25447  20469117.17847
  21489579.123 6  -8866895.656 6  -6876359.85947  21489578.98647
  21304948.451 6  -1589740.500 6  -1233670.52347  21304944.84247
  22943434.217 3   2282905.309 3   2438755.20345  22943434.05345
 18  5 30  0 46 14.9980000  0  9G03G14G16G22G23G26G27G31G32          0.000416168
  23469658.57611                                
  20588690.951 6    224253.203 6    175680.72348  20588687.31848
  20088693.272 7  -3630796.992 7  -2813919.07848  20088688.90048
  23516650.287 5   -426573.766 5   -329616.78146  23516645.48246
  23192948.607 1   -595540.813 1                
  20468852.045 6   -736987.141 6   -570992.52347  20468851.27947
  21484961.881 6  -8891158.801 6  -6895266.18448  21484961.63548
  21304123.389 6  -1594075.254 6  -1237048.26247  21304119.87347
  22945206.678 3   2292224.070 3   2446016.55545  22945206.90445
 18  5 30  0 46 19.9980000  0  8G03G14G16G22G26G27G31G32             0.000411142
  23469067.23211                                
  20589169.287 6    226766.164 6    177638.86748  20589165.35448
  20087091.772 6  -3639212.707 6  -2820476.78948  20087087.18648
  23516526.537 5   -427230.348 5   -330128.41846  23516520.69746
  20468586.904 6   -738381.027 6   -572078.66847  20468585.85447
  21480346.139 6  -8915416.926 6  -6914168.62147  21480345.31847
  21303298.537 6  -1598409.000 6  -1240425.20747  21303295.24847
  22946980.623 3   2301545.566 3   2453280.03946  22946981.13946
 18  5 30  0 46 24.9980000  0  7G14G16G22G26G27G31G32                0.000406149
  20589649.162 6    229287.848 6    179603.81348  20589645.31448
  20085492.006 6  -3647622.039 6  -2827029.51648  20085486.87348
  23516401.639 5   -427886.516 5   -330639.73846  23516395.74046
  20468321.889 6   -739773.598 6   -573163.78547  20468320.96747
  21475731.061 6  -8939671.461 6  -6933068.25847  21475729.82247
  21302473.443 6  -1602743.117 6  -1243802.43447  21302470.11147
  22948754.162 4   2310868.254 4   2460544.46945  22948754.61945
 18  5 30  0 46 29.9980000  0  7G14G16G22G26G27G31G32                0.000401152
  20590130.662 6    231819.945 6    181576.87548  20590127.10048
  20083892.631 6  -3656023.262 6  -2833575.92248  20083888.38548
  23516276.529 5   -428540.633 5   -331149.42646  23516271.29546
  20468057.686 6   -741163.133 6   -574246.55147  20468056.80747
  21471116.342 6  -8963920.645 6  -6951963.72747  21471115.41647
  21301648.662 6  -1607075.789 6  -1247178.55547  21301645.39747
  22950529.592 4   2320193.960 4   2467811.21445  22950529.31145
 18  5 30  0 46 34.9980000  0  7G14G16G22G26G27G31G32                0.000396156
  20590614.412 6    234362.359 6    183557.96548  20590611.02948
  20082295.818 6  -3664416.574 6  -2840116.16848  20082291.40848
  23516152.397 5   -429192.727 5   -331657.57846  23516146.69346
  20467793.717 6   -742549.820 6   -575327.07847  20467792.86947
  21466502.600 6  -8988164.598 6  -6970855.12147  21466501.87747
  21300824.686 6  -1611407.297 6  -1250553.76247  21300821.44747
  22952304.014 3   2329522.633 3   2475080.25845  22952304.74445
 18  5 30  0 46 39.9980000  0  7G14G16G22G26G27G31G32                0.000391155
  20591100.397 6    236914.590 6    185546.71548  20591096.96348
  20080700.022 6  -3672802.391 6  -2846650.56648  20080695.27948
  23516028.850 5   -429843.406 5   -332164.60246  23516023.09246
  20467530.662 7   -743934.074 7   -576405.72347  20467528.86147
  21461890.506 6  -9012403.766 6  -6989742.78948  21461889.17448
  21300000.740 6  -1615737.969 6  -1253928.30547  21299997.15847
  22954079.576 3   2338853.602 3   2482351.15245  22954080.19745
 18  5 30  0 46 44.9980000  0  7G14G16G22G26G27G31G32                0.000386154
  20591587.904 6    239477.762 6    187543.99248  20591584.90448
  20079105.803 7  -3681179.594 7  -2853178.25848  20079101.20948
  23515905.459 5   -430491.547 5   -332669.67246  23515899.93646
  20467267.639 7   -745314.797 7   -577481.60947  20467265.99447
  21457278.818 6  -9036637.000 6  -7008625.83248  21457277.74448
  21299176.311 6  -1620066.734 6  -1257301.37947  21299173.26447
  22955855.834 3   2348188.082 3   2489624.71546  22955856.47146
 18  5 30  0 46 49.9980000  0  7G14G16G22G26G27G31G32                0.000381153
  20592077.545 6    242050.852 6    189548.99248  20592074.39748
  20077513.592 6  -3689549.250 6  -2859700.07448  20077508.51448
  23515782.576 5   -431138.156 5   -333173.52746  23515776.41246
  20467005.811 7   -746693.020 7   -578555.56647  20467003.74447
  21452668.576 6  -9060865.313 6  -7027505.03947  21452667.73247
  21298353.803 6  -1624394.594 6  -1260673.75047  21298349.79147
  22957633.498 4   2357525.113 4   2496900.28545  22957633.86545
 18  5 30  0 46 54.9980000  0  7G14G16G22G26G27G31G32                0.000376148
  20592569.287 6    244633.668 6    191561.57048  20592565.97548
  20075922.178 6  -3697911.426 6  -2866216.05148  20075917.47548
  23515659.686 5   -431783.387 5   -333676.32446  23515653.41646
  20466743.451 6   -748068.922 6   -579627.69147  20466742.01847
  21448059.279 6  -9085088.859 6  -7046380.53148  21448058.01048
  21297530.068 6  -1628721.707 6  -1264045.52047  21297526.48647
  22959410.342 3   2366864.320 3   2504177.57045  22959410.83445
 18  5 30  0 46 59.9980000  0  8G03G14G16G22G26G27G31G32             0.000371141
  23464421.43611                                
  20593062.865 6    247228.012 6    193583.13348  20593059.69348
  20074332.568 6  -3706264.422 6  -2872724.89548  20074327.95948
  23515537.498 5   -432425.465 5   -334176.65646  23515531.13146
  20466482.873 7   -749440.688 7   -580696.60947  20466480.75247
  21443450.654 6  -9109305.805 6  -7065250.88348  21443450.38948
  21296707.592 6  -1633046.242 6  -1267415.30547  21296703.82247
  22961188.803 4   2376207.656 4   2511458.03945  22961188.08445
 18  5 30  0 47  4.9980000  0  8G03G14G16G22G26G27G31G32             0.000366135
  23463846.568 1    -15758.824 1                
  20593557.928 6    249831.746 6    195612.01248  20593555.20148
  20072744.576 6  -3714610.355 6  -2879228.22348  20072740.07648
  23515415.568 5   -433066.582 5   -334676.24246  23515408.85446
  20466221.873 7   -750810.508 7   -581764.01247  20466220.11547
  21438843.311 6  -9133518.313 6  -7084117.77047  21438842.57247
  21295884.897 6  -1637370.363 6  -1270784.76647  21295881.13547
  22962967.412 4   2385552.871 4   2518740.01646  22962967.33846
 18  5 30  0 47  9.9980000  0  8G03G14G16G22G26G27G31G32             0.000361126
  23463271.80311                                
  20594055.436 6    252444.953 6    197648.26248  20594052.64748
  20071157.717 7  -3722949.148 7  -2885725.98448  20071153.35748
  23515293.740 5   -433706.535 5   -335174.89546  23515287.31146
  20465961.678 6   -752178.223 6   -582829.75847  20465960.16247
  21434236.209 6  -9157726.230 6  -7102981.07848  21434235.78348
  21295061.889 6  -1641693.969 6  -1274153.82847  21295058.18647
  22964746.311 4   2394900.098 4   2526023.54746  22964745.68646
 18  5 30  0 47 14.9980000  0  8G03G14G16G22G26G27G31G32             0.000356115
  23462699.092 1    -21786.750 1                
  20594554.889 6    255069.234 6    199693.16048  20594552.11948
  20069572.522 7  -3731279.191 7  -2892216.93448  20069568.03748
  23515173.397 5   -434343.805 5   -335671.48046  23515165.92846
  20465701.873 6   -753542.262 6   -583892.64547  20465700.47947
  21429631.006 6  -9181927.957 6  -7121839.56648  21429630.77948
  21294240.365 6  -1646015.414 6  -1277521.19947  21294236.14347
  22966526.154 4   2404250.996 4   2533309.88746  22966525.54146
 18  5 30  0 47 19.9980000  0  8G03G14G16G22G26G27G31G32             0.000351103
  23462130.154 1    -24791.426 1                
  20595055.967 6    257702.512 6    201745.05548  20595052.90048
  20067988.600 6  -3739602.629 6  -2898702.73048  20067984.53348
  23515052.029 5   -434980.543 5   -336167.64146  23515044.84646
  20465442.623 6   -754904.781 6   -584954.35247  20465441.58447
  21425026.342 6  -9206125.586 6  -7140694.86348  21425025.96348
  21293417.873 6  -1650336.801 6  -1280888.53547  21293414.03747
  22968304.029 4   2413603.352 4   2540597.46145  22968305.00245
 18  5 30  0 47 24.9980000  0  8G03G14G16G22G26G27G31G32             0.000346087
  23461561.30311                                
  20595559.131 6    260345.801 6    203804.75848  20595555.88548
  20066405.967 6  -3747918.344 6  -2905182.50848  20066401.84248
  23514931.678 6   -435615.648 6   -336662.52346  23514924.27546
  20465184.068 6   -756264.707 6   -586014.03947  20465182.68947
  21420422.631 6  -9230318.059 6  -7159546.14148  21420422.42048
  21292595.725 5  -1654657.055 5  -1284254.98047  21292591.96747
  22970084.225 5   2422958.227 5   2547886.96545  22970085.34645
 18  5 30  0 47 29.9980000  0  7G14G16G22G26G27G31G32                0.000341068
  20596064.092 6    262999.074 6    205872.23848  20596060.64748
  20064824.998 6  -3756226.406 6  -2911656.32448  20064821.12748
  23514810.326 5   -436249.242 5   -337156.21146  23514804.02546
  20464925.897 6   -757622.070 6   -587071.72747  20464923.90047
  21415820.092 6  -9254505.391 6  -7178393.41048  21415819.45948
  21291773.662 5  -1658976.281 5  -1287620.62147  21291770.21747
  22971864.693 3   2432315.582 3   2555178.38345  22971866.11545
 18  5 30  0 47 34.9980000  0  7G14G16G22G26G27G31G32                0.000336050
  20596571.357 6    265663.121 6    207948.11748  20596567.77548
  20063245.748 6  -3764526.039 6  -2918123.57848  20063241.77948
  23514690.404 5   -436880.461 5   -337648.09046  23514684.13146
  20464668.115 7   -758976.137 7   -588126.84847  20464666.81147
  21411218.639 6  -9278686.754 6  -7197236.03148  21411218.12748
  21290952.373 6  -1663293.633 6  -1290984.81347  21290949.33047
  22973646.498 4   2441676.258 4   2562472.39145  22973647.14745
 18  5 30  0 47 39.9980000  0  7G14G16G22G26G27G31G32                0.000331030
  20597080.170 6    268337.793 6    210032.27748  20597076.54548
  20061668.170 6  -3772817.391 6  -2924584.37148  20061663.75648
  23514570.123 5   -437509.434 5   -338138.19946  23514564.85446
  20464411.342 7   -760326.957 7   -589179.44547  20464409.93647
  21406618.162 6  -9302862.270 6  -7216074.09048  21406617.52548
  21290130.881 6  -1667609.254 6  -1294347.62947  21290128.33447
  22975428.522 4   2451040.082 4   2569768.85545  22975429.36945
 18  5 30  0 47 44.9980000  0  7G14G16G22G26G27G31G32                0.000326008
  20597590.842 6    271022.859 6    212124.54348  20597587.33448
  20060091.959 6  -3781100.680 6  -2931038.89148  20060087.82648
  23514451.178 5   -438136.465 5   -338626.80546  23514445.83046
  20464154.147 7   -761674.844 7   -590229.74647  20464153.31447
  21402018.818 6  -9327032.160 6  -7234907.77748  21402018.00648
  21289310.123 6  -1671923.410 6  -1297709.31347  21289307.24047
  22977210.443 4   2460406.773 4   2577067.55946  22977212.08046
 18  5 30  0 47 49.9980000  0  7G14G16G22G26G27G31G32                0.000320984
  20598103.647 6    273717.332 6    214224.13748  20598100.32248
  20058517.193 7  -3789376.906 7  -2937487.90248  20058512.67848
  23514332.514 5   -438762.469 5   -339114.62146  23514327.12746
  20463898.365 7   -763020.734 7   -591278.48847  20463897.54947
  21397420.217 6  -9351197.375 6  -7253737.82448  21397419.15448
  21288488.904 6  -1676237.074 6  -1301070.60547  21288486.21747
  22978992.678 4   2469775.340 4   2584367.70746  22978995.43246
 18  5 30  0 47 54.9980000  0  7G14G16G22G26G27G31G32                0.000315958
  20598618.326 6    276422.195 6    216331.81348  20598614.74048
  20056943.772 6  -3797645.070 6  -2943930.63748  20056939.27548
  23514213.623 5   -439386.488 5   -339600.86746  23514208.29946
  20463642.795 7   -764363.688 7   -592324.94547  20463642.10447
  21392823.076 6  -9375356.969 6  -7272563.48048  21392822.10048
  21287668.170 6  -1680549.195 6  -1304430.69147  21287665.63147
  22980777.193 4   2479146.813 4   2591670.14146  22980778.61546
 18  5 30  0 47 59.9980000  0  7G14G16G22G26G27G31G32                0.000310932
  20599135.014 6    279137.703 6    218447.78948  20599131.28748
  20055371.881 7  -3805904.949 7  -2950366.90248  20055367.45948
  23514095.279 5   -440008.332 5   -340085.42646  23514090.08446
  20463388.115 7   -765703.395 7   -593368.87947  20463387.13947
  21388226.412 6  -9399510.570 6  -7291384.46948  21388225.67848
  21286848.147 6  -1684859.539 6  -1307789.38747  21286844.95947
  22982560.897 4   2488521.406 4   2598974.98846  22982562.42846
 18  5 30  0 48  4.9980000  0  7G14G16G22G26G27G31G32                0.000305902
  20599653.436 6    281862.746 6    220571.20348  20599650.11948
  20053801.428 6  -3814157.563 6  -2956797.51248  20053797.04148
  23513977.006 5   -440629.063 5   -340569.11746  23513972.04146
  20463133.873 6   -767041.008 6   -594411.17647  20463132.87347
  21383631.373 6  -9423659.328 6  -7310201.68048  21383630.35048
  21286027.811 6  -1689169.148 6  -1311147.51647  21286024.67047
  22984345.506 3   2497898.066 3   2606281.46546  22984347.53746
 18  5 30  0 48  9.9980000  0  7G14G16G22G26G27G31G32                0.000300871
  20600173.482 6    284597.426 6    222702.12548  20600170.65848
  20052232.490 6  -3822402.891 6  -2963222.43848  20052227.88148
  23513859.084 5   -441248.621 5   -341051.89846  23513854.35746
  20462879.576 7   -768376.414 7   -595451.74647  20462878.96747
  21379037.076 6  -9447803.109 6  -7329015.00848  21379035.85748
  21285207.389 6  -1693477.926 6  -1314504.99647  21285204.91247
  22986129.537 4   2507276.820 4   2613589.57046  22986132.28746
 18  5 30  0 48 14.9980000  0  7G14G16G22G26G27G31G32                0.000295839
  20600696.342 6    287342.059 6    224840.78948  20600693.27548
  20050664.943 6  -3830640.574 6  -2969641.41448  20050660.52548
  23513741.772 5   -441866.676 5   -341533.49646  23513737.14746
  20462625.357 6   -769709.332 6   -596490.38347  20462624.68647
  21374443.404 6  -9471941.555 6  -7347824.17648  21374441.86948
  21284387.600 6  -1697785.551 6  -1317861.59047  21284384.93947
  22987915.139 3   2516658.012 3   2620899.53946  22987917.49446
 18  5 30  0 48 19.9980000  0  8G14G16G22G23G26G27G31G32             0.000290806
  20601220.272 6    290096.699 6    226987.26248  20601217.16648
  20049098.631 6  -3838870.582 6  -2976054.41048  20049094.47948
  23513624.397 5   -442483.219 5   -342013.93046  23513619.76846
  23079789.42811    -20899.95711                
  20462372.170 6   -771039.672 6   -597527.01247  20462371.76447
  21369851.311 6  -9496074.676 6  -7366629.20748  21369849.86148
  21283568.022 6  -1702092.016 6  -1321217.26247  21283565.19347
  22989700.732 3   2526041.676 3   2628211.46146  22989703.63546
 18  5 30  0 48 24.9980000  0  8G14G16G22G23G26G27G31G32             0.000285786
  20601746.232 6    292861.430 6    229141.59448  20601743.61548
  20047534.037 6  -3847092.828 6  -2982461.35248  20047529.53748
  23513506.350 5   -443098.113 5   -342493.08246  23513502.04546
  23075271.920 1    -44644.230 1                
  20462119.482 6   -772367.340 6   -598561.55547  20462119.47547
  21365259.764 6  -9520202.242 6  -7385429.89548  21365258.25248
  21282748.904 6  -1706397.188 6  -1324571.94547  21282745.32247
  22991488.186 4   2535427.957 4   2635525.42246  22991489.83446
 18  5 30  0 48 29.9980000  0  8G14G16G22G23G26G27G31G32             0.000280750
  20602274.553 6    295636.754 6    231304.17248  20602271.36148
  20045971.022 6  -3855306.863 6  -2988861.89148  20045966.61548
  23513390.061 5   -443710.879 5   -342970.58246  23513385.81846
  23070752.779 1    -68384.711 1                
  20461867.537 6   -773691.906 6   -599593.69947  20461867.29147
  21360669.561 6  -9544323.816 6  -7404225.91847  21360668.21347
  21281929.951 6  -1710700.543 6  -1327925.20347  21281925.86947
  22993274.006 3   2544817.223 3   2642841.70346  22993276.89346
 18  5 30  0 48 34.9980000  0  8G14G16G22G23G26G27G31G32             0.000275711
  20602804.772 6    298422.594 6    233474.95748  20602801.74848
  20044409.490 6  -3863512.684 6  -2995256.03948  20044404.97948
  23513274.217 5   -444321.566 5   -343446.44146  23513269.51046
  23066234.826 1    -92121.227 1                
  20461615.826 6   -775013.371 6   -600623.43847  20461615.37747
  21356080.748 6  -9568439.391 6  -7423017.27048  21356078.87348
  21281111.154 6  -1715002.141 6  -1331277.09447  21281106.90447
  22995061.412 4   2554209.527 4   2650160.36746  22995063.79146
 18  5 30  0 48 39.9980000  0  8G14G16G22G23G26G27G31G32             0.000270668
  20603336.787 6    301217.668 6    235652.93048  20603333.66648
  20042849.318 6  -3871711.578 6  -3001644.78548  20042844.91648
  23513157.967 5   -444931.539 5   -343921.77346  23513153.11946
  23061717.88111   -115855.14111                
  20461364.795 6   -776333.082 6   -601651.80547  20461364.29547
  21351492.303 6  -9592550.273 6  -7441804.96147  21351490.56447
  21280292.865 6  -1719303.277 6  -1334628.62547  21280288.90447
  22996849.490 4   2563603.484 4   2657480.33246  22996851.76046
 18  5 30  0 48 44.9980000  0  8G14G16G22G23G26G27G31G32             0.000265625
  20603870.740 6    304023.129 6    237839.00448  20603867.08848
  20041290.506 6  -3879902.449 6  -3008027.27748  20041286.34648
  23513042.123 5   -445539.555 5   -344395.55146  23513037.15446
  23057200.537 1   -139585.328 1                
  20461114.029 6   -777649.816 6   -602677.84447  20461113.81847
  21346905.623 6  -9616655.262 6  -7460588.07047  21346903.27247
  21279474.357 6  -1723602.727 6  -1337978.84847  21279470.25647
  22998637.584 4   2573000.289 4   2664802.50446  22998640.02246
 18  5 30  0 48 49.9980000  0  9G03G14G16G22G23G26G27G31G32          0.000260559
  23452050.98211    -29334.77011                
  20604406.373 6    306837.832 6    240032.27348  20604402.72948
  20039733.209 6  -3888086.379 6  -3014404.37148  20039729.18948
  23512926.061 4   -446146.883 4   -344868.82046  23512921.51846
  23052682.26411                                
  20460864.639 6   -778964.734 6   -603702.46547  20460863.35047
  21342319.381 6  -9640755.559 6  -7479367.52047  21342316.90447
  21278655.889 6  -1727901.676 6  -1341328.67247  21278652.33447
  23000425.686 4   2582398.781 4   2672125.98046  23000428.06446
 18  5 30  0 48 54.9980000  0  8G03G14G16G22G26G27G31G32             0.000255510
  23451501.498 1    -32214.988 1                
  20604943.818 6    309662.699 6    242233.46948  20604940.54148
  20038177.303 6  -3896262.496 6  -3020775.37148  20038173.39348
  23512810.607 5   -446752.531 5   -345340.78146  23512806.39746
  20460614.662 6   -780277.000 6   -604725.01247  20460613.56847
  21337733.881 6  -9664850.113 6  -7498142.49647  21337731.77247
  21277837.779 5  -1732199.180 5  -1344677.37947  21277834.14347
  23002214.654 4   2591799.871 4   2679451.49246  23002217.03346
 18  5 30  0 48 59.9980000  0  8G03G14G16G22G26G27G31G32             0.000250462
  23450954.006 1    -35087.820 1                
  20605483.350 6    312498.504 6    244443.18448  20605480.14348
  20036623.092 7  -3904430.004 7  -3027139.65648  20036619.42448
  23512696.154 5   -447355.684 5   -345810.79346  23512691.58446
  20460365.311 6   -781585.711 6   -605744.79747  20460364.28347
  21333150.162 6  -9688938.191 6  -7516912.41847  21333148.01847
  21277020.600 5  -1736494.434 5  -1348024.34047  21277016.68647
  23004004.811 4   2601204.309 4   2686779.62146  23004006.30346
 18  5 30  0 49  4.9980000  0  8G03G14G16G22G26G27G31G32             0.000245411
  23450410.740 1    -37953.832 1                
  20606024.975 6    315344.672 6    246660.98048  20606021.70148
  20035070.342 7  -3912589.434 7  -3033497.66048  20035066.81848
  23512582.061 5   -447956.988 5   -346279.36346  23512577.26846
  20460116.717 6   -782891.496 6   -606762.28547  20460116.03747
  21328567.912 6  -9713020.301 6  -7535677.69147  21328565.09247
  21276204.553 4  -1740788.004 4  -1351370.01247  21276199.98247
  23005794.522 4   2610611.656 4   2694110.01646  23005796.33046
 18  5 30  0 49  9.9980000  0  8G03G14G16G22G26G27G31G32             0.000240360
  23449865.732 1    -40813.184 1                
  20606568.873 6    318201.133 6    248886.78548  20606565.50648
  20033518.998 6  -3920740.922 6  -3039849.46948  20033515.37348
  23512468.381 5   -448556.488 5   -346746.50846  23512462.75646
  20459868.795 6   -784194.461 6   -607777.59847  20459868.11147
  21323985.873 6  -9737096.539 6  -7554438.38347  21323983.68947
  21275388.225 4  -1745079.902 4  -1354714.37147  21275383.83447
  23007583.498 3   2620021.656 3   2701442.46946  23007586.93946
 18  5 30  0 49 14.9980000  0  8G03G14G16G22G26G27G31G32             0.000235308
  23449322.350 1    -43665.672 1                
  20607114.076 6    321067.992 6    251120.70748  20607110.69748
  20031969.529 6  -3928884.309 6  -3046194.97348  20031965.61948
  23512353.217 4   -449154.105 4   -347212.17246  23512349.15846
  20459621.272 6   -785494.426 6   -608790.55947  20459620.80347
  21319405.873 6  -9761166.754 6  -7573194.39147  21319403.35747
  21274572.170 4  -1749370.098 4  -1358057.40247  21274567.34247
  23009375.428 3   2629434.535 3   2708777.14146  23009377.76846
 18  5 30  0 49 19.9980000  0  8G03G14G16G22G26G27G31G32             0.000230253
  23448780.78711    -46511.29311                
  20607661.615 7    323945.242 7    253362.72348  20607658.21748
  20030421.584 7  -3937019.621 7  -3052534.18048  20030417.72148
  23512240.912 4   -449749.789 4   -347676.31645  23512235.77945
  20459374.529 6   -786791.449 6   -609801.22347  20459373.61947
  21314826.264 6  -9785230.875 6  -7591945.64847  21314824.14747
  21273755.951 5  -1753658.570 5  -1361399.08247  21273751.36547
  23011167.857 3   2638850.262 3   2716114.05545  23011169.45545
 18  5 30  0 49 24.9980000  0  8G03G14G16G22G26G27G31G32             0.000225197
  23448240.78711                                
  20608211.272 7    326832.184 7    255612.28148  20608207.96348
  20028874.717 6  -3945147.625 6  -3058867.69148  20028871.04548
  23512127.373 3   -450344.367 3   -348139.66845  23512122.06445
  20459127.998 6   -788086.301 6   -610810.20347  20459127.69747
  21310247.818 6  -9809289.691 6  -7610692.77047  21310245.83047
  21272939.912 5  -1757946.074 5  -1364740.01247  21272935.84247
  23012959.920 2   2648268.047 2   2723452.57045  23012961.27945
 18  5 30  0 49 29.9980000  0  8G03G14G16G22G26G27G31G32             0.000220140
  23447704.89711                                
  20608762.272 7    329729.223 7    257869.71548  20608759.11948
  20027329.193 7  -3953267.820 7  -3065195.12148  20027325.77548
  23512014.248 4   -450937.363 4   -348601.69146  23512009.26446
  20458881.670 6   -789378.457 6   -611817.07447  20458881.84247
  21305671.342 6  -9833342.727 6  -7629435.39147  21305669.17047
  21272124.732 6  -1762232.117 6  -1368079.79347  21272120.75647
  23014753.014 2   2657688.426 2   2730793.10245  23014753.90445
 18  5 30  0 49 34.9980000  0  8G03G14G16G22G26G27G31G32             0.000215080
  23447166.45111                                
  20609315.264 7    332636.012 7    260134.74248  20609312.25648
  20025785.889 6  -3961380.625 6  -3071516.78948  20025781.95148
  23511901.873 4   -451529.105 4   -349062.79345  23511896.93245
  20458636.920 6   -790668.320 6   -612822.15247  20458636.40447
  21301094.725 6  -9857390.320 6  -7648173.77747  21301092.42447
  21271308.881 6  -1766517.086 6  -1371418.73847  21271305.26847
  23016546.381 2   2667110.906 2   2738135.27345  23016546.78745
 18  5 30  0 49 39.9980000  0  8G03G14G16G22G26G27G31G32             0.000210020
  23446632.873 1    -57830.754 1                
  20609870.537 7    335553.480 7    262408.09848  20609867.26448
  20024243.232 7  -3969485.086 7  -3077831.95348  20024239.59248
  23511788.889 4   -452118.727 4   -349522.22745  23511784.37345
  20458392.115 6   -791954.977 6   -613824.73447  20458392.54547
  21296519.982 6  -9881431.523 6  -7666907.18847  21296517.32647
  21270493.897 6  -1770799.961 6  -1374756.06347  21270490.46347
  23018339.131 2   2676536.449 2   2745479.83245  23018340.75245
 18  5 30  0 49 44.9980000  0  8G03G14G16G22G26G27G31G32             0.000204958
  23446101.850 1    -60642.652 1                
  20610427.725 7    338482.449 7    264690.40648  20610424.77548
  20022702.818 7  -3977580.293 7  -3084139.91448  20022699.04948
  23511676.826 4   -452705.336 4   -349979.35945  23511673.10045
  20458147.506 6   -793237.582 6   -614824.15247  20458148.23247
  21291946.506 6  -9905465.426 6  -7685634.89547  21291944.09247
  21269679.568 6  -1775079.836 6  -1378091.03947  21269676.21747
  23020134.381 2   2685965.945 2   2752827.43445  23020135.08445
 18  5 30  0 49 49.9980000  0  8G03G14G16G22G26G27G31G32             0.000199892
  23445573.97511                                
  20610987.053 6    341420.898 6    266980.10948  20610983.71748
  20021163.990 7  -3985668.383 7  -3090442.32048  20021160.17448
  23511566.467 4   -453291.000 4   -350435.71545  23511561.32645
  20457903.428 6   -794518.191 6   -615822.04747  20457904.47547
  21287373.756 6  -9929494.113 6  -7704358.55547  21287371.24447
  21268865.178 6  -1779358.852 6  -1381425.33247  21268861.85047
  23021929.217 2   2695397.301 2   2760176.53145  23021929.63945
 18  5 30  0 49 54.9980000  0  8G03G14G16G22G26G27G31G32             0.000194828
  23445048.02911    -66248.84811                
  20611547.795 7    344368.816 7    269277.18448  20611544.77948
  20019626.443 7  -3993749.344 7  -3096739.17248  20019622.54948
  23511455.061 4   -453875.809 4   -350891.42246  23511450.31146
  20457660.584 6   -795796.793 6   -616818.36747  20457661.32647
  21282802.256 6  -9953517.578 6  -7723078.13748  21282799.83048
  21268051.318 6  -1783636.961 6  -1384758.92647  21268047.99047
  23023724.529 2   2704830.547 2   2767527.07445  23023725.15045
 18  5 30  0 49 59.9980000  0  7G14G16G22G26G27G31G32                0.000189760
  20612110.482 7    347326.250 7    271581.66848  20612107.71748
  20018089.811 7  -4001823.063 7  -3103030.37548  20018085.71748
  23511343.889 4   -454459.586 4   -351346.32446  23511339.24446
  20457417.740 6   -797073.340 6   -617813.09047  20457417.91247
  21278232.154 6  -9977535.664 6  -7741793.52048  21278229.41248
  21267237.162 6  -1787914.141 6  -1388091.78547  21267233.84247
  23025520.795 1   2714265.707 1   2774879.10945  23025520.37745
 18  5 30  0 50  4.9980000  0  7G14G16G22G26G27G31G32                0.000184690
  20612675.373 7    350294.609 7    273894.67248  20612672.52548
  20016555.287 7  -4009888.188 7  -3109314.89548  20016550.89348
  23511233.592 4   -455041.055 4   -351799.43446  23511228.75646
  20457175.006 6   -798346.469 6   -618805.13747  20457176.01047
  21273662.756 6 -10001547.027 6  -7760503.67647  21273660.37347
  21266423.490 6  -1792188.918 6  -1391422.78947  21266420.33447
  23027314.709 1   2723704.160 1   2782233.73045  23027316.16645
 18  5 30  0 50  9.9980000  0  7G14G16G22G26G27G31G32                0.000179619
  20613242.490 7    353273.094 7    276215.56348  20613239.26048
  20015022.076 7  -4017945.531 7  -3115593.34048  20015017.68948
  23511123.576 4   -455620.879 4   -352251.26246  23511118.11146
  20456933.545 6   -799616.875 6   -619795.06347  20456934.47147
  21269094.678 6 -10025552.402 6  -7779209.15647  21269092.34647
  21265610.193 6  -1796462.113 6  -1394752.55547  21265607.15847
  23029112.670 1   2733145.156 1   2789590.32845  23029112.92845
 18  5 30  0 50 14.9980000  0  7G14G16G22G26G27G31G32                0.000174547
  20613811.287 6    356262.164 6    278544.70348  20613808.29148
  20013490.373 7  -4025994.594 7  -3121865.33648  20013486.08848
  23511013.943 5   -456198.609 5   -352701.48846  23511008.45546
  20456692.131 6   -800884.109 6   -620782.52047  20456693.52547
  21264527.803 6 -10049551.266 6  -7797909.57848  21264525.41648
  21264797.232 6  -1800733.207 6  -1398080.68847  21264794.78747
  23030908.69311   2742589.02711   2796949.19555  23030909.60455
 18  5 30  0 50 19.9980000  0  7G14G16G22G26G27G31G32                0.000169474
  20614381.670 6    359260.836 6    280881.32048  20614378.72948
  20011960.107 7  -4034036.395 7  -3128131.66848  20011955.65448
  23510904.639 5   -456775.426 5   -353150.93846  23510899.24046
  20456451.600 6   -802149.254 6   -621768.34447  20456452.38147
  21259962.014 6 -10073544.684 6  -7816605.73048  21259959.79148
  21263984.623 6  -1805003.250 6  -1401407.98847  21263981.79147
  23032706.06111   2752034.97311   2804309.64555  23032707.61155
 18  5 30  0 50 24.9980000  0  7G14G16G22G26G27G31G32                0.000164398
  20614954.748 6    362269.883 6    283226.02348  20614950.98648
  20010431.068 7  -4042070.141 7  -3134391.73848  20010426.91648
  23510794.787 4   -457350.367 4   -353598.94546  23510789.50646
  20456211.795 6   -803411.516 6   -622751.94147  20456212.01447
  21255397.561 6 -10097531.801 6  -7835297.00048  21255395.06148
  21263172.256 6  -1809271.375 6  -1404733.80947  21263169.74447
  23034503.279 1   2761483.617 1   2811672.20345  23034505.72545
 18  5 30  0 50 29.9980000  0  7G14G16G22G26G27G31G32                0.000159321
  20615528.943 6    365288.980 6    285578.56348  20615525.83848
  20008903.998 7  -4050096.160 7  -3140645.77748  20008899.06148
  23510685.647 5   -457923.879 5   -354045.85546  23510680.94746
  20455971.889 6   -804671.156 6   -623733.48847  20455972.41247
  21250834.162 6 -10121512.918 6  -7853983.58248  21250832.24448
  21262359.389 5  -1813537.992 5  -1408058.46147  21262357.41647
  23036301.24811                                
 18  5 30  0 50 34.9980000  0  7G14G16G22G26G27G31G32                0.000154242
  20616105.326 6    368318.246 6    287939.01648  20616102.17048
  20007378.381 7  -4058114.313 7  -3146893.69148  20007373.40048
  23510575.740 4   -458495.789 4   -354491.53546  23510572.02546
  20455732.615 6   -805928.168 6   -624713.01647  20455733.25247
  21246271.717 6 -10145487.887 6  -7872665.37148  21246269.90448
  21261548.154 5  -1817802.879 5  -1411381.75047  21261545.70547
  23038102.678 3   2780387.281 3                
 18  5 30  0 50 39.9980000  0  7G14G16G22G26G27G31G32                0.000149160
  20616684.342 6    371358.117 6    290307.73848  20616680.71348
  20005854.225 7  -4066124.195 7  -3153135.15248  20005849.25648
  23510468.311 5   -459065.695 5   -354935.58246  23510463.21746
  20455494.084 6   -807181.984 6   -625690.03947  20455494.84647
  21241710.272 6 -10169456.320 6  -7891342.08648  21241708.95548
  21260737.412 5  -1822065.633 5  -1414703.39147  21260735.14347
  23039901.51412   2789842.96512                
 18  5 30  0 50 44.9980000  0  7G14G16G22G26G27G31G32                0.000144081
  20617264.357 6    374407.293 6    292683.71148  20617260.75648
  20004331.092 7  -4074127.059 7  -3159371.15648  20004326.49048
  23510359.592 5   -459634.867 5   -355379.13746  23510354.41646
  20455256.014 6   -808433.914 6   -626665.54747  20455256.30747
  21237150.475 6 -10193419.398 6  -7910014.60948  21237149.34648
  21259925.850 5  -1826327.563 5  -1418024.38347  21259923.63147
  23041702.982 2   2799301.234 2                
 18  5 30  0 50 49.9980000  0  7G14G16G22G26G27G31G32                0.000138998
  20617846.420 6    377467.016 6    295067.91048  20617843.11948
  20002809.490 7  -4082121.695 7  -3165600.74248  20002805.20148
  23510252.100 5   -460202.141 5   -355821.15246  23510246.64746
  20455018.092 6   -809682.809 6   -627638.70347  20455018.81847
  21232592.232 6 -10217375.906 6  -7928682.02348  21232590.61548
  21259115.756 5  -1830587.363 5  -1421343.71947  21259113.36147
  23043502.225 3   2808762.391 3                
 18  5 30  0 50 54.9980000  0  7G14G16G22G26G27G31G32                0.000133913
  20618430.795 7    380538.086 7    297460.94948  20618427.09648
  20001290.451 7  -4090107.340 7  -3171823.32448  20001285.51848
  23510144.592 5   -460766.648 5   -356261.03146  23510139.40446
  20454781.264 6   -810927.809 6   -628608.82847  20454781.48247
  21228034.576 6 -10241325.066 6  -7947343.70348  21228033.15448
  21258305.873 5  -1834844.313 5  -1424660.83246  21258303.22946
  23045304.428 3   2818227.293 3                
 18  5 30  0 50 59.9980000  0  7G14G16G22G26G27G31G32                0.000128828
  20619016.795 6    383618.734 6    299861.44148  20619013.36148
  19999771.482 7  -4098085.730 7  -3178040.25448  19999767.24048
  23510036.904 5   -461330.168 5   -356700.12546  23510031.50646
  20454545.029 6   -812170.770 6   -629577.36747  20454545.05747
  21223478.201 6 -10265268.609 6  -7966001.01248  21223476.66248
  21257496.186 5  -1839099.996 5  -1427976.96147  21257492.56847
  23047106.811 4   2827694.055 4                
 18  5 30  0 51  4.9980000  0  7G14G16G22G26G27G31G32                0.000123739
  20619605.365 6    386708.156 6    302268.78148  20619601.61148
  19998254.600 7  -4106057.652 7  -3184252.14548  19998250.36548
  23509930.131 5   -461893.496 5   -357139.10946  23509924.20946
  20454308.787 6   -813412.395 6   -630544.88747  20454309.16247
  21218922.475 6 -10289207.223 6  -7984654.48048  21218921.85448
  21256686.600 5  -1843355.324 5  -1431292.76247  21256683.10447
  23048907.975 4   2837161.988 4                
 18  5 30  0 51  9.9980000  0  7G14G16G22G26G27G31G32                0.000118650
  20620195.240 6    389808.594 6    304684.70348  20620191.31148
  19996739.264 7  -4114020.930 7  -3190457.29348  19996734.90848
  23509822.826 5   -462454.465 5   -357576.24246  23509817.40046
  20454073.654 6   -814650.527 6   -631509.69146  20454073.27546
  21214368.615 6 -10313138.758 6  -8003302.42648  21214367.65448
  21255877.068 5  -1847608.129 5  -1434606.64147  21255873.11547
  23050710.764 3   2846633.230 3                
 18  5 30  0 51 14.9980000  0  7G14G16G22G26G27G31G32                0.000113560
  20620786.623 6    392919.145 6    307108.50448  20620783.33848
  19995225.467 7  -4121976.414 7  -3196656.38348  19995221.58048
  23509716.397 5   -463013.879 5   -358012.14146  23509710.88546
  20453837.506 6   -815886.000 6   -632472.38347  20453838.34647
  21209816.076 6 -10337064.070 6  -8021945.52748  21209814.55348
  21255068.162 5  -1851859.207 5  -1437919.16847  21255064.09647
  23052512.295 3   2856106.855 3                
 18  5 30  0 51 19.9980000  0  7G14G16G22G26G27G31G32                0.000108467
  20621380.639 6    396039.363 6    309539.82848  20621376.92448
  19993712.842 6  -4129924.492 6  -3202849.69548  19993708.83848
  23509610.061 5   -463572.266 5   -358447.24646  23509605.10046
  20453603.076 6   -817119.223 6   -633433.32047  20453604.29547
  21205264.295 6 -10360983.492 6  -8040584.04348  21205263.24048
  21254259.537 6  -1856108.879 6  -1441230.59447  21254254.88147
  23054315.881 3   2865582.602 3                
 18  5 30  0 51 24.9980000  0  8G03G14G16G22G26G27G31G32             0.000103373
  23435653.42811                                
  20621976.662 6    399170.031 6    311979.30148  20621972.88148
  19992201.897 7  -4137864.488 7  -3209036.70748  19992198.26048
  23509504.857 5   -464128.844 5   -358880.95746  23509499.55346
  20453369.076 6   -818349.500 6   -634391.98047  20453369.85447
  21200713.850 6 -10384896.328 6  -8059217.41448  21200713.22948
  21253451.232 6  -1860356.531 6  -1444540.46947  21253446.62747
  23056119.717 2   2875061.086 2                
 18  5 30  0 51 29.9980000  0  8G03G14G16G22G26G27G31G32             0.000098288
  23435146.701 1    -33098.227 1                
  20622574.615 6    402309.535 6    314425.66448  20622570.37348
  19990692.522 7  -4145797.957 7  -3215218.64148  19990688.42048
  23509398.553 5   -464685.215 5   -359314.51646  23509393.22946
  20453135.100 6   -819578.434 6   -635349.59047  20453136.46747
  21196164.147 6 -10408804.125 6  -8077846.87148  21196163.88548
  21252642.701 6  -1864603.691 6  -1447849.92246  21252638.12346
  23057922.537 3   2884540.781 3                
 18  5 30  0 51 34.9980000  0  8G03G14G16G22G26G27G31G32             0.000093193
  23434640.436 1    -35768.965 1                
  20623173.998 6    405459.609 6    316880.25848  20623170.19348
  19989184.553 7  -4153723.156 7  -3221394.12148  19989180.58848
  23509293.092 5   -465239.590 5   -359746.46146  23509287.96746
  20452902.279 6   -820804.172 6   -636304.69547  20452902.77547
  21191615.912 6 -10432705.102 6  -8096471.00048  21191615.75248
  21251835.693 6  -1868848.590 6  -1451157.62947  21251830.35047
  23059728.303 3   2894023.340 3                
 18  5 30  0 51 39.9980000  0  8G03G14G16G22G26G27G31G32             0.000088095
  23434132.779 1    -38433.801 1                
  20623775.162 6    408619.410 6    319342.44148  20623771.71748
  19987677.592 7  -4161640.957 7  -3227563.83648  19987673.54148
  23509186.639 5   -465792.867 5   -360177.58646  23509182.05346
  20452668.795 6   -822027.711 6   -637258.08647  20452670.86947
  21187068.279 6 -10456600.133 6  -8115090.49648  21187068.66248
  21251028.037 6  -1873092.086 6  -1454464.25447  21251022.94747
  23061534.029 3   2903508.043 3                
 18  5 30  0 51 44.9980000  0  8G03G14G16G22G26G27G31G32             0.000082994
  23433627.912 1    -41093.055 1                
  20624378.295 6    411788.285 6    321811.68848  20624374.50248
  19986171.998 7  -4169551.992 7  -3233728.28148  19986168.28348
  23509082.068 4   -466345.618 4   -360608.32846  23509077.36546
  20452436.897 6   -823249.555 6   -638210.15247  20452438.21347
  21182522.826 6 -10480489.789 6  -8133705.80548  21182522.45948
  21250220.443 6  -1877334.719 6  -1457770.19547  21250215.54147
  23063337.107 3   2912994.129 3                
 18  5 30  0 51 49.9980000  0  8G03G14G16G22G26G27G31G32             0.000077892
  23433127.850 1    -43745.773 1                
  20624983.100 6    414967.480 6    324288.98048  20624979.38548
  19984667.865 6  -4177454.988 6  -3239886.46948  19984664.38948
  23508977.201 4   -466896.770 4   -361037.80946  23508972.29546
  20452205.029 6   -824468.613 6   -639160.06647  20452206.13147
  21177977.834 6 -10504372.832 6  -8152315.96548  21177977.47948
  21249413.295 6  -1881575.328 6  -1461074.55946  21249408.88546
  23065143.123 2   2922482.715 2                
 18  5 30  0 51 54.9980000  0  8G03G14G16G22G26G27G31G32             0.000072790
  23432628.022 1    -46392.289 1                
  20625589.920 6    418156.488 6    326773.91848  20625586.13948
  19983165.795 6  -4185350.512 6  -3246038.82848  19983161.62748
  23508873.240 4   -467446.719 4   -361466.35946  23508868.19746
  20451973.467 6   -825685.340 6   -640108.16847  20451974.70547
  21173434.225 6 -10528249.746 6  -8170921.34048  21173433.68248
  21248606.240 6  -1885814.406 6  -1464377.73047  21248602.38147
  23066948.998 2   2931973.500 2                
 18  5 30  0 51 59.9980000  0  7G14G16G22G26G27G31G32                0.000067661
  20626198.709 6    421355.805 6    329266.89148  20626195.09648
  19981665.131 6  -4193238.066 6  -3252184.97748  19981660.70948
  23508767.803 4   -467995.039 4   -361893.62546  23508763.76446
  20451742.264 6   -826899.301 6   -641054.14547  20451743.43647
  21168891.873 6 -10552120.070 6  -8189521.59448  21168891.11148
  21247800.647 5  -1890051.473 5  -1467679.35247  21247796.51447
  23068756.115 2   2941466.906 2                
 18  5 30  0 52  4.9980000  0  7G14G16G22G26G27G31G32                0.000062553
  20626809.139 6    424565.121 6    331767.65648  20626805.72548
  19980165.584 6  -4201117.945 6  -3258325.14148  19980161.01448
  23508663.764 3   -468542.039 3   -362319.87546  23508660.03346
  20451511.678 6   -828110.703 6   -641998.09847  20451513.55347
  21164351.147 6 -10575984.047 6  -8208116.89148  21164350.77948
  21246994.826 5  -1894286.773 5  -1470979.60247  21246990.90447
  23070561.373 2   2950962.602 2                
 18  5 30  0 52  9.9980000  0  7G14G16G22G26G27G31G32                0.000057444
  20627422.154 6    427783.852 6    334275.75048  20627418.57648
  19978667.357 6  -4208990.691 6  -3264459.74648  19978662.89348
  23508559.420 3   -469088.293 3   -362745.52746  23508556.08046
  20451281.287 6   -829320.195 6   -642940.57847  20451283.26847
  21159810.522 6 -10599842.215 6  -8226707.67248  21159810.13148
  21246188.443 5  -1898520.957 5  -1474278.96547  21246185.44347
  23072370.365 2   2960460.023 2                
 18  5 30  0 52 14.9980000  0  7G14G16G22G26G27G31G32                0.000052332
  20628035.889 6    431011.887 6    336791.09848  20628032.23248
  19977170.201 6  -4216856.426 6  -3270588.89548  19977166.24848
  23508455.342 3   -469633.828 3   -363170.64846  23508452.34246
  20451051.764 6   -830527.809 6   -643881.58247  20451053.51447
  21155271.709 6 -10623694.645 6  -8245293.96948  21155271.13548
  21245383.404 5  -1902754.000 5  -1477577.45347  21245380.19747
  23074177.326 2   2969959.078 2                
 18  5 30  0 52 19.9980000  0  7G14G16G22G26G27G31G32                0.000047216
  20628652.084 7    434250.027 7    339314.32448  20628649.01048
  19975674.975 6  -4224714.352 6  -3276711.95748  19975670.88948
  23508351.811 2   -470177.887 2   -363594.65246  23508348.88546
  20450822.287 6   -831732.754 6   -644820.47347  20450823.58847
  21150734.232 6 -10647540.551 6  -8263875.20748  21150733.47148
  21244578.568 5  -1906985.172 5  -1480874.50447  21244575.35047
  23075984.850 2   2979460.488 2   2820237.41456  23075985.73256
 18  5 30  0 52 24.9980000  0  7G14G16G22G26G27G31G32                0.000042103
  20629270.623 6    437498.945 6    341845.93848  20629267.07648
  19974181.217 6  -4232563.832 6  -3282828.43848  19974177.11148
  23508250.772 3   -470719.957 3   -364017.05546  23508246.43246
  20450593.115 6   -832934.441 6   -645756.84847  20450594.96747
  21146197.357 6 -10671379.266 6  -8282450.82048  21146196.63948
  21243774.022 5  -1911213.781 5  -1484169.54747  21243770.35747
  23077793.311 2   2988965.008 2   2827643.50446  23077794.80746
 18  5 30  0 52 29.9980000  0  7G14G16G22G26G27G31G32                0.000036987
  20629890.951 6    440757.363 6    344384.96148  20629886.96748
  19972689.318 6  -4240406.141 6  -3288939.32848  19972684.52948
  23508147.928 4   -471261.223 4   -364438.83646  23508143.20946
  20450365.334 6   -834134.105 6   -646691.64546  20450366.10046
  21141662.397 6 -10695212.047 6  -8301021.81648  21141661.38548
  21242969.209 6  -1915441.094 6  -1487463.57047  21242965.88947
  23079601.975 2   2998471.215 2   2835050.91446  23079604.07246
 18  5 30  0 52 34.9980000  0  8G14G16G22G23G26G27G31G32             0.000031872
  20630512.959 6    444026.164 6    346932.07448  20630508.83448
  19971197.897 6  -4248240.316 6  -3295043.87948  19971194.32648
  23508044.850 4   -471800.730 4   -364859.23046  23508040.96746
  22850274.64711   -109320.32411                
  20450138.147 6   -835330.863 6   -647624.15246  20450137.68246
  21137128.514 6 -10719037.965 6  -8319587.46948  21137128.01448
  21242165.428 6  -1919666.230 6  -1490755.89847  21242161.67847
  23081411.537 2   3007980.203 2   2842460.52346  23081412.90846
 18  5 30  0 52 39.9980000  0  8G14G16G22G23G26G27G31G32             0.000026751
  20631136.553 6    447305.375 6    349487.29748  20631132.62348
  19969708.482 6  -4256066.453 6  -3301142.17248  19969705.08448
  23507942.623 4   -472338.516 4   -365278.32046  23507938.35746
  22845792.64711   -132865.38711                
  20449909.943 6   -836524.719 6   -648554.44146  20449910.61146
  21132595.826 6 -10742856.988 6  -8338147.73448  21132595.20148
  21241361.920 6  -1923889.102 6  -1494046.46147  21241358.70147
  23083222.162 2   3017491.809 2   2849872.14845  23083223.50645
 18  5 30  0 52 44.9980000  0  8G14G16G22G23G26G27G31G32             0.000021660
  20631762.397 6    450594.230 6    352050.03548  20631758.90848
  19968220.537 6  -4263885.258 6  -3307234.74248  19968217.15848
  23507841.537 4   -472875.344 4   -365696.61346  23507835.94346
  22841309.029 1   -156406.367 1                
  20449683.014 6   -837716.461 6   -649483.05946  20449683.05746
  21128064.865 6 -10766669.875 6  -8356703.23848  21128064.07648
  21240557.834 6  -1928110.516 6  -1497335.86747  21240555.11547
  23085032.201 2   3027005.301 2   2857285.25046  23085033.07246
 18  5 30  0 52 49.9980000  0  8G14G16G22G23G26G27G31G32             0.000016535
  20632389.717 6    453892.344 6    354619.99248  20632386.40048
  19966734.311 6  -4271697.086 6  -3313321.89148  19966730.38948
  23507738.834 4   -473411.590 4   -366114.48046  23507733.95146
  22836829.850 1   -179943.801 1                
  20449457.170 6   -838906.359 6   -650410.24646  20449456.98246
  21123534.436 6 -10790476.906 6  -8375254.16448  21123533.71348
  21239755.459 6  -1932330.813 6  -1500624.41447  21239751.99447
  23086842.803 2   3036520.379 2   2864699.57446  23086844.24846
 18  5 30  0 52 54.9980000  0  8G14G16G22G23G26G27G31G32             0.000011410
  20633019.662 6    457200.203 6    357197.53948  20633016.14348
  19965249.279 6  -4279501.488 6  -3319403.24648  19965245.49448
  23507637.115 4   -473946.797 4   -366531.56646  23507632.54146
  22832351.139 1   -203477.008 1                
  20449230.873 6   -840094.043 6   -651335.73446  20449230.86946
  21119005.701 6 -10814277.668 6  -8393800.20748  21119004.63148
  21238952.264 6  -1936549.473 6  -1503911.69147  21238949.37747
  23088653.522 1   3046037.391 1   2872115.41046  23088655.18946
 18  5 30  0 52 59.9980000  0  8G14G16G22G23G26G27G31G32             0.000006283
  20633650.732 6    460518.305 6    359783.05948  20633647.44748
  19963765.842 6  -4287298.023 6  -3325478.47348  19963761.62748
  23507535.115 4   -474480.453 4   -366947.40246  23507530.94746
  22827873.428 1   -227005.742 1                
  20449005.350 6   -841278.984 6   -652259.07846  20449005.08046
  21114477.357 6 -10838071.578 6  -8412340.92248  21114476.79948
  21238150.334 6  -1940766.008 6  -1507197.31347  21238146.91247
  23090465.568 2   3055556.957 2   2879533.25046  23090466.44346
 18  5 30  0 53  4.9980000  0  8G14G16G22G23G26G27G31G32             0.000001154
  20634284.318 6    463846.766 6    362376.66048  20634281.07248
  19962283.873 6  -4295086.496 6  -3331547.40248  19962279.49848
  23507433.459 4   -475012.520 4   -367362.01246  23507429.67846
  22823397.514 1   -250529.609 1                
  20448780.287 6   -842461.051 6   -653180.18046  20448780.34246
  21109951.209 6 -10861858.570 6  -8430876.23848  21109950.32648
  21237348.248 6  -1944980.324 6  -1510481.19947  21237344.91247
  23092277.342 1   3065079.109 1   2886953.10545  23092278.67845
 18  5 30  0 53  9.9980000  0  8G14G16G22G23G26G27G31G32            -0.000003975
  20634919.365 6    467185.516 6    364978.28148  20634916.26048
  19960803.154 6  -4302866.953 6  -3337610.09448  19960798.66248
  23507332.209 4   -475543.012 4   -367775.37946  23507328.33446
  22818922.647 1   -274048.754 1                
  20448555.959 6   -843640.273 6   -654099.08246  20448556.31446
  21105425.662 6 -10885638.613 6  -8449406.14148  21105425.17448
  21236546.865 6  -1949192.426 6  -1513763.35947  21236543.35747
  23094089.951 1   3074603.914 1   2894374.95745  23094090.60045
 18  5 30  0 53 14.9980000  0  8G14G16G22G23G26G27G31G32            -0.000009106
  20635556.787 6    470534.516 6    367587.88348  20635553.47948
  19959323.857 6  -4310639.465 6  -3343666.59848  19959319.33448
  23507231.209 3   -476071.926 3   -368187.53945  23507227.79545
  22814449.123 1   -297563.219 1                
  20448332.154 6   -844816.742 6   -655015.78146  20448332.60746
  21100901.795 6 -10909411.750 6  -8467930.66448  21100901.20548
  21235745.912 6  -1953402.395 6  -1517043.85247  21235742.09647
  23095902.014 1   3084131.156 1   2901798.79745  23095904.07245
 18  5 30  0 53 19.9980000  0  8G14G16G22G23G26G27G31G32            -0.000014236
  20636196.443 6    473893.945 6    370205.61348  20636192.95148
  19957846.397 6  -4318403.867 6  -3349716.78948  19957842.00248
  23507131.936 3   -476599.121 3   -368598.34845  23507127.60045
  22809973.623 2   -321072.719 2                
  20448108.904 6   -845990.242 6   -655930.20346  20448109.37346
  21096379.545 6 -10933177.773 6  -8486449.64148  21096378.34248
  21234945.178 6  -1957609.996 6  -1520322.50847  21234941.55347
  23097717.264 1   3093661.055 1   2909224.64146  23097717.39746
 18  5 30  0 53 24.9980000  0  9G03G14G16G22G23G26G27G31G32         -0.000019369
  23423752.57612     -6823.23012                
  20636837.295 6    477263.414 6    372831.16448  20636834.10448
  19956370.467 6  -4326160.441 6  -3355760.87548  19956365.92448
  23507031.631 4   -477124.945 4   -369008.09445  23507027.43645
  22805499.318 2   -344577.574 2                
  20447886.326 6   -847161.125 6   -656842.56646  20447886.57246
  21091857.732 6 -10956937.012 6  -8504963.32848  21091857.17848
  21234144.889 6  -1961815.523 6  -1523599.53147  21234141.34247
  23099529.811 1   3103193.383 1   2916652.37946  23099531.30746
 18  5 30  0 53 29.9980000  0  9G03G14G16G22G23G26G27G31G32         -0.000024502
  23423270.490 1     -9350.168 1                
  20637480.068 6    480642.637 6    375464.30948  20637477.36548
  19954896.248 6  -4333909.621 6  -3361799.19148  19954891.60048
  23506931.545 4   -477649.762 4   -369417.05545  23506927.12745
  22801027.686 2   -368078.219 2                
  20447663.772 6   -848329.781 6   -657753.21946  20447664.06146
  21087337.998 6 -10980689.816 6  -8523472.01248  21087337.33048
  21233345.029 6  -1966019.395 6  -1526875.28147  21233341.32247
  23101344.647 1   3112727.625 1   2924081.64845  23101345.53745
 18  5 30  0 53 34.9980000  0  9G03G14G16G22G23G26G27G31G32         -0.000029638
  23422792.772 1    -11870.180 1                
  20638125.389 6    484032.480 6    378105.73848  20638122.86148
  19953423.100 6  -4341650.500 6  -3367831.03948  19953418.71348
  23506831.467 4   -478172.746 4   -369824.52045  23506827.09245
  22796555.162 2   -391573.766 2                
  20447441.982 6   -849495.359 6   -658661.44946  20447442.24046
  21082818.795 6 -11004435.270 6  -8541974.96548  21082818.50248
  21232545.482 6  -1970220.707 6  -1530149.03147  21232542.41247
  23103159.56112                   2931513.08255  23103160.71355
 18  5 30  0 53 39.9980000  0  9G03G14G16G22G23G26G27G31G32         -0.000034777
  23422316.443 1    -14384.043 1                
  20638772.342 6    487432.324 6    380754.96548  20638769.75648
  19951951.381 6  -4349383.637 6  -3373856.85948  19951946.70148
  23506732.498 4   -478694.397 4   -370231.03945  23506727.79145
  22792084.092 1   -415064.656 1                
  20447220.639 6   -850658.391 6   -659567.73846  20447221.02246
  21078301.904 6 -11028173.945 6  -8560472.63348  21078300.97548
  21231746.170 6  -1974419.977 6  -1533421.19547  21231743.21347
  23104975.006 3   3131804.082 3   2938946.37545  23104976.24845
 18  5 30  0 53 44.9980000  0  9G03G14G16G22G23G26G27G31G32         -0.000039915
  23421836.64711    -16891.35911                
  20639421.623 6    490842.309 6    383412.07848  20639418.48648
  19950481.303 6  -4357108.934 6  -3379876.57048  19950477.13148
  23506633.873 4   -479214.605 4   -370636.37945  23506628.40045
  22787611.100 1   -438550.879 1                
  20446999.615 6   -851818.762 6   -660471.95346  20447000.49846
  21073786.014 6 -11051905.719 6  -8578964.92648  21073784.64348
  21230947.326 6  -1978617.133 6  -1536691.71947  21230944.62747
  23106790.514 3   3141345.770 3   2946381.44146  23106792.15846
 18  5 30  0 53 49.9980000  0  9G03G14G16G22G23G26G27G31G32         -0.000045055
  23421361.24011    -19392.22711                
  20640071.701 6    494262.582 6    386077.21548  20640069.35748
  19949012.709 6  -4364826.285 6  -3385890.09048  19949008.22548
  23506535.014 5   -479733.348 5   -371040.62145  23506529.51445
  22783143.264 1   -462032.164 1                
  20446779.014 6   -852976.328 6   -661373.96146  20446780.29946
  21069270.709 6 -11075630.371 6  -8597451.66048  21069270.02948
  21230149.037 6  -1982812.020 6  -1539960.45347  21230146.47547
  23108606.670 3   3150890.012 3   2953818.50446  23108608.65046
 18  5 30  0 53 54.9980000  0  9G03G14G16G22G23G26G27G31G32         -0.000050198
  23420888.74811                                
  20640725.014 6    497692.883 6    388750.17648  20640721.83848
  19947545.732 7  -4372535.914 7  -3391897.59848  19947541.46348
  23506435.975 4   -480250.852 4   -371443.86346  23506430.77946
  22778675.537 1   -485508.805 1                
  20446559.451 6   -854131.387 6   -662274.02746  20446560.51846
  21064757.990 6 -11099348.195 6  -8615933.08248  21064756.61948
  21229351.022 6  -1987004.867 6  -1543227.61747  21229348.54547
  23110422.850 3   3160436.469 3   2961257.30946  23110425.25246
 18  5 30  0 53 59.9980000  0  8G14G16G22G23G26G27G31G32            -0.000055340
  20641379.670 6    501134.242 6    391431.75048  20641376.95148
  19946080.131 7  -4380236.770 7  -3397898.25848  19946076.04948
  23506337.701 4   -480766.020 4   -371845.28546  23506332.26846
  22774207.818 1   -508979.785 1                
  20446340.428 6   -855282.824 6   -663171.21146  20446341.43946
  21060245.990 6 -11123058.117 6  -8634408.34448  21060244.72148
  21228553.647 6  -1991194.629 6  -1546492.37147  21228550.94347
  23112240.639 3   3169986.195 3   2968698.59046  23112242.74446
 18  5 30  0 54  4.9980000  0  8G14G16G22G23G26G27G31G32            -0.000060503
  20642036.522 6    504586.035 6    394121.44948  20642033.99448
  19944616.482 6  -4387929.465 6  -3403892.57048  19944612.06448
  23506240.709 4   -481279.469 4   -372245.39145  23506234.26445
  22769741.82611                                
  20446121.545 6   -856431.340 6   -664066.16846  20446122.39746
  21055734.693 6 -11146760.723 6  -8652877.89548  21055734.19748
  21227756.943 6  -1995381.910 6  -1549755.19147  21227753.93247
  23114058.592 4   3179538.617 4   2976142.03146  23114060.31146
 18  5 30  0 54  9.9980000  0  8G14G16G22G23G26G27G31G32            -0.000065630
  20642695.865 6    508047.961 6    396819.04348  20642692.66648
  19943154.022 6  -4395614.352 6  -3409880.78548  19943149.97548
  23506144.154 4   -481791.563 4   -372644.46545  23506136.76045
  22765276.95911   -555906.57011                
  20445903.467 6   -857577.152 6   -664958.98046  20445904.33046
  21051225.920 6 -11170456.324 6  -8671341.99648  21051224.62348
  21226960.522 6  -1999567.000 6  -1553016.31347  21226957.55347
  23115876.725 3   3189093.371 3   2983587.27745  23115878.71345
 18  5 30  0 54 14.9980000  0  8G14G16G22G23G26G27G31G32            -0.000070793
  20643355.678 6    511519.164 6    399523.87548  20643353.08448
  19941692.701 6  -4403292.316 6  -3415863.61748  19941688.79148
  23506047.342 5   -482303.230 5   -373043.14546  23506039.40046
  22760812.32611                                
  20445686.014 6   -858721.230 6   -665850.47346  20445686.26046
  21046718.193 6 -11194145.789 6  -8689801.30948  21046716.74848
  21226165.147 6  -2003750.758 6  -1556276.39147  21226160.83447
  23117694.303 3   3198649.598 3   2991033.66045  23117696.76845
 18  5 30  0 54 19.9980000  0  8G14G16G22G23G26G27G31G32            -0.000075924
  20644018.506 6    515000.984 6    402236.98448  20644015.58848
  19940233.248 7  -4410961.961 7  -3421839.96548  19940229.39748
  23505949.193 5   -482812.980 5   -373440.35246  23505941.78346
  22756350.13911   -602815.26611                
  20445468.006 6   -859862.184 6   -666739.50846  20445467.98646
  21042211.264 6 -11217827.680 6  -8708254.71948  21042209.84648
  21225369.561 6  -2007931.824 6  -1559534.36347  21225364.80747
  23119513.936 3   3208208.648 3   2998482.27045  23119516.09245
 18  5 30  0 54 24.9980000  0  7G14G16G22G26G27G31G32               -0.000081089
  20644683.100 6    518493.328 6    404958.29347  20644679.93647
  19938775.045 7  -4418623.363 7  -3427809.89148  19938771.07648
  23505851.397 4   -483320.898 4   -373836.14146  23505845.47546
  20445251.818 6   -861000.059 6   -667626.10946  20445251.44746
  21037706.959 6 -11241502.023 6  -8726702.23048  21037705.23648
  21224574.147 6  -2012110.188 6  -1562790.23046  21224569.27246
  23121333.100 3   3217770.367 3   3005932.93445  23121335.15845
 18  5 30  0 54 29.9980000  0  7G14G16G22G26G27G31G32               -0.000086239
  20645349.662 6    521995.566 6    407687.29748  20645346.36148
  19937318.990 7  -4426277.180 7  -3433773.91048  19937314.61548
  23505755.818 4   -483827.680 4   -374231.04746  23505749.26046
  20445035.662 6   -862135.523 6   -668510.90646  20445035.11946
  21033202.857 6 -11265169.547 6  -8745144.47348  21033201.35448
  21223779.662 6  -2016286.531 6  -1566044.53047  21223774.57647
  23123153.397 3   3227334.355 3   3013385.34845  23123155.97945
 18  5 30  0 54 34.9980000  0  7G14G16G22G26G27G31G32               -0.000091391
  20646017.842 6    525507.063 6    410423.52048  20646014.88148
  19935863.881 7  -4433924.027 7  -3439732.49648  19935859.83848
  23505660.037 3   -484333.988 3   -374625.59046  23505653.27246
  20444819.928 5   -863269.223 5   -669394.27746  20444819.13946
  21028700.545 6 -11288830.758 6  -8763581.76648  21028698.26048
  21222984.881 6  -2020461.613 6  -1569297.83647  21222980.02947
  23124974.139 3   3236899.781 3   3020838.93045  23124976.12345
 18  5 30  0 54 39.9980000  0  7G14G16G22G26G27G31G32               -0.000096544
  20646688.217 6    529028.680 6    413167.63348  20646685.38948
  19934410.022 6  -4441563.012 6  -3445684.94948  19934405.63948
  23505564.014 4   -484838.953 4   -375019.09046  23505557.36146
  20444605.068 5   -864400.297 5   -670275.64846  20444603.45946
  21024199.037 6 -11312484.844 6  -8782013.52048  21024197.14748
  21222191.139 6  -2024634.359 6  -1572549.33247  21222185.81447
  23126794.40413   3246466.44113   3028293.13756  23126797.26056
 18  5 30  0 54 44.9980000  0  7G14G16G22G26G27G31G32               -0.000101698
  20647360.201 6    532560.133 6    415919.40248  20647357.07248
  19932958.217 7  -4449194.492 7  -3451631.56348  19932953.49448
  23505468.311 4   -485342.895 4   -375411.75846  23505460.88146
  20444390.201 5   -865529.039 5   -671155.19146  20444389.06146
  21019699.147 6 -11336132.074 6  -8800439.92648  21019697.40848
  21221397.225 6  -2028805.117 6  -1575799.25847  21221392.24447
  23128616.436 3   3256036.172 3   3035750.17246  23128618.48246
 18  5 30  0 54 49.9980000  0  7G14G16G22G26G27G31G32               -0.000106853
  20648033.998 6    536101.723 6    418679.08248  20648031.50248
  19931507.100 7  -4456818.039 7  -3457571.99248  19931503.09648
  23505371.459 4   -485845.516 4   -375803.41446  23505365.61546
  20444175.818 5   -866655.090 5   -672032.64146  20444174.87746
  21015200.647 6 -11359772.117 6  -8818860.73848  21015198.79148
  21220604.053 6  -2032973.613 6  -1579047.44547  21220598.84247
  23130437.77213   3265608.24213   3043208.85256  23130440.02256
 18  5 30  0 54 54.9980000  0  7G14G16G22G26G27G31G32               -0.000112011
  20648710.068 6    539654.152 6    421447.19948  20648707.16648
  19930058.092 7  -4464433.000 7  -3463505.73848  19930054.17048
  23505277.232 4   -486346.047 4   -376193.44146  23505270.18946
  20443962.537 6   -867777.809 6   -672907.48046  20443961.02546
  21010703.912 6 -11383404.172 6  -8837275.32848  21010701.93248
  21219810.967 6  -2037139.066 6  -1582293.25447  21219805.60447
  23132259.537 3   3275183.344 3   3050669.94946  23132261.63946
 18  5 30  0 54 59.9980000  0  7G14G16G22G26G27G31G32               -0.000117168
  20649388.092 6    543217.664 6    424223.95348  20649385.49048
  19928610.998 7  -4472039.254 7  -3469432.69148  19928606.58048
  23505182.857 4   -486844.285 4   -376581.70346  23505175.90046
  20443749.490 6   -868896.938 6   -673779.49646  20443748.69346
  21006208.193 6 -11407028.055 6  -8855683.53548  21006206.40848
  21219019.068 6  -2041301.281 6  -1585536.53547  21219013.33047
  23134081.623 3   3284761.699 3   3058133.55546  23134084.01846
 18  5 30  0 55  4.9980000  0  7G14G16G22G26G27G31G32               -0.000122328
  20650067.943 6    546790.422 6    427007.90648  20650065.35448
  19927164.920 7  -4479638.551 7  -3475354.23048  19927160.22548
  23505087.139 4   -487342.078 4   -376969.59846  23505080.89346
  20443536.873 6   -870014.324 6   -674650.19546  20443536.45146
  21001713.928 6 -11430645.590 6  -8874086.80948  21001712.49848
  21218226.881 6  -2045462.063 6  -1588778.71147  21218222.10747
  23135904.772 3   3294341.457 3   3065598.27746  23135907.07646
 18  5 30  0 55  9.9980000  0  8G03G14G16G22G26G27G31G32            -0.000127485
  23413924.54511    -12162.07411                
  20650750.045 6    550373.684 6    429800.05148  20650747.58048
  19925720.272 7  -4487229.641 7  -3481269.36748  19925715.67848
  23504994.100 5   -487838.191 5   -377356.17646  23504986.60446
  20443324.772 6   -871128.703 6   -675518.54346  20443324.67846
  20997221.264 6 -11454255.449 6  -8892484.09848  20997219.79148
  21217435.850 6  -2049620.141 6  -1592018.77046  21217430.72146
  23137728.186 3   3303923.938 3   3073065.12145  23137730.24845
 18  5 30  0 55 14.9980000  0  8G03G14G16G22G26G27G31G32            -0.000132626
  23413465.272 1    -14554.836 1                
  20651433.365 6    553966.445 6    432599.59048  20651431.20948
  19924277.162 7  -4494813.551 7  -3487178.91448  19924272.31448
  23504898.982 4   -488333.660 4   -377742.25446  23504892.83446
  20443113.256 6   -872241.047 6   -676385.31646  20443113.27546
  20992729.826 6 -11477858.641 6  -8910876.19948  20992728.42848
  21216644.881 6  -2053776.484 6  -1595257.47347  21216639.63547
  23139552.920 3   3313508.047 3   3080533.24246  23139554.32646
 18  5 30  0 55 19.9980000  0  8G03G14G16G22G26G27G31G32            -0.000137789
  23413008.662 1    -16941.828 1                
  20652119.037 6    557568.641 6    435406.48848  20652116.30348
  19922835.475 7  -4502390.309 7  -3493082.87948  19922830.88548
  23504804.318 4   -488828.426 4   -378127.78546  23504798.64746
  20442902.037 6   -873351.445 6   -677250.55946  20442902.87346
  20988239.365 6 -11501455.188 6  -8929263.12148  20988238.59248
  21215854.193 6  -2057931.152 6  -1598494.87946  21215848.76846
  23141376.772 3   3323093.797 3   3088002.61746  23141378.11146
 18  5 30  0 55 24.9980000  0  8G03G14G16G22G26G27G31G32            -0.000142956
  23412552.881 1    -19322.613 1                
  20652806.576 6    561180.973 6    438221.29348  20652803.90848
  19921395.068 7  -4509959.191 7  -3498980.71548  19921390.20148
  23504711.318 4   -489321.816 4   -378512.25046  23504705.36146
  20442690.990 6   -874459.121 6   -678113.68046  20442692.10446
  20983750.373 6 -11525044.336 6  -8947644.27348  20983749.63948
  21215064.186 6  -2062083.391 6  -1601730.36746  21215058.65446
  23143201.272 3   3332681.828 3   3095473.78145  23143202.60045
 18  5 30  0 55 29.9980000  0  7G14G16G22G26G27G31G32               -0.000148146
  20653495.912 6    564803.656 6    441044.15648  20653493.27548
  19919956.709 7  -4517520.031 7  -3504872.27348  19919952.11548
  23504617.873 5   -489813.742 5   -378895.58646  23504611.67846
  20442481.436 6   -875563.984 6   -678974.60246  20442482.43246
  20979262.686 6 -11548625.914 6  -8966019.53148  20979261.77548
  21214274.389 6  -2066233.055 6  -1604963.87546  21214268.57646
  23145027.022 3   3342272.461 3   3102946.98046  23145027.14346
 18  5 30  0 55 34.9980000  0  7G14G16G22G26G27G31G32               -0.000153315
  20654187.006 6    568435.609 6    443874.23448  20654184.49448
  19918519.147 7  -4525073.914 7  -3510758.42648  19918514.75648
  23504524.240 5   -490305.164 5   -379278.53146  23504518.52546
  20442270.764 6   -876667.098 6   -679834.18446  20442273.31146
  20974776.764 6 -11572201.016 6  -8984389.73848  20974775.70148
  21213484.607 6  -2070381.152 6  -1608196.16447  21213479.27247
  23146852.490 3   3351864.469 3   3110421.25446  23146852.51846
 18  5 30  0 55 39.9980000  0  7G14G16G22G26G27G31G32               -0.000158484
  20654880.412 6    572077.578 6    446712.12948  20654877.63548
  19917082.889 7  -4532620.043 7  -3516638.52048  19917078.46748
  23504430.756 5   -490795.422 5   -379660.54746  23504425.62746
  20442061.850 6   -877767.633 6   -680691.74646  20442064.08446
  20970291.990 6 -11595768.734 6  -9002754.20748  20970290.66248
  21212696.287 6  -2074526.910 6  -1611426.62146  21212690.62346
  23148677.881 3   3361458.660 3   3117897.25046  23148678.19346
 18  5 30  0 55 44.9980000  0  7G14G16G22G26G27G31G32               -0.000163654
  20655575.201 6    575728.992 6    449557.37548  20655572.04148
  19915647.803 7  -4540158.988 7  -3522513.02748  19915643.95948
  23504338.006 5   -491285.004 5   -380042.06646  23504332.88146
  20441852.279 6   -878866.160 6   -681547.76646  20441855.18646
  20965808.467 6 -11619329.680 6  -9021113.38748  20965807.52948
  21211908.061 6  -2078670.867 6  -1614655.69947  21211902.33047
  23150504.357 4   3371054.492 4   3125374.44946  23150504.19346
 18  5 30  0 55 49.9980000  0  7G14G16G22G26G27G31G32               -0.000168827
  20656272.545 6    579391.297 6    452411.10948  20656269.23648
  19914215.217 7  -4547689.336 7  -3528380.83648  19914211.11148
  23504244.889 5   -491772.598 5   -380422.00046  23504239.93246
  20441644.037 6   -879961.285 6   -682401.10546  20441646.73646
  20961326.498 6 -11642882.449 6  -9039466.19148  20961324.85748
  21211120.303 6  -2082811.570 6  -1617882.23447  21211114.64747
  23152330.818 3   3380653.371 3   3132854.09446  23152330.88946
 18  5 30  0 55 54.9980000  0  7G14G16G22G26G27G31G32               -0.000174000
  20656971.147 6    583063.816 6    455272.81648  20656967.57648
  19912783.647 7  -4555211.754 7  -3534242.46148  19912779.75248
  23504152.498 5   -492258.770 5   -380800.85946  23504147.87346
  20441436.803 6   -881053.703 6   -683252.35546  20441438.52946
  20956845.975 6 -11666427.660 6  -9057813.12147  20956844.95547
  21210332.717 6  -2086949.730 6  -1621106.79747  21210327.59247
  23154158.170 4   3390254.563 4   3140335.50846  23154157.95946
 18  5 30  0 55 59.9980000  0  7G14G16G22G26G27G31G32               -0.000179174
  20657671.350 6    586745.594 6    458141.72748  20657668.02248
  19911353.373 7  -4562727.281 7  -3540098.71948  19911349.69348
  23504059.701 5   -492744.668 5   -381179.50846  23504055.67046
  20441229.459 6   -882144.445 6   -684102.26646  20441231.96346
  20952366.787 6 -11689966.305 6  -9076154.92647  20952365.49847
  21209545.678 6  -2091086.414 6  -1624330.19947  21209540.63947
  23155985.615 3   3399857.098 3   3147817.97746  23155985.49046
 18  5 30  0 56  4.9980000  0  7G14G16G22G26G27G31G32               -0.000184349
  20658374.498 6    590437.879 6    461018.82448  20658370.99848
  19909924.951 7  -4570234.527 7  -3545948.52048  19909920.74048
  23503967.397 5   -493228.773 5   -381556.74646  23503963.18946
  20441022.201 6   -883232.090 6   -684949.79346  20441024.39746
  20947889.154 6 -11713497.027 6  -9094490.55548  20947887.80748
  21208759.217 6  -2095220.223 6  -1627551.35547  21208754.72547
  23157813.436 4   3409462.336 4   3155302.53546  23157813.20146
 18  5 30  0 56  9.9980000  0  7G14G16G22G26G27G31G32               -0.000189528
  20659078.600 6    594139.629 6    463903.29348  20659075.66248
  19908497.607 7  -4577734.625 7  -3551792.75448  19908493.88948
  23503874.889 4   -493712.336 4   -381933.52746  23503871.49446
  20440815.303 6   -884317.777 6   -685795.76246  20440817.53746
  20943412.545 6 -11737020.891 6  -9112820.84047  20943411.24447
  21207973.561 6  -2099352.223 6  -1630771.11347  21207968.85047
  23159641.795 4   3419069.109 4   3162788.32046  23159641.68946
 18  5 30  0 56 14.9980000  0  7G14G16G22G26G27G31G32               -0.000194708
  20659785.139 6    597851.016 6    466795.28148  20659781.85048
  19907071.772 7  -4585227.332 7  -3557631.23048  19907067.79548
  23503783.154 4   -494195.043 4   -382309.71146  23503779.40046
  20440609.412 6   -885401.301 6   -686640.06346  20440610.73646
  20938937.498 6 -11760537.633 6  -9131145.57047  20938936.17047
  21207187.475 6  -2103482.238 6  -1633989.31647  21207183.19347
  23161470.217 4   3428677.750 4   3170275.56646  23161470.23246
 18  5 30  0 56 19.9980000  0  7G14G16G22G26G27G31G32               -0.000199888
  20660493.068 6    601571.973 6    469694.72748  20660489.78348
  19905647.186 7  -4592712.750 7  -3563464.03548  19905643.00648
  23503691.037 3   -494677.020 3   -382685.27046  23503688.08446
  20440403.717 6   -886482.746 6   -687482.72346  20440404.64346
  20934463.522 6 -11784047.344 6  -9149464.81647  20934462.53347
  21206401.951 6  -2107610.258 6  -1637205.96547  21206397.53347
  23163298.795 3   3438288.055 3   3177764.08246  23163299.33046
 18  5 30  0 56 24.9980000  0  7G14G16G22G26G27G31G32               -0.000205070
  20661202.506 6    605302.160 6    472601.36348  20661199.76448
  19904224.139 7  -4600191.250 7  -3569291.43848  19904220.11148
  23503600.357 2   -495158.605 2   -383060.57446  23503595.90846
  20440198.115 6   -887562.414 6   -688324.02746  20440198.85046
  20929990.928 6 -11807550.352 6  -9167778.84447  20929990.56847
  21205616.647 7  -2111736.668 7  -1640421.32847  21205611.96747
  23165127.857 3   3447899.789 3   3185253.74246  23165128.67046
 18  5 30  0 56 29.9980000  0  7G14G16G22G26G27G31G32               -0.000210255
  20661913.834 6    609041.395 6    475515.03948  20661910.89348
  19902802.272 7  -4607662.938 7  -3575113.54748  19902798.29148
  23503508.514 2   -495639.996 2   -383435.69946  23503504.42446
  20439993.303 6   -888640.539 6   -689164.10946  20439992.95146
  20925519.693 6 -11831046.816 6  -9186087.78148  20925519.02948
  21204831.686 7  -2115861.586 7  -1643635.55547  21204826.97547
  23166957.029 4   3457512.629 4   3192744.23046  23166958.08446
 18  5 30  0 56 34.9980000  0  7G14G16G22G26G27G31G32               -0.000215441
  20662627.264 6    612790.105 6    478436.10547  20662624.36547
  19901381.857 7  -4615127.457 7  -3580930.06348  19901378.14748
  23503417.795 2   -496120.848 2   -383810.38346  23503413.04146
  20439788.670 6   -889716.699 6   -690002.67646  20439788.08846
  20921050.209 6 -11854536.289 6  -9204391.26647  20921049.09647
  21204046.826 7  -2119984.621 7  -1646848.30547  21204041.89747
  23168786.826 4   3467127.066 4   3200236.00046  23168787.93646
 18  5 30  0 56 39.9980000  0  7G14G16G22G26G27G31G32               -0.000220629
  20663342.514 6    616547.648 6    481364.05947  20663339.26447
  19899962.498 7  -4622585.387 7  -3586741.44148  19899958.63548
  23503326.420 3   -496601.730 3   -384185.14545  23503320.81445
  20439584.076 6   -890791.449 6   -690840.12546  20439583.52246
  20916580.990 6 -11878019.375 6  -9222689.77347  20916580.31147
  21203262.498 7  -2124106.336 7  -1650060.03547  21203257.79947
  23170616.693 4   3476742.566 4   3207728.54746  23170617.61546
 18  5 30  0 56 44.9980000  0  7G14G16G22G26G27G31G32               -0.000225817
  20664059.201 6    620315.738 6    484300.22748  20664056.53348
  19898545.107 7  -4630034.953 7  -3592546.30948  19898541.50648
  23503235.123 3   -497080.777 3   -384558.42246  23503229.33446
  20439380.162 6   -891863.082 6   -691675.13746  20439379.20146
  20912113.850 6 -11901494.227 6  -9240981.86348  20912113.20148
  21202478.428 7  -2128225.008 7  -1653269.38347  21202473.54147
  23172446.607 4   3486360.703 4   3215223.16446  23172448.57246
 18  5 30  0 56 49.9980000  0  7G14G16G22G26G27G31G32               -0.000231009
  20664778.209 6    624093.148 6    487243.65248  20664775.04948
  19897128.904 6  -4637477.480 6  -3598345.68448  19897125.04148
  23503144.662 3   -497559.469 3   -384931.43446  23503138.63146
  20439176.350 6   -892932.867 6   -692508.74646  20439175.68246
  20907648.154 6 -11924962.195 6  -9259268.58248  20907647.41648
  21201694.811 6  -2132341.848 6  -1656477.31347  21201690.25647
  23174277.092 4   3495980.336 4   3222718.98046  23174279.02946
 18  5 30  0 56 54.9980000  0  7G14G16G22G26G27G31G32               -0.000236200
  20665498.701 6    627879.996 6    490194.43447  20665495.81447
  19895713.826 7  -4644912.902 7  -3604139.52048  19895710.13148
  23503052.561 3   -498037.605 3   -385303.97346  23503047.31146
  20438973.232 6   -894000.746 6   -693340.88746  20438972.25646
  20903183.826 6 -11948423.125 6  -9277549.82448  20903183.12348
  21200912.076 6  -2136456.840 6  -1659683.77747  21200906.61547
  23176107.561 4   3505601.484 4   3230215.94946  23176110.23646
 18  5 30  0 56 59.9980000  0  7G14G16G22G26G27G31G32               -0.000241394
  20666221.154 6    631676.031 6    493152.37148  20666218.38148
  19894300.389 7  -4652341.406 7  -3609927.96548  19894296.41248
  23502961.529 3   -498515.465 3   -385676.37545  23502956.72545
  20438770.428 6   -895066.914 6   -694171.64146  20438769.84246
  20898720.764 6 -11971877.262 6  -9295825.77348  20898719.59248
  21200128.889 6  -2140570.172 6  -1662888.98447  21200124.39747
  23177939.748 5   3515223.926 5   3237713.94146  23177942.10746
 18  5 30  0 57  4.9980000  0  7G14G16G22G26G27G31G32               -0.000246590
  20666945.647 6    635482.594 6    496118.51248  20666942.77948
  19892888.561 7  -4659761.715 7  -3615710.02748  19892884.32648
  23502871.170 3   -498991.734 3   -386047.46146  23502865.39346
  20438567.959 6   -896130.074 6   -695000.10246  20438567.67046
  20894259.139 6 -11995323.215 6  -9314095.34848  20894258.35448
  21199347.436 7  -2144680.496 7  -1666091.83647  21199341.96747
  23179771.178 5   3524848.945 5   3245213.90246  23179773.58046
 18  5 30  0 57  9.9980000  0  7G14G16G22G26G27G31G32               -0.000251787
  20667671.459 6    639298.043 6    499091.59047  20667668.63947
  19891477.639 7  -4667175.410 7  -3621486.94548  19891473.64748
  23502779.748 3   -499467.957 3   -386418.56346  23502775.19746
  20438365.725 6   -897191.809 6   -695827.42246  20438366.15446
  20889798.951 6 -12018762.641 6  -9332359.83648  20889798.31148
  21198564.920 6  -2148789.422 6  -1669293.59047  21198560.06847
  23181602.217 5   3534474.973 5   3252714.69546  23181605.88946
 18  5 30  0 57 14.9980000  0  7G14G16G22G26G27G31G32               -0.000256987
  20668399.318 6    643122.434 6    502071.62547  20668396.59247
  19890068.201 7  -4674582.441 7  -3627258.65648  19890063.59648
  23502689.514 3   -499944.195 3   -386789.68046  23502684.87746
  20438164.615 6   -898252.094 6   -696653.63346  20438164.75646
  20885339.623 6 -12042195.426 6  -9350619.14148  20885338.47948
  21197783.326 6  -2152896.914 6  -1672494.22747  21197778.41647
  23183434.967 5   3544101.977 5   3260216.24246  23183437.58846
 18  5 30  0 57 19.9980000  0  7G14G16G22G26G27G31G32               -0.000262186
  20669129.139 6    646957.289 6    505059.81348  20669126.17048
  19888660.412 7  -4681981.293 7  -3633024.00448  19888656.20948
  23502600.537 4   -500418.840 4   -387159.51646  23502594.57246
  20437963.404 6   -899309.395 6   -697477.51246  20437963.70946
  20880882.131 6 -12065619.996 6  -9368872.05148  20880881.33048
  21197002.037 6  -2157001.367 6  -1675692.52047  21196997.52547
  23185266.959 5   3553731.617 5   3267719.82446  23185270.51046
 18  5 30  0 57 24.9980000  0  7G14G16G22G26G27G31G32               -0.000267387
  20669861.154 6    650802.047 6    508055.72347  20669857.79547
  19887253.404 7  -4689372.500 7  -3638783.38348  19887249.37348
  23502510.100 4   -500892.449 4   -387528.57046  23502504.56146
  20437762.584 6   -900364.246 6   -698299.48046  20437762.77946
  20876426.084 6 -12089036.945 6  -9387119.02048  20876425.45148
  21196222.287 6  -2161103.348 6  -1678888.87547  21196217.15847
  23187099.842 5   3563363.262 5   3275224.96946  23187102.94346
 18  5 30  0 57 29.9980000  0  7G14G16G22G26G27G31G32               -0.000272591
  20670593.850 6    654655.746 6    511058.59847  20670590.90447
  19885848.709 7  -4696757.047 7  -3644537.56348  19885844.10748
  23502419.100 4   -501366.012 4   -387897.59046  23502414.48646
  20437562.623 6   -901417.645 6   -699120.32846  20437562.70946
  20871970.811 6 -12112447.195 6  -9405360.77048  20871970.59248
  21195441.943 6  -2165203.797 6  -1682084.04347  21195436.38947
  23188933.365 5   3572995.879 5   3282730.89546  23188935.65446
 18  5 30  0 57 34.9980000  0  7G14G16G22G26G27G31G32               -0.000277796
  20671329.451 6    658518.797 6    514068.76248  20671326.01448
  19884444.818 7  -4704134.531 7  -3650286.24248  19884440.12348
  23502329.272 4   -501839.137 4   -388266.27046  23502324.32646
  20437362.186 6   -902469.176 6   -699939.70346  20437362.70146
  20867517.857 6 -12135850.258 6  -9423596.91848  20867516.65448
  21194661.842 6  -2169302.344 6  -1685277.72347  21194656.85447
  23190766.068 5   3582629.980 5   3290237.94546  23190769.00246
 18  5 30  0 57 39.9980000  0  8G03G14G16G22G26G27G31G32            -0.000282991
  23400742.47513     -5132.00813                
  20672066.186 6    662392.023 6    517086.84047  20672063.29147
  19883042.115 7  -4711504.070 7  -3656028.74648  19883037.72948
  23502239.006 4   -502310.977 4   -388633.95346  23502234.77246
  20437162.764 6   -903517.957 6   -700756.96546  20437163.42846
  20863065.811 6 -12159245.355 6  -9441826.86348  20863064.48648
  21193882.061 6  -2173398.039 6  -1688469.17247  21193877.25247
  23192600.264 5   3592266.367 5   3297746.82046  23192602.35446
 18  5 30  0 57 44.9980000  0  8G03G14G16G22G26G27G31G32            -0.000288195
  23400327.975 3     -7349.789 3                
  20672805.139 6    666275.238 6    520112.71147  20672802.03347
  19881641.475 7  -4718865.930 7  -3661765.30148  19881636.61148
  23502149.443 4   -502781.727 4   -389000.77346  23502145.21346
  20436963.506 6   -904564.262 6   -701572.25446  20436964.17046
  20858615.420 6 -12182632.582 6  -9460050.68048  20858614.21348
  21193102.904 7  -2177491.102 7  -1691658.57447  21193098.37347
  23194434.451 5   3601904.840 5   3305257.27746  23194436.60446
 18  5 30  0 57 49.9980000  0  8G03G14G16G22G26G27G31G32            -0.000293398
  23399911.482 3     -9561.832 3                
  20673545.592 6    670168.160 6    523146.14547  20673542.94747
  19880241.967 6  -4726220.215 6  -3667495.88348  19880237.51848
  23502059.451 4   -503251.684 4   -389366.97746  23502055.73246
  20436765.115 6   -905608.289 6   -702385.79746  20436765.83446
  20854166.522 6 -12206012.273 6  -9478268.60548  20854165.20548
  21192324.639 7  -2181581.875 7  -1694846.19547  21192319.48647
  23196268.412 5   3611545.078 5   3312769.14146  23196270.21346
 18  5 30  0 57 54.9980000  0  8G03G14G16G22G26G27G31G32            -0.000298605
  23399493.545 2    -11767.969 2                
  20674288.584 6    674070.801 6    526187.15647  20674285.37347
  19878843.842 6  -4733567.051 6  -3673220.66848  19878839.17048
  23501970.670 3   -503720.813 3   -389732.55146  23501966.12346
  20436566.553 6   -906650.070 6   -703197.57046  20436567.84246
  20849719.272 6 -12229384.332 6  -9496480.59848  20849717.35748
  21191546.826 6  -2185670.254 6  -1698031.94547  21191541.71347
  23198103.256 5   3621187.172 5   3320282.43446  23198104.97146
 18  5 30  0 57 59.9980000  0  8G03G14G16G22G26G27G31G32            -0.000303816
  23399075.920 1    -13970.055 1                
  20675032.889 6    677981.402 6    529234.36747  20675029.35747
  19877446.451 7  -4740908.258 7  -3678941.09848  19877442.45948
  23501881.607 2   -504190.895 2   -390098.87546  23501876.86146
  20436368.381 6   -907691.387 6   -704008.98846  20436369.36146
  20845272.615 6 -12252750.543 6  -9514688.03148  20845270.72548
  21190769.139 6  -2189758.004 6  -1701217.21947  21190763.30747
  23199938.576 4   3630829.238 4   3327795.70346  23199939.33046
 18  5 30  0 58  4.9980000  0  8G03G14G16G22G26G27G31G32            -0.000309029
  23398647.514 2    -16167.340 2                
  20675778.623 6    681900.637 6    532288.31347  20675775.22947
  19876050.904 7  -4748243.098 7  -3684656.56648  19876046.24848
  23501793.022 2   -504661.246 2   -390465.39846  23501787.50646
  20436170.998 6   -908731.539 6   -704819.48446  20436171.31846
  20840827.545 6 -12276110.203 6  -9532890.35948  20840825.65448
  21189991.022 6  -2193844.449 6  -1704401.46147  21189985.18947
  23201772.842 4   3640472.066 4   3335309.59446  23201773.95946
 18  5 30  0 58  9.9980000  0  8G03G14G16G22G26G27G31G32            -0.000314247
  23398220.357 2    -18359.570 2                
  20676526.092 6    685828.984 6    535349.35547  20676522.74047
  19874656.623 7  -4755571.094 7  -3690366.70348  19874652.30348
  23501702.701 3   -505131.473 3   -390831.80546  23501698.09246
  20435973.600 6   -909770.078 6   -705628.72346  20435972.77246
  20836383.537 6 -12299462.828 6  -9551087.21148  20836381.76048
  21189214.076 6  -2197929.098 6  -1707584.30147  21189208.17447
  23203609.014 4   3650116.000 4   3342824.31646  23203609.01446
 18  5 30  0 58 14.9980000  0  8G03G14G16G22G26G27G31G32            -0.000319468
  23397804.600 1    -20545.758 1                
  20677275.287 6    689767.230 6    538418.11347  20677272.38147
  19873263.029 6  -4762891.430 6  -3696070.86748  19873259.20548
  23501614.092 3   -505600.719 3   -391197.44546  23501608.80746
  20435775.779 6   -910806.168 6   -706436.06346  20435775.51446
  20831941.311 6 -12322807.574 6  -9569277.91448  20831939.52548
  21188437.592 6  -2202011.141 6  -1710765.10247  21188430.35747
  23205443.725 4   3659761.945 4   3350340.61746  23205444.72946
 18  5 30  0 58 19.9980000  0  8G03G14G16G22G26G27G31G32            -0.000324690
  23397387.678 1    -22727.164 1                
  20678026.443 6    693714.223 6    541493.68447  20678023.41247
  19871871.717 6  -4770205.293 6  -3701769.98848  19871867.94348
  23501524.475 3   -506070.176 3   -391563.27046  23501519.45146
  20435579.115 6   -911841.004 6   -707242.41846  20435578.55346
  20827499.982 6 -12346145.617 6  -9587463.39848  20827498.17848
  21187661.170 7  -2206091.723 7  -1713944.78947  21187654.28747
  23207279.397 4   3669408.711 4   3357857.55946  23207279.91646
 18  5 30  0 58 24.9980000  0  8G03G14G16G22G26G27G31G32            -0.000329931
  23396974.92811    -24902.82411                
  20678779.303 6    697670.832 6    544576.75047  20678776.32247
  19870481.162 6  -4777511.734 6  -3707463.31648  19870477.44348
  23501435.467 4   -506538.855 4   -391928.47746  23501430.53346
  20435382.178 6   -912873.648 6   -708047.08646  20435381.69346
  20823060.100 6 -12369475.969 6  -9605642.88348  20823058.72548
  21186884.732 6  -2210169.934 6  -1717122.61747  21186878.39347
  23209115.506 5   3679057.172 5   3365375.81646  23209116.54546
 18  5 30  0 58 29.9980000  0  7G14G16G22G26G27G31G32               -0.000335154
  20679534.272 6    701636.191 6    547666.63347  20679530.81847
  19869091.967 6  -4784811.688 6  -3713151.59848  19869088.28348
  23501345.967 4   -507007.789 4   -392293.91446  23501341.33046
  20435185.904 6   -913904.965 6   -708850.69946  20435185.95146
  20818621.928 6 -12392799.543 6  -9623817.09448  20818620.53348
  21186109.592 6  -2214246.641 6  -1720299.26247  21186102.93647
  23210951.850 4   3688706.441 4   3372894.73046  23210952.27246
 18  5 30  0 58 34.9980000  0  7G14G16G22G26G27G31G32               -0.000340378
  20680290.451 6    705610.758 6    550763.69147  20680287.65447
  19867704.279 7  -4792104.660 7  -3718834.43048  19867701.09248
  23501257.311 4   -507476.391 4   -392659.07846  23501252.72146
  20434990.272 6   -914934.555 6   -709652.97346  20434990.04946
  20814185.240 6 -12416115.852 6  -9641985.63748  20814183.47148
  21185333.740 7  -2218321.359 7  -1723474.37547  21185327.69347
  23212788.225 4   3698357.012 4   3380414.62946  23212788.49846
 18  5 30  0 58 39.9980000  0  7G14G16G22G26G27G31G32               -0.000345606
  20681048.803 6    709594.711 6    553868.05947  20681045.65047
  19866317.420 7  -4799390.500 7  -3724511.71948  19866314.35048
  23501168.514 4   -507944.617 4   -393023.92646  23501163.14346
  20434794.475 6   -915962.215 6   -710453.75846  20434794.64746
  20809749.592 6 -12439424.641 6  -9660148.32848  20809748.02948
  21184558.756 6  -2222393.977 6  -1726647.84047  21184552.57647
  23214625.037 4   3708009.012 4   3387935.65646  23214625.36946
 18  5 30  0 58 44.9980000  0  7G14G16G22G26G27G31G32               -0.000350832
  20681808.920 6    713588.793 6    556980.32447  20681805.47947
  19864932.686 7  -4806668.496 7  -3730182.88348  19864929.25248
  23501079.209 4   -508411.629 4   -393387.84446  23501074.31446
  20434598.842 6   -916987.203 6   -711252.43446  20434599.70146
  20805315.834 6 -12462725.262 6  -9678304.66048  20805313.90848
  21183784.404 7  -2226463.695 7  -1729819.05147  21183778.13547
  23216462.068 5   3717663.180 5   3395458.38346  23216462.34646
