     2.10           OBSERVATION DATA    GPS(GPS)            RINEX VERSION / TYPE
cnvtToRINEX 2.50.0  convertToRINEX OPR  30-May-18 13:31 UTC PGM / RUN BY / DATE 
----------------------------------------------------------- COMMENT             
GG201                                                       MARKER NAME         
GG201                                                       MARKER NUMBER       
GNSS Observer       Trimble                                 OBSERVER / AGENCY   
0220379195          5700                2.32                REC # / TYPE / VERS 
                    TRM39105-00                             ANT # / TYPE
 -2965768.9569  5006108.2420  2603954.8067                  APPROX POSITION XYZ 
        1.4820        1.4403        1.4863                  ANTENNA: DELTA H/E/N
     1     1     0                                          WAVELENGTH FACT L1/2
     4    C1    L1    L2    P2                              # / TYPES OF OBSERV 
  2018     5    30     0    28   55.0000000     GPS         TIME OF FIRST OBS   
  2018     5    30     1    35   55.0000000     GPS         TIME OF LAST OBS    
     0                                                      RCV CLOCK OFFS APPL 
    17                                                      LEAP SECONDS        
    12                                                      # OF SATELLITES     
   G03   797   790   734   734                              PRN / # OF OBS      
   G08   440   439   439   439                              PRN / # OF OBS      
   G14   805   805   805   805                              PRN / # OF OBS      
   G16   805   805   805   805                              PRN / # OF OBS      
   G21   348   328   152   152                              PRN / # OF OBS      
   G22   696   696   696   696                              PRN / # OF OBS      
   G23   805   805   805   805                              PRN / # OF OBS      
   G26   805   805   805   805                              PRN / # OF OBS      
   G27   805   805   805   805                              PRN / # OF OBS      
   G29   268   256    78    78                              PRN / # OF OBS      
   G31   805   805   805   805                              PRN / # OF OBS      
   G32   532   525   501   501                              PRN / # OF OBS      
CARRIER PHASE MEASUREMENTS: PHASE SHIFTS REMOVED            COMMENT             
                                                            END OF HEADER       
 18  5 30  0 28 55.0000000  0  8G03G14G16G23G26G27G31G32            -0.000452623
  23660541.08616    -55010.47716    -30509.20757  23660540.23857
  20573085.79717    -25695.43017    -14224.20359  20573081.38759
  20494916.41416    -94701.63716    -51104.15258  20494911.10258
  24183438.47715   -175232.23815    -73243.60556  24183432.18856
  20577397.40617    -39712.60217    -22424.58659  20577394.91859
  22501552.93016   -179045.96916    -99150.32458  22501550.34458
  21519261.89816    -57779.42216    -39272.04757  21519256.80957
  22631155.83616     26914.70716     17341.93858  22631153.47758
 18  5 30  0 29  0.0000000  0  8G03G14G16G23G26G27G31G32            -0.000460087
  23658795.172 5    -64182.906 5    -37656.56647  23658794.84047
  20572285.023 6    -29905.031 6    -17504.41048  20572280.19948
  20492126.422 6   -109363.672 6    -62529.12548  20492120.87948
  24177982.859 5   -203900.895 5    -95582.82447  24177976.88747
  20576134.047 7    -46351.023 7    -27597.38349  20576131.26249
  22495941.594 6   -208531.918 6   -122126.39847  22495939.10547
  21517559.359 6    -66725.863 6    -46243.30147  21517554.36747
  22631922.945 6     30944.852 6     20482.31348  22631920.82848
 18  5 30  0 29  5.0000000  0  8G03G14G16G23G26G27G31G32            -0.000467550
  23657051.375 5    -73348.227 5    -44798.35247  23657050.72347
  20571486.313 7    -34104.953 7    -20777.07048  20571481.16448
  20489337.148 7   -124018.152 7    -73948.19548  20489331.94148
  24172527.164 6   -232570.563 6   -117922.88747  24172520.88347
  20574871.633 7    -52986.363 7    -32767.78149  20574868.71949
  22490331.164 6   -238017.230 6   -145101.89548  22490328.19548
  21515857.180 6    -75673.629 6    -53215.60247  21515851.47347
  22632690.586 7     34978.492 7     23625.32048  22632688.20348
 18  5 30  0 29 10.0000000  0  8G03G14G16G23G26G27G31G32            -0.000475016
  23655308.984 5    -82500.516 5    -51930.01647  23655308.55147
  20570689.688 7    -38289.242 7    -24037.59048  20570684.54748
  20486551.633 7   -138659.219 7    -85356.81648  20486545.46548
  24167072.031 5   -261235.262 5   -140258.98046  24167066.23846
  20573610.422 7    -59612.770 7    -37931.21148  20573608.37948
  22484721.328 6   -267495.984 6   -168072.48048  22484718.77348
  21514154.977 5    -84616.734 5    -60184.24247  21514149.51247
  22633459.539 6     39021.395 6     26775.73847  22633457.50447
 18  5 30  0 29 15.0000000  0  8G03G14G16G23G26G27G31G32            -0.000482475
  23653571.359 5    -91634.707 5    -59047.57447  23653570.04747
  20569897.188 7    -42452.836 7    -27281.94548  20569892.18848
  20483768.867 7   -153281.809 7    -96751.04748  20483762.68448
  24161618.859 5   -289890.000 5   -162587.32447  24161613.19547
  20572351.961 7    -66225.113 7    -43083.69548  20572350.09448
  22479114.227 6   -296963.281 6   -191033.98448  22479111.44148
  21512454.672 6    -93550.262 6    -67145.44547  21512449.56347
  22634231.734 6     43078.773 6     29937.28947  22634229.03947
 18  5 30  0 29 20.0000000  0 10G03G14G16G22G23G26G27G29G31G32      -0.000489925
  23651837.297 6   -100748.145 6    -66149.02747  23651835.68447
  20569109.797 7    -46593.043 7    -30508.09848  20569104.16448
  20480990.102 7   -167883.219 7   -108128.77348  20480984.30948
  23586465.16415    -33065.54715    -23505.94556  23586458.40656
  24156169.172 6   -318532.125 6   -184905.86346  24156162.92246
  20571096.938 7    -72820.777 7    -48223.18849  20571094.68849
  22473510.070 6   -326416.305 6   -213984.35248  22473507.07848
  23652371.25812      8472.08212                
  21510756.992 6   -102471.500 6    -74097.07447  21510751.60947
  22635007.047 6     47153.266 6     33112.17648  22635004.71948
 18  5 30  0 29 25.0000000  0 10G03G14G16G22G23G26G27G29G31G32      -0.000497372
  23650107.734 6   -109838.488 6    -73232.39847  23650105.99647
  20568326.656 7    -50707.469 7    -33714.14148  20568321.50048
  20478215.828 6   -182461.031 6   -119488.10948  20478210.40248
  23585378.273 6    -38777.691 6    -27956.96546  23585371.31346
  24150721.734 5   -347159.137 5   -207212.61346  24150715.91446
  20569845.547 7    -79397.340 7    -53347.77749  20569843.43449
  22467908.266 6   -355852.617 6   -236921.73448  22467905.27748
  23652631.273 1      9831.941 1                
  21509061.898 6   -111377.941 6    -81037.16047  21509056.66447
  22635785.609 6     51247.219 6     36302.24248  22635783.75048
 18  5 30  0 29 29.9990000  0 10G03G14G16G22G23G26G27G29G31G32       0.000495192
  23648382.542 5   -118902.594 5    -80295.35947  23648381.19847
  20567548.698 6    -54794.004 6    -36898.46948  20567543.51948
  20475447.370 7   -197011.070 7   -130825.81348  20475441.56548
  23584295.964 6    -44468.707 6    -32391.52746  23584288.55846
  24145278.534 5   -375764.043 5   -229502.16846  24145272.06246
  20568598.237 7    -85952.227 7    -58455.49249  20568595.70649
  22462311.339 6   -385265.020 6   -259840.48448  22462308.76948
  23652893.097 1     11215.156 1                
  21507370.526 6   -120266.539 6    -87963.34847  21507365.20247
  22636568.831 6     55361.109 6     39507.87148  22636566.92948
 18  5 30  0 29 34.9990000  0 10G03G14G16G22G23G26G27G29G31G32       0.000487761
  23646661.917 5   -127942.961 5    -87339.77347  23646661.12447
  20566776.503 6    -58853.250 6    -40061.51248  20566771.31248
  20472683.261 7   -211538.066 7   -142145.55548  20472677.30048
  23583216.573 6    -50139.773 6    -36810.53946  23583209.85546
  24139837.495 5   -404357.141 5   -251782.49646  24139831.35146
  20567354.636 7    -92486.949 7    -63547.49649  20567352.48049
  22456716.519 6   -414664.188 6   -282748.93448  22456714.08148
  23653159.01911                                
  21505682.230 6   -129139.805 6    -94877.57847  21505676.70247
  22637355.855 6     59497.660 6     42731.14848  22637353.99148
 18  5 30  0 29 39.9990000  0 10G03G14G16G22G23G26G27G29G31G32       0.000480339
  23644947.409 5   -136957.461 5    -94364.07447  23644945.39747
  20566009.433 7    -62883.941 7    -43202.32848  20566004.09348
  20469923.831 6   -226038.738 6   -153444.78548  20469917.87448
  23582141.034 6    -55789.422 6    -41212.85946  23582135.05446
  24134399.917 5   -432932.313 5   -274048.85946  24134393.67946
  20566115.409 7    -98999.855 7    -68622.48449  20566112.90149
  22451125.667 6   -444043.871 6   -305642.21148  22451123.62048
  23653433.78411                                
  21503996.722 6   -137995.512 6   -101778.13347  21503991.57747
  22638147.167 6     63656.445 6     45971.73848  22638145.39748
 18  5 30  0 29 44.9990000  0 10G03G14G16G22G23G26G27G29G31G32       0.000472929
  23643236.237 6   -145945.938 6   -101368.08247  23643235.09747
  20565247.933 6    -66885.938 6    -46320.77348  20565242.73748
  20467169.269 7   -240512.941 7   -164723.38748  20467163.47248
  23581070.644 6    -61417.504 6    -45598.37947  23581064.39747
  24128965.550 5   -461489.449 5   -296301.18047  24128958.98347
  20564880.237 7   -105490.777 7    -73680.35249  20564878.19049
  22445538.417 6   -473403.883 6   -328520.13348  22445536.76548
  23653708.82311                                
  21502314.761 6   -146833.523 6   -108664.91047  21502309.98347
  22638943.026 6     67837.594 6     49229.74648  22638941.12848
 18  5 30  0 29 49.9990000  0 10G03G14G16G22G23G26G27G29G31G32       0.000465530
  23641530.206 5   -154908.379 5   -108351.80947  23641529.38647
  20564491.667 6    -70859.262 6    -49416.87148  20564486.67148
  20464419.800 6   -254960.676 6   -175981.34848  20464414.39048
  23580003.956 6    -67023.934 6    -49967.04347  23579997.04647
  24123534.862 5   -490028.488 5   -318539.36346  24123528.25746
  20563648.886 7   -111959.754 7    -78721.10949  20563646.83149
  22439955.026 6   -502744.238 6   -351382.74647  22439952.99547
  23653993.87011     16998.82811                
  21500636.745 6   -155653.797 6   -115537.85947  21500631.05447
  22639743.136 6     72041.066 6     52505.17647  22639741.11247
 18  5 30  0 29 54.9990000  0 10G03G14G16G22G23G26G27G29G31G32       0.000458136
  23639830.175 5   -163845.859 5   -115316.08647  23639828.89747
  20563740.823 6    -74804.984 6    -52491.46948  20563735.71848
  20461675.448 6   -269383.035 6   -187219.55948  20461669.91748
  23578940.456 6    -72609.883 6    -54319.73847  23578934.49147
  24118107.222 5   -518550.488 5   -340764.31646  24118101.34346
  20562422.261 7   -118407.805 7    -83745.56649  20562420.02249
  22434375.401 6   -532065.961 6   -374230.83648  22434373.30048
  23654281.78411     18506.64511                
  21498961.347 6   -164457.426 6   -122397.84447  21498956.00747
  22640546.628 6     76265.727 6     55797.09448  22640544.84748
 18  5 30  0 29 59.9990000  0 10G03G14G16G22G23G26G27G29G31G32       0.000450750
  23638133.581 5   -172758.582 5   -122261.08247  23638132.81247
  20562995.183 7    -78723.250 7    -55544.67248  20562990.32748
  20458935.855 7   -283780.160 7   -198438.10248  20458929.76548
  23577881.472 6    -78175.445 6    -58656.54347  23577875.57347
  24112682.894 5   -547055.621 5   -362976.10246  24112676.58946
  20561198.987 7   -124835.125 7    -88753.87149  20561197.12449
  22428798.753 5   -561369.141 5   -397064.46547  22428797.57347
  23654571.69011                                
  21497289.230 6   -173244.566 6   -129244.95747  21497284.03047
  22641354.511 6     80511.621 6     59105.57448  22641353.12048
 18  5 30  0 30  4.9990000  0 10G03G14G16G22G23G26G27G29G31G32       0.000443375
  23636442.620 5   -181647.309 5   -129187.36747  23636440.48347
  20562254.776 7    -82614.906 7    -58577.13748  20562249.67948
  20456201.136 7   -298152.824 7   -209637.57848  20456194.72648
  23576826.417 6    -83721.512 6    -62978.15646  23576820.19846
  24107261.714 5   -575544.637 5   -385175.34446  24107254.74146
  20559979.800 7   -131242.555 7    -93746.68049  20559977.75349
  22423225.917 5   -590654.660 5   -419884.35547  22423224.48347
  23654864.44011                                
  21495619.987 6   -182016.043 6   -136079.89147  21495614.88647
  22642166.495 6     84777.766 6     62429.82848  22642164.89748
 18  5 30  0 30  9.9990000  0 10G03G14G16G22G23G26G27G29G31G32       0.000436007
  23634755.894 6   -190513.180 6   -136095.86347  23634753.35847
  20561519.167 7    -86481.012 7    -61589.69948  20561513.92548
  20453470.284 7   -312502.176 7   -220818.88748  20453464.19848
  23575774.097 6    -89249.145 6    -67285.39847  23575768.15947
  24101843.464 5   -604018.688 5   -407362.84446  24101836.26546
  20558763.784 7   -137631.164 7    -98724.80949  20558762.04249
  22417656.980 6   -619923.574 6   -442691.30547  22417654.97247
  23655168.62011     23167.00411                
  21493953.581 6   -190772.891 6   -142903.42647  21493948.27647
  22642982.073 6     89063.094 6     65769.03548  22642980.19048
 18  5 30  0 30 14.9990000  0  9G03G14G16G22G23G26G27G31G32          0.000428644
  23633072.456 5   -199356.293 5   -142986.54346  23633070.49946
  20560788.128 6    -90321.676 6    -64582.40648  20560782.80848
  20450743.784 6   -326828.313 6   -231982.11748  20450737.85848
  23574725.823 6    -94758.449 6    -71578.35246  23574719.84746
  24096427.620 5   -632477.746 5   -429538.74246  24096420.55046
  20557551.628 7   -144001.078 7   -103688.38748  20557549.86648
  22412089.847 6   -649175.926 6   -465485.32847  22412087.78047
  21492290.612 6   -199515.254 6   -149715.65647  21492285.09747
  22643801.917 6     93367.578 6     69123.14548  22643799.75348
 18  5 30  0 30 19.9990000  0 10G03G14G16G22G23G26G27G29G31G32       0.000421289
  23631394.495 6   -208177.207 6   -149860.03147  23631392.01147
  20560062.112 6    -94137.504 6    -67555.78548  20560057.24948
  20448022.378 6   -341131.785 6   -243127.67248  20448015.83548
  23573680.933 6   -100250.055 6    -75857.55147  23573674.99547
  24091015.003 6   -660922.613 6   -451703.62546  24091007.62846
  20556343.144 7   -150352.879 7   -108637.85249  20556341.30049
  22406526.612 6   -678412.324 6   -488266.92248  22406525.15948
  23655776.90911     26384.62911                
  21490629.440 6   -208243.746 6   -156517.07447  21490623.84347
  22644624.026 6     97690.457 6     72491.62147  22644622.15947
 18  5 30  0 30 24.9990000  0 10G03G14G16G22G23G26G27G29G31G32       0.000413940
  23629720.050 6   -216977.016 6   -156717.02047  23629717.71047
  20559340.261 6    -97929.504 6    -70510.59848  20559335.66348
  20445304.331 6   -355413.625 6   -254256.37948  20445298.50748
  23572639.347 6   -105724.984 6    -80123.74247  23572633.19447
  24085604.073 6   -689354.094 6   -473858.02746  24085596.93346
  20555137.550 7   -156687.559 7   -113573.97749  20555136.14449
  22400966.394 6   -707633.750 6   -511036.87148  22400964.63648
  23656091.339 1     28024.914 1                
  21488970.972 6   -216959.320 6   -163308.43047  21488965.31247
  22645450.073 6    102030.844 6     75873.71547  22645447.85847
 18  5 30  0 30 29.9990000  0 10G03G14G16G22G23G26G27G29G31G32       0.000406599
  23628049.464 5   -225754.941 5   -163556.97747  23628047.08147
  20558623.245 6   -101696.953 6    -73446.27748  20558618.51548
  20442591.230 6   -369673.152 6   -265367.69148  20442584.78848
  23571600.683 6   -111182.500 6    -84376.34447  23571594.49947
  24080196.089 5   -717771.520 5   -496001.47346  24080189.37846
  20553935.472 7   -163004.492 7   -118496.26249  20553934.31949
  22395408.987 6   -736839.512 6   -533794.60248  22395406.71048
  23656408.581 1     29686.262 1                
  21487314.565 6   -225661.285 6   -170089.19547  21487309.32747
  22646279.378 6    106389.391 6     79269.98047  22646277.75347
 18  5 30  0 30 34.9990000  0 10G03G14G16G22G23G26G27G29G31G32       0.000399261
  23626382.612 5   -234512.578 5   -170381.13347  23626380.48347
  20557910.917 6   -105441.418 6    -76364.04748  20557905.85148
  20439881.362 6   -383911.930 6   -276462.84448  20439875.49948
  23570564.933 6   -116624.188 6    -88616.62547  23570558.94447
  24074791.487 6   -746176.473 6   -518135.18446  24074784.33146
  20552736.823 7   -169305.184 7   -123405.90649  20552735.04249
  22389853.206 6   -766031.078 6   -556541.26647  22389851.75747
  23656729.19811                                
  21485660.901 6   -234351.191 6   -176860.54347  21485655.32747
  22647111.948 6    110764.484 6     82679.10948  22647110.62448
 18  5 30  0 30 39.9990000  0 10G03G14G16G22G23G26G27G29G31G32       0.000391932
  23624720.292 6   -243251.172 6   -177190.41846  23624717.38646
  20557202.808 6   -109164.113 6    -79264.85248  20557198.09748
  20437175.487 6   -398131.184 6   -287542.78148  20437169.93348
  23569532.511 6   -122051.270 6    -92845.53547  23569526.52247
  24069388.667 5   -774570.145 5   -540260.13346  24069381.36246
  20551540.769 7   -175590.898 7   -128303.86749  20551538.86649
  22384301.128 6   -795209.762 6   -579277.89847  22384299.37047
  23657052.44811     33065.90211                
  21484009.706 6   -243030.309 6   -183623.49247  21484004.41347
  22647947.175 6    115154.949 6     86100.24648  22647945.81248
 18  5 30  0 30 44.9990000  0 10G03G14G16G22G23G26G27G29G31G32       0.000384605
  23623060.909 6   -251970.324 6   -183984.55146  23623057.99546
  20556498.526 6   -112864.648 6    -82148.38348  20556493.42948
  20434473.386 6   -412330.461 6   -298607.15648  20434467.42948
  23568502.776 6   -127463.355 6    -97062.73847  23568496.39747
  24063987.581 5   -802952.066 5   -562375.91046  24063980.10146
  20550347.472 7   -181861.215 7   -133189.83249  20550345.77249
  22378751.034 6   -824375.031 6   -602004.07447  22378749.25347
  23657378.815 1     34783.422 1                
  21482359.737 6   -251698.137 6   -190377.65247  21482355.06947
  22648785.753 6    119561.176 6     89533.66847  22648784.28447
 18  5 30  0 30 49.9990000  0 10G03G14G16G22G23G26G27G29G31G32       0.000377285
  23621405.542 6   -260669.625 6   -190763.22346  23621402.32346
  20555798.542 6   -116542.641 6    -85014.36348  20555793.65948
  20431775.214 6   -426509.422 6   -309655.70348  20431769.29648
  23567475.605 6   -132860.090 6   -101268.02747  23567468.61647
  24058588.480 5   -831321.867 5   -584482.25046  24058581.38646
  20549157.175 7   -188115.750 7   -138063.49649  20549156.20649
  22373203.128 6   -853526.574 6   -624719.56647  22373201.54247
  23657710.183 1     36519.953 1                
  21480712.620 6   -260354.320 6   -197122.74247  21480707.19047
  22649627.745 6    123983.566 6     92979.68847  22649625.82747
 18  5 30  0 30 54.9990000  0 10G03G14G16G22G23G26G27G29G31G32       0.000369968
  23619753.339 6   -269349.293 6   -197526.62546  23619750.52246
  20555102.565 6   -120198.309 6    -87862.94548  20555098.27648
  20429081.167 7   -440668.301 7   -320688.59048  20429075.72248
  23566451.651 6   -138241.719 6   -105461.49247  23566444.52247
  24053191.675 5   -859679.707 5   -606579.25846  24053184.84746
  20547970.003 7   -194354.719 7   -142925.04749  20547968.50349
  22367658.917 6   -882664.512 6   -647424.46147  22367656.91347
  23658044.956 1     38275.160 1                
  21479068.245 6   -268999.027 6   -203858.88747  21479062.59747
  22650471.620 6    128421.867 6     96438.07448  22650470.81548
 18  5 30  0 30 59.9990000  0 10G03G14G16G22G23G26G27G29G31G32       0.000362659
  23618105.620 5   -278009.762 5   -204275.02746  23618102.58146
  20554411.300 7   -123832.012 7    -90694.40648  20554406.40148
  20426390.042 6   -454807.434 6   -331706.09448  20426384.84348
  23565430.394 6   -143608.598 6   -109643.48847  23565423.49147
  24047798.276 5   -888026.035 5   -628667.31346  24047791.19046
  20546785.667 7   -200578.551 7   -147774.78149  20546784.39049
  22362116.300 6   -911789.223 6   -670119.04347  22362114.39747
  23658381.120 1     40048.664 1                
  21477425.097 6   -277632.652 6   -210586.38747  21477420.11647
  22651319.300 6    132875.691 6     99908.57847  22651318.42547
 18  5 30  0 31  4.9990000  0 10G03G14G16G22G23G26G27G29G31G32       0.000355354
  23616461.105 5   -286650.871 5   -211008.37146  23616458.17546
  20553724.315 7   -127443.672 7    -93508.68848  20553719.31548
  20423703.105 6   -468926.715 6   -342708.14148  20423697.94448
  23564411.792 6   -148960.629 6   -113813.90647  23564404.75347
  24042406.605 5   -916360.684 5   -650746.24246  24042398.91346
  20545604.237 7   -206787.086 7   -152612.60249  20545602.58949
  22356576.745 6   -940900.672 6   -692803.28947  22356574.39747
  23658721.323 1     41840.688 1                
  21475784.237 6   -286255.082 6   -217305.16447  21475779.30047
  22652169.995 6    137345.129 6    103391.25447  22652168.96047
 18  5 30  0 31  9.9990000  0 10G03G14G16G22G23G26G27G29G31G32       0.000348053
  23614820.136 5   -295272.980 5   -217726.89846  23614817.67146
  20553041.026 7   -131033.602 7    -96306.04748  20553036.24948
  20421020.651 6   -483026.504 6   -353694.97748  20421014.53848
  23563396.136 6   -154298.094 6   -117972.97347  23563389.07347
  24037016.511 5   -944683.891 5   -672816.28546  24037009.14746
  20544425.792 7   -212980.684 7   -157438.78949  20544424.49549
  22351039.401 6   -969999.027 6   -715477.33647  22351037.19847
  23659065.769 1     43650.797 1                
  21474145.347 6   -294866.633 6   -224015.47347  21474140.16747
  22653023.425 6    141829.922 6    106885.85947  22653022.45247
 18  5 30  0 31 14.9990000  0 10G03G14G16G22G23G26G27G29G31G32       0.000340757
  23613182.534 5   -303876.266 5   -224430.77346  23613180.61646
  20552362.198 6   -134601.965 6    -99086.59848  20552357.61648
  20418341.065 6   -497106.961 6   -364666.76248  20418334.80448
  23562383.269 6   -159621.254 6   -122120.89847  23562376.03847
  24031628.558 5   -972995.887 5   -694877.60246  24031621.31246
  20543249.487 7   -219159.520 7   -162253.46949  20543248.64049
  22345504.769 6   -999084.523 6   -738141.34847  22345502.66347
  23659413.409 1     45479.027 1                
  21472509.065 6   -303467.469 6   -230717.42247  21472504.14747
  22653879.862 6    146329.789 6    110392.23847  22653878.58147
 18  5 30  0 31 19.9990000  0 10G03G14G16G22G23G26G27G29G31G32       0.000333466
  23611550.081 5   -312460.340 5   -231119.68046  23611547.28446
  20551687.097 7   -138148.422 7   -101850.07848  20551682.47648
  20415665.198 6   -511167.715 6   -375623.19148  20415659.23748
  23561372.925 6   -164929.711 6   -126257.34847  23561365.65547
  24026243.237 5  -1001296.293 5   -716929.85546  24026236.03046
  20542076.761 7   -225323.254 7   -167056.39149  20542075.33549
  22339972.394 6  -1028156.785 6   -760795.05547  22339970.08547
  23659763.698 1     47325.340 1                
  21470874.480 6   -312057.207 6   -237410.73847  21470869.41347
  22654738.417 6    150845.137 6    113910.66447  22654737.50347
 18  5 30  0 31 24.9990000  0 10G03G14G16G22G23G26G27G29G31G32       0.000326180
  23609919.886 5   -321025.766 5   -237794.01646  23609917.01546
  20551016.636 7   -141673.379 7   -104596.80548  20551012.08948
  20412993.386 6   -525209.215 6   -386564.62148  20412987.24148
  23560365.495 6   -170223.938 6   -130382.73447  23560357.97647
  24020860.245 5  -1029585.516 5   -738973.40246  24020853.03046
  20540906.612 7   -231472.301 7   -171847.85949  20540905.45649
  22334442.503 6  -1057216.199 6   -783438.76247  22334440.50747
  23660118.386 1     49189.566 1                
  21469241.769 6   -320636.395 6   -244095.81347  21469236.72247
  22655600.776 6    155375.500 6    117440.81347  22655599.44847
 18  5 30  0 31 29.9990000  0 10G03G14G16G22G23G26G27G29G31G32       0.000318899
  23608293.292 5   -329572.328 5   -244453.70746  23608290.80046
  20550349.800 7   -145176.832 7   -107326.77348  20550344.98048
  20410325.261 7   -539231.461 7   -397491.05548  20410319.30048
  23559361.409 6   -175503.898 6   -134496.97747  23559353.87847
  24015478.698 5  -1057863.500 5   -761008.19146  24015472.04246
  20539739.230 7   -237606.656 7   -176627.88349  20539737.55049
  22328915.589 6  -1086262.746 6   -806072.42647  22328912.92547
  23660477.237 1     51071.641 1                
  21467611.230 6   -329204.801 6   -250772.48847  21467606.57347
  22656466.011 6    159920.945 6    120982.69947  22656464.85147
 18  5 30  0 31 34.9990000  0 10G03G14G16G22G23G26G27G29G31G32       0.000311623
  23606670.573 5   -338100.629 5   -251099.10246  23606668.03846
  20549686.862 7   -148659.266 7   -110040.36748  20549681.86248
  20407660.206 6   -553234.875 6   -408402.80548  20407653.83948
  23558359.120 6   -180770.016 6   -138600.46947  23558352.05047
  24010099.605 5  -1086130.766 5   -783034.62146  24010093.29646
  20538574.675 7   -243726.777 7   -181396.80949  20538573.15549
  22323390.386 6  -1115296.863 6   -828696.43048  22323388.15148
  23660839.284 1     52971.117 1                
  21465982.776 6   -337763.047 6   -257441.27047  21465977.53447
  22657333.198 6    164480.895 6    124535.89847  22657332.54247
 18  5 30  0 31 39.9990000  0  9G03G14G16G22G23G26G27G31G32          0.000304348
  23605050.948 5   -346610.133 5   -257729.93446  23605048.46446
  20549028.245 6   -152120.133 6   -112737.16848  20549023.67548
  20404999.089 6   -567218.918 6   -419299.45748  20404993.22248
  23557359.472 6   -186021.809 6   -142692.78947  23557352.65147
  24004722.019 5  -1114386.663 5   -805052.22646  24004716.18746
  20537412.901 7   -249832.145 7   -186154.23849  20537411.41749
  22317867.315 6  -1144317.941 6   -851310.27047  22317865.44047
  21464356.878 6   -346310.445 6   -264101.55547  21464351.31947
  22658204.120 6    169056.098 6    128100.97747  22658203.15947
 18  5 30  0 31 44.9990000  0  9G03G14G16G22G23G26G27G31G32          0.000297083
  23603436.144 5   -355100.535 5   -264345.72346  23603432.68746
  20548374.206 7   -155559.184 7   -115416.94148  20548369.19448
  20402341.620 6   -581183.422 6   -430180.91848  20402335.91748
  23556362.636 6   -191259.133 6   -146773.81347  23556356.26947
  23999347.714 5  -1142631.090 5   -827060.80946  23999341.02646
  20536254.026 7   -255922.547 7   -190900.00448  20536252.30448
  22312347.980 6  -1173325.871 6   -873913.87147  22312345.65947
  21462731.909 6   -354846.957 6   -270753.39147  21462726.54647
  22659078.128 6    173646.441 6    131677.87947  22659076.46447
 18  5 30  0 31 49.9990000  0  9G03G14G16G22G23G26G27G31G32          0.000289820
  23601824.433 5   -363572.395 5   -270947.24246  23601820.69846
  20547723.558 7   -158976.910 7   -118080.11348  20547718.83548
  20399687.894 7   -595128.840 7   -441047.48448  20399682.12848
  23555368.667 6   -196482.410 6   -150843.86347  23555362.80447
  23993975.815 5  -1170864.340 5   -849060.82447  23993968.37447
  20535097.987 7   -261998.441 7   -195634.47748  20535096.26948
  22306829.644 5  -1202320.980 5   -896507.37947  22306827.80447
  21461108.706 5   -363372.879 5   -277396.98046  21461104.20646
  22659953.909 6    178251.734 6    135266.35248  22659952.71048
 18  5 30  0 31 54.9990000  0  9G03G14G16G22G23G26G27G31G32          0.000282562
  23600214.784 5   -372024.930 5   -277533.61746  23600212.02246
  20547077.706 7   -162372.574 7   -120726.09448  20547072.50748
  20397037.964 6   -609054.418 6   -451898.58648  20397032.10148
  23554377.698 6   -201690.809 6   -154902.40647  23554371.59347
  23988604.839 5  -1199085.754 5   -871051.44546  23988598.00346
  20533944.542 7   -268059.074 7   -200357.05948  20533943.02648
  22301314.386 6  -1231302.531 6   -919090.48847  22301312.55847
  21459488.847 6   -371887.512 6   -284031.77347  21459483.41347
  22660833.558 6    182872.621 6    138867.09047  22660832.38647
 18  5 30  0 31 59.9990000  0  9G03G14G16G22G23G26G27G31G32          0.000275311
  23598610.667 5   -380458.496 5   -284105.27046  23598607.31546
  20546435.526 6   -165746.500 6   -123355.11348  20546430.33148
  20394392.011 6   -622960.547 6   -462734.50448  20394386.03048
  23553389.573 6   -206884.758 6   -158949.67247  23553383.31247
  23983236.370 5  -1227295.672 5   -893033.25046  23983230.04246
  20532794.050 7   -274104.828 7   -205068.05549  20532792.29649
  22295802.276 6  -1260270.934 6   -941663.21147  22295800.38647
  21457871.190 6   -380391.254 6   -290658.03547  21457865.18347
  22661715.886 6    187508.688 6    142479.54347  22661714.07747
 18  5 30  0 32  4.9990000  0 10G03G14G16G22G23G26G27G29G31G32       0.000268063
  23597009.636 5   -388872.906 5   -290661.96946  23597006.28446
  20545797.784 6   -169098.430 6   -125967.01648  20545792.98348
  20391749.144 6   -636846.887 6   -473555.04748  20391743.62448
  23552403.714 6   -212064.004 6   -162985.46547  23552397.27247
  23977870.933 5  -1255493.750 5   -915005.76246  23977864.61646
  20531646.120 7   -280135.426 7   -209767.21949  20531644.76549
  22290291.800 6  -1289225.859 6   -964225.50447  22290290.22247
  23663080.05012      3063.85512                
  21456254.503 6   -388883.727 6   -297275.56647  21456249.07347
  22662600.628 6    192160.258 6    146104.15247  22662599.18347
 18  5 30  0 32  9.9990000  0 10G03G14G16G22G23G26G27G29G31G32       0.000260822
  23595411.448 5   -397267.777 5   -297203.43446  23595408.83946
  20545164.253 7   -172428.098 7   -128561.57848  20545158.92548
  20389110.855 6   -650713.195 6   -484359.95348  20389104.82748
  23551421.167 6   -217228.277 6   -167009.57047  23551414.30447
  23972507.362 5  -1283679.762 5   -936968.89846  23972500.96846
  20530502.019 7   -286150.629 7   -214454.38749  20530500.14049
  22284785.308 6  -1318166.949 6   -986776.98847  22284782.87447
  23663465.526 1      5090.414 1                
  21454641.230 6   -397364.676 6   -303884.09047  21454635.60547
  22663488.886 6    196827.641 6    149741.05147  22663487.72247
 18  5 30  0 32 14.9990000  0 10G03G14G16G22G23G26G27G29G31G32       0.000253586
  23593817.761 5   -405642.935 5   -303729.54646  23593815.32746
  20544534.128 7   -175735.227 7   -131138.56348  20544529.76548
  20386476.026 6   -664559.215 6   -495149.05948  20386470.07348
  23550441.503 6   -222377.332 6   -171021.81647  23550434.16747
  23967145.847 5  -1311853.336 5   -958922.32046  23967139.52646
  20529359.995 7   -292150.164 7   -219129.35949  20529358.15549
  22279280.308 5  -1347093.992 5  -1009317.53947  22279278.60147
  23663855.644 2      7135.840 2       897.00056  23663847.96056
  21453029.589 6   -405833.863 6   -310483.46947  21453024.55847
  22664380.597 6    201510.969 6    153390.39147  22664378.97247
 18  5 30  0 32 19.9990000  0 10G03G14G16G22G23G26G27G29G31G32       0.000246355
  23592227.089 4   -413997.945 4   -310239.94546  23592225.92546
  20543909.815 7   -179019.441 7   -133697.69948  20543904.53448
  20383844.839 6   -678384.566 6   -505922.06348  20383838.97648
  23549463.980 6   -227510.793 6   -175021.92247  23549457.07347
  23961787.690 5  -1340014.184 5   -980865.84046  23961781.01946
  20528221.323 7   -298133.633 7   -223791.80949  20528219.50349
  22273778.019 5  -1376006.613 5  -1031846.84047  22273776.59347
  23664247.894 2      9200.469 2      2505.82845  23664241.62845
  21451420.573 6   -414290.895 6   -317073.36747  21451415.28047
  22665274.472 6    206210.668 6    157052.47747  22665273.06947
 18  5 30  0 32 24.9990000  0 10G03G14G16G22G23G26G27G29G31G32       0.000239130
  23590641.558 5   -422332.727 5   -316734.56646  23590639.42546
  20543289.136 6   -182280.684 6   -136238.93048  20543284.17148
  20381218.050 6   -692189.121 6   -516678.85248  20381212.04248
  23548490.409 6   -232628.586 6   -179009.82047  23548483.22247
  23956430.362 5  -1368162.148 5  -1002799.31646  23956424.34746
  20527085.956 7   -304100.949 7   -228441.66449  20527084.38649
  22268279.355 6  -1404904.598 6  -1054364.74647  22268277.32747
  23664645.644 3     11284.418 3      4129.64545  23664639.10545
  21449813.347 6   -422735.605 6   -323653.66448  21449808.11648
  22666172.292 6    210926.902 6    160727.45347  22666170.48347
 18  5 30  0 32 29.9990000  0 10G03G14G16G22G23G26G27G29G31G32       0.000231911
  23589059.417 5   -430647.293 5   -323213.45346  23589057.15946
  20542672.769 6   -185518.875 6   -138762.19548  20542668.10548
  20378595.190 6   -705972.914 6   -527419.47348  20378589.29248
  23547519.472 6   -237730.707 6   -182985.48847  23547512.35547
  23951077.237 5  -1396297.168 5  -1024722.69946  23951071.45246
  20525953.730 7   -310052.109 7   -233078.94549  20525951.85849
  22262782.519 6  -1433787.977 6  -1076871.26647  22262780.90547
  23665044.886 3     13387.691 3      5768.48845  23665039.42545
  21448208.581 6   -431168.023 6   -330224.39148  21448203.67548
  22667072.190 6    215659.617 6    164415.26247  22667071.22247
 18  5 30  0 32 34.9990000  0 10G03G14G16G22G23G26G27G29G31G32       0.000224699
  23587481.253 5   -438940.813 5   -329675.93046  23587479.08146
  20542061.433 6   -188733.230 6   -141266.89848  20542056.26548
  20375976.550 6   -719735.105 6   -538143.26648  20375970.33548
  23546551.651 6   -242816.250 6   -186948.27347  23546544.35547
  23945725.276 5  -1424418.402 5  -1046635.33646  23945719.64746
  20524824.081 7   -315986.270 7   -237702.96949  20524822.38249
  22257289.284 6  -1462655.867 6  -1099365.73447  22257287.17547
  23665449.487 3     15511.102 3      7423.09045  23665443.81245
  21446605.792 6   -439587.285 6   -336784.86747  21446601.31547
  22667976.886 6    220409.656 6    168116.58247  22667975.03047
 18  5 30  0 32 39.9990000  0 10G03G14G16G22G23G26G27G29G31G32       0.000217493
  23585906.706 4   -447213.250 4   -336121.96946  23585905.11246
  20541454.503 6   -191923.668 6   -143752.96548  20541449.33948
  20373362.058 7   -733475.637 7   -548850.17648  20373355.60848
  23545587.253 6   -247885.230 6   -190898.14147  23545579.74947
  23940376.612 5  -1452525.840 5  -1068537.24646  23940371.37046
  20523698.198 7   -321903.418 7   -242313.73849  20523696.46049
  22251799.081 6  -1491508.246 6  -1121848.10247  22251796.85547
  23665857.503 4     17654.645 4      9093.37145  23665852.19845
  21445006.675 6   -447993.391 6   -343335.07447  21445001.64747
  22668883.628 6    225177.066 6    171831.42247  22668882.15547
 18  5 30  0 32 44.9990000  0 10G03G14G16G22G23G26G27G29G31G32       0.000210293
  23584336.901 4   -455463.945 4   -342551.09446  23584334.58146
  20540851.534 6   -195089.535 6   -146219.87548  20540846.73348
  20370750.808 6   -747193.844 6   -559539.68848  20370745.12048
  23544625.550 5   -252937.031 5   -194834.61747  23544618.52647
  23935030.940 5  -1480618.820 5  -1090427.88346  23935025.38646
  20522575.753 7   -327802.902 7   -246910.74249  20522573.80049
  22246311.636 5  -1520344.438 5  -1144317.85547  22246309.09747
  23666268.901 3     19819.000 3     10779.89145  23666264.21045
  21443409.925 6   -456385.664 6   -349874.51648  21443404.64748
  22669794.823 6    229962.465 6    175560.29347  22669792.91347
 18  5 30  0 32 49.9990000  0 10G03G14G16G22G23G26G27G29G31G32       0.000203100
  23582771.276 4   -463692.043 4   -348962.57446  23582768.89446
  20540254.011 7   -198230.051 7   -148667.03548  20540249.03448
  20368145.245 6   -760888.934 6   -570211.19148  20368139.21048
  23543668.105 6   -257970.848 6   -198757.07447  23543660.19847
  23929688.308 5  -1508696.484 5  -1112306.58647  23929682.21847
  20521456.526 7   -333683.910 7   -251493.34049  20521454.94449
  22240827.276 6  -1549163.578 6  -1166774.34447  22240825.60547
  23666685.237 3     22004.977 3     12483.20345  23666679.99145
  21441815.714 6   -464763.258 6   -356402.53147  21441810.58147
  22670708.995 6    234766.598 6    179303.77047  22670707.33147
 18  5 30  0 32 54.9990000  0 10G03G14G16G22G23G26G27G29G31G32       0.000195915
  23581209.690 4   -471897.270 4   -355356.26646  23581207.88246
  20539660.940 6   -201344.852 6   -151094.16448  20539656.63248
  20365543.487 6   -774560.566 6   -580864.41048  20365537.65148
  23542713.597 6   -262986.281 6   -202665.20347  23542706.16347
  23924347.792 5  -1536758.438 5  -1134173.03146  23924342.49946
  20520341.136 7   -339546.090 7   -256061.28549  20520339.31249
  22235346.815 6  -1577965.332 6  -1189217.25847  22235344.79247
  23667105.112 3     24212.879 3     14203.66845  23667100.52645
  21440224.448 6   -473125.840 6   -362918.82447  21440218.81547
  22671626.870 6    239589.957 6    183062.21147  22671624.72247
 18  5 30  0 32 59.9990000  0 10G03G14G16G22G23G26G27G29G31G32       0.000188738
  23579652.940 4   -480078.051 4   -361730.89146  23579650.58946
  20539073.972 6   -204432.359 6   -153500.01648  20539068.94448
  20362946.456 7   -788207.184 7   -591498.14148  20362940.59748
  23541762.769 6   -267981.816 6   -206557.84447  23541755.40547
  23919011.511 5  -1564803.094 5  -1156026.02046  23919005.67546
  20519229.214 7   -345387.914 7   -260613.36349  20519227.48749
  22229869.862 6  -1606748.109 6  -1211645.39547  22229867.07747
  23667530.605 3     26444.316 3     15942.36745  23667525.76945
  21438636.284 6   -481471.820 6   -369422.19147  21438631.03047
  22672548.698 6    244433.961 6    186836.74647  22672546.84347
 18  5 30  0 33  4.9990000  0 10G03G14G16G22G23G26G27G29G31G32       0.000181570
  23578101.034 4   -488233.918 4   -368086.10546  23578099.15946
  20538491.433 6   -207492.109 6   -155884.25048  20538486.62048
  20360354.480 6   -801828.313 6   -602112.00448  20360348.98048
  23540816.120 6   -272956.988 6   -210434.61747  23540808.97647
  23913678.284 5  -1592829.965 5  -1177865.13746  23913672.51146
  20518121.769 7   -351208.871 7   -265149.17249  20518119.75349
  22224396.519 6  -1635511.418 6  -1234058.36347  22224393.88247
  23667959.386 3     28699.648 3     17699.78945  23667954.74545
  21437051.464 6   -489800.680 6   -375912.22347  21437045.80847
  22673474.901 6    249299.176 6    190627.80147  22673473.06547
 18  5 30  0 33  9.9990000  0 10G03G14G16G22G23G26G27G29G31G32       0.000174412
  23576554.690 5   -496363.285 5   -374420.69546  23576552.42946
  20537914.800 6   -210522.563 6   -158245.65248  20537910.04648
  20357767.636 7   -815422.367 7   -612704.77748  20357762.14748
  23539873.683 6   -277910.262 6   -214294.32047  23539866.44447
  23908348.683 5  -1620837.535 5  -1199689.19547  23908342.98047
  20517017.870 7   -357007.438 7   -269667.53549  20517016.69449
  22218926.776 6  -1664253.680 6  -1256454.93447  22218924.31247
  23668393.347 3     30980.477 3     19477.04345  23668389.33145
  21435470.105 6   -498110.836 6   -382387.67647  21435464.61247
  22674404.839 6    254187.090 6    194436.54747  22674403.19847
 18  5 30  0 33 14.9990000  0 10G03G14G16G22G23G26G27G29G31G32       0.000167265
  23575012.347 5   -504465.344 5   -380733.98446  23575010.72246
  20537344.042 6   -213522.879 6   -160583.56648  20537339.14048
  20355185.886 6   -828988.535 6   -623275.82048  20355180.23048
  23538935.636 6   -282840.750 6   -218136.26247  23538928.62447
  23903022.987 5  -1648824.898 5  -1221497.54746  23903017.07346
  20515919.417 7   -362782.742 7   -274167.77349  20515917.39049
  22213461.362 6  -1692974.035 6  -1278834.42647  22213458.62047
  23668831.823 3     33287.734 3     21274.91445  23668828.90145
  21433892.230 6   -506401.477 6   -388847.92647  21433886.62847
  22675339.636 6    259098.535 6    198263.63747  22675337.84347
 18  5 30  0 33 19.9990000  0 10G03G14G16G22G23G26G27G29G31G32       0.000160128
  23573476.823 5   -512538.660 5   -387024.89846  23573474.49146
  20536778.753 6   -216491.664 6   -162896.91448  20536773.86248
  20352610.386 7   -842525.414 7   -633824.04348  20352604.47248
  23538001.925 6   -287747.113 6   -221959.41847  23537995.12047
  23897701.597 5  -1676790.660 5  -1243289.04347  23897695.09747
  20514824.909 7   -368533.418 7   -278648.82449  20514822.68749
  22208000.628 6  -1721671.074 6  -1301195.74247  22207998.16747
  23669277.339 3     35622.754 3     23094.33645  23669273.40545
  21432318.011 6   -514671.285 6   -395291.93847  21432312.72647
  22676278.097 6    264034.980 6    202110.20747  22676277.07747
 18  5 30  0 33 24.9990000  0 10G03G14G16G22G23G26G27G29G31G32       0.000153004
  23571945.511 5   -520581.578 5   -393292.10246  23571943.87046
  20536220.058 6   -219427.168 6   -165184.32048  20536215.42948
  20350040.120 6   -856031.277 6   -644348.09448  20350034.47648
  23537072.948 6   -292627.523 6   -225762.34047  23537066.18347
  23892384.206 5  -1704733.020 5  -1265062.31347  23892377.79247
  20513735.417 7   -374257.719 7   -283109.31649  20513733.22649
  22202544.370 6  -1750343.016 6  -1323537.51247  22202542.30847
  23669726.925 3     37987.250 3     24936.76245  23669723.73045
  21430749.222 6   -522918.445 6   -401718.29347  21430743.15147
  22677223.214 6    268998.133 6    205977.57047  22677221.91347
 18  5 30  0 33 29.9990000  0 10G03G14G16G22G23G26G27G29G31G32       0.000145893
  23570421.276 5   -528592.574 5   -399534.46146  23570419.46846
  20535668.761 6   -222327.922 6   -167444.65648  20535663.80848
  20347476.190 6   -869504.633 6   -654846.80948  20347470.62848
  23536149.722 6   -297480.617 6   -229543.98847  23536142.63647
  23887072.058 5  -1732650.477 5  -1286816.17646  23887065.15146
  20512651.651 7   -379954.203 7   -287548.14549  20512649.01549
  22197093.706 6  -1778988.387 6  -1345858.57847  22197090.95647
  23670182.300 2     40382.719 2     26803.38345  23670179.44045
  21429184.472 6   -531141.488 6   -408125.86347  21429178.78847
  22678172.831 6    273989.367 6    209866.82047  22678171.69847
 18  5 30  0 33 34.9990000  0 10G03G14G16G22G23G26G27G29G31G32       0.000138798
  23568903.269 5   -536569.875 5   -405750.54746  23568901.03846
  20535123.323 6   -225192.133 6   -169676.51248  20535118.71048
  20344918.894 6   -882943.699 6   -665318.81648  20344913.31548
  23535231.776 6   -302304.594 6   -233302.94547  23535224.35547
  23881764.230 5  -1760541.395 5  -1308549.35246  23881757.55846
  20511573.120 7   -385621.090 7   -291963.89849  20511570.91349
  22191647.823 6  -1807605.391 6  -1368157.54747  22191645.56547
  23670644.636 2     42810.961 2     28695.48045  23670641.82345
  21427624.480 6   -539338.750 6   -414513.34447  21427618.54647
  22679128.417 6    279010.543 6    213779.41447  22679127.17947
 18  5 30  0 33 39.9990000  0 10G03G14G16G22G23G26G27G29G31G32       0.000131716
  23567392.620 5   -544512.406 5   -411939.54746  23567390.65946
  20534585.636 6   -228018.719 6   -171879.05548  20534580.53448
  20342368.112 6   -896347.359 6   -675763.23448  20342362.19448
  23534319.612 6   -307098.355 6   -237038.33247  23534312.37847
  23876462.550 5  -1788404.531 5  -1330260.88746  23876455.69046
  20510500.706 7   -391257.273 7   -296355.72749  20510498.13249
  22186208.292 6  -1836192.938 6  -1390433.54747  22186205.36247
  23671112.526 1     45272.945 1     30613.92245  23671110.63645
  21426069.769 6   -547508.941 6   -420879.73047  21426064.05847
  22680089.862 6    284062.723 6    217716.16047  22680088.52247
 18  5 30  0 33 44.9990000  0 10G03G14G16G22G23G26G27G29G31G32       0.000124651
  23565887.917 5   -552418.664 5   -418100.27346  23565885.17546
  20534054.956 6   -230806.188 6   -174051.11748  20534050.01148
  20339824.378 7   -909714.164 7   -686178.93048  20339818.42148
  23533413.230 6   -311860.457 6   -240749.07047  23533406.38647
  23871166.105 5  -1816238.410 5  -1351949.62946  23871158.77246
  20509434.042 7   -396861.246 7   -300722.46149  20509432.06949
  22180773.948 6  -1864749.461 6  -1412685.38747  22180771.39447
  23671587.378 1     47770.285 1     32559.87145  23671585.84745
  21424520.565 6   -555650.602 6   -427223.88747  21424514.75347
  22681057.300 6    289147.395 6    221678.23047  22681055.72647
 18  5 30  0 33 49.9990000  0 10G03G14G16G22G23G26G27G29G31G32       0.000117601
  23564390.690 5   -560287.395 5   -424231.75847  23564388.08547
  20533532.409 6   -233553.199 6   -176191.65248  20533527.49548
  20337288.425 7   -923042.813 7   -696564.88748  20337282.31248
  23532513.534 6   -316589.547 6   -244434.07847  23532506.82747
  23865875.058 5  -1844041.691 5  -1373614.50447  23865868.19047
  20508373.917 7   -402431.723 7   -305063.09849  20508371.92549
  22175345.651 6  -1893273.648 6  -1434912.02047  22175343.21447
  23672069.737 1     50304.180 1     34534.35545  23672068.11245
  21422976.839 6   -563762.367 6   -433544.74647  21422971.01947
  22682031.151 6    294265.879 6    225666.63347  22682029.78847
 18  5 30  0 33 54.9990000  0 10G03G14G16G22G23G26G27G29G31G32       0.000110571
  23562900.503 5   -568117.379 5   -430333.04746  23562898.47246
  20533017.222 6   -236258.676 6   -178299.82048  20533012.31248
  20334759.464 6   -936332.141 6   -706920.20348  20334753.45648
  23531619.425 6   -321284.500 6   -248092.49647  23531612.84747
  23860590.831 5  -1871813.289 5  -1395254.69547  23860583.08147
  20507320.831 7   -407967.582 7   -309376.75449  20507318.35549
  22169924.144 6  -1921764.406 6  -1457112.61347  22169921.56247
  23672559.230 2     52875.809 2     36538.28145  23672557.63245
  21421439.355 6   -571843.148 6   -439841.47747  21421433.82747
  22683012.331 6    299419.266 6    229682.24647  22683011.13647
 18  5 30  0 33 59.9990000  0 10G03G14G16G22G23G26G27G29G31G32       0.000103558
  23561418.011 5   -575907.953 5   -436403.64146  23561415.36246
  20532510.495 6   -238921.824 6   -180375.00048  20532505.99548
  20332237.862 6   -949581.410 6   -717244.30948  20332232.34748
  23530732.605 6   -325944.633 6   -251723.78947  23530725.57747
  23855311.995 6  -1899552.340 6  -1416869.50447  23855304.69847
  20506274.097 7   -413468.082 7   -313662.86749  20506271.80849
  22164509.167 6  -1950220.953 6  -1479286.53947  22164506.73747
  23673056.339 2     55485.938 2     38572.14145  23673054.44845
  21419907.480 6   -579892.203 6   -446113.46147  21419902.01947
  22683999.784 6    304608.336 6    233725.65647  22683998.21847
 18  5 30  0 34  4.9990000  0 10G03G14G16G22G23G26G27G29G31G32       0.000096563
  23559943.628 5   -583658.715 5   -442443.19146  23559940.62446
  20532011.761 6   -241542.250 6   -182416.89548  20532007.27248
  20329724.464 6   -962790.238 6   -727536.91048  20329718.68348
  23529853.198 6   -330569.488 6   -255327.57847  23529846.37847
  23850039.612 6  -1927258.473 6  -1438458.69547  23850032.04247
  20505233.972 7   -418932.855 7   -317921.13749  20505231.58549
  22159100.480 6  -1978642.785 6  -1501433.42247  22159098.23347
  23673559.620 2     58134.867 2     40636.18045  23673558.81545
  21418381.667 6   -587909.109 6   -452360.41047  21418376.56247
  22684994.198 6    309833.453 6    237797.17247  22684992.60147
 18  5 30  0 34  9.9990000  0 10G03G14G16G22G23G26G27G29G31G32       0.000089588
  23558475.878 5   -591369.055 5   -448451.26646  23558473.75746
  20531521.784 6   -244119.367 6   -184425.03948  20531516.85548
  20327218.526 6   -975958.035 6   -737797.52748  20327213.20248
  23528979.667 6   -335158.488 6   -258903.43047  23528973.32747
  23844773.948 6  -1954931.129 6  -1460021.80147  23844766.13647
  20504201.206 7   -424361.266 7   -322151.06349  20504198.35549
  22153699.065 6  -2007029.363 6  -1523552.82847  22153696.76147
  23674070.769 3     60823.219 3     42731.09845  23674070.22645
  21416862.292 6   -595893.273 6   -458581.85547  21416857.18347
  22685995.237 6    315095.188 6    241897.21147  22685994.11647
 18  5 30  0 34 14.9990000  0 10G03G14G16G22G23G26G27G29G31G32       0.000082630
  23557015.745 5   -599039.230 5   -454428.02346  23557014.43346
  20531039.480 6   -246653.465 6   -186399.66448  20531034.70248
  20324720.651 6   -989085.043 6   -748026.36348  20324715.14448
  23528112.808 6   -339711.938 6   -262451.57847  23528106.69047
  23839514.425 6  -1982570.496 6  -1481558.97746  23839506.61246
  20503175.292 7   -429753.598 7   -326352.88749  20503172.68349
  22148303.401 6  -2035380.961 6  -1545644.98447  22148301.33147
  23674590.058 1     63550.816 1     44856.43045  23674589.41345
  21415349.081 6   -603844.934 6   -464777.96547  21415344.26947
  22687003.784 6    320393.301 6    246025.58647  22687002.12847
 18  5 30  0 34 19.9990000  0 10G03G14G16G22G23G26G27G29G31G32       0.000075691
  23555563.628 5   -606670.133 5   -460374.17646  23555561.69046
  20530565.097 6   -249145.406 6   -188341.44548  20530560.31548
  20322230.464 7  -1002172.184 7   -758224.13348  20322224.52248
  23527253.612 6   -344230.727 6   -265972.73847  23527246.71847
  23834260.417 6  -2010177.449 6  -1503070.85546  23834252.93346
  20502155.550 7   -435110.730 7   -330527.28949  20502153.20649
  22142914.776 6  -2063698.348 6  -1567710.46547  22142912.90547
  23675117.230 3     66316.645 3     47011.67245  23675115.56545
  21413842.362 6   -611764.953 6   -470949.39847  21413836.98747
  22688018.519 6    325726.906 6    250181.62547  22688016.93347
 18  5 30  0 34 24.9990000  0 10G03G14G16G22G23G26G27G29G31G32       0.000068768
  23554118.722 5   -614262.680 5   -466290.43846  23554117.00746
  20530098.644 6   -251596.086 6   -190251.05948  20530093.86248
  20319747.386 6  -1015220.273 6   -768391.48048  20319741.76948
  23526400.198 6   -348715.680 6   -269467.49647  23526393.52247
  23829013.198 6  -2037752.840 6  -1524558.18446  23829005.05846
  20501142.573 7   -440433.566 7   -334674.95349  20501140.17949
  22137532.589 6  -2091982.469 6  -1589750.04747  22137530.63247
  23675651.105 3     69119.934 3     49196.00045  23675649.01145
  21412341.190 6   -619654.227 6   -477096.89847  21412335.76947
  22689039.769 6    331095.117 6    254364.62947  22689038.41347
 18  5 30  0 34 29.9990000  0 10G03G14G16G22G23G26G27G29G31G32       0.000061863
  23552681.464 5   -621818.500 5   -472178.09446  23552680.01946
  20529639.940 6   -254007.156 6   -192129.81648  20529635.10848
  20317271.425 6  -1028231.027 6   -778529.72748  20317265.90148
  23525553.300 6   -353168.539 6   -272937.26647  23525545.99547
  23823771.519 6  -2065298.332 6  -1546022.17647  23823763.55447
  20500135.987 7   -445723.758 7   -338797.18449  20500133.74549
  22132156.065 6  -2120234.918 6  -1611764.93047  22132154.28447
  23676191.058 2     71958.898 2     51408.15645  23676188.86645
  21410845.339 6   -627514.430 6   -483221.71547  21410839.61247
  22690067.847 6    336496.281 6    258573.31647  22690066.37447
 18  5 30  0 34 34.9990000  0 10G03G14G16G22G23G26G27G29G31G32       0.000054974
  23551250.417 5   -629338.555 5   -478037.88346  23551248.75346
  20529188.339 6   -256379.547 6   -193978.43448  20529183.24548
  20314802.167 7  -1041205.402 7   -788639.64548  20314796.61648
  23524711.331 6   -357590.277 6   -276382.77047  23524704.31247
  23818535.300 6  -2092814.879 6  -1567463.62547  23818527.24547
  20499135.214 7   -450982.285 7   -342894.74249  20499132.68749
  22126785.714 6  -2148456.633 6  -1633755.87547  22126783.84747
  23676738.269 4     74832.609 4     53647.40645  23676736.31945
  21409355.065 6   -635346.500 6   -489324.63347  21409348.97647
  22691101.753 6    341929.375 6    262806.87147  22691100.10147
 18  5 30  0 34 39.9990000  0 10G03G14G16G22G23G26G27G29G31G32       0.000048098
  23549825.112 5   -636824.613 5   -483871.18446  23549824.02246
  20528743.917 6   -258715.078 6   -195798.33248  20528739.03848
  20312340.097 7  -1054145.121 7   -798722.55148  20312334.17148
  23523875.495 6   -361982.590 6   -279805.34847  23523868.71847
  23813304.394 6  -2120304.211 6  -1588883.87947  23813296.18347
  20498140.261 7   -456210.867 7   -346968.96949  20498137.65149
  22121421.058 6  -2176649.352 6  -1655724.21147  22121419.11247
  23677291.847 4     77739.363 4     55912.43045  23677288.55845
  21407869.394 6   -643152.145 6   -495406.95347  21407863.60147
  22692140.980 6    347392.719 6    267064.01247  22692139.41347
 18  5 30  0 34 44.9990000  0 10G03G14G16G22G23G26G27G29G31G32       0.000041237
  23548407.011 5   -644278.500 5   -489679.41846  23548406.01146
  20528306.542 6   -261015.480 6   -197590.85548  20528301.04248
  20309883.901 6  -1067052.082 6   -808779.93048  20309878.14448
  23523045.034 6   -366347.344 6   -283206.47747  23523038.21447
  23808078.159 6  -2147768.121 6  -1610284.32046  23808069.85546
  20497150.730 7   -461411.391 7   -351021.32449  20497147.81549
  22116061.315 6  -2204814.938 6  -1677671.41447  22116059.62847
  23677850.651 4     80677.254 4     58201.69145  23677847.85845
  21406388.456 6   -650933.227 6   -501470.14147  21406382.33147
  22693186.003 6    352884.414 6    271343.23847  22693184.61247
 18  5 30  0 34 49.9990000  0 10G03G14G16G22G23G26G27G29G31G32       0.000034388
  23546994.370 6   -651702.086 6   -495464.03547  23546992.66747
  20527874.784 6   -263282.688 6   -199357.51648  20527869.74948
  20307433.823 6  -1079928.078 6   -818813.17248  20307427.84748
  23522218.925 6   -370686.434 6   -286587.60247  23522212.66747
  23802856.206 6  -2175208.430 6  -1631666.36747  23802848.43347
  20496166.159 7   -466585.680 7   -355053.23849  20496163.33549
  22110706.722 6  -2232955.184 6  -1699598.86748  22110704.63648
  23678414.636 3     83644.473 3     60513.77745  23678412.06545
  21404911.972 6   -658691.555 6   -507515.60247  21404906.27647
  22694235.847 6    358402.617 6    275643.11347  22694234.41347
 18  5 30  0 34 54.9990000  0 10G03G14G16G22G23G26G27G29G31G32       0.000027550
  23545587.526 5   -659096.867 5   -501226.19546  23545585.96446
  20527449.440 6   -265518.141 6   -201099.43448  20527444.17948
  20304989.128 7  -1092774.594 7   -828823.44948  20304983.31948
  23521398.261 6   -375001.254 6   -289949.80147  23521391.89447
  23797638.440 6  -2202626.645 6  -1653031.21146  23797630.49146
  20495186.237 7   -471735.234 7   -359065.88349  20495183.41749
  22105356.331 6  -2261071.523 6  -1721507.69548  22105354.38648
  23678984.019 3     86639.516 3     62847.55145  23678981.73745
  21403439.800 6   -666428.602 6   -513544.48047  21403434.39747
  22695290.230 6    363945.832 6    279962.48447  22695289.67547
 18  5 30  0 34 59.9990000  0 10G03G14G16G22G23G26G27G29G31G32       0.000020721
  23544185.534 5   -666464.762 5   -506967.42247  23544183.86247
  20527029.792 6   -267723.809 6   -202818.13748  20527024.75348
  20302550.097 7  -1105593.578 7   -838812.27748  20302544.16348
  23520581.175 6   -379293.844 6   -293294.68447  23520574.79247
  23792424.237 6  -2230024.656 6  -1674380.29346  23792416.78046
  20494210.831 7   -476861.973 7   -363060.75449  20494207.97249
  22100010.136 6  -2289165.906 6  -1743399.42248  22100008.12848
  23679560.261 3     89660.457 3     65201.53945  23679557.06545
  21401971.503 6   -674146.328 6   -519558.30547  21401965.33147
  22696350.120 6    369512.160 6    284299.85547  22696348.58147
 18  5 30  0 35  4.9990000  0 10G03G14G16G22G23G26G27G29G31G32       0.000013903
  23542788.269 6   -673807.074 6   -512688.71146  23542786.74946
  20526615.386 6   -269900.953 6   -204514.61348  20526610.49948
  20300115.472 7  -1118386.367 7   -848780.68448  20300109.68748
  23519767.690 6   -383565.465 6   -296623.23447  23519761.98047
  23787214.269 6  -2257403.734 6  -1695714.64147  23787206.86647
  20493239.214 7   -481967.219 7   -367038.87149  20493236.49949
  22094668.206 6  -2317239.645 6  -1765275.05148  22094665.86648
  23680139.308 3     92705.926 3     67574.60245  23680136.35845
  21400506.456 6   -681845.984 6   -525558.03547  21400500.44047
  22697413.495 6    375100.262 6    288654.20347  22697411.93347
 18  5 30  0 35  9.9990000  0 10G03G14G16G22G23G26G27G29G31G32       0.000007092
  23541395.987 6   -681125.547 6   -518391.42646  23541393.81546
  20526206.534 6   -272051.375 6   -206190.27348  20526201.51148
  20297685.714 7  -1131154.598 7   -858729.95348  20297679.96448
  23518958.597 5   -387817.863 5   -299936.80147  23518952.88247
  23782008.112 5  -2284765.652 5  -1717035.60946  23781999.93346
  20492271.401 7   -487052.684 7   -371001.56649  20492268.21449
  22089329.480 6  -2345294.422 6  -1787135.90648  22089327.02248
  23680723.417 3     95774.289 3     69965.53945  23680720.06545
  21399044.159 6   -689529.277 6   -531545.03547  21399038.56947
  22698481.230 6    380708.371 6    293024.14847  22698479.26147
 18  5 30  0 35 14.9990000  0 10G03G14G16G22G23G26G27G29G31G32       0.000000290
  23540007.730 5   -688421.379 5   -524076.51247  23540006.30847
  20525802.081 6   -274176.230 6   -207846.01248  20525797.18348
  20295260.323 7  -1143899.570 7   -868661.09848  20295254.65148
  23518152.753 6   -392052.184 6   -303236.28547  23518147.06547
  23776803.800 5  -2312111.613 5  -1738344.14547  23776796.45647
  20491307.222 7   -492119.617 7   -374949.83249  20491304.21449
  22083993.784 6  -2373331.375 6  -1808982.88348  22083991.92548
  23681311.167 3     98864.297 3     72373.31345  23681307.78445
  21397585.065 6   -697197.480 6   -537520.25447  21397579.45647
  22699552.159 6    386335.340 6    297408.78547  22699549.80447
 18  5 30  0 35 19.9990000  0 10G03G14G16G22G23G26G27G29G31G32      -0.000006508
  23538623.292 5   -695696.105 5   -529745.14547  23538621.67947
  20525402.167 7   -276277.055 7   -209483.01648  20525397.00748
  20292839.776 7  -1156622.777 7   -878575.29348  20292833.94848
  23517350.644 6   -396270.047 6   -306522.93847  23517344.34347
  23771603.151 5  -2339443.063 5  -1759641.36746  23771595.10146
  20490345.948 7   -497169.520 7   -378884.82049  20490343.27649
  22078661.792 6  -2401352.086 6  -1830817.20348  22078659.38248
  23681903.214 3    101974.309 3     74796.71945  23681899.94845
  21396128.800 6   -704852.078 6   -543484.87147  21396123.22247
  22700625.425 6    391979.598 6    301806.89547  22700624.12447
 18  5 30  0 35 24.9990000  0 10G03G14G16G22G23G26G27G29G31G32      -0.000013296
  23537242.261 5   -702950.523 5   -535397.93047  23537241.28847
  20525006.964 6   -278354.637 6   -211101.91048  20525001.85148
  20290421.909 6  -1169324.953 6   -888473.09848  20290416.37448
  23516550.870 5   -400472.184 5   -309797.32047  23516544.48747
  23766404.472 5  -2366760.723 5  -1780927.85946  23766396.93746
  20489388.144 7   -502203.141 7   -382807.12949  20489385.34749
  22073332.745 6  -2429357.246 6  -1852639.39848  22073330.28848
  23682499.222 3    105103.730 3     77235.20745  23682495.58945
  21394674.347 6   -712493.855 6   -549439.50847  21394668.98747
  22701702.980 6    397640.375 6    306217.87147  22701701.01147
 18  5 30  0 35 29.9990000  0 10G03G14G16G22G23G26G27G29G31G32      -0.000020082
  23535865.605 6   -710185.297 6   -541035.42246  23535864.50346
  20524615.909 6   -280409.629 6   -212703.21148  20524610.75748
  20288008.894 6  -1182006.859 6   -898355.10248  20288002.76148
  23515754.019 5   -404659.273 5   -313059.99647  23515747.86647
  23761209.026 5  -2394065.359 5  -1802204.16046  23761200.76546
  20488433.519 7   -507221.215 7   -386717.32049  20488430.62049
  22068006.253 6  -2457347.578 6  -1874450.04747  22068003.71447
  23683097.394 3    108251.742 3     79688.21545  23683094.74945
  21393223.206 6   -720123.453 6   -555384.66047  21393216.92547
  22702783.105 6    403316.984 6    310641.19547  22702781.68347
 18  5 30  0 35 34.9990000  0 10G03G14G16G22G23G26G27G29G31G32      -0.000026861
  23534492.565 6   -717401.430 6   -546658.39146  23534491.37846
  20524228.480 6   -282443.016 6   -214287.67648  20524223.26148
  20285599.159 6  -1194669.449 6   -908222.05948  20285592.98048
  23514960.097 5   -408832.410 5   -316311.80147  23514953.89047
  23756014.808 5  -2421357.875 5  -1823471.05546  23756007.71846
  20487481.097 7   -512224.723 7   -390616.15649  20487478.24949
  22062682.519 6  -2485324.016 6  -1896249.87148  22062679.66748
  23683700.339 3    111417.418 3     82154.96545  23683696.76945
  21391772.503 6   -727741.898 6   -561321.11347  21391767.09347
  22703866.722 6    409008.434 6    315076.07047  22703864.97647
 18  5 30  0 35 39.9990000  0 10G03G14G16G22G23G26G27G29G31G32      -0.000033636
  23533122.995 6   -724599.477 6   -552267.25846  23533121.92946
  20523845.972 7   -284455.348 7   -215855.73448  20523840.93348
  20283193.511 6  -1207313.250 6   -918074.37148  20283187.12848
  23514168.269 5   -412992.105 5   -319553.12147  23514162.46447
  23750823.565 5  -2448638.848 5  -1844728.95746  23750816.16746
  20486531.815 7   -517214.234 7   -394504.09449  20486529.05449
  22057361.409 6  -2513287.102 6  -1918039.28948  22057358.06248
  23684305.730 3    114600.121 3     84634.97345  23684302.95245
  21390324.940 6   -735349.648 6   -567249.24647  21390319.60547
  22704951.847 6    414714.152 6    319522.05547  22704950.64047
 18  5 30  0 35 44.9990000  0 10G03G14G16G22G23G26G27G29G31G32      -0.000040407
  23531755.667 5   -731780.113 5   -557862.58246  23531755.20246
  20523466.987 6   -286447.309 6   -217407.91448  20523461.74148
  20280790.620 7  -1219938.953 7   -927912.57848  20280784.13248
  23513379.644 6   -417138.973 6   -322784.45347  23513373.50747
  23745634.292 5  -2475908.891 5  -1865978.34846  23745627.17146
  20485584.800 7   -522190.406 7   -398381.62949  20485581.76149
  22052042.269 6  -2541237.496 6  -1939818.81648  22052039.66748
  23684913.987 2    117799.223 2     87127.88745  23684911.64045
  21388878.776 6   -742947.402 6   -573169.58647  21388873.90547
  22706040.433 6    420433.488 6    323978.68447  22706039.32747
 18  5 30  0 35 49.9990000  0 10G03G14G16G22G23G26G27G29G31G32      -0.000047174
  23530393.409 5   -738943.976 5   -563444.80746  23530392.14746
  20523091.847 7   -288419.516 7   -218944.70348  20523086.83548
  20278391.183 6  -1232547.191 6   -937737.18848  20278385.08548
  23512591.964 5   -421273.824 5   -326006.41447  23512586.37047
  23740446.698 5  -2503168.699 5  -1887219.75446  23740439.54646
  20484640.292 7   -527153.875 7   -402249.26649  20484637.39049
  22046726.073 6  -2569175.793 6  -1961588.92647  22046722.69447
  23685525.237 2    121014.113 2     89632.80545  23685523.57345
  21387435.112 6   -750535.793 6   -579082.62947  21387429.88647
  22707131.433 6    426165.789 6    328445.37947  22707130.13647
 18  5 30  0 35 54.9990000  0 10G03G14G16G22G23G26G27G29G31G32      -0.000053938
  23529032.519 5   -746091.488 5   -569014.29746  23529032.25346
  20522720.097 7   -290372.391 7   -220466.42648  20522715.19448
  20275995.862 7  -1245138.344 7   -947548.47748  20275989.46848
  23511807.628 5   -425396.941 5   -329219.25047  23511801.29247
  23735261.831 5  -2530418.559 5  -1908453.39147  23735254.23047
  20483697.878 7   -532105.055 7   -406107.33249  20483695.05449
  22041411.995 6  -2597102.395 6  -1983349.90648  22041409.46848
  23686140.355 1    124244.207 1                
  21385992.331 6   -758115.219 6   -584988.67647  21385987.06947
  22708224.667 6    431910.609 6    332921.84847  22708223.29647
 18  5 30  0 35 59.9990000  0 10G03G14G16G22G23G26G27G29G31G32      -0.000060698
  23527675.808 5   -753222.605 5   -574571.03547  23527675.63247
  20522351.948 6   -292305.945 6   -221973.09848  20522347.13248
  20273602.855 7  -1257712.473 7   -957346.51248  20273596.66748
  23511025.034 6   -429508.328 6   -332422.93447  23511019.14047
  23730077.706 5  -2557658.559 5  -1929679.36746  23730070.65146
  20482758.526 7   -537043.926 7   -409955.81349  20482755.51549
  22036099.894 6  -2625017.277 6  -2005101.75848  22036097.29648
  23686757.605 1    127489.637 1                
  21384551.753 6   -765685.672 6   -590887.72347  21384546.49947
  22709320.237 6    437667.973 6    337408.08247  22709319.02647
 18  5 30  0 36  4.9990000  0 10G03G14G16G22G23G26G27G29G31G32      -0.000067455
  23526322.823 6   -760338.016 6   -580115.49247  23526320.90147
  20521987.886 6   -294220.758 6   -223465.16848  20521982.40548
  20271212.784 7  -1270270.164 7   -967131.73048  20271207.14448
  23510244.495 5   -433608.570 5   -335617.93047  23510238.97647
  23724895.519 5  -2584889.227 5  -1950898.06347  23724889.13647
  20481820.315 7   -541971.172 7   -413795.23049  20481817.88249
  22030790.151 6  -2652921.047 6  -2026844.96148  22030787.42548
  23687379.011 2    130749.789 2                
  21383113.409 6   -773247.777 6   -596780.27047  21383107.42947
  22710418.011 6    443437.266 6    341903.61347  22710417.27247
 18  5 30  0 36  9.9990000  0 10G03G14G16G22G23G26G27G29G31G32      -0.000074209
  23524971.308 5   -767437.676 5   -585647.70747  23524970.31947
  20521626.925 7   -296116.844 7   -224942.64148  20521621.85148
  20268826.644 7  -1282811.395 7   -976904.12148  20268820.65548
  23509466.839 5   -437697.723 5   -338804.27746  23509460.83546
  23719715.823 5  -2612110.543 5  -1972109.48046  23719709.20246
  20480885.073 7   -546886.762 7   -417625.55949  20480882.69049
  22025482.206 6  -2680813.680 6  -2048579.46948  22025479.42548
  23688001.605 1    134024.680 1                
  21381675.245 6   -780801.469 6   -602666.25447  21381670.24947
  22711518.542 6    449218.457 6    346408.43047  22711517.11247
 18  5 30  0 36 14.9990000  0 10G03G14G16G22G23G26G27G29G31G32      -0.000080959
  23523623.026 6   -774521.969 6   -591167.94147  23523621.99947
  20521269.433 7   -297994.602 7   -226405.83248  20521264.47248
  20266443.378 7  -1295336.594 7   -986664.02348  20266437.23348
  23508690.776 6   -441776.125 6   -341982.27046  23508684.60846
  23714537.284 5  -2639322.848 5  -1993313.87946  23714530.63246
  20479952.222 7   -551791.039 7   -421447.08249  20479949.90149
  22020176.128 6  -2708695.504 6  -2070305.57048  22020173.85848
  23688627.292 1    137313.875 1                
  21380239.683 6   -788347.160 6   -608546.02047  21380234.00347
  22712620.433 6    455011.215 6    350922.24647  22712619.04247
 18  5 30  0 36 19.9990000  0 10G03G14G16G22G23G26G27G29G31G32      -0.000087708
  23522277.792 6   -781591.047 6   -596676.31647  23522276.70647
  20520915.675 6   -299854.148 6   -227854.84048  20520910.53048
  20264063.019 7  -1307845.859 7   -996411.49648  20264056.76948
  23507916.628 5   -445843.953 5   -345152.00847  23507910.73347
  23709360.378 5  -2666526.367 5  -2014511.43446  23709354.15546
  20479020.987 7   -556684.195 7   -425259.94149  20479018.41349
  22014872.190 6  -2736566.684 6  -2092023.37948  22014870.42548
  23689256.878 1    140617.277 1                
  21378805.214 6   -795884.949 6   -614419.63747  21378799.99547
  22713724.776 6    460815.348 6    355444.93447  22713723.64047
 18  5 30  0 36 24.9990000  0 10G03G14G16G22G23G26G27G29G31G32      -0.000094452
  23520936.011 6   -788644.867 6   -602172.80947  23520934.64747
  20520565.198 6   -301695.402 6   -229289.58248  20520560.06548
  20261685.097 7  -1320339.074 7  -1006146.46948  20261679.05448
  23507144.980 5   -449901.133 5   -348313.46147  23507138.63647
  23704185.831 5  -2693720.852 5  -2035701.91446  23704179.13646
  20478092.003 7   -561566.117 7   -429064.03549  20478089.62449
  22009570.737 6  -2764427.078 6  -2113732.77048  22009568.52248
  23689887.948 1    143934.930 1                
  21377372.526 6   -803414.766 6   -620287.02347  21377367.07347
  22714831.487 6    466630.949 6    359976.54747  22714830.43747
 18  5 30  0 36 29.9990000  0 10G03G14G16G22G23G26G27G29G31G32      -0.000101196
  23519596.253 6   -795683.941 6   -607657.79347  23519595.02647
  20520218.222 6   -303518.918 6   -230710.51648  20520212.90148
  20259310.698 6  -1332816.859 6  -1015869.40648  20259304.54248
  23506374.667 5   -453948.250 5   -351467.04747  23506368.40947
  23699011.956 5  -2720906.883 5  -2056885.84046  23699006.32746
  20477164.878 7   -566437.352 7   -432859.80949  20477162.44449
  22004270.972 6  -2792277.246 6  -2135434.19948  22004268.53848
  23690522.62811                                
  21375940.870 6   -810937.066 6   -626148.57047  21375935.99147
  22715940.526 6    472457.496 6    364516.68847  22715939.15147
 18  5 30  0 36 34.9990000  0 10G03G14G16G22G23G26G27G29G31G32      -0.000107935
  23518259.612 6   -802708.129 6   -613131.19147  23518258.49547
  20519875.034 6   -305324.645 6   -232117.57448  20519869.27648
  20256939.128 6  -1345279.141 6  -1025580.27748  20256932.65948
  23505606.550 5   -457985.172 5   -354612.71947  23505600.32747
  23693840.480 5  -2748084.395 5  -2078063.10947  23693834.11647
  20476240.026 7   -571297.875 7   -436647.23849  20476237.62049
  21998973.644 6  -2820117.082 6  -2157127.57448  21998970.86648
  23691159.292 1    150611.156 1                
  21374511.089 6   -818451.785 6   -632004.19547  21374505.92947
  22717051.026 6    478294.980 6    369065.36747  22717049.55847
 18  5 30  0 36 39.9990000  0 10G03G14G16G22G23G26G27G29G31G32      -0.000114672
  23516925.495 6   -809717.328 6   -618592.90647  23516924.82747
  20519534.659 7   -307112.324 7   -233510.57048  20519529.42148
  20254571.011 6  -1357725.680 6  -1035278.88348  20254564.09348
  23504840.261 5   -462011.805 5   -357750.36347  23504833.98747
  23688669.933 5  -2775253.184 5  -2099233.60946  23688664.34746
  20475317.261 7   -576147.430 7   -440426.11349  20475314.83549
  21993677.675 6  -2847946.355 6  -2178812.71148  21993675.31548
  23691799.511 1    153970.082 1                
  21373082.526 6   -825958.805 6   -637853.82447  21373076.83947
  22718164.081 6    484143.680 6    373622.77047  22718162.80047
 18  5 30  0 36 44.9990000  0 10G03G14G16G22G23G26G27G29G31G32      -0.000121407
  23515594.472 6   -816711.664 6   -624043.04746  23515593.68746
  20519197.425 6   -308882.102 6   -234889.62548  20519192.57748
  20252205.128 6  -1370156.621 6  -1044965.33248  20252198.28448
  23504075.690 6   -466028.195 6   -360880.01647  23504069.62447
  23683501.362 5  -2802413.375 5  -2120397.38747  23683495.67147
  20474396.370 7   -580986.199 7   -444196.58249  20474394.50349
  21988384.237 6  -2875765.121 6  -2200489.66848  21988381.58148
  23692441.683 1    157342.941 1                
  21371655.480 6   -833458.172 6   -643697.49647  21371650.21447
  22719279.659 6    490003.438 6    378188.80147  22719277.94847
 18  5 30  0 36 49.9990000  0 10G03G14G16G22G23G26G27G29G31G32      -0.000128138
  23514266.355 5   -823691.227 5   -629481.66446  23514265.67146
  20518864.292 6   -310634.094 6   -236254.82448  20518859.38648
  20249842.761 6  -1382572.047 6  -1054639.68448  20249835.87448
  23503313.073 5   -470034.453 5   -364001.77347  23503307.23047
  23678335.347 5  -2829564.957 5  -2141554.48447  23678329.21447
  20473477.448 7   -585814.250 7   -447958.71149  20473475.53449
  21983092.190 6  -2903573.566 6  -2222158.59448  21983090.19048
  23693086.644 1    160729.504 1                
  21370229.495 6   -840949.984 6   -649535.26647  21370224.79647
  22720396.714 6    495874.141 6    382763.35547  22720395.42947
 18  5 30  0 36 54.9990000  0 10G03G14G16G22G23G26G27G29G31G32      -0.000134869
  23512940.347 5   -830656.133 5   -634908.85947  23512940.42147
  20518534.511 7   -312368.434 7   -237606.26648  20518529.29248
  20247483.105 7  -1394972.105 7  -1064302.07448  20247476.03448
  23502552.690 5   -474030.723 5   -367115.76647  23502547.08547
  23673169.737 5  -2856708.141 5  -2162705.03147  23673164.06247
  20472560.792 7   -590631.715 7   -451712.58249  20472559.15949
  21977802.651 6  -2931371.746 6  -2243819.50448  21977800.11248
  23693731.558 1    164129.676 1                
  21368805.003 6   -848434.418 6   -655367.30547  21368800.23347
  22721515.933 6    501755.645 6    387346.33247  22721514.31947
 18  5 30  0 36 59.9990000  0 10G03G14G16G22G23G26G27G29G31G32      -0.000141594
  23511618.722 5   -837606.230 5   -640324.55946  23511617.72646
  20518207.722 7   -314084.926 7   -238943.80148  20518202.83548
  20245126.464 6  -1407356.648 6  -1073952.37948  20245119.27248
  23501794.870 6   -478016.816 6   -370221.80547  23501788.06547
  23668006.628 5  -2883842.680 5  -2183848.82047  23668001.16747
  20471646.050 7   -595438.438 7   -455458.08649  20471644.12849
  21972514.894 6  -2959159.445 6  -2265472.25448  21972512.65948
  23694380.058 1    167543.590 1                
  21367382.511 6   -855911.305 6   -661193.45347  21367377.67147
  22722637.112 6    507648.129 6    391937.85547  22722635.73747
 18  5 30  0 37  4.9990000  0 10G03G14G16G22G23G26G27G29G31G32      -0.000148319
  23510298.417 6   -844541.113 6   -645728.35947  23510298.30447
  20517884.386 7   -315783.215 7   -240267.14548  20517879.66348
  20242772.909 7  -1419725.223 7  -1083590.22348  20242765.77648
  23501038.198 6   -481992.395 6   -373319.66447  23501031.65947
  23662844.761 5  -2910968.125 5  -2204985.53146  23662838.80846
  20470733.644 7   -600234.020 7   -459194.91049  20470731.61249
  21967229.120 6  -2986936.309 6  -2287116.55948  21967227.06548
  23695032.10511                                
  21365961.355 6   -863380.227 6   -667013.39547  21365956.92947
  22723761.167 6    513552.000 6    396538.25447  22723758.95247
 18  5 30  0 37  9.9990000  0 10G03G14G16G22G23G26G27G29G31G32      -0.000155039
  23508981.386 5   -851461.035 5   -651120.50846  23508980.76546
  20517564.487 6   -317463.473 6   -241576.45348  20517559.63248
  20240421.964 6  -1432078.137 6  -1093215.87948  20240415.37448
  23500282.784 6   -485957.668 6   -376409.50447  23500277.08547
  23657684.542 5  -2938084.805 5  -2226115.41447  23657678.55447
  20469823.323 7   -605018.711 7   -462923.24249  20469821.22249
  21961944.917 6  -3014702.488 6  -2308752.52748  21961943.14048
  23695685.534 1    174413.523 1                
  21364541.394 6   -870841.418 6   -672827.30947  21364536.53047
  22724886.722 6    519466.973 6    401147.29347  22724884.85547
 18  5 30  0 37 14.9990000  0 10G03G14G16G22G23G26G27G29G31G32      -0.000161760
  23507667.651 5   -858366.117 5   -656501.07446  23507666.96446
  20517248.519 6   -319125.848 6   -242871.81648  20517243.54648
  20238074.386 7  -1444415.410 7  -1102829.33648  20238067.60148
  23499531.003 6   -489912.770 6   -379491.39847  23499524.71047
  23652526.308 5  -2965192.715 5  -2247238.45747  23652520.35147
  20468914.855 7   -609792.598 7   -466643.16849  20468912.39049
  21956663.276 6  -3042458.117 6  -2330380.28948  21956661.26948
  23696343.94811    177869.31311                
  21363123.097 6   -878294.949 6   -678635.25847  21363118.22247
  22726013.815 6    525392.988 6    405764.94947  22726012.71447
 18  5 30  0 37 19.9990000  0 10G03G14G16G22G23G26G27G29G31G32      -0.000168474
  23506356.753 5   -865256.594 5   -661870.31647  23506355.58947
  20516935.612 7   -320770.621 7   -244153.47748  20516930.52248
  20235729.698 7  -1456737.367 7  -1112430.85948  20235723.14048
  23498779.644 5   -493857.996 5   -382565.60947  23498773.90147
  23647369.034 5  -2992292.113 5  -2268354.89547  23647363.38647
  20468008.261 7   -614556.004 7   -470354.91449  20468006.26549
  21951383.542 6  -3070203.434 6  -2352000.01248  21951381.16748
  23697005.76911    181338.48011                
  21361706.214 6   -885741.105 6   -684437.46947  21361700.89447
  22727143.269 6    531329.734 6    410390.95747  22727142.08947
 18  5 30  0 37 24.9990000  0 10G03G14G16G22G23G26G27G29G31G32      -0.000175186
  23505048.401 5   -872132.172 5   -667227.91446  23505046.85146
  20516625.808 7   -322397.473 7   -245421.15648  20516620.67148
  20233387.995 6  -1469043.664 6  -1122020.18848  20233381.66748
  23498030.690 6   -497793.012 6   -385631.87147  23498025.30847
  23642214.230 5  -3019382.688 5  -2289464.42647  23642208.32747
  20467104.128 7   -619308.574 7   -474058.22349  20467101.80849
  21946105.690 6  -3097938.086 6  -2373611.42248  21946103.69448
  23697669.995 1    184821.578 1                
  21360291.011 6   -893179.508 6   -690233.62547  21360285.62047
  22728275.378 6    537277.543 6    415025.58647  22728274.19847
 18  5 30  0 37 29.9990000  0 10G03G14G16G22G23G26G27G29G31G32      -0.000181900
  23503742.956 6   -878993.199 6   -672574.17246  23503741.29246
  20516320.042 7   -324006.703 7   -246675.10548  20516314.85148
  20231049.097 7  -1481334.656 7  -1131597.57848  20231042.67948
  23497284.370 6   -501718.098 6   -388690.38347  23497278.27247
  23637060.222 5  -3046464.793 5  -2310567.36747  23637054.60147
  20466201.628 7   -624050.641 7   -477753.34049  20466199.33949
  21940829.948 6  -3125662.383 6  -2395214.77048  21940827.72248
  23698333.09711                                
  21358876.878 6   -900610.426 6   -696023.95747  21358871.15147
  22729408.698 6    543236.070 6    419668.58647  22729408.54247
 18  5 30  0 37 34.9990000  0 10G03G14G16G22G23G26G27G29G31G32      -0.000188606
  23502440.425 5   -885839.176 5   -677908.71146  23502438.12846
  20516017.120 7   -325597.859 7   -247914.97348  20516011.65148
  20228713.136 7  -1493609.844 7  -1141162.65648  20228707.17548
  23496539.214 6   -505632.887 6   -391740.90246  23496532.85146
  23631908.972 5  -3073537.871 5  -2331663.27747  23631902.79247
  20465301.370 7   -628781.754 7   -481439.92649  20465299.30449
  21935556.690 6  -3153375.879 6  -2416809.69948  21935553.79248
  23699000.269 1    191828.758 1                
  21357464.034 6   -908033.477 6   -701808.16047  21357458.48747
  22730544.878 6    549205.785 6    424320.27747  22730544.46447
 18  5 30  0 37 39.9990000  0 10G03G14G16G22G23G26G27G29G31G32      -0.000195311
  23501139.800 5   -892670.168 5   -683231.55946  23501138.36646
  20515717.753 7   -327170.949 7   -249140.76648  20515712.41748
  20226380.019 7  -1505869.289 7  -1150715.46948  20226374.01548
  23495796.870 6   -509537.293 6   -394783.30546  23495790.00346
  23626758.612 5  -3100602.023 5  -2352752.21547  23626752.71847
  20464403.151 7   -633501.938 7   -485117.99249  20464401.00349
  21930284.722 6  -3181078.543 6  -2438396.18848  21930282.15148
  23699672.167 1    195353.227 1                
  21356053.425 6   -915448.621 6   -707586.19547  21356047.02647
  22731683.065 6    555186.645 6    428980.66847  22731682.76147
 18  5 30  0 37 44.9990000  0 10G03G14G16G22G23G26G27G29G31G32      -0.000202013
  23499842.706 5   -899486.102 5   -688542.69946  23499841.38246
  20515421.550 7   -328725.926 7   -250352.43848  20515416.75348
  20224050.558 7  -1518112.895 7  -1160255.94148  20224044.26148
  23495055.394 6   -513431.387 6   -397817.66446  23495048.89446
  23621609.980 5  -3127657.117 5  -2373834.11747  23621604.53447
  20463507.081 7   -638211.129 7   -488787.50449  20463505.08549
  21925015.597 6  -3208770.273 6  -2459974.14848  21925012.68748
  23700344.690 1    198891.711 1                
  21354643.519 6   -922855.844 6   -713358.05947  21354637.99147
  22732824.034 6    561178.680 6    433649.75447  22732822.95647
 18  5 30  0 37 49.9990000  0 10G03G14G16G22G23G26G27G29G31G32      -0.000208712
  23498548.948 5   -906286.809 5   -693841.94946  23498547.32746
  20515129.339 6   -330262.609 6   -251549.85948  20515124.13248
  20221723.394 7  -1530340.469 7  -1169783.92248  20221717.06548
  23494316.565 6   -517314.910 6   -400843.77746  23494309.64746
  23616464.144 5  -3154702.926 5  -2394908.77347  23616458.06547
  20462613.214 7   -642909.125 7   -492448.27749  20462611.20249
  21919748.042 6  -3236450.875 6  -2481543.45748  21919745.06948
  23701023.511 1    202444.332 1                
  21353235.745 6   -930254.883 6   -719123.54347  21353230.03847
  22733965.901 6    567182.145 6    438327.76247  22733965.06547
 18  5 30  0 37 54.9990000  0 10G03G14G16G22G23G26G27G29G31G32      -0.000215408
  23497257.644 5   -913072.531 5   -699129.51646  23497255.89746
  20514840.245 6   -331781.273 6   -252733.23848  20514835.17948
  20219399.495 6  -1542552.320 6  -1179299.65248  20219393.04648
  23493579.800 6   -521188.168 6   -403861.90247  23493572.47647
  23611318.417 5  -3181739.719 5  -2415976.41447  23611312.47247
  20461721.120 7   -647596.215 7   -496100.56349  20461719.36649
  21914482.386 6  -3264120.652 6  -2503104.31648  21914479.81248
  23701701.050 2    206010.840 2                
  21351828.706 6   -937646.063 6   -724882.90647  21351823.31947
  22735110.886 6    573196.719 6    443014.41847  22735109.43347
 18  5 30  0 37 59.9990000  0 10G03G14G16G22G23G26G27G29G31G32      -0.000222103
  23495969.542 5   -919843.383 5   -704405.53146  23495967.39046
  20514554.909 6   -333282.008 6   -253902.64548  20514549.58948
  20217078.862 6  -1554748.570 6  -1188803.22748  20217072.64748
  23492844.167 6   -525051.273 6   -406872.11747  23492837.69447
  23606175.065 5  -3208767.605 5  -2437037.10547  23606169.34747
  20460831.456 7   -652272.543 7   -499744.45349  20460829.55049
  21909218.987 6  -3291779.617 6  -2524656.75448  21909216.65948
  23702382.292 4    209591.121 4                
  21350423.823 6   -945029.426 6   -730636.17647  21350418.47247
  22736257.612 6    579222.270 6    447709.63747  22736256.02647
 18  5 30  0 38  4.9990000  0 10G03G14G16G22G23G26G27G29G31G32      -0.000228794
  23494683.855 5   -926599.305 5   -709669.89546  23494682.06246
  20514272.276 6   -334764.707 6   -255058.00848  20514267.78048
  20214761.050 6  -1566929.105 6  -1198294.55148  20214754.55448
  23492111.308 6   -528904.105 6   -409874.32846  23492104.05846
  23601034.081 5  -3235786.480 5  -2458090.79347  23601028.24547
  20459943.300 7   -656937.965 7   -503379.84049  20459941.69849
  21903958.011 6  -3319427.691 6  -2546200.70348  21903955.23748
  23703066.097 3    213185.188 3                
  21349020.565 6   -952404.879 6   -736383.30147  21349014.87047
  22737406.636 6    585258.934 6    452413.51247  22737404.96847
 18  5 30  0 38  9.9990000  0 10G03G14G16G22G23G26G27G29G31G32      -0.000235481
  23493400.620 6   -933340.078 6   -714922.44146  23493398.52646
  20513993.933 6   -336229.180 6   -256199.16048  20513988.89048
  20212446.261 7  -1579093.699 7  -1207773.45348  20212439.62048
  23491379.737 6   -532746.512 6   -412868.41446  23491372.63646
  23595894.128 5  -3262796.023 5  -2479137.18847  23595888.34747
  20459057.933 7   -661592.305 7   -507006.60949  20459056.23049
  21898698.714 6  -3347064.648 6  -2567735.98048  21898696.30048
  23703753.112 3    216793.422 3                
  21347618.534 6   -959772.199 6   -742124.06347  21347613.11647
  22738556.808 6    591306.863 6    457126.16847  22738555.70647
 18  5 30  0 38 14.9990000  0 10G03G14G16G22G23G26G27G29G31G32      -0.000242167
  23492120.370 5   -940065.848 5   -720163.28546  23492119.10146
  20513718.628 6   -337675.559 6   -257326.20348  20513713.64748
  20210134.034 7  -1591242.449 7  -1217240.01648  20210127.90148
  23490650.276 6   -536578.570 6   -415854.41846  23490643.19046
  23590755.972 6  -3289796.434 6  -2500176.46947  23590750.45247
  20458174.026 7   -666235.680 7   -510624.82049  20458172.54649
  21893441.651 6  -3374690.598 6  -2589262.69548  21893438.85848
  23704442.073 2    220415.531 2                
  21346218.136 6   -967131.523 6   -747858.61347  21346212.65547
  22739709.745 6    597365.977 6    461847.53947  22739708.83547
 18  5 30  0 38 19.9990000  0 10G03G14G16G22G23G26G27G29G31G32      -0.000248848
  23490843.433 5   -946776.414 5   -725392.29746  23490841.50746
  20513446.870 6   -339103.645 6   -258439.00448  20513441.71848
  20207825.519 7  -1603375.199 7  -1226694.10948  20207819.30848
  23489923.308 6   -540400.125 6   -418832.27046  23489915.89746
  23585620.222 6  -3316787.445 6  -2521208.42247  23585614.15547
  20457292.831 7   -670867.941 7   -514234.38349  20457291.02649
  21888187.019 6  -3402305.316 6  -2610780.65248  21888183.55048
  23705133.784 2    224051.793 2                
  21344819.292 6   -974482.617 6   -753586.75047  21344814.08947
  22740864.925 6    603436.414 6    466577.73047  22740864.13647
 18  5 30  0 38 24.9990000  0 10G03G14G16G22G23G26G27G29G31G32      -0.000255527
  23489569.667 5   -953471.750 5   -730609.45346  23489567.82746
  20513178.394 6   -340513.430 6   -259537.54748  20513173.55448
  20205519.558 6  -1615491.980 6  -1236135.75848  20205513.42148
  23489197.972 6   -544211.168 6   -421801.91446  23489190.49946
  23580485.839 6  -3343769.074 6  -2542233.06347  23580479.97247
  20456413.690 7   -675489.039 7   -517835.24249  20456411.83949
  21882934.003 6  -3429908.801 6  -2632289.86348  21882930.57748
  23705828.612 2    227702.051 2                
  21343421.831 6   -981825.547 6   -759308.51647  21343416.77647
  22742022.690 6    609518.203 6    471316.77047  22742021.61247
 18  5 30  0 38 29.9990000  0 10G03G14G16G22G23G26G27G29G31G32      -0.000262203
  23488298.784 5   -960151.945 5   -735814.82046  23488296.74546
  20512913.714 6   -341904.941 6   -260621.84048  20512908.46848
  20203217.120 6  -1627592.797 6  -1245564.96548  20203210.40948
  23488474.933 6   -548011.813 6   -424763.44946  23488467.67146
  23575352.987 6  -3370741.340 6  -2563250.41447  23575347.14047
  20455536.214 7   -680099.059 7   -521427.47349  20455534.89049
  21877683.573 6  -3457501.023 6  -2653790.30148  21877680.17948
  23706526.331 2    231366.480 2                
  21342026.253 6   -989160.238 6   -765023.86747  21342020.53047
  22743182.112 6    615611.309 6    476064.64147  22743180.65947
 18  5 30  0 38 34.9990000  0 10G03G14G16G22G23G26G27G29G31G32      -0.000268877
  23487030.245 5   -966817.277 5   -741008.57846  23487027.72246
  20512652.151 6   -343278.504 6   -261692.16048  20512647.32748
  20200917.433 7  -1639677.965 7  -1254981.98448  20200910.91348
  23487753.722 6   -551802.293 6   -427717.08246  23487746.28846
  23570221.605 5  -3397704.555 5  -2584260.71947  23570215.94847
  20454661.128 7   -684698.289 7   -525011.29749  20454659.53849
  21872435.183 6  -3485082.340 6  -2675282.23848  21872431.49148
  23707226.659 2    235044.602 2                
  21340631.980 6   -996487.078 6   -770733.09047  21340626.48047
  22744343.995 6    621715.375 6    480821.03147  22744342.88647
 18  5 30  0 38 39.9990000  0 10G03G14G16G22G23G26G27G29G31G32      -0.000275547
  23485764.519 6   -973467.453 6   -746190.54746  23485762.49146
  20512394.495 6   -344633.773 6   -262748.22348  20512389.60548
  20198620.683 7  -1651747.145 7  -1264386.54748  20198614.04648
  23487035.065 6   -555582.301 6   -430662.56347  23487027.28047
  23565092.722 5  -3424658.324 5  -2605263.64547  23565086.84747
  20453787.597 7   -689286.395 7   -528586.44549  20453786.10849
  21867188.480 6  -3512652.359 6  -2696765.37148  21867184.99548
  23707930.394 2    238736.859 2                
  21339239.511 6  -1003805.684 6   -776435.90647  21339233.93747
  22745507.597 6    627830.750 6    485586.23847  22745506.08547
 18  5 30  0 38 44.9990000  0 10G03G14G16G22G23G26G27G29G31G32      -0.000282215
  23484502.440 5   -980102.863 5   -751360.98846  23484499.62846
  20512140.292 6   -345971.211 6   -263790.37948  20512135.35148
  20196327.394 7  -1663800.730 7  -1273778.95348  20196320.65548
  23486316.855 6   -559352.336 6   -433600.26246  23486310.13246
  23559965.355 5  -3451603.070 5  -2626259.55947  23559959.33547
  20452916.940 7   -693863.793 7   -532153.25449  20452915.05049
  21861944.417 6  -3540211.504 6  -2718240.03148  21861941.04648
  23708635.347 1    242442.727 1                
  21337847.917 6  -1011116.434 6   -782132.59047  21337843.39047
  22746673.230 6    633957.027 6    490359.94147  22746671.70647
 18  5 30  0 38 49.9990000  0 10G03G14G16G22G23G26G27G29G31G32      -0.000288879
  23483242.175 5   -986723.191 5   -756519.71546  23483239.11646
  20511889.159 6   -347290.441 6   -264818.36748  20511884.34348
  20194036.222 7  -1675838.465 7  -1283159.00448  20194030.02648
  23485601.667 6   -563111.930 6   -436529.82446  23485594.40146
  23554839.964 5  -3478538.496 5  -2647248.19547  23554833.46047
  20452048.081 7   -698430.160 7   -535711.46549  20452046.31249
  21856702.128 6  -3567759.398 6  -2739705.92248  21856699.13248
  23709343.214 1    246162.559 1                
  21336458.292 6  -1018419.012 6   -787822.91447  21336453.19847
  22747841.573 6    640094.508 6    495142.37147  22747839.51547
 18  5 30  0 38 54.9990000  0 10G03G14G16G22G23G26G27G29G31G32      -0.000295542
  23481986.065 5   -993328.570 5   -761666.76246  23481982.77246
  20511641.190 6   -348591.586 6   -265832.24648  20511636.46448
  20191748.542 7  -1687860.398 7  -1292526.75048  20191742.23048
  23484888.730 6   -566861.285 6   -439451.42247  23484880.76547
  23549715.933 5  -3505464.641 5  -2668229.60947  23549709.35147
  20451180.933 7   -702985.656 7   -539261.19949  20451179.40149
  21851462.269 6  -3595296.156 6  -2761163.13348  21851459.01948
  23710051.909 1    249896.156 1                
  21335070.230 6  -1025713.555 6   -793506.96547  21335065.17947
  22749011.222 6    646243.070 6    499933.44547  22749009.95247
 18  5 30  0 38 59.9990000  0 10G03G14G16G22G23G26G27G29G31G32      -0.000302200
  23480731.581 5   -999919.297 5   -766802.40646  23480728.72646
  20511397.190 6   -349874.980 6   -266832.30148  20511392.30848
  20189463.573 7  -1699866.859 7  -1301882.43448  20189457.23348
  23484176.675 6   -570600.754 6   -442365.28546  23484169.40146
  23544594.269 5  -3532381.840 5  -2689204.05147  23544587.34347
  20450316.214 7   -707530.570 7   -542802.69149  20450314.26149
  21846223.956 6  -3622822.051 6  -2782611.87948  21846221.22248
  23710764.339 1    253643.395 1                
  21333683.526 6  -1033000.328 6   -799184.96947  21333679.07347
  22750183.269 6    652402.391 6    504732.89547  22750181.44047
 18  5 30  0 39  4.9990000  0 10G03G14G16G22G23G26G27G29G31G32      -0.000308857
  23479479.792 5  -1006495.492 5   -771926.71146  23479478.23746
  20511156.511 6   -351140.730 6   -267818.60248  20511151.37848
  20187181.792 7  -1711857.973 7  -1311226.16448  20187175.55848
  23483466.534 6   -574330.371 6   -445271.49246  23483459.50746
  23539473.550 5  -3559290.160 5  -2710171.57047  23539466.73347
  20449453.175 7   -712064.977 7   -546335.99649  20449451.62049
  21840988.214 6  -3650337.188 6  -2804052.24248  21840985.55848
  23711481.073 1    257403.945 1                
  21332298.659 6  -1040279.441 6   -804857.00447  21332293.84347
  22751357.276 6    658572.410 6    509540.68447  22751355.51147
 18  5 30  0 39  9.9990000  0 10G03G14G16G22G23G26G27G29G31G32      -0.000315510
  23478231.730 5  -1013056.449 5   -777039.15646  23478229.80446
  20510918.589 6   -352388.105 6   -268790.57448  20510913.93348
  20184903.300 7  -1723833.043 7  -1320557.38748  20184896.70648
  23482759.339 6   -578049.520 6   -448169.54746  23482751.81246
  23534354.698 5  -3586188.855 5  -2731131.59847  23534348.42547
  20448592.417 7   -716588.230 7   -549860.60949  20448590.91749
  21835754.550 6  -3677840.852 6  -2825483.66848  21835752.12448
  23712198.565 1    261178.590 1                
  21330914.964 6  -1047550.207 6   -810522.53947  21330909.96447
  22752533.456 6    664753.754 6    514357.30147  22752531.99547
 18  5 30  0 39 14.9990000  0 10G03G14G16G22G23G26G27G29G31G32      -0.000322165
  23476985.230 5  -1019602.422 5   -782139.92646  23476984.24546
  20510684.730 6   -353617.379 6   -269748.46148  20510679.78848
  20182627.433 7  -1735792.313 7  -1329876.30548  20182620.88648
  23482053.386 6   -581758.383 6   -451059.56347  23482046.45247
  23529238.230 5  -3613078.207 5  -2752084.34847  23529231.49547
  20447733.753 7   -721100.551 7   -553376.71149  20447731.93349
  21830522.448 6  -3705333.238 6  -2846906.30548  21830520.06548
  23712919.15911    264967.12111                
  21329533.206 6  -1054812.809 6   -816181.71547  21329528.23747
  22753712.292 6    670946.211 6    519182.57047  22753710.68747
 18  5 30  0 39 19.9990000  0 10G03G14G16G22G23G26G27G29G31G32      -0.000328810
  23475742.855 5  -1026133.918 5   -787229.39546  23475741.03046
  20510454.472 6   -354829.016 6   -270692.59848  20510449.52248
  20180354.394 7  -1747736.273 7  -1339183.28548  20180348.16348
  23481350.026 6   -585457.527 6   -453941.99247  23481342.47247
  23524123.003 5  -3639958.676 5  -2773030.17247  23524116.33947
  20446876.878 7   -725602.441 7   -556884.67649  20446875.28049
  21825293.253 6  -3732814.844 6  -2868320.53548  21825290.65548
  23713640.948 1    268769.133 1                
  21328152.480 6  -1062067.824 6   -821834.97347  21328147.47247
  22754892.276 6    677149.285 6    524016.11347  22754891.11647
 18  5 30  0 39 24.9990000  0  9G03G14G16G22G23G26G27G31G32         -0.000335457
  23474502.526 5  -1032650.391 5   -792307.17246  23474501.06546
  20510227.815 6   -356022.438 6   -271622.53548  20510222.38248
  20178084.347 6  -1759664.391 6  -1348477.91048  20178078.33148
  23480647.917 6   -589146.336 6   -456816.41046  23480640.25746
  23519009.511 6  -3666829.691 6  -2793968.62547  23519002.33147
  20446022.433 7   -730093.355 7   -560384.09449  20446020.67949
  21820065.698 6  -3760285.086 6  -2889725.92648  21820063.52648
  21326773.394 6  -1069314.602 6   -827481.82047  21326768.43347
  22756075.128 6    683363.496 6    528858.33647  22756073.87447
 18  5 30  0 39 29.9990000  0  9G03G14G16G22G23G26G27G31G32         -0.000342098
  23473265.995 5  -1039151.715 5   -797373.14546  23473264.25746
  20510003.675 6   -357197.605 6   -272538.25048  20509999.01148
  20175817.894 7  -1771576.504 7  -1357760.08248  20175812.05448
  23479948.136 6   -592824.773 6   -459682.72747  23479940.69047
  23513898.425 5  -3693691.094 5  -2814899.57847  23513891.15547
  20445170.003 7   -734573.195 7   -563874.88749  20445167.83549
  21814840.214 6  -3787743.871 6  -2911122.36748  21814838.16348
  21325395.925 6  -1076553.121 6   -833122.22347  21325390.89047
  22757259.870 6    689588.957 6    533709.32447  22757258.50347
 18  5 30  0 39 34.9990000  0 10G03G14G16G22G23G26G27G29G31G32      -0.000348738
  23472031.222 5  -1045638.199 5   -802427.56346  23472029.51946
  20509783.597 7   -358354.754 7   -273439.93048  20509778.54648
  20173553.823 7  -1783472.980 7  -1367030.07048  20173547.89048
  23479249.730 6   -596493.055 6   -462541.12947  23479242.40147
  23508788.261 5  -3720543.145 5  -2835823.24647  23508781.39747
  20444319.706 7   -739042.211 7   -567357.23449  20444317.58949
  21809617.394 6  -3815191.379 6  -2932510.03948  21809614.66348
  23715828.40911      7694.33211                
  21324019.534 6  -1083783.516 6   -838756.31347  21324014.92947
  22758446.745 6    695825.418 6    538568.87947  22758445.23747
 18  5 30  0 39 39.9990000  0 10G03G14G16G22G23G26G27G29G31G32      -0.000355373
  23470800.128 5  -1052109.488 5   -807470.13746  23470797.98346
  20509566.948 6   -359493.594 6   -274327.34048  20509561.91348
  20171293.480 7  -1795353.445 7  -1376287.57848  20171287.12448
  23478553.394 6   -600150.934 6   -465391.43047  23478546.33547
  23503680.519 6  -3747385.520 6  -2856739.36347  23503673.08947
  20443471.167 7   -743500.121 7   -570830.94149  20443469.22649
  21804395.964 6  -3842627.344 6  -2953888.70748  21804394.03048
  23716560.44011                                
  21322645.417 6  -1091005.527 6   -844383.84447  21322640.53847
  22759635.417 6    702073.160 6    543437.23447  22759634.21447
 18  5 30  0 39 44.9990000  0  9G03G14G16G22G23G26G27G31G32         -0.000362007
  23469571.315 5  -1058566.262 5   -812501.39546  23469569.15546
  20509353.308 6   -360614.766 6   -275200.98848  20509348.56548
  20169034.972 7  -1807218.559 7  -1385533.12948  20169029.20248
  23477859.245 6   -603799.039 6   -468234.10546  23477851.62846
  23498574.394 6  -3774218.797 6  -2877648.43047  23498567.10847
  20442625.065 7   -747947.582 7   -574296.50849  20442623.15549
  21799176.800 6  -3870052.348 6  -2975258.84048  21799174.98348
  21321272.808 6  -1098219.832 6   -850005.38347  21321267.29647
  22760826.206 6    708331.547 6    548313.87147  22760825.11247
 18  5 30  0 39 49.9990000  0  9G03G14G16G22G23G26G27G31G32         -0.000368639
  23468345.409 5  -1065008.461 5   -817521.28546  23468343.42146
  20509143.776 6   -361718.230 6   -276060.83248  20509138.70648
  20166780.448 6  -1819068.207 6  -1394766.62548  20166774.61648
  23477167.448 6   -607437.285 6   -471069.11346  23477159.58946
  23493469.855 6  -3801042.992 6  -2898550.36747  23493462.40547
  20441780.261 7   -752384.488 7   -577753.83649  20441778.33149
  21793959.980 6  -3897466.340 6  -2996620.37948  21793958.40148
  21319901.589 6  -1105426.266 6   -855620.77747  21319896.05847
  22762019.011 6    714600.613 6    553198.84447  22762018.10147
 18  5 30  0 39 54.9990000  0  9G03G14G16G22G23G26G27G31G32         -0.000375267
  23467122.456 5  -1071435.910 5   -822529.69946  23467120.48346
  20508936.956 6   -362803.723 6   -276906.67648  20508932.27648
  20164528.519 6  -1830902.234 6  -1403987.94548  20164522.49548
  23476476.581 6   -611065.543 6   -473896.31647  23476468.97247
  23488366.698 6  -3827857.836 6  -2919445.04747  23488359.39447
  20440938.245 7   -756810.664 7   -581202.81649  20440936.65149
  21788745.815 6  -3924869.066 6  -3017973.14848  21788743.68748
  21318532.019 6  -1112624.688 6   -861229.94547  21318525.96447
  22763214.612 6    720880.594 6    558092.30547  22763213.39447
 18  5 30  0 39 59.9990000  0  9G03G14G16G22G23G26G27G31G32         -0.000381891
  23465902.019 5  -1077848.699 5   -827526.67246  23465899.83946
  20508733.847 6   -363871.402 6   -277738.63748  20508728.72248
  20162279.058 6  -1842720.723 6  -1413197.16848  20162273.67548
  23475788.237 6   -614683.879 6   -476715.80946  23475780.67946
  23483266.065 6  -3854663.383 6  -2940332.47347  23483258.54647
  20440098.136 7   -761226.242 7   -584643.53149  20440096.16749
  21783533.175 6  -3952260.676 6  -3039317.25048  21783531.49948
  21317163.776 6  -1119815.195 6   -866832.94147  21317157.65147
  22764411.815 6    727171.313 6    562994.14847  22764409.80847
 18  5 30  0 40  4.9990000  0  9G03G14G16G22G23G26G27G31G32         -0.000388514
  23464683.917 5  -1084246.543 5   -832512.00046  23464682.83946
  20508534.378 6   -364920.980 6   -278556.50448  20508529.26148
  20160033.362 7  -1854523.426 7  -1422394.07048  20160028.14448
  23475101.292 6   -618292.035 6   -479527.37946  23475093.69846
  23478166.964 6  -3881459.426 6  -2961212.50047  23478159.14447
  20439259.745 7   -765630.941 7   -588075.75449  20439257.59349
  21778322.901 6  -3979640.836 6  -3060652.44548  21778320.95648
  21315797.073 6  -1126997.461 6   -872429.51647  21315791.56947
  22765611.042 6    733473.059 6    567904.57847  22765609.06947
 18  5 30  0 40  9.9990000  0  9G03G14G16G22G23G26G27G31G32         -0.000395134
  23463469.675 5  -1090629.680 5   -837485.88346  23463468.16346
  20508337.753 6   -365952.652 6   -279360.40648  20508332.81948
  20157790.573 7  -1866310.555 7  -1431578.84848  20157784.74148
  23474417.097 6   -621890.223 6   -482331.15647  23474408.92147
  23473069.448 6  -3908246.125 6  -2982085.26247  23473061.92947
  20438423.667 7   -770024.988 7   -591499.69549  20438422.16349
  21773115.284 6  -4007009.750 6  -3081978.86748  21773113.26548
  21314431.339 6  -1134171.727 6   -878019.85547  21314425.85147
  22766812.300 6    739785.637 6    572823.45747  22766810.20647
 18  5 30  0 40 14.9990000  0  9G03G14G16G22G23G26G27G31G32         -0.000401751
  23462257.901 5  -1096998.430 5   -842448.54746  23462256.33546
  20508145.144 6   -366966.723 6   -280150.59448  20508139.98348
  20155550.503 7  -1878082.285 7  -1440751.62948  20155544.42948
  23473734.019 6   -625478.770 6   -485127.44147  23473726.42547
  23467973.917 6  -3935023.777 6  -3002950.97747  23467966.17547
  20437589.362 7   -774408.652 7   -594915.53549  20437587.56949
  21767909.284 6  -4034367.660 6  -3103296.71548  21767907.50348
  21313067.714 6  -1141338.281 6   -883604.18847  21313062.31247
  22768015.589 6    746108.766 6    577750.54747  22768013.68347
 18  5 30  0 40 19.9990000  0 10G03G14G16G22G23G26G27G29G31G32      -0.000408365
  23461048.878 5  -1103352.551 5   -847399.80146  23461047.05446
  20507955.190 6   -367963.039 6   -280926.94548  20507950.41748
  20153313.425 6  -1889838.617 6  -1449912.40648  20153307.75748
  23473053.206 6   -629057.484 6   -487916.07046  23473045.73346
  23462879.909 6  -3961792.145 6  -3023809.44947  23462872.55047
  20436757.581 7   -778781.758 7   -598323.15649  20436755.60149
  21762704.870 6  -4061714.402 6  -3124605.86748  21762703.06948
  23722528.87811     42895.11311                
  21311705.480 6  -1148496.918 6   -889182.35247  21311699.73047
  22769220.706 6    752442.547 6    582685.94147  22769218.92947
 18  5 30  0 40 24.9990000  0 10G03G14G16G22G23G26G27G29G31G32      -0.000414976
  23459842.550 5  -1109692.059 5   -852339.68846  23459840.92146
  20507769.276 6   -368941.551 6   -281689.42648  20507764.08148
  20151079.065 7  -1901579.477 7  -1459061.12948  20151073.78848
  23472373.495 6   -632626.355 6   -490697.00447  23472366.89747
  23457788.261 6  -3988551.223 6  -3044660.68047  23457780.50347
  20435927.245 7   -783144.332 7   -601722.57449  20435925.15949
  21757503.284 6  -4089049.938 6  -3145906.28948  21757501.27248
  23723285.511 1     46874.188 1                
  21310345.026 6  -1155647.629 6   -894754.33247  21310339.29247
  22770428.214 6    758787.031 6    587629.67647  22770426.73347
 18  5 30  0 40 29.9990000  0 10G03G14G16G22G23G26G27G29G31G32      -0.000421585
  23458638.737 5  -1116016.957 5   -857268.19946  23458636.75346
  20507586.323 6   -369902.215 6   -282438.00048  20507581.43348
  20148847.745 6  -1913304.820 6  -1468197.76648  20148842.76948
  23471696.487 6   -636185.320 6   -493470.21946  23471689.55846
  23452697.925 6  -4015300.961 6  -3065504.64147  23452689.62847
  20435098.839 7   -787496.273 7   -605113.69549  20435096.96449
  21752303.706 6  -4116374.180 6  -3167197.89548  21752301.28048
  23724044.74511                                
  21308985.448 6  -1162790.297 6   -900320.05547  21308979.64047
  22771637.323 6    765142.297 6    592581.81347  22771635.89747
 18  5 30  0 40 34.9990000  0 10G03G14G16G22G23G26G27G29G31G32      -0.000428190
  23457438.401 5  -1122327.316 5   -862185.34846  23457435.79646
  20507407.026 6   -370845.219 6   -283172.80948  20507402.14048
  20146619.222 7  -1925014.793 7  -1477322.42248  20146614.30048
  23471020.870 6   -639734.508 6   -496235.84446  23471014.59346
  23447609.612 6  -4042041.465 6  -3086341.39847  23447601.32347
  20434272.972 7   -791837.785 7   -608496.69149  20434270.90549
  21747106.089 6  -4143687.258 6  -3188480.81347  21747103.92547
  23724807.761 1     54872.715 1                
  21307628.081 6  -1169925.105 6   -905879.65247  21307621.73747
  22772848.761 6    771508.148 6    597542.19547  22772847.87847
 18  5 30  0 40 39.9990000  0 10G03G14G16G22G23G26G27G29G31G32      -0.000434793
  23456240.011 5  -1128622.664 5   -867090.84046  23456237.73346
  20507231.034 6   -371770.000 6   -283893.43048  20507225.36248
  20144393.964 6  -1936708.820 6  -1486434.65248  20144388.71448
  23470347.769 6   -643273.465 6   -498993.46547  23470340.66347
  23442522.737 6  -4068772.230 6  -3107170.58247  23442514.69447
  20433448.440 7   -796168.297 7   -611871.12149  20433446.67549
  21741910.792 6  -4170988.641 6  -3209754.61347  21741908.82347
  23725573.019 1     58892.480 1                
  21306271.847 6  -1177051.500 6   -911432.69147  21306265.73747
  22774062.198 6    777885.145 6    602511.25847  22774061.03847
 18  5 30  0 40 44.9990000  0 10G03G14G16G22G23G26G27G29G31G32      -0.000441393
  23455044.378 5  -1134903.836 5   -871985.24646  23455042.68746
  20507058.261 6   -372677.445 6   -284600.53548  20507053.17548
  20142171.784 6  -1948387.754 6  -1495535.13348  20142166.35148
  23469675.769 6   -646802.965 6   -501743.74246  23469668.70646
  23437437.526 6  -4095493.957 6  -3127992.71947  23437429.58947
  20432626.331 7   -800488.668 7   -615237.64549  20432624.62849
  21736718.167 6  -4198279.102 6  -3231019.90247  21736715.37047
  23726341.058 1     62925.297 1                
  21304917.706 6  -1184170.277 6   -916979.79747  21304911.17947
  22775277.308 6    784272.418 6    607488.34447  22775276.68747
 18  5 30  0 40 49.9990000  0 10G03G14G16G22G23G26G27G29G31G32      -0.000447990
  23453852.886 5  -1141170.309 5   -876868.22746  23453850.41346
  20506888.987 6   -373566.988 6   -285293.69548  20506883.67948
  20139952.370 6  -1960051.145 6  -1504623.48048  20139947.16748
  23469006.151 6   -650322.598 6   -504486.31346  23468998.81246
  23432354.519 6  -4122206.227 6  -3148807.46147  23432346.38647
  20431806.480 7   -804798.375 7   -618595.86749  20431804.63649
  21731527.159 6  -4225558.156 6  -3252276.30548  21731524.67148
  23727109.511 1     66971.645 1                
  21303563.964 6  -1191280.969 6   -922520.59447  21303557.92147
  22776495.339 6    790670.488 6    612473.82847  22776494.29647
 18  5 30  0 40 54.9990000  0 10G03G14G16G22G23G26G27G29G31G32      -0.000454586
  23452663.003 5  -1147422.492 5   -881740.06346  23452660.16746
  20506722.894 6   -374439.063 6   -285973.23048  20506717.85548
  20137735.425 6  -1971699.344 6  -1513700.00048  20137730.13248
  23468338.276 6   -653832.684 6   -507221.46146  23468330.56246
  23427272.940 6  -4148909.406 6  -3169615.14147  23427264.96447
  20430988.269 7   -809097.840 7   -621946.09449  20430986.21449
  21726337.940 6  -4252826.168 6  -3273524.11348  21726335.25348
  23727882.472 1     71031.145 1                
  21302212.206 6  -1198383.949 6   -928055.38347  21302206.76147
  22777714.472 6    797078.930 6    617467.38747  22777713.83947
 18  5 30  0 40 59.9990000  0 10G03G14G16G22G23G26G27G29G31G32      -0.000461178
  23451475.831 5  -1153660.113 5   -886600.57046  23451473.57746
  20506560.620 6   -375293.266 6   -286638.84848  20506554.84748
  20135521.831 7  -1983332.070 7  -1522764.47348  20135516.67148
  23467672.284 6   -657332.965 6   -509948.93846  23467664.85546
  23422193.511 6  -4175603.098 6  -3190415.41047  23422185.37447
  20430172.081 7   -813386.754 7   -625288.10549  20430170.04649
  21721151.362 6  -4280082.777 6  -3294763.03548  21721148.85848
  23728658.128 1     75104.066 1                
  21300862.042 6  -1205478.898 6   -933583.91447  21300856.09747
  22778936.081 6    803498.055 6    622469.28547  22778935.37847
 18  5 30  0 41  4.9990000  0 10G03G14G16G22G23G26G27G29G31G32      -0.000467768
  23450291.667 5  -1159883.375 5   -891449.83646  23450289.15146
  20506401.089 6   -376129.961 6   -287290.82448  20506396.10148
  20133311.480 7  -1994949.602 7  -1531817.09848  20133306.09748
  23467007.401 6   -660823.676 6   -512668.99246  23467000.65546
  23417115.409 6  -4202287.570 6  -3211208.45747  23417107.47247
  20429358.120 7   -817665.371 7   -628622.09849  20429355.83549
  21715966.792 6  -4307328.270 6  -3315993.28548  21715963.94448
  23729436.081 1     79190.156 1                
  21299513.362 6  -1212566.082 6   -939106.39547  21299507.53047
  22780159.308 6    809927.598 6    627479.30947  22780158.76947
 18  5 30  0 41  9.9990000  0 10G03G14G16G22G23G26G27G29G31G32      -0.000474354
  23449109.026 5  -1166092.207 5   -896287.91446  23449108.12846
  20506245.464 6   -376948.953 6   -287929.00448  20506240.29648
  20131103.425 7  -2006551.777 7  -1540857.75848  20131097.73748
  23466345.620 6   -664304.719 6   -515381.48846  23466338.26946
  23412039.347 6  -4228962.695 6  -3231994.27347  23412031.62447
  20428545.792 7   -821933.563 7   -631947.96549  20428543.53049
  21710784.300 6  -4334562.504 6  -3337214.76648  21710781.69848
  23730215.745 1     83289.434 1                
  21298165.886 6  -1219645.316 6   -944622.68447  21298160.48747
  22781384.956 6    816367.707 6    632497.54747  22781384.09347
 18  5 30  0 41 14.9990000  0 10G03G14G16G22G23G26G27G29G31G32      -0.000480940
  23447930.784 5  -1172286.668 5   -901114.76246  23447929.04646
  20506092.847 6   -377750.371 6   -288553.49248  20506087.38648
  20128898.542 7  -2018138.719 7  -1549886.53948  20128892.97248
  23465685.175 5   -667776.176 5   -518086.53146  23465677.43346
  23406964.878 6  -4255628.563 6  -3252772.85247  23406957.17947
  20427735.620 7   -826191.453 7   -635265.80549  20427733.35549
  21705603.776 6  -4361785.523 6  -3358427.50848  21705601.08948
  23730997.573 1     87401.973 1                
  21296820.284 6  -1226716.695 6   -950132.85547  21296814.88247
  22782612.448 6    822818.262 6    637523.95347  22782611.51947
 18  5 30  0 41 19.9990000  0 10G03G14G16G22G23G26G27G29G31G32      -0.000487520
  23446754.933 5  -1178466.625 5   -905930.32046  23446753.05446
  20505943.683 6   -378534.051 6   -289164.14848  20505938.50348
  20126696.175 6  -2029710.273 6  -1558903.34048  20126690.96448
  23465025.667 5   -671237.922 5   -520784.00846  23465018.72646
  23401891.956 6  -4282284.969 6  -3273544.07047  23401884.41347
  20426927.159 7   -830438.883 7   -638575.49249  20426924.99949
  21700425.706 6  -4388997.156 6  -3379631.37948  21700423.44048
  23731783.823 1     91527.844 1                
  21295477.011 6  -1233780.059 6   -955636.77747  21295470.81947
  22783842.050 6    829279.367 6    642558.56647  22783841.42147
 18  5 30  0 41 24.9990000  0 10G03G14G16G22G23G26G27G29G31G32      -0.000494099
  23445582.003 5  -1184632.285 5   -910734.73846  23445580.30046
  20505798.112 6   -379300.148 6   -289761.12148  20505792.90548
  20124497.362 6  -2041266.535 6  -1567908.22348  20124492.14748
  23464368.550 6   -674690.094 6   -523474.02046  23464362.30446
  23396821.183 6  -4308932.098 6  -3294308.05947  23396814.02647
  20426120.964 7   -834675.984 7   -641877.13748  20426118.71848
  21695249.495 6  -4416197.574 6  -3400826.50848  21695247.03848
  23732571.308 2     95666.859 2                
  21294134.261 6  -1240835.598 6   -961134.60247  21294128.16747
  22785073.440 6    835750.910 6    647601.31347  22785072.94447
 18  5 30  0 41 29.9990000  0 10G03G14G16G22G23G26G27G29G31G32      -0.000500675
  23444410.987 5  -1190783.488 5   -915527.88746  23444409.27246
  20505655.909 6   -380048.602 6   -290344.34048  20505650.30848
  20122300.987 6  -2052807.453 6  -1576901.14548  20122295.88248
  23463713.769 5   -678132.609 5   -526156.51646  23463706.96046
  23391752.526 6  -4335569.816 6  -3315064.72347  23391744.74947
  20425316.542 7   -838902.699 7   -645170.68048  20425314.24148
  21690075.448 6  -4443386.617 6  -3422012.77048  21690073.02248
  23733361.784 2     99819.086 2                
  21292793.378 6  -1247883.180 6   -966626.23047  21292786.97247
  22786306.847 6    842232.980 6    652652.25447  22786306.26947
 18  5 30  0 41 34.9980000  0 10G03G14G16G22G23G26G27G29G31G32       0.000492752
  23443244.045 5  -1196919.234 5   -920308.98046  23443241.97546
  20505516.139 6   -380779.438 6   -290913.82448  20505511.10748
  20120108.318 7  -2064330.906 7  -1585880.45748  20120103.05348
  23463060.451 5   -681565.012 5   -528831.10946  23463053.42446
  23386686.420 6  -4362192.996 6  -3335810.03547  23386678.97547
  20424514.350 7   -843118.387 7   -648455.64149  20424512.08049
  21684904.873 6  -4470559.066 6  -3443186.08648  21684902.27548
  23734153.670 2    103983.645 2                
  21291453.662 6  -1254921.566 6   -972110.69147  21291447.73647
  22787542.647 6    848724.078 6    657710.23847  22787541.30747
 18  5 30  0 41 39.9980000  0 10G03G14G16G22G23G26G27G29G31G32       0.000486181
  23442078.693 5  -1203042.035 5   -925079.97746  23442076.76846
  20505380.537 6   -381493.027 6   -291469.87148  20505375.15448
  20117917.834 6  -2075841.578 6  -1594849.81648  20117912.24848
  23462408.897 5   -684988.723 5   -531498.94146  23462402.35746
  23381620.436 6  -4388812.313 6  -3356552.39547  23381613.56147
  20423713.904 7   -847324.773 7   -651733.34048  20423711.84648
  21679735.014 6  -4497725.801 6  -3464354.97748  21679733.00648
  23734948.951 2    108161.934 2                
  21290115.459 6  -1261953.664 6   -977590.25847  21290109.61547
  22788780.248 5    855226.695 5    662777.19047  22788778.68947
 18  5 30  0 41 44.9980000  0 10G03G14G16G22G23G26G27G29G31G32       0.000479614
  23440916.272 5  -1209150.691 5   -929839.97346  23440914.68246
  20505248.662 6   -382189.262 6   -292012.39848  20505242.95948
  20115729.873 6  -2087337.223 6  -1603807.46548  20115724.85448
  23461758.998 5   -688403.035 5   -534159.43446  23461752.46346
  23376557.279 6  -4415422.453 6  -3377287.55547  23376549.84647
  20422915.514 7   -851521.035 7   -655003.16448  20422913.09648
  21674567.420 6  -4524881.383 6  -3485515.16448  21674564.98248
  23735746.803 1    112353.273 1                
  21288778.537 6  -1268978.074 6   -983063.80947  21288772.61147
  22790019.498 6    861739.602 6    667852.16847  22790018.45547
 18  5 30  0 41 49.9980000  0 10G03G14G16G22G23G26G27G29G31G32       0.000473047
  23439756.373 5  -1215244.914 5   -934588.72347  23439754.94347
  20505119.147 6   -382867.801 6   -292541.12548  20505113.53348
  20113545.272 6  -2098817.422 6  -1612753.07848  20113540.37348
  23461111.389 5   -691807.707 5   -536812.44146  23461104.45946
  23371495.022 6  -4442023.035 6  -3398015.28147  23371488.18647
  20422119.053 7   -855706.895 7   -658264.86348  20422116.89748
  21669402.256 6  -4552025.512 6  -3506666.43448  21669399.81148
  23736545.943 1    116557.883 1                
  21287443.326 6  -1275994.406 6   -988531.09047  21287437.10047
  22791261.022 6    868262.996 6    672935.31647  22791259.54947
 18  5 30  0 41 54.9980000  0 10G03G14G16G22G23G26G27G29G31G32       0.000466484
  23438599.850 5  -1221325.059 5   -939326.50446  23438598.14746
  20504993.334 6   -383529.016 6   -293056.35948  20504988.15848
  20111364.022 6  -2110282.613 6  -1621686.99648  20111358.85748
  23460465.701 5   -695203.117 5   -539458.23446  23460458.61946
  23366434.670 6  -4468614.484 6  -3418735.88347  23366427.85747
  20421324.139 7   -859882.688 7   -661518.73048  20421321.74448
  21664238.654 6  -4579158.523 6  -3527809.02348  21664236.30748
  23737346.45111                                
  21286109.701 6  -1283003.059 6   -993992.37547  21286103.74447
  22792504.350 6    874796.559 6    678026.39847  22792502.88147
 18  5 30  0 41 59.9980000  0 10G03G14G16G22G23G26G27G29G31G32       0.000459925
  23437445.506 5  -1227390.848 5   -944053.10546  23437443.77246
  20504870.412 6   -384172.551 6   -293557.82448  20504865.56848
  20109184.631 6  -2121732.512 6  -1630609.00048  20109179.84648
  23459821.404 5   -698588.934 5   -542096.54747  23459814.18247
  23361376.600 6  -4495196.395 6  -3439449.03947  23361369.65047
  20420531.686 7   -864048.117 7   -664764.52348  20420529.40448
  21659077.717 6  -4606280.105 6  -3548942.72348  21659075.40048
  23738151.795 1    125005.957 1                
  21284777.670 6  -1290003.754 6   -999447.47347  21284771.60447
  22793749.303 6    881340.598 6    683125.63347  22793747.95147
 18  5 30  0 42  4.9980000  0 10G03G14G16G22G23G26G27G29G31G32       0.000453365
  23436293.779 5  -1233442.656 5   -948768.79346  23436291.95946
  20504751.576 6   -384798.891 6   -294045.88748  20504746.44348
  20107009.076 6  -2133167.477 6  -1639519.36348  20107004.11148
  23459178.967 6   -701965.648 6   -544727.74246  23459172.10046
  23356319.834 6  -4521769.184 6  -3460155.09847  23356313.27947
  20419741.107 7   -868203.645 7   -668002.60249  20419738.28349
  21653918.881 6  -4633390.617 6  -3570067.78548  21653916.39748
  23738960.287 1    129249.297 1                
  21283446.842 6  -1296996.824 6  -1004896.61747  21283440.58447
  22794996.607 6    887894.625 6    688232.65647  22794995.61147
 18  5 30  0 42  9.9980000  0 10G03G14G16G22G23G26G27G29G31G32       0.000446810
  23435144.857 5  -1239480.445 5   -953473.59046  23435142.65446
  20504635.147 6   -385407.910 6   -294520.44548  20504630.43948
  20104835.693 7  -2144587.461 7  -1648418.05548  20104830.38548
  23458537.639 6   -705333.074 6   -547351.71946  23458530.80346
  23351264.404 6  -4548332.824 6  -3480854.02347  23351258.45947
  20418952.232 7   -872349.145 7   -671232.86348  20418949.42848
  21648762.217 6  -4660489.977 6  -3591184.17248  21648759.90048
  23739771.100 1    133505.539 1                
  21282117.967 6  -1303982.234 6  -1010339.79747  21282111.29147
  22796245.264 6    894458.809 6    693347.59447  22796244.62747
 18  5 30  0 42 14.9980000  0 10G03G14G16G22G23G26G27G29G31G32       0.000440258
  23433997.998 5  -1245504.102 5   -958167.32846  23433996.09646
  20504522.928 6   -385999.543 6   -294981.46148  20504517.74448
  20102665.834 7  -2155992.363 7  -1657305.00448  20102660.40048
  23457898.459 5   -708691.199 5   -549968.43046  23457892.23246
  23346211.545 6  -4574887.227 6  -3501545.77747  23346204.95947
  20418165.295 7   -876484.547 7   -674455.25448  20418162.76448
  21643607.482 6  -4687578.078 6  -3612291.78548  21643604.77548
  23740583.225 1    137774.652 1                
  21280789.943 6  -1310959.848 6  -1015776.89847  21280783.90047
  22797496.592 6    901033.168 6    698470.44547  22797495.63147
 18  5 30  0 42 19.9980000  0 10G03G14G16G22G23G26G27G29G31G32       0.000433708
  23432854.623 5  -1251513.500 5   -962850.00446  23432852.56846
  20504413.576 6   -386573.637 6   -295428.81348  20504408.65448
  20100498.795 6  -2167382.063 6  -1666180.09048  20100492.68948
  23457261.592 5   -712039.848 5   -552577.77746  23457254.94346
  23341160.264 6  -4601432.129 6  -3522230.12947  23341153.97947
  20417380.365 7   -880609.699 7   -677669.66048  20417377.42448
  21638454.897 6  -4714654.770 6  -3633390.49648  21638452.23248
  23741399.412 2    142056.867 2                
  21279463.631 6  -1317929.535 6  -1021207.82847  21279457.74447
  22798749.381 6    907617.867 6    703601.35947  22798748.54147
 18  5 30  0 42 24.9980000  0 10G03G14G16G22G23G26G27G29G31G32       0.000427160
  23431713.561 4  -1257509.059 4   -967521.86346  23431711.24446
  20504307.647 6   -387130.590 6   -295862.80148  20504303.26848
  20098333.725 6  -2178756.938 6  -1675043.63748  20098328.11148
  23456625.787 5   -715379.492 5   -555180.09446  23456619.96346
  23336110.482 6  -4627967.934 6  -3542907.36347  23336104.53747
  20416597.139 7   -884725.016 7   -680876.39848  20416594.59248
  21633304.318 6  -4741720.371 6  -3654480.57448  21633302.06848
  23742215.068 2    146351.773 2                
  21278138.764 6  -1324891.680 6  -1026632.86747  21278133.35447
  22800004.631 5    914212.508 5    708740.02347  22800003.81847
 18  5 30  0 42 29.9980000  0 10G03G14G16G22G23G26G27G29G31G32       0.000420614
  23430575.561 5  -1263490.645 5   -972182.86346  23430573.20946
  20504204.982 6   -387670.281 6   -296283.35248  20504200.08848
  20096172.022 6  -2190116.930 6  -1683895.58248  20096166.58848
  23455991.873 5   -718709.949 5   -557775.26246  23455986.48646
  23331062.709 6  -4654494.609 6  -3563577.51247  23331056.41647
  20415815.756 7   -888830.402 7   -684075.41048  20415813.25248
  21628156.092 6  -4768774.844 6  -3675561.98848  21628153.48248
  23743035.975 3    150659.367 3                
  21276815.561 6  -1331846.223 6  -1032051.99247  21276809.83047
  22801261.553 6    920817.180 6    713886.49247  22801260.66647
 18  5 30  0 42 34.9980000  0 10G03G14G16G22G23G26G27G29G31G32       0.000414072
  23429440.397 5  -1269458.180 5   -976832.89546  23429438.11146
  20504105.647 6   -388192.645 6   -296690.39548  20504100.68948
  20094013.272 6  -2201461.879 6  -1692735.80148  20094007.83848
  23455360.412 6   -722031.188 6   -560363.25846  23455354.21746
  23326016.811 6  -4681011.969 6  -3584240.39547  23326010.01447
  20415036.139 7   -892925.766 7   -687266.60948  20415034.38148
  21623009.920 6  -4795818.016 6  -3696634.57848  21623007.26048
  23743857.717 3    154979.809 3                
  21275493.342 6  -1338792.996 6  -1037465.06347  21275487.75647
  22802520.022 6    927431.957 6    719040.85247  22802519.41247
 18  5 30  0 42 39.9980000  0 10G03G14G16G22G23G26G27G29G31G32       0.000407532
  23428306.061 5  -1275411.836 5   -981472.09046  23428305.04546
  20504009.436 6   -388697.832 6   -297084.05948  20504004.64348
  20091857.357 7  -2212791.977 7  -1701564.45348  20091851.56848
  23454730.350 5   -725343.316 5   -562944.16046  23454724.00246
  23320972.092 6  -4707520.094 6  -3604896.05547  23320965.85447
  20414259.092 7   -897011.234 7   -690450.09449  20414256.85049
  21617865.818 6  -4822850.039 6  -3717698.49248  21617863.10748
  23744682.584 3    159312.953 3                
  21274172.287 6  -1345732.129 6  -1042872.19547  21274167.35747
  22803780.545 6    934056.723 6    724202.97747  22803780.67847
 18  5 30  0 42 44.9980000  0 10G03G14G16G22G23G26G27G29G31G32       0.000400993
  23427176.357 4  -1281351.617 4   -986100.51246  23427174.56846
  20503916.756 6   -389185.879 6   -297464.35548  20503911.84248
  20089703.639 7  -2224107.250 7  -1710381.55548  20089698.50248
  23454101.357 5   -728646.430 5   -565518.00846  23454095.95946
  23315929.342 6  -4734019.086 6  -3625544.62547  23315923.04947
  20413483.639 7   -901086.895 7   -693625.93048  20413481.10448
  21612724.529 6  -4849870.938 6  -3738753.74248  21612721.10448
  23745509.240 3    163658.730 3                
  21272853.920 6  -1352663.656 6  -1048273.39147  21272848.24847
  22805043.459 6    940691.402 6    729372.83247  22805042.86147
 18  5 30  0 42 49.9980000  0 10G03G14G16G22G23G26G27G29G31G32       0.000394459
  23426049.404 4  -1287277.227 4   -990717.87146  23426047.04946
  20503826.897 6   -389656.430 6   -297831.01648  20503822.10048
  20087553.373 7  -2235407.371 7  -1719186.82848  20087548.09248
  23453474.420 5   -731940.184 5   -568084.57046  23453468.86146
  23310889.045 6  -4760508.512 6  -3646185.72347  23310882.60447
  20412709.764 7   -905152.344 7   -696793.82048  20412707.85048
  21607584.225 6  -4876880.313 6  -3759800.00448  21607581.35048
  23746339.248 3    168017.508 3                
  21271536.334 6  -1359587.246 6  -1053668.39847  21271530.49447
  22806308.107 6    947336.324 6    734550.68047  22806307.21747
 18  5 30  0 42 54.9980000  0 10G03G14G16G22G23G26G27G29G31G32       0.000387926
  23424924.420 4  -1293188.945 4   -995324.40246  23424921.86146
  20503740.943 6   -390109.773 6   -298184.28148  20503736.29148
  20085406.240 7  -2246692.586 7  -1727980.50448  20085400.32648
  23452849.404 5   -735224.867 5   -570644.09846  23452843.53346
  23305849.600 6  -4786988.676 6  -3666819.60947  23305844.02547
  20411937.764 7   -909207.914 7   -699954.00848  20411935.88948
  21602446.522 6  -4903878.473 6  -3780837.53148  21602443.89748
  23747171.670 4    172389.047 4                
  21270220.217 6  -1366503.137 6  -1059057.40647  21270214.24047
  22807574.428 6    953991.230 6    739736.30147  22807573.57647
 18  5 30  0 42 59.9980000  0 10G03G14G16G22G23G26G27G29G31G32       0.000381395
  23423801.373 4  -1299086.863 4   -999920.19146  23423799.40446
  20503657.998 6   -390546.023 6   -298524.22348  20503653.06148
  20083261.740 7  -2257963.043 7  -1736762.68048  20083255.86548
  23452226.647 5   -738500.543 5   -573196.53946  23452219.70946
  23300812.529 6  -4813459.703 6  -3687446.40247  23300806.65047
  20411168.279 7   -913253.695 7   -703106.55948  20411165.70148
  21597311.428 6  -4930865.457 6  -3801866.35548  21597308.52548
  23748005.482 4    176773.137 4                
  21268905.373 6  -1373411.508 6  -1064440.55947  21268899.62747
  22808842.670 6    960655.988 6    744929.59447  22808841.67847
 18  5 30  0 43  4.9980000  0 10G03G14G16G22G23G26G27G29G31G32       0.000374868
  23422682.029 4  -1304970.707 4  -1004505.02346  23422679.29946
  20503578.467 6   -390964.918 6   -298850.64548  20503573.49048
  20081120.084 7  -2269218.453 7  -1745533.12548  20081114.10048
  23451605.045 5   -741766.984 5   -575741.85246  23451598.71746
  23295776.764 6  -4839921.320 6  -3708065.84447  23295770.65847
  20410400.139 7   -917289.438 7   -706251.30148  20410397.86948
  21592177.959 6  -4957841.020 6  -3822886.27348  21592175.54148
  23748842.272 3    181170.035 3                
  21267592.732 6  -1380311.996 6  -1069817.56648  21267586.54548
  22810112.475 6    967330.879 6    750130.78947  22810111.88547
 18  5 30  0 43  9.9980000  0 10G03G14G16G22G23G26G27G29G31G32       0.000368343
  23421565.123 4  -1310840.402 4  -1009078.82046  23421562.46746
  20503501.881 6   -391366.379 6   -299163.46948  20503497.35748
  20078980.732 7  -2280458.711 7  -1754291.77348  20078974.71348
  23450985.303 6   -745024.059 6   -578279.82846  23450978.62746
  23290743.818 6  -4866373.316 6  -3728677.78147  23290737.42847
  20409634.381 7   -921315.016 7   -709388.10948  20409631.84248
  21587046.623 6  -4984805.004 6  -3843897.16448  21587044.37748
  23749679.443 2    185579.934 2                
  21266281.092 6  -1387204.488 6  -1075188.34047  21266274.77247
  22811384.912 6    974015.996 6    755339.94547  22811384.39347
 18  5 30  0 43 14.9980000  0 10G03G14G16G22G23G26G27G29G31G32       0.000361820
  23420449.920 3  -1316696.469 3  -1013642.02046  23420447.84246
  20503428.967 6   -391750.887 6   -299463.09048  20503424.17048
  20076844.850 7  -2291684.355 7  -1763039.03148  20076838.24848
  23450366.537 5   -748272.375 5   -580810.98846  23450360.36146
  23285711.654 6  -4892816.230 6  -3749282.64547  23285705.20547
  20408870.022 7   -925330.977 7   -712517.44548  20408867.67048
  21581917.639 6  -5011757.918 6  -3864899.42648  21581915.01048
  23750521.881 3    190002.180 3                
  21264970.936 6  -1394089.543 6  -1080553.30948  21264965.11148
  22812659.053 6    980710.789 6    760556.65247  22812658.12747
 18  5 30  0 43 19.9980000  0 10G03G14G16G22G23G26G27G29G31G32       0.000355301
  23419338.811 4  -1322538.898 4  -1018194.56646  23419336.13546
  20503358.795 6   -392118.496 6   -299749.54748  20503353.90848
  20074711.193 7  -2302895.406 7  -1771774.91848  20074705.14348
  23449751.006 6   -751511.934 6   -583335.29346  23449744.17046
  23280681.115 5  -4919250.090 5  -3769880.44947  23280674.77947
  20408107.795 7   -929337.375 7   -715639.30548  20408105.38948
  21576790.740 6  -5038699.809 6  -3885893.11348  21576788.55748
  23751366.623 3    194436.797 3                
  21263662.045 6  -1400967.176 6  -1085912.50448  21263656.33848
  22813934.811 6    987415.234 6    765780.86747  22813934.33047
 18  5 30  0 43 24.9980000  0 10G03G14G16G22G23G26G27G29G31G32       0.000348782
  23418229.717 4  -1328367.887 4  -1022736.62146  23418227.11146
  20503291.943 6   -392469.230 6   -300022.85548  20503287.12348
  20072580.147 7  -2314091.902 7  -1780499.46948  20072574.27548
  23449135.897 5   -754742.793 5   -585852.89147  23449128.95947
  23275652.834 5  -4945674.930 5  -3790471.23047  23275646.15447
  20407346.678 7   -933334.199 7   -718753.73449  20407345.05749
  21571665.881 6  -5065630.680 6  -3906878.21148  21571663.53748
  23752212.725 3    198883.738 3                
  21262354.686 6  -1407837.387 6  -1091265.92248  21262348.99048
  22815211.779 6    994129.305 6    771012.59047  22815211.76847
 18  5 30  0 43 29.9980000  0 10G03G14G16G22G23G26G27G29G31G32       0.000342266
  23417122.686 4  -1334182.875 4  -1027267.77346  23417121.48246
  20503228.436 6   -392802.637 6   -300282.65248  20503223.40848
  20070452.787 7  -2325273.438 7  -1789212.34848  20070446.72948
  23448522.654 6   -757964.465 6   -588363.28546  23448515.79146
  23270625.787 5  -4972090.316 5  -3811054.67246  23270619.56846
  20406588.092 7   -937321.074 7   -721860.39549  20406586.26849
  21566543.834 6  -5092550.082 6  -3927854.35948  21566540.93248
  23753061.811 3    203343.414 3                
  21261048.709 7  -1414699.773 7  -1096613.24648  21261043.32248
  22816491.678 6   1000853.359 6    776252.08647  22816491.08847
 18  5 30  0 43 34.9980000  0 10G03G14G16G22G23G26G27G29G31G32       0.000335754
  23416018.717 3  -1339984.246 3  -1031788.34846  23416017.17846
  20503168.217 6   -393119.105 6   -300529.25448  20503163.38948
  20068327.561 7  -2336440.391 7  -1797913.87148  20068322.10448
  23447911.272 6   -761177.383 6   -590866.86346  23447904.79946
  23265600.811 6  -4998496.574 6  -3831630.98447  23265594.30347
  20405831.576 7   -941298.359 7   -724959.59449  20405829.35749
  21561422.561 6  -5119458.375 6  -3948821.86348  21561420.72148
  23753912.873 4    207815.375 4                
  21259744.561 6  -1421554.660 6  -1101954.72348  21259739.07648
  22817773.264 6   1007587.094 6    781499.12147  22817772.31147
 18  5 30  0 43 39.9980000  0 10G03G14G16G22G23G26G27G29G31G32       0.000329243
  23414917.561 4  -1345771.828 4  -1036298.16846  23414915.79146
  20503111.029 6   -393418.480 6   -300762.55148  20503106.51448
  20066205.756 7  -2347592.543 7  -1806603.85548  20066199.69348
  23447301.772 6   -764381.289 6   -593363.42246  23447294.89346
  23260577.725 6  -5024893.496 6  -3852200.02747  23260571.50247
  20405076.912 7   -945265.887 7   -728051.17648  20405074.54148
  21556304.443 6  -5146355.309 6  -3969780.51248  21556302.45548
  23754765.303 4    212299.992 4                
  21258441.522 6  -1428401.859 6  -1107290.21548  21258435.96348
  22819056.217 6   1014330.699 6    786753.86347  22819055.46347
 18  5 30  0 43 44.9980000  0 10G03G14G16G22G23G26G27G29G31G32       0.000322735
  23413818.772 3  -1351544.984 3  -1040796.77046  23413817.73246
  20503057.607 6   -393700.031 6   -300981.94548  20503052.84248
  20064086.475 7  -2358729.246 7  -1815281.80948  20064080.47148
  23446693.693 5   -767575.629 5   -595852.52746  23446686.90446
  23255556.389 6  -5051280.395 6  -3872761.25846  23255549.76446
  20404323.732 7   -949222.941 7   -731134.59448  20404321.37748
  21551188.904 6  -5173240.242 6  -3990729.80948  21551186.40848
  23755622.217 4    216797.781 4                
  21257140.037 6  -1435240.719 6  -1112619.19948  21257134.63548
  22820341.311 6   1021084.758 6    792016.73447  22820341.30347
 18  5 30  0 43 49.9980000  0 10G03G14G16G22G23G26G27G29G31G32       0.000316231
  23412723.709 4  -1357304.480 4  -1045284.68446  23412721.02246
  20503007.147 6   -393964.602 6   -301188.10548  20503002.27248
  20061969.873 7  -2369851.297 7  -1823948.34848  20061963.99448
  23446088.193 6   -770761.141 6   -598334.74246  23446080.24046
  23250537.092 6  -5077657.992 6  -3893315.22347  23250530.74047
  20403572.381 7   -953170.379 7   -734210.52048  20403570.38148
  21546074.178 6  -5200113.926 6  -4011670.33648  21546072.76448
  23756479.764 4    221308.043 4                
  21255839.920 7  -1442071.992 7  -1117942.28148  21255834.98248
  22821628.834 6   1027848.543 6    797287.19547  22821627.72547
 18  5 30  0 43 54.9980000  0 10G03G14G16G22G23G26G27G29G31G32       0.000309729
  23411629.537 4  -1363050.359 4  -1049762.00846  23411628.08846
  20502960.459 6   -394212.145 6   -301380.99648  20502955.38148
  20059856.350 7  -2380958.668 7  -1832603.44948  20059850.97548
  23445482.982 6   -773937.855 6   -600810.10946  23445475.88546
  23245519.615 6  -5104026.320 6  -3913861.98047  23245512.82647
  20402822.990 7   -957108.121 7   -737278.89548  20402821.06148
  21540963.287 6  -5226976.348 6  -4032602.09048  21540961.27948
  23757339.897 3    225830.656 3                
  21254541.428 6  -1448895.648 6  -1123259.42648  21254536.01448
  22822918.201 6   1034622.031 6    802565.20747  22822917.02947
 18  5 30  0 43 59.9980000  0 10G03G14G16G22G23G26G27G29G31G32       0.000303226
  23410538.920 4  -1368782.770 4  -1054228.81346  23410537.31846
  20502916.514 6   -394442.895 6   -301560.81348  20502911.45948
  20057745.514 7  -2392051.555 7  -1841247.25448  20057739.64348
  23444879.873 6   -777105.965 6   -603278.77346  23444873.43246
  23240503.287 6  -5130385.598 6  -3934401.66847  23240496.98647
  20402075.428 7   -961036.426 7   -740339.92248  20402073.46748
  21535853.834 6  -5253827.664 6  -4053525.19148  21535851.54148
  23758203.256 4    230365.402 4                
  21253244.834 6  -1455711.934 6  -1128570.80948  21253238.98648
  22824208.951 6   1041404.996 6    807850.61347  22824207.68947
 18  5 30  0 44  4.9980000  0 10G03G14G16G22G23G26G27G29G31G32       0.000296728
  23409451.045 4  -1374501.890 4  -1058685.28146  23409449.26446
  20502875.811 6   -394657.039 6   -301727.68048  20502870.97948
  20055637.264 7  -2403130.121 7  -1849879.90648  20055631.31148
  23444279.068 6   -780265.551 6   -605740.80546  23444272.38946
  23235488.428 6  -5156735.875 6  -3954934.35547  23235482.87747
  20401329.686 7   -964955.430 7   -743393.69549  20401327.47549
  21530746.037 6  -5280668.000 6  -4074439.73848  21530743.93648
  23759068.975 3    234912.355 3                
  21251949.053 6  -1462520.922 6  -1133876.51648  21251943.22548
  22825501.412 6   1048197.328 6    813143.32047  22825499.84247
 18  5 30  0 44  9.9980000  0 10G03G14G16G22G23G26G27G29G31G32       0.000290234
  23408365.107 4  -1380207.316 4  -1063131.09446  23408362.98646
  20502838.639 6   -394854.105 6   -301881.24248  20502833.14748
  20053532.115 7  -2414193.938 7  -1858501.05548  20053525.64748
  23443680.053 6   -783416.320 6   -608195.96546  23443672.83446
  23230475.990 5  -5183076.824 5  -3975459.77746  23230469.88946
  20400585.818 7   -968864.730 7   -746439.89548  20400583.85748
  21525640.287 6  -5307496.934 6  -4095345.39848  21525638.81148
  23759936.545 4    239471.672 4                
  21250654.686 6  -1469322.246 6  -1139176.23848  21250648.70548
  22826796.006 6   1054999.414 6    818443.62947  22826794.25247
 18  5 30  0 44 14.9980000  0 10G03G14G16G22G23G26G27G29G31G32       0.000283739
  23407282.350 4  -1385899.020 4  -1067566.19946  23407279.99446
  20502804.654 6   -395034.090 6   -302021.49248  20502798.79148
  20051429.482 7  -2425242.984 7  -1867110.70748  20051422.58048
  23443081.756 6   -786558.191 6   -610644.19146  23443074.34646
  23225465.232 5  -5209408.293 5  -3995977.78147  23225459.57247
  20399843.795 7   -972764.262 7   -749478.50448  20399841.82248
  21520537.436 6  -5334314.441 6  -4116242.15248  21520535.81848
  23760806.217 3    244043.531 3                
  21249362.006 6  -1476115.801 6  -1144469.91448  21249355.33048
  22828092.193 6   1061811.273 6    823751.53947  22828090.71347
 18  5 30  0 44 19.9980000  0 10G03G14G16G22G23G26G27G29G31G32       0.000277248
  23406201.990 4  -1391577.160 4  -1071990.72746  23406199.56846
  20502773.100 6   -395197.172 6   -302148.57448  20502768.02948
  20049329.428 7  -2436277.504 7  -1875709.03548  20049323.17448
  23442485.467 5   -789691.398 5   -613085.64847  23442477.99047
  23220457.107 6  -5235730.574 6  -4016488.66447  23220450.62747
  20399103.647 7   -976654.297 7   -752509.69948  20399101.26848
  21515436.654 6  -5361120.664 6  -4137130.11748  21515434.46348
  23761678.084 4    248627.633 4                
  21248070.451 6  -1482901.828 6  -1149757.73848  21248064.26448
  22829390.506 6   1068632.707 6    829066.93047  22829388.95547
 18  5 30  0 44 24.9980000  0 10G03G14G16G22G23G26G27G29G31G32       0.000270760
  23405123.498 4  -1397242.020 4  -1076404.92246  23405121.69346
  20502745.178 6   -395343.566 6   -302262.65248  20502740.35448
  20047232.693 7  -2447297.609 7  -1884296.12548  20047226.31148
  23441890.709 5   -792816.105 5   -615520.48447  23441883.54947
  23215449.545 6  -5262043.668 6  -4036992.36347  23215443.37747
  20398365.186 7   -980534.934 7   -755533.57848  20398362.86948
  21510337.600 6  -5387915.789 6  -4158009.43048  21510335.54148
  23762552.732 4    253223.859 4                
  21246780.240 6  -1489680.477 6  -1155039.78548  21246774.10048
  22830690.178 6   1075463.535 6    834389.63747  22830688.89347
 18  5 30  0 44 29.9980000  0 10G03G14G16G22G23G26G27G29G31G32       0.000264273
  23404047.428 4  -1402893.629 4  -1080808.78146  23404046.06846
  20502720.678 6   -395473.414 6   -302363.83648  20502715.57648
  20045137.990 7  -2458303.457 7  -1892872.12548  20045131.47548
  23441297.943 6   -795932.477 6   -617948.82846  23441290.84246
  23210443.912 6  -5288347.828 6  -4057489.13347  23210437.44747
  20397628.311 7   -984406.379 7   -758550.28548  20397626.58448
  21505240.990 6  -5414699.891 6  -4178880.16448  21505238.13948
  23763430.279 4    257832.031 4                
  21245491.928 7  -1496451.895 7  -1160316.21148  21245485.56848
  22831991.662 6   1082303.637 6    839719.57047  22831990.71347
 18  5 30  0 44 34.9980000  0 10G03G14G16G22G23G26G27G29G31G32       0.000257788
  23402975.967 4  -1408531.824 4  -1085202.21146  23402973.35746
  20502698.928 6   -395586.445 6   -302451.92248  20502694.11148
  20043046.662 7  -2469294.844 7  -1901436.84048  20043040.08048
  23440706.592 6   -799040.227 6   -620370.46546  23440699.40046
  23205440.006 5  -5314642.742 5  -4077978.68847  23205433.93947
  20396893.404 7   -988268.383 7   -761559.63748  20396891.77948
  21500145.732 6  -5441472.773 6  -4199742.14848  21500143.73248
  23764308.772 4    262452.379 4                
  21244204.818 6  -1503215.828 6  -1165586.81648  21244198.26848
  22833295.787 6   1089153.184 6    845056.85947  22833294.19347
 18  5 30  0 44 39.9980000  0 10G03G14G16G22G23G26G27G29G31G32       0.000251307
  23401904.904 4  -1414156.531 4  -1089585.09846  23401902.84646
  20502680.397 6   -395682.609 6   -302526.86348  20502675.77548
  20040957.654 7  -2480271.668 7  -1909990.21148  20040951.33848
  23440117.154 6   -802139.426 6   -622785.43846  23440109.59646
  23200438.318 6  -5340928.324 6  -4098460.96947  23200431.89747
  20396160.232 7   -992120.879 7   -764561.58649  20396158.41249
  21495053.264 6  -5468234.309 6  -4220595.28148  21495050.66248
  23765191.045 4    267084.961 4                
  21242918.779 7  -1509972.207 7  -1170851.53548  21242913.01448
  22834600.709 6   1096012.266 6    850401.59047  22834599.09647
 18  5 30  0 44 44.9980000  0 10G03G14G16G22G23G26G27G29G31G32       0.000244827
  23400837.115 4  -1419768.051 4  -1093957.71146  23400835.12746
  20502665.272 6   -395762.203 6   -302588.88348  20502660.75248
  20038871.842 7  -2491234.215 7  -1918532.45748  20038865.06848
  23439528.568 6   -805230.262 6   -625193.88347  23439520.99847
  23195438.256 6  -5367204.816 6  -4118936.13747  23195431.74447
  20395428.857 7   -995964.148 7   -767556.34449  20395427.27249
  21489962.943 6  -5494984.781 6  -4241439.82448  21489959.93248
  23766073.943 4    271729.480 4                
  21241634.975 7  -1516721.281 7  -1176110.55948  21241628.67848
  22835908.061 6   1102880.590 6    855753.50047  22835906.52247
 18  5 30  0 44 49.9980000  0 10G03G14G16G22G23G26G27G29G31G32       0.000238350
  23399772.162 4  -1425366.363 4  -1098320.01646  23399769.80346
  20502653.412 6   -395825.234 6   -302638.00848  20502648.89748
  20036788.232 6  -2502182.555 6  -1927063.62548  20036781.45148
  23438942.256 6   -808312.813 6   -627595.88347  23438934.81847
  23190439.678 6  -5393472.289 6  -4139404.28147  23190433.32247
  20394699.318 7   -999798.211 7   -770543.93049  20394697.74049
  21484874.615 6  -5521724.199 6  -4262275.72748  21484871.74448
  23766960.092 4    276385.934 4                
  21240352.045 7  -1523463.047 7  -1181363.89548  21240345.88548
  22837216.178 6   1109758.160 6    861112.62147  22837215.16247
 18  5 30  0 44 54.9980000  0 10G03G14G16G22G23G26G27G29G31G32       0.000231874
  23398708.615 4  -1430951.227 4  -1102671.88346  23398707.12746
  20502644.326 6   -395871.387 6   -302673.97748  20502639.76448
  20034707.912 6  -2513116.348 6  -1935583.46148  20034701.12348
  23438357.100 6   -811386.668 6   -629991.08647  23438349.76047
  23185442.912 6  -5419730.395 6  -4159865.13347  23185436.35747
  20393971.568 7  -1003622.762 7   -773524.10548  20393970.08448
  21479788.897 6  -5548452.184 6  -4283102.72748  21479785.87748
  23767848.693 4    281054.535 4                
  21239070.412 6  -1530197.176 6  -1186611.25848  21239064.61548
  22838527.139 6   1116645.230 6    866479.15247  22838525.84247
 18  5 30  0 44 59.9980000  0 10G03G14G16G22G23G26G27G29G31G32       0.000225401
  23397649.178 4  -1436522.820 4  -1107013.38746  23397646.94346
  20502639.014 6   -395900.883 6   -302696.97348  20502634.29148
  20032629.834 6  -2524035.801 6  -1944092.12948  20032623.04948
  23437773.561 5   -814452.145 5   -632379.78547  23437766.48647
  23180447.772 5  -5445979.348 5  -4180318.87547  23180442.02947
  20393245.459 7  -1007438.059 7   -776497.06648  20393243.68948
  21474704.232 6  -5575168.965 6  -4303921.00048  21474701.66648
  23768739.850 4    285735.270 4                
  21237790.311 6  -1536923.926 6  -1191852.90248  21237785.22548
  22839839.162 6   1123541.645 6    871852.95747  22839838.20547
 18  5 30  0 45  4.9980000  0 10G03G14G16G22G23G26G27G29G31G32       0.000218931
  23396591.381 4  -1442081.145 4  -1111344.53946  23396589.45946
  20502637.123 6   -395913.652 6   -302706.93848  20502632.40448
  20030554.381 7  -2534940.867 7  -1952589.58248  20030547.72148
  23437192.131 6   -817509.125 6   -634761.85547  23437184.90447
  23175454.834 6  -5472219.023 6  -4200765.39147  23175448.00647
  20392521.334 7  -1011243.996 7   -779462.73449  20392519.41649
  21469622.475 6  -5601874.488 6  -4324730.50048  21469619.28748
  23769631.975 4    290427.992 4                
  21236511.576 6  -1543643.207 6  -1197088.71148  21236506.57248
  22841153.920 6   1130447.383 6    877234.02747  22841152.12747
 18  5 30  0 45  9.9980000  0 10G03G14G16G22G23G26G27G29G31G32       0.000212461
  23395536.225 4  -1447626.539 4  -1115665.62946  23395534.09646
  20502637.154 6   -395910.219 6   -302704.26248  20502632.35448
  20028482.170 7  -2545831.984 7  -1961076.16448  20028475.71748
  23436612.154 6   -820558.184 6   -637137.77047  23436604.72547
  23170463.279 6  -5498449.867 6  -4221205.00447  23170456.84647
  20391798.975 7  -1015041.023 7   -782421.45748  20391796.79948
  21464542.842 6  -5628569.156 6  -4345531.54348  21464540.17048
  23770527.170 4    295132.289 4                
  21235234.826 7  -1550355.457 7  -1202319.04348  21235229.25648
  22842469.318 6   1137362.043 6    882622.05547  22842467.93247
 18  5 30  0 45 14.9980000  0 10G03G14G16G22G23G26G27G29G31G32       0.000205996
  23394484.779 5  -1453158.828 5  -1119976.52746  23394481.63146
  20502640.873 6   -395890.219 6   -302688.67648  20502636.24848
  20026412.092 7  -2556708.910 7  -1969551.69148  20026405.99848
  23436033.131 6   -823598.941 6   -639507.21547  23436026.25647
  23165473.568 6  -5524671.633 6  -4241637.55547  23165467.36147
  20391077.936 7  -1018828.918 7   -785373.05948  20391076.05748
  21459464.826 6  -5655252.680 6  -4366323.89548  21459462.26848
  23771425.045 4    299848.465 4                
  21233958.584 7  -1557060.398 7  -1207543.68048  21233953.37348
  22843787.46716                    888018.48857  22843785.61157
 18  5 30  0 45 19.9980000  0 10G03G14G16G22G23G26G27G29G31G32       0.000199532
  23393433.334 5  -1458678.234 5  -1124277.34446  23393431.10746
  20502647.756 6   -395853.918 6   -302660.40648  20502643.09648
  20024345.045 7  -2567571.887 7  -1978016.35548  20024338.39748
  23435455.732 6   -826631.680 6   -641870.39547  23435448.50247
  23160485.311 6  -5550884.469 6  -4262063.14547  23160478.72947
  20390358.998 7  -1022607.887 7   -788317.73049  20390357.15449
  21454389.334 6  -5681925.266 6  -4387107.73048  21454386.40848
  23772324.975 4    304576.270 4                
  21232684.451 7  -1563758.254 7  -1212762.78548  21232679.10048
  22845105.709 6   1151219.617 6    893420.39547  22845105.00247
 18  5 30  0 45 24.9980000  0 10G03G14G16G22G23G26G27G29G31G32       0.000193069
  23392385.709 5  -1464184.574 5  -1128568.00846  23392383.27546
  20502657.826 6   -395801.105 6   -302619.25048  20502653.17848
  20022280.311 6  -2578420.656 6  -1986469.94948  20022274.45148
  23434880.623 6   -829656.156 6   -644227.12547  23434873.37347
  23155499.209 6  -5577088.172 6  -4282481.62547  23155492.65447
  20389641.412 7  -1026377.703 7   -791255.25048  20389640.14348
  21449315.428 6  -5708586.695 6  -4407882.86748  21449312.75248
  23773227.248 3    309315.934 3                
  21231410.959 7  -1570448.828 7  -1217976.22748  21231405.64748
  22846426.967 6   1158161.500 6    898829.57447  22846425.55747
 18  5 30  0 45 29.9980000  0 10G03G14G16G22G23G26G27G29G31G32       0.000186609
  23391340.623 5  -1469677.504 5  -1132848.20746  23391338.00646
  20502670.764 6   -395731.465 6   -302564.98448  20502666.50648
  20020218.615 6  -2589254.957 6  -1994912.26248  20020212.46748
  23434306.873 6   -832672.121 6   -646577.25047  23434299.47947
  23150514.342 6  -5603282.418 6  -4302892.73847  23150507.63547
  20388925.881 7  -1030138.113 7   -794185.45348  20388924.47148
  21444244.279 6  -5735236.645 6  -4428649.06348  21444241.67048
  23774130.897 3    314067.715 3                
  21230139.264 7  -1577131.770 7  -1223183.72348  21230133.65848
  22847749.459 6   1165112.820 6    904246.18847  22847748.69347
 18  5 30  0 45 34.9980000  0 10G03G14G16G22G23G26G27G29G31G32       0.000180151
  23390297.561 4  -1475157.367 4  -1137118.23846  23390295.34246
  20502687.576 6   -395645.387 6   -302497.91048  20502682.86148
  20018159.732 6  -2600075.176 6  -2003343.59848  20018153.89348
  23433734.365 6   -835679.895 6   -648920.98847  23433727.74447
  23145531.928 6  -5629467.551 6  -4323296.74647  23145525.02547
  20388212.201 7  -1033889.453 7   -797108.58648  20388210.00248
  21439174.959 6  -5761875.480 6  -4449406.60248  21439172.40848
  23775037.318 3    318831.215 3                
  21228868.553 7  -1583807.488 7  -1228385.57848  21228863.00648
  22849073.779 6   1172073.203 6    909669.83247  22849072.90447
 18  5 30  0 45 39.9980000  0 10G03G14G16G22G23G26G27G29G31G32       0.000173697
  23389256.318 4  -1480624.121 4  -1141378.03146  23389254.63146
  20502706.850 6   -395542.785 6   -302417.96548  20502702.63548
  20016103.092 6  -2610881.148 6  -2011763.84048  20016097.19748
  23433163.178 6   -838679.516 6   -651258.36347  23433156.56147
  23140550.436 6  -5655643.504 6  -4343693.57847  23140543.81447
  20387499.936 7  -1037631.613 7   -800024.55148  20387498.10048
  21434108.303 6  -5788502.996 6  -4470155.30948  21434105.63948
  23775946.631 3    323606.645 3                
  21227599.795 7  -1590475.766 7  -1233581.64148  21227594.06148
  22850399.756 6   1179042.754 6    915100.63747  22850399.83447
 18  5 30  0 45 44.9980000  0 10G03G14G16G22G23G26G27G29G31G32       0.000167242
  23388218.459 3  -1486077.992 3  -1145627.83246  23388217.08446
  20502729.217 6   -395423.930 6   -302325.34848  20502724.88148
  20014049.334 6  -2621673.164 6  -2020173.19948  20014043.70148
  23432594.443 6   -841671.168 6   -653589.53147  23432587.24047
  23135571.045 6  -5681810.418 6  -4364083.35947  23135564.33047
  20386789.342 7  -1041364.910 7   -802933.62548  20386787.51848
  21429043.154 6  -5815119.559 6  -4490895.48048  21429040.29948
  23776857.561 3    328393.641 3                
  21226332.107 7  -1597136.926 7  -1238772.15648  21226326.90048
  22851728.522 6   1186021.207 6    920538.34847  22851727.24447
 18  5 30  0 45 49.9980000  0 10G03G14G16G22G23G26G27G29G31G32       0.000160791
  23387183.881 4  -1491518.652 4  -1149867.28546  23387181.62346
  20502755.014 6   -395288.375 6   -302219.73448  20502751.02248
  20011998.662 6  -2632450.809 6  -2028571.35948  20011992.77548
  23432026.990 6   -844654.324 6   -655914.07847  23432019.42047
  23130593.311 6  -5707967.984 6  -4384465.86347  23130586.90447
  20386080.795 7  -1045088.855 7   -805835.39548  20386078.78748
  21423979.982 6  -5841724.637 6  -4511626.71148  21423977.31448
  23777769.842 3    333192.602 3                
  21225066.397 7  -1603790.531 7  -1243956.79748  21225060.56148
  22853057.834 6   1193008.949 6    925983.33247  22853056.90047
 18  5 30  0 45 54.9980000  0 10G03G14G16G22G23G26G27G29G31G32       0.000154343
  23386150.256 5  -1496946.309 5  -1154096.62946  23386148.35746
  20502784.459 6   -395136.410 6   -302101.31648  20502779.88148
  20009950.334 6  -2643214.336 6  -2036958.53548  20009944.55748
  23431460.795 6   -847629.402 6   -658232.32047  23431453.74847
  23125617.631 6  -5734116.438 6  -4404841.27347  23125611.00647
  20385373.873 7  -1048803.777 7   -808730.15648  20385372.00248
  21418919.342 6  -5868318.496 6  -4532349.19548  21418916.84648
  23778685.561 4    338003.258 4                
  21223801.436 7  -1610436.883 7  -1249135.77348  21223795.82248
  22854389.131 6   1200005.719 6    931435.33247  22854388.77547
 18  5 30  0 45 59.9980000  0 10G03G14G16G22G23G26G27G29G31G32       0.000147896
  23385120.537 5  -1502360.891 5  -1158315.79346  23385118.18246
  20502816.256 6   -394967.891 6   -301970.02048  20502811.79548
  20007904.639 7  -2653963.691 7  -2045334.64848  20007898.69348
  23430895.959 6   -850596.297 6   -660544.20347  23430889.35747
  23120643.615 6  -5760255.629 6  -4425209.46947  23120636.91247
  20384668.748 7  -1052509.598 7   -811617.81648  20384667.13948
  21413861.373 6  -5894901.113 6  -4553062.91448  21413858.47948
  23779603.607 4    342825.727 4                
  21222538.162 7  -1617075.840 7  -1254308.99248  21222532.46748
  22855722.818 6   1207011.586 6    936894.42647  22855721.85047
 18  5 30  0 46  4.9980000  0 10G03G14G16G22G23G26G27G29G31G32       0.000141451
  23384092.951 5  -1507762.895 5  -1162525.13746  23384090.58446
  20502851.131 6   -394783.359 6   -301826.22748  20502847.04148
  20005861.975 7  -2664699.316 7  -2053700.07848  20005855.92848
  23430332.592 6   -853555.480 6   -662850.07447  23430326.33047
  23115670.725 6  -5786386.039 6  -4445570.83247  23115664.34247
  20383965.264 7  -1056206.793 7   -814498.75448  20383963.37748
  21408804.787 6  -5921472.852 6  -4573768.16448  21408802.21348
  23780523.225 4    347659.543 4                
  21221276.162 7  -1623707.914 7  -1259476.84048  21221270.31848
  22857056.881 6   1214026.070 6    942360.23847  22857057.04147
 18  5 30  0 46  9.9980000  0 10G03G14G16G22G23G26G27G29G31G32       0.000135008
  23383067.342 5  -1513151.938 5  -1166724.41046  23383065.04946
  20502889.412 6   -394582.426 6   -301669.66448  20502885.58848
  20003821.865 6  -2675420.867 6  -2062054.53548  20003815.89748
  23429771.022 6   -856506.531 6   -665149.60547  23429764.33047
  23110700.647 6  -5812507.250 6  -4465925.01647  23110693.72147
  20383263.240 7  -1059894.945 7   -817372.62548  20383261.27548
  21403750.545 6  -5948033.328 6  -4594464.64148  21403747.76048
  23781445.912 4    352505.035 4                
  21220015.162 7  -1630332.637 7  -1264638.95748  21220009.68948
  22858393.787 6   1221049.551 6    947833.05147  22858393.52547
 18  5 30  0 46 14.9980000  0 10G03G14G16G22G23G26G27G29G31G32       0.000128567
  23382044.693 5  -1518528.066 5  -1170913.59847  23382042.06147
  20502930.701 6   -394365.156 6   -301500.36748  20502926.68248
  20001784.232 6  -2686128.449 6  -2070398.10248  20001778.23248
  23429210.920 5   -859449.641 5   -667442.93447  23429204.06847
  23105731.084 6  -5838619.316 6  -4486272.08247  23105724.47947
  20382563.178 7  -1063574.172 7   -820239.55148  20382561.31148
  21398698.186 6  -5974582.641 6  -4615152.41448  21398695.60448
  23782369.709 4    357362.176 4                
  21218756.100 7  -1636950.129 7  -1269795.43848  21218750.76048
  22859732.178 6   1228081.934 6    953312.81347  22859731.72547
 18  5 30  0 46 19.9980000  0 10G03G14G16G22G23G26G27G29G31G32       0.000122128
  23381023.373 5  -1523891.359 5  -1175092.78946  23381021.02946
  20502975.029 6   -394131.586 6   -301318.36748  20502970.92848
  19999749.209 6  -2696822.027 6  -2078730.76648  19999743.63148
  23428652.967 6   -862384.703 6   -669730.00047  23428646.18247
  23100764.279 6  -5864722.284 6  -4506612.06447  23100757.45147
  20381864.514 7  -1067244.473 7   -823099.53148  20381862.97948
  21393648.264 6  -6001120.746 6  -4635831.44948  21393646.10048
  23783296.732 4    362230.852 4                
  21217498.404 7  -1643560.426 7  -1274946.32848  21217492.44348
  22861072.654 6   1235123.224 6    958799.50047  22861071.28347
 18  5 30  0 46 24.9980000  0 10G03G14G16G22G23G26G27G29G31G32       0.000115692
  23380005.381 5  -1529241.379 5  -1179261.65247  23380003.09647
  20503022.717 6   -393881.246 6   -301123.30148  20503018.26448
  19997717.123 6  -2707501.215 6  -2087052.20748  19997711.30748
  23428096.014 6   -865311.340 6   -672010.50447  23428089.44747
  23095798.975 6  -5890815.625 6  -4526944.53547  23095792.36547
  20381168.467 7  -1070905.445 7   -825952.23448  20381166.01848
  21388600.350 6  -6027647.211 6  -4656501.41848  21388597.85748
  23784225.561 4    367111.523 4                
  21216241.545 7  -1650163.047 7  -1280091.23448  21216236.03748
  22862413.967 6   1242173.852 6    964293.48447  22862413.12747
 18  5 30  0 46 29.9980000  0 10G03G14G16G22G23G26G27G29G31G32       0.000109259
  23378989.201 5  -1534579.035 5  -1183420.85246  23378987.60046
  20503073.779 6   -393615.109 6   -300915.92248  20503069.52248
  19995687.865 6  -2718166.906 6  -2095363.14848  19995681.43948
  23427539.928 6   -868230.492 6   -674285.18047  23427533.66247
  23090835.022 6  -5916900.289 6  -4547270.26247  23090828.67847
  20380473.318 7  -1074558.020 7   -828798.40248  20380470.72148
  21383554.787 6  -6054162.953 6  -4677163.03148  21383552.18948
  23785156.686 4    372003.258 4     91346.57456  23785148.87756
  21214986.756 7  -1656758.918 7  -1285230.87548  21214981.08048
  22863757.467 6   1249232.828 6    969793.96547  22863756.35447
 18  5 30  0 46 34.9980000  0 10G03G14G16G22G23G26G27G29G31G32       0.000102825
  23377976.217 5  -1539903.895 5  -1187570.09446  23377974.08846
  20503127.248 6   -393332.695 6   -300695.85948  20503122.32248
  19993660.568 6  -2728818.684 6  -2103663.23848  19993654.52948
  23426986.889 6   -871141.645 6   -676553.59847  23426979.67447
  23085872.803 6  -5942975.781 6  -4567588.80947  23085866.35747
  20379780.006 7  -1078201.711 7   -831637.63348  20379777.59248
  21378511.217 6  -6080667.457 6  -4697815.89548  21378508.40448
  23786089.959 4    376906.531 4     95167.32045  23786082.90845
  21213732.943 7  -1663347.531 7  -1290364.86348  21213726.89748
  22865102.475 6   1256300.641 6    975301.34047  22865101.62347
 18  5 30  0 46 39.9980000  0 10G03G14G16G22G23G26G27G29G31G32       0.000096395
  23376965.943 5  -1545215.902 5  -1191709.32046  23376963.14746
  20503184.311 6   -393033.977 6   -300463.09848  20503179.85748
  19991636.279 6  -2739456.480 6  -2111952.43448  19991630.16648
  23426433.357 6   -874044.938 6   -678815.92247  23426427.54547
  23080913.037 6  -5969042.109 6  -4587900.21947  23080906.09647
  20379088.326 7  -1081836.516 7   -834469.94948  20379085.74848
  21373469.522 6  -6107160.727 6  -4718460.00048  21373467.25648
  23787025.123 3    381821.332 3     98997.01645  23787018.33445
  21212480.529 7  -1669928.898 7  -1295493.20748  21212474.73248
  22866449.537 6   1263377.297 6    980815.59847  22866448.20147
 18  5 30  0 46 44.9980000  0 10G03G14G16G22G23G26G27G29G31G32       0.000089968
  23375957.107 5  -1550515.039 5  -1195838.52347  23375954.88147
  20503243.490 6   -392718.891 6   -300217.57448  20503239.70948
  19989614.615 6  -2750080.258 6  -2120230.69548  19989608.52248
  23425882.959 6   -876940.254 6   -681072.01647  23425876.58047
  23075953.943 6  -5995099.168 6  -4608204.41447  23075947.58047
  20378398.240 7  -1085462.371 7   -837295.30948  20378395.95548
  21368430.209 6  -6133642.641 6  -4739095.24648  21368427.44348
  23787962.209 4    386747.684 4    102835.72345  23787956.81445
  21211229.256 7  -1676502.941 7  -1300615.85548  21211223.89348
  22867797.522 6   1270462.898 6    986336.81647  22867796.65847
 18  5 30  0 46 49.9980000  0 10G03G14G16G22G23G26G27G29G31G32       0.000083542
  23374950.818 5  -1555800.770 5  -1199957.27347  23374948.96347
  20503306.928 6   -392386.922 6   -299958.90248  20503302.93648
  19987595.951 6  -2760689.504 6  -2128497.65248  19987590.01848
  23425333.693 6   -879827.090 6   -683321.52047  23425327.11547
  23070997.490 6  -6021146.441 6  -4628500.98447  23070990.92847
  20377709.982 7  -1089078.770 7   -840113.27348  20377707.64348
  21363393.670 6  -6160112.664 6  -4759721.23448  21363390.52548
  23788901.139 4    391686.156 4    106683.87545  23788896.73245
  21209980.154 7  -1683069.133 7  -1305732.37148  21209974.38548
  22869148.178 6   1277557.926 6    991865.39847  22869146.79547
 18  5 30  0 46 54.9980000  0 10G03G14G16G22G23G26G27G29G31G32       0.000077120
  23373947.756 5  -1561073.402 5  -1204065.81647  23373945.72547
  20503374.154 6   -392038.391 6   -299687.32448  20503369.38148
  19985579.607 6  -2771284.461 6  -2136753.46148  19985573.69348
  23424785.693 6   -882705.695 6   -685564.60547  23424779.32647
  23066042.756 6  -6047184.148 6  -4648790.12147  23066036.59247
  20377023.522 7  -1092685.973 7   -842924.08248  20377021.26048
  21358358.162 6  -6186571.090 6  -4780338.18848  21358355.64748
  23789843.592 4    396636.469 4    110541.19945  23789839.00645
  21208732.076 7  -1689627.699 7  -1310842.94148  21208726.42448
  22870499.795 6   1284662.082 6    997401.09047  22870498.78347
 18  5 30  0 46 59.9980000  0 10G03G14G16G22G23G26G27G29G31G32       0.000070698
  23372947.209 6  -1566333.742 6  -1208164.79347  23372944.45547
  20503443.225 6   -391674.102 6   -299403.46948  20503438.56848
  19983565.990 6  -2781866.000 6  -2144998.82448  19983560.33848
  23424239.154 6   -885576.930 6   -687801.91847  23424233.05347
  23061089.873 6  -6073213.082 6  -4669072.41047  23061083.17847
  20376338.615 7  -1096284.836 7   -845728.39548  20376336.64348
  21353325.428 6  -6213018.695 6  -4800946.71948  21353323.08048
  23790788.389 3    401597.750 3    114407.23845  23790783.34645
  21207485.131 7  -1696179.484 7  -1315948.24248  21207479.95548
  22871852.920 6   1291774.523 6   1002943.23047  22871852.39747
 18  5 30  0 47  4.9980000  0 10G03G14G16G22G23G26G27G29G31G32       0.000064278
  23371948.623 6  -1571580.895 6  -1212253.50446  23371946.11946
  20503515.678 6   -391293.172 6   -299106.64148  20503511.08048
  19981555.193 6  -2792433.180 6  -2153232.98848  19981549.20948
  23423694.600 6   -888439.898 6   -690032.80947  23423687.92447
  23056138.139 6  -6099232.383 6  -4689347.19547  23056131.87347
  20375655.803 7  -1099874.461 7   -848525.50848  20375653.00648
  21348295.006 6  -6239454.566 6  -4821546.08648  21348292.43648
  23791734.654 3    406570.926 3    118282.35245  23791729.83845
  21206240.248 7  -1702723.590 7  -1321047.54348  21206234.81148
  22873208.225 6   1298896.152 6   1008492.52747  22873207.52247
 18  5 30  0 47  9.9980000  0 10G03G14G16G22G23G26G27G29G31G32       0.000057861
  23370952.506 6  -1576815.285 6  -1216332.24647  23370950.23247
  20503591.287 6   -390895.980 6   -298797.14848  20503586.95948
  19979546.623 6  -2802986.430 6  -2161456.29748  19979540.47548
  23423151.295 6   -891294.953 6   -692257.53947  23423144.51847
  23051188.701 6  -6125242.406 6  -4709614.74647  23051182.36147
  20374974.404 7  -1103455.215 7   -851315.70748  20374971.92848
  21343266.959 6  -6265879.117 6  -4842136.63748  21343263.45148
  23792683.147 3    411555.551 3    122166.50445  23792679.04545
  21204995.818 7  -1709260.383 7  -1326141.16448  21204990.53748
  22874565.326 6   1306026.617 6   1014048.71147  22874564.68247
 18  5 30  0 47 14.9980000  0 10G03G14G16G22G23G26G27G29G31G32       0.000051447
  23369958.662 6  -1582036.680 6  -1220400.88347  23369956.56447
  20503670.154 6   -390482.352 6   -298474.84848  20503665.22548
  19977541.193 6  -2813525.590 6  -2169668.63348  19977535.18948
  23422609.779 6   -894141.977 6   -694476.01247  23422602.89747
  23046241.240 6  -6151242.957 6  -4729874.91847  23046234.67447
  20374294.420 7  -1107026.949 7   -854098.87948  20374292.11548
  21338240.498 6  -6292292.074 6  -4862718.15648  21338237.08448
  23793634.279 3    416551.852 3                
  21203753.537 7  -1715789.680 7  -1331228.93448  21203748.45148
  22875923.881 6   1313166.051 6   1019611.88747  22875923.25247
 18  5 30  0 47 19.9980000  0 10G03G14G16G22G23G26G27G29G31G32       0.000045034
  23368967.592 5  -1587245.320 5  -1224459.57047  23368965.60447
  20503752.139 6   -390052.414 6   -298139.83648  20503747.16648
  19975538.443 6  -2824050.793 6  -2177870.09848  19975532.33448
  23422068.959 6   -896981.109 6   -696688.31347  23422062.86947
  23041295.186 6  -6177234.164 6  -4750127.80147  23041288.54547
  20373616.772 7  -1110589.859 7   -856875.19948  20373614.20948
  21333216.686 6  -6318693.617 6  -4883290.78148  21333213.16248
  23794587.326 3    421559.637 3                
  21202512.217 7  -1722311.633 7  -1336310.98448  21202507.60448
  22877283.975 6   1320314.289 6   1025181.91847  22877283.66647
 18  5 30  0 47 24.9980000  0 10G03G14G16G22G23G26G27G29G31G32       0.000038624
  23367979.022 5  -1592440.445 5  -1228507.71946  23367976.95146
  20503836.701 6   -389605.461 6   -297791.55548  20503832.58448
  19973538.756 6  -2834561.277 6  -2186060.07848  19973531.77948
  23421530.936 6   -899811.570 6   -698893.87947  23421524.24047
  23036351.186 6  -6203215.281 6  -4770372.83247  23036344.49047
  20372940.482 7  -1114143.172 7   -859644.02748  20372938.30748
  21328194.795 6  -6345082.996 6  -4903853.93048  21328191.47148
  23795543.209 3    426579.668 3                
  21201273.459 7  -1728825.402 7  -1341386.65248  21201268.06148
  22878646.436 6   1327472.055 6   1030759.38347  22878645.65047
 18  5 30  0 47 29.9980000  0 10G03G14G16G22G23G26G27G29G31G32       0.000032217
  23366992.647 5  -1597622.625 5  -1232545.76646  23366991.77246
  20503925.287 7   -389142.063 7   -297430.48048  20503920.65448
  19971541.693 6  -2845057.684 6  -2194239.10948  19971534.64748
  23420993.350 6   -902634.070 6   -701093.23047  23420987.62747
  23031409.209 6  -6229186.852 6  -4790610.41447  23031402.22547
  20372265.990 7  -1117687.477 7   -862405.84048  20372263.20548
  21323175.272 6  -6371460.805 6  -4924408.07048  21323172.01048
  23796499.967 3    431611.289 3                
  21200034.678 7  -1735331.703 7  -1346456.50048  21200029.47948
  22880010.154 6   1334638.781 6   1036343.81347  22880008.86147
 18  5 30  0 47 34.9980000  0 10G03G14G16G22G23G26G27G29G31G32       0.000025810
  23366009.397 6  -1602791.949 6  -1236573.82847  23366007.39747
  20504016.779 6   -388662.273 6   -297056.61348  20504011.77248
  19969546.357 6  -2855539.988 6  -2202407.13748  19969540.26448
  23420457.365 6   -905448.613 6   -703286.39147  23420451.63947
  23026468.482 6  -6255148.977 6  -4810840.62147  23026461.09247
  20371593.467 7  -1121222.793 7   -865160.63348  20371591.26048
  21318158.084 6  -6397827.004 6  -4944953.15248  21318154.63548
  23797459.084 3    436654.473 3                
  21198798.264 7  -1741830.523 7  -1351520.52048  21198792.76848
  22881375.600 6   1341814.367 6   1041935.15647  22881375.14747
 18  5 30  0 47 39.9980000  0 10G03G14G16G22G23G26G27G29G31G32       0.000019407
  23365027.740 5  -1607948.285 5  -1240591.75846  23365026.42046
  20504111.037 7   -388166.012 7   -296669.92648  20504106.03748
  19967554.100 6  -2866008.180 6  -2210564.18048  19967547.85048
  23419923.865 6   -908255.039 6   -705473.19547  23419918.19747
  23021529.818 6  -6281101.379 6  -4831063.27347  23021522.57247
  20370921.803 7  -1124749.008 7   -867908.32848  20370919.86948
  21313142.811 6  -6424181.508 6  -4965489.14148  21313139.52548
  23798420.647 2    441709.344 2                
  21197562.826 7  -1748321.723 7  -1356578.60248  21197557.76848
  22882742.498 6   1348998.996 6   1047533.54747  22882741.84647
 18  5 30  0 47 44.9980000  0 10G03G14G16G22G23G26G27G29G31G32       0.000013006
  23364048.701 5  -1613091.508 5  -1244599.46147  23364047.76847
  20504208.201 7   -387653.055 7   -296270.21948  20504203.76848
  19965564.920 6  -2876462.039 6  -2218710.03948  19965558.67448
  23419391.740 6   -911053.195 6   -707653.60547  23419385.81147
  23016593.264 6  -6307044.008 6  -4851278.28947  23016586.36547
  20370252.732 7  -1128266.012 7   -870648.85548  20370250.60048
  21308130.240 6  -6450524.113 6  -4986015.83248  21308126.93948
  23799384.967 2    446776.105 2    125950.01255  23799379.65855
  21196328.936 7  -1754805.195 7  -1361630.66848  21196324.13148
  22884111.725 6   1356192.762 6   1053139.05947  22884111.02547
 18  5 30  0 47 49.9980000  0 10G03G14G16G22G23G26G27G29G31G32       0.000006609
  23363073.725 5  -1618221.582 5  -1248596.93447  23363071.96347
  20504309.287 7   -387123.492 7   -295857.59048  20504304.31148
  19963578.404 6  -2886901.598 6  -2226844.77048  19963572.10748
  23418859.740 6   -913843.168 6   -709827.62147  23418855.18247
  23011658.295 6  -6332976.828 6  -4871485.68047  23011651.49847
  20369585.725 7  -1131773.832 7   -873382.21948  20369582.95548
  21303119.490 6  -6476854.848 6  -5006533.29348  21303116.29548
  23800351.342 2    451854.555 2    129907.22345  23800346.62345
  21195096.998 7  -1761280.969 7  -1366676.73048  21195091.50648
  22885482.38116   1363396.66416   1058752.77057  22885481.33857
 18  5 30  0 47 54.9980000  0 10G03G14G16G22G23G26G27G29G31G32       0.000000212
  23362099.522 6  -1623338.664 6  -1252584.29747  23362098.07247
  20504412.951 6   -386577.402 6   -295432.06648  20504408.24448
  19961594.381 6  -2897326.965 6  -2234968.43448  19961588.11948
  23418331.014 6   -916625.012 6   -711995.31347  23418325.90447
  23006725.006 6  -6358899.930 6  -4891685.50047  23006718.58847
  20368919.717 7  -1135272.566 7   -876108.51648  20368917.27948
  21298110.998 6  -6503173.773 6  -5027041.53148  21298107.98248
  23801320.670 3    456944.785 3    133873.61745  23801315.61945
  21193865.904 7  -1767749.035 7  -1371716.78948  21193860.47148
  22886854.990 6   1370608.559 6   1064372.31347  22886854.11147
 18  5 30  0 47 59.9980000  0 10G03G14G16G22G23G26G27G29G31G32      -0.000006182
  23361127.850 5  -1628442.246 5  -1256561.10546  23361126.83846
  20504520.272 7   -386014.309 7   -294993.29748  20504515.46748
  19959613.654 7  -2907737.648 7  -2243080.64848  19959607.44748
  23417802.873 6   -919398.281 6   -714156.29747  23417797.84247
  23001793.865 6  -6384812.820 6  -4911877.34847  23001787.70147
  20368255.748 7  -1138761.707 7   -878827.33248  20368253.03348
  21293104.857 6  -6529480.398 6  -5047540.19548  21293101.67448
  23802291.490 3    462047.133 3    137849.45745  23802287.36545
  21192636.873 7  -1774208.988 7  -1376750.52348  21192631.28748
  22888229.107 6   1377830.004 6   1069999.39147  22888228.25647
 18  5 30  0 48  4.9980000  0 10G03G14G16G22G23G26G27G29G31G32      -0.000012573
  23360159.334 5  -1633532.391 5  -1260527.43846  23360158.48246
  20504630.842 7   -385434.258 7   -294541.32048  20504625.88148
  19957634.857 7  -2918133.703 7  -2251181.46948  19957628.74048
  23417277.756 6   -922163.066 6   -716310.68047  23417271.77947
  22996864.818 6  -6410715.480 6  -4932061.23447  22996858.46347
  20367593.623 7  -1142241.324 7   -881538.72748  20367591.09248
  21288101.334 6  -6555774.727 6  -5068029.28548  21288097.86548
  23803263.631 3    467161.582 3    141834.76645  23803261.10745
  21191408.787 7  -1780660.816 7  -1381777.92648  21191403.47548
  22889604.584 6   1385060.855 6   1075633.81347  22889604.04547
 18  5 30  0 48  9.9980000  0 10G03G14G16G22G23G26G27G29G31G32      -0.000018961
  23359193.772 5  -1638609.027 5  -1264483.27047  23359191.85747
  20504744.248 6   -384837.184 6   -294076.07448  20504739.46348
  19955659.686 7  -2928515.016 7  -2259270.80148  19955653.45948
  23416752.701 6   -924919.242 6   -718458.35547  23416747.34247
  22991937.959 6  -6436607.895 6  -4952237.11747  22991931.49047
  20366932.959 7  -1145711.297 7   -884242.57848  20366930.61948
  21283100.068 6  -6582056.676 6  -5088508.72748  21283096.79148
  23804239.779 3    472288.258 3    145829.53945  23804237.06445
  21190182.850 7  -1787104.387 7  -1386798.89548  21190177.12748
  22890982.397 6   1392301.227 6   1081275.62947  22890982.01847
 18  5 30  0 48 14.9980000  0 10G03G14G16G22G23G26G27G29G31G32      -0.000025347
  23358230.318 6  -1643672.266 6  -1268428.65247  23358228.59647
  20504861.248 7   -384223.125 7   -293597.59448  20504856.10748
  19953686.834 7  -2938881.680 7  -2267348.72748  19953680.67448
  23416230.100 6   -927666.945 6   -720599.42647  23416224.66647
  22987013.139 6  -6462490.063 6  -4972405.03547  22987005.89347
  20366274.607 7  -1149171.742 7   -886939.02048  20366272.14348
  21278100.857 6  -6608326.316 6  -5108978.57848  21278097.36148
  23805217.068 2    477426.996 2    149833.73045  23805215.24845
  21188958.475 7  -1793539.809 7  -1391813.50448  21188952.59648
  22892361.998 6   1399551.035 6   1086924.80547  22892361.43947
 18  5 30  0 48 19.9980000  0 10G03G14G16G22G23G26G27G29G31G32      -0.000031731
  23357268.803 5  -1648722.168 5  -1272363.65247  23357267.19347
  20504981.647 7   -383592.195 7   -293105.96148  20504976.32648
  19951716.936 6  -2949233.793 6  -2275415.30948  19951710.94748
  23415708.772 6   -930406.219 6   -722733.91847  23415703.43647
  22982089.740 6  -6488362.094 6  -4992565.03547  22982082.68647
  20365617.818 7  -1152622.766 7   -889628.12948  20365615.31448
  21273104.225 6  -6634583.691 6  -5129438.87148  21273101.04548
  23806198.092 2    482577.770 2    153847.32445  23806195.62745
  21187735.186 7  -1799967.195 7  -1396821.85548  21187729.44748
  22893743.115 6   1406810.223 6   1092581.28547  22893742.82647
 18  5 30  0 48 24.9980000  0 10G03G14G16G22G23G26G27G29G31G32      -0.000038111
  23356311.279 6  -1653758.383 6  -1276287.96946  23356308.76846
  20505104.865 7   -382944.066 7   -292600.93448  20505099.87348
  19949749.850 6  -2959571.020 6  -2283470.30148  19949743.81848
  23415188.740 6   -933136.711 6   -724861.59047  23415184.04947
  22977168.397 6  -6514223.609 6  -5012716.85947  22977161.73647
  20364963.256 7  -1156064.035 7   -892309.64148  20364960.81448
  21268110.139 6  -6660828.457 6  -5149889.33648  21268106.89748
  23807180.006 2    487740.875 2    157870.52745  23807178.41245
  21186513.404 7  -1806386.176 7  -1401823.66448  21186508.55348
  22895126.732 6   1414079.094 6   1098245.32047  22895126.24047
 18  5 30  0 48 29.9980000  0 10G03G14G16G22G23G26G27G29G31G32      -0.000044489
  23355354.639 5  -1658780.906 5  -1280201.64546  23355352.59646
  20505231.428 7   -382278.730 7   -292082.49248  20505226.39748
  19947785.732 6  -2969893.395 6  -2291513.70748  19947779.30748
  23414671.232 6   -935858.453 6   -726982.44147  23414666.18947
  22972248.475 6  -6540074.566 6  -5032860.46147  22972242.31447
  20364309.959 7  -1159495.539 7   -894983.54348  20364307.89348
  21263118.490 6  -6687060.570 6  -5170329.93848  21263115.77948
  23808164.498 3    492916.285 3    161903.28145  23808163.19745
  21185293.631 7  -1812796.691 7  -1406818.87548  21185288.56148
  22896512.076 6   1421357.605 6   1103916.87547  22896511.25647
 18  5 30  0 48 34.9980000  0 10G03G14G16G22G23G26G27G29G31G32      -0.000050863
  23354402.014 5  -1663789.504 5  -1284104.44146  23354399.18646
  20505361.615 7   -381595.891 7   -291550.41048  20505356.22148
  19945824.475 6  -2980200.602 6  -2299545.29748  19945817.88948
  23414155.436 6   -938571.168 6   -729096.26647  23414149.87347
  22967331.303 6  -6565914.668 6  -5052995.59447  22967325.00647
  20363658.943 7  -1162916.984 7   -897649.60248  20363656.66248
  21258128.693 6  -6713279.742 6  -5190760.45748  21258126.08848
  23809152.045 2    498104.391 2    165945.93045  23809150.94745
  21184075.272 7  -1819198.508 7  -1411807.30548  21184070.56848
  22897898.881 6   1428646.109 6   1109596.19147  22897898.07247
 18  5 30  0 48 39.9980000  0 10G03G14G16G22G23G26G27G29G31G32      -0.000057234
  23353450.779 5  -1668783.949 5  -1287996.23046  23353448.54546
  20505495.115 7   -380895.371 7   -291004.56348  20505489.79148
  19943865.943 6  -2990492.441 6  -2307564.90648  19943859.52248
  23413641.029 6   -941274.676 6   -731202.90247  23413635.22947
  22962416.498 6  -6591743.750 6  -5073122.14547  22962409.84247
  20363009.740 7  -1166328.180 7   -900307.68048  20363007.40448
  21253142.084 6  -6739485.754 6  -5211180.72748  21253139.58848
  23810141.459 2    503305.305 2    169998.60245  23810140.28345
  21182859.162 7  -1825591.391 7  -1416788.76248  21182853.96748
  22899287.607 6   1435944.789 6   1115283.44547  22899287.17447
 18  5 30  0 48 44.9980000  0 10G03G14G16G22G23G26G27G29G31G32      -0.000063602
  23352503.193 5  -1673764.363 5  -1291877.05946  23352501.01846
  20505631.662 7   -380177.223 7   -290444.97748  20505626.21748
  19941910.514 6  -3000768.988 6  -2315572.60548  19941904.03748
  23413128.178 6   -943969.020 6   -733302.40246  23413122.27546
  22957502.982 6  -6617561.852 6  -5093240.15647  22957496.36947
  20362362.428 7  -1169729.203 7   -902957.82448  20362360.53348
  21248157.826 6  -6765678.684 6  -5231590.79348  21248154.95548
  23811134.264 2    508519.004 2    174061.23845  23811132.03345
  21181643.811 7  -1831975.410 7  -1421763.33248  21181638.85048
  22900677.982 6   1443253.484 6   1120978.50847  22900677.81847
 18  5 30  0 48 49.9980000  0 10G03G14G16G22G23G26G27G29G31G32      -0.000069969
  23351558.076 5  -1678730.816 5  -1295747.02046  23351555.86546
  20505771.365 7   -379441.543 7   -289871.72748  20505766.57648
  19939957.850 6  -3011030.309 6  -2323568.44948  19939951.65848
  23412616.998 6   -946654.395 6   -735394.89546  23412611.13546
  22952592.272 6  -6643369.027 6  -5113349.63747  22952585.32647
  20361717.506 7  -1173120.145 7   -905600.13748  20361715.24448
  21243175.975 6  -6791858.543 6  -5251990.69148  21243173.66648
  23812128.045 2    513745.207 2    178133.59845  23812126.72945
  21180430.998 7  -1838350.594 7  -1426731.01248  21180425.63148
  22902071.326 6   1450572.176 6   1126681.36747  22902070.14347
 18  5 30  0 48 54.9980000  0 10G03G14G16G22G23G26G27G29G31G32      -0.000076330
  23350616.014 5  -1683682.691 5  -1299605.63746  23350613.65446
  20505914.717 7   -378687.754 7   -289284.36348  20505909.82648
  19938008.209 7  -3021275.848 7  -2331551.98848  19938001.99448
  23412108.264 6   -949330.098 6   -737479.86746  23412101.87746
  22947683.756 6  -6669164.684 6  -5133450.14547  22947676.15447
  20361073.826 7  -1176500.441 7   -908234.13348  20361071.72548
  21238196.904 6  -6818024.766 6  -5272379.94548  21238193.85448
  23813125.529 3    518984.648 3    182216.31345  23813124.17845
  21179219.670 7  -1844716.383 7  -1431691.37548  21179214.45948
  22903465.217 6   1457901.426 6   1132392.43847  22903464.98647
 18  5 30  0 48 59.9980000  0 10G03G14G16G22G23G26G27G29G31G32      -0.000082689
  23349676.365 5  -1688620.199 5  -1303453.03946  23349674.01446
  20506061.545 7   -377916.035 7   -288683.03548  20506056.56148
  19936061.029 7  -3031505.809 7  -2339523.38748  19936055.26048
  23411600.842 6   -951996.371 6   -739557.46946  23411594.18946
  22942776.779 6  -6694948.969 6  -5153541.78546  22942769.85446
  20360433.186 7  -1179870.242 7   -910859.94948  20360430.46348
  21233219.748 6  -6844177.535 6  -5292758.73048  21233217.39348
  23814123.865 2    524237.148 2    186309.19545  23814123.62345
  21178010.311 7  -1851072.973 7  -1436644.57048  21178004.72148
  22904862.412 6   1465241.023 6   1138111.59046  22904861.60746
 18  5 30  0 49  4.9980000  0 10G03G14G16G22G23G26G27G29G31G32      -0.000089045
  23348739.623 5  -1693543.109 5  -1307289.07047  23348737.60747
  20506211.904 7   -377126.191 7   -288067.57848  20506207.11948
  19934117.326 7  -3041719.906 7  -2347482.42248  19934111.76848
  23411095.139 6   -954652.984 6   -741627.59847  23411088.40047
  22937872.764 6  -6720721.621 6  -5173624.36346  22937865.81846
  20359793.506 7  -1183229.328 7   -913477.43048  20359791.28348
  21228245.522 6  -6870316.539 6  -5313126.78148  21228243.11148
  23815126.482 2    529502.957 2    190412.39545  23815125.76845
  21176802.514 7  -1857420.082 7  -1441590.37948  21176797.04948
  22906261.022 6   1472591.270 6   1143839.02747  22906260.38147
 18  5 30  0 49  9.9980000  0 10G03G14G16G22G23G26G27G29G31G32      -0.000095398
  23347806.068 5  -1698451.094 5  -1311113.47747  23347803.67447
  20506365.693 7   -376317.855 7   -287437.71948  20506361.25248
  19932177.084 7  -3051917.863 7  -2355428.88348  19932171.00248
  23410590.889 6   -957299.621 6   -743689.90246  23410584.64346
  22932970.287 6  -6746482.328 6  -5193697.65646  22932963.22146
  20359156.693 7  -1186577.375 7   -916086.30548  20359154.22548
  21223274.693 6  -6896441.484 6  -5333483.88348  21223271.85448
  23816130.147 1    534782.355 1    194526.21945  23816130.74045
  21175596.279 7  -1863757.410 7  -1446528.56348  21175591.04948
  22907662.654 6   1479952.387 6   1149574.94947  22907661.14347
 18  5 30  0 49 14.9980000  0 10G03G14G16G22G23G26G27G29G31G32      -0.000101746
  23346875.256 5  -1703344.125 5  -1314926.22747  23346873.11947
  20506523.201 7   -375490.922 7   -286793.35948  20506517.98248
  19930239.506 6  -3062099.551 6  -2363362.66448  19930233.49048
  23410089.451 6   -959936.125 6   -745744.32046  23410082.65846
  22928070.482 6  -6772230.938 6  -5213761.50446  22928062.97146
  20358521.639 7  -1189914.270 7   -918686.50048  20358519.15848
  21218305.936 6  -6922552.203 6  -5353829.89848  21218303.09648
  23817136.865 1    540075.375 1    198650.66445  23817137.68645
  21174392.006 7  -1870084.789 7  -1451458.99248  21174386.99848
  22909065.147 6   1487324.559 6   1155319.47747  22909063.96747
 18  5 30  0 49 19.9980000  0 10G03G14G16G22G23G26G27G29G31G32      -0.000108089
  23345946.670 5  -1708221.555 5  -1318726.82047  23345944.85747
  20506684.014 7   -374644.910 7   -286134.13748  20506679.02248
  19928304.998 6  -3072264.469 6  -2371283.37548  19928298.99848
  23409589.592 6   -962562.059 6   -747790.51646  23409582.89346
  22923173.443 6  -6797966.895 6  -5233815.48447  22923165.63547
  20357888.850 7  -1193239.504 7   -921277.59848  20357886.61548
  21213339.420 6  -6948648.152 6  -5374164.40248  21213337.04148
  23818146.623 1    545382.609 1    202786.15645  23818147.79145
  21173190.068 7  -1876401.742 7  -1456381.30148  21173184.99448
  22910470.357 6   1494708.266 6   1161073.00047  22910468.98247
 18  5 30  0 49 24.9980000  0 10G03G14G16G22G23G26G27G29G31G32      -0.000114429
  23345021.467 6  -1713084.121 6  -1322515.84447  23345019.18247
  20506848.318 7   -373780.395 7   -285460.49648  20506843.51448
  19926373.670 6  -3082413.203 6  -2379191.47748  19926367.76048
  23409091.904 6   -965178.004 6   -749828.93446  23409085.19746
  22918278.381 6  -6823690.828 6  -5253860.13347  22918270.54947
  20357257.967 7  -1196553.727 7   -923860.10948  20357255.61948
  21208376.451 6  -6974729.938 6  -5394487.87548  21208374.26448
  23819160.662 1    550703.473 1    206932.25845  23819159.93945
  21171989.803 7  -1882708.910 7  -1461295.97748  21171984.39348
  22911877.264 6   1502102.871 6   1166835.01247  22911876.26447
 18  5 30  0 49 29.9980000  0 10G03G14G16G22G23G26G27G29G31G32      -0.000120766
  23344099.412 6  -1717931.047 6  -1326292.66847  23344096.85747
  20507017.107 7   -372896.664 7   -284771.87948  20507012.07648
  19924445.764 6  -3092545.066 6  -2387086.44148  19924439.88148
  23408595.615 6   -967783.258 6   -751859.00446  23408589.18246
  22913385.475 6  -6849402.016 6  -5273894.82446  22913377.93946
  20356629.639 7  -1199856.188 7   -926433.46148  20356627.05748
  21203416.303 6  -7000796.891 6  -5414799.78948  21203413.85048
  23820175.170 1    556038.578 1    211089.36745  23820175.48245
  21170791.748 7  -1889005.512 7  -1466202.43048  21170786.50648
  22913286.818 6   1509509.105 6   1172606.10247  22913285.12347
 18  5 30  0 49 34.9980000  0 10G03G14G16G22G23G26G27G29G31G32      -0.000127100
  23343179.490 6  -1722762.133 6  -1330057.15647  23343178.04947
  20507188.600 7   -371993.527 7   -284068.14148  20507183.73648
  19922521.162 6  -3102659.832 6  -2394968.07848  19922515.26448
  23408102.225 6   -970377.605 6   -753880.58646  23408096.11146
  22908494.920 6  -6875100.195 6  -5293919.37147  22908487.49047
  20356003.732 7  -1203146.656 7   -928997.46948  20356001.15848
  21198458.928 6  -7026848.688 6  -5435099.88348  21198456.47148
  23821193.865 1    561388.039 1                
  21169595.787 7  -1895291.340 7  -1471100.48448  21169590.40848
  22914698.86516                   1177923.85757  22914696.89757
 18  5 30  0 49 39.9980000  0 10G03G14G16G22G23G26G27G29G31G32      -0.000133425
  23342262.717 5  -1727577.445 5  -1333809.35247  23342261.47547
  20507364.014 7   -371070.980 7   -283349.28148  20507359.20948
  19920599.553 6  -3112757.523 6  -2402836.41448  19920593.74048
  23407610.842 6   -972961.055 6   -755893.66446  23407604.31146
  22903607.607 6  -6900785.348 6  -5313933.77047  22903599.67047
  20355379.725 7  -1206425.172 7   -931552.14848  20355377.39748
  21193504.467 6  -7052885.387 6  -5455388.21548  21193501.68248
  23822214.264 1    566752.066 1                
  21168401.248 7  -1901566.332 7  -1475990.09048  21168396.28348
  22916112.717 6   1524355.055 6   1183713.86757  22916110.92057
 18  5 30  0 49 44.9980000  0 10G03G14G16G22G23G26G27G29G31G32      -0.000139750
  23341349.717 5  -1732376.492 5  -1337548.87146  23341347.70946
  20507543.678 7   -370128.625 7   -282614.98048  20507538.62348
  19918681.490 6  -3122837.676 6  -2410691.07448  19918675.43648
  23407121.654 6   -975533.254 6   -757897.98446  23407114.38946
  22898722.443 6  -6926457.051 6  -5333937.71146  22898714.48246
  20354758.006 7  -1209691.328 7   -934097.20748  20354755.71748
  21188552.490 6  -7078906.484 6  -5475664.39848  21188550.12348
  23823238.357 2    572130.973 2                
  21167209.537 7  -1907830.086 7  -1480870.94148  21167204.19748
  22917528.803 6   1531797.168 6   1189512.91847  22917527.28747
 18  5 30  0 49 49.9980000  0 10G03G14G16G22G23G26G27G29G31G32      -0.000146069
  23340439.943 5  -1737158.844 5  -1341275.39846  23340437.80346
  20507727.053 7   -369165.992 7   -281864.88348  20507721.81448
  19916766.475 6  -3132899.883 6  -2418531.76648  19916760.43248
  23406634.029 6   -978093.711 6   -759893.14546  23406627.10046
  22893840.256 6  -6952114.820 6  -5353930.75846  22893831.78346
  20354139.209 7  -1212944.668 7   -936632.27748  20354136.90848
  21183604.225 6  -7104911.559 6  -5495928.09448  21183601.90448
  23824265.287 2    577525.227 2                
  21166019.740 7  -1914082.125 7  -1485742.67648  21166014.49848
  22918946.568 6   1539251.969 6   1195321.83647  22918945.69347
 18  5 30  0 49 54.9980000  0 10G03G14G16G22G23G26G27G29G31G32      -0.000152382
  23339532.912 5  -1741924.508 5  -1344988.89546  23339530.58046
  20507913.928 6   -368183.004 6   -281098.91448  20507908.81148
  19914855.201 7  -3142944.047 7  -2426358.38348  19914849.17048
  23406148.842 6   -980642.371 6   -761879.11746  23406141.78346
  22888960.061 6  -6977758.598 6  -5373912.92646  22888952.26446
  20353522.607 7  -1216185.102 7   -939157.28948  20353520.29948
  21178658.412 6  -7130900.500 6  -5516179.22348  21178655.72948
  23825294.959 2    582934.906 2                
  21164832.428 7  -1920322.430 7  -1490605.26648  21164826.72948
  22920368.084 6   1546719.500 6   1201140.67247  22920366.67447
 18  5 30  0 49 59.9980000  0 10G03G14G16G22G23G26G27G29G31G32      -0.000158689
  23338628.881 5  -1746673.031 5  -1348689.06646  23338626.68246
  20508104.756 6   -367179.289 6   -280316.80148  20508099.92848
  19912947.436 6  -3152969.801 6  -2434170.66448  19912941.58448
  23405666.443 6   -983178.832 6   -763855.57046  23405659.51046
  22884083.522 6  -7003387.965 6  -5393883.84446  22884074.88946
  20352908.412 7  -1219412.285 7   -941671.97348  20352906.18648
  21173715.920 6  -7156872.902 6  -5536417.45348  21173713.45548
  23826326.873 2    588360.332 2                
  21163647.553 7  -1926550.605 7  -1495458.40248  21163641.69748
  22921791.170 6   1554200.148 6   1206969.73446  22921789.99446
 18  5 30  0 50  4.9980000  0 10G03G14G16G22G23G26G27G29G31G32      -0.000164993
  23337728.506 5  -1751404.523 5  -1352375.93446  23337726.21746
  20508299.443 6   -366154.945 6   -279518.61748  20508294.68248
  19911043.053 6  -3162977.211 6  -2441968.64848  19911037.09248
  23405186.147 6   -985703.207 6   -765822.60546  23405179.52946
  22879208.631 6  -7029003.012 6  -5413843.61747  22879200.92047
  20352296.818 7  -1222626.297 7   -944176.39148  20352294.36148
  21168776.834 6  -7182828.832 6  -5556642.85248  21168774.37348
  23827362.561 3    593801.383 3                
  21162464.342 7  -1932766.609 7  -1500302.04748  21162458.68648
  22923217.287 6   1561693.828 6   1212808.94946  22923216.58846
 18  5 30  0 50  9.9980000  0 10G03G14G16G22G23G26G27G29G31G32      -0.000171291
  23336831.529 5  -1756118.402 5  -1356049.11346  23336829.10446
  20508498.818 6   -365109.383 6   -278703.90248  20508493.68648
  19909142.451 6  -3172965.758 6  -2449751.93448  19909136.76048
  23404708.068 6   -988214.895 6   -767779.78546  23404701.18946
  22874337.287 6  -7054603.117 6  -5433791.73447  22874329.20547
  20351687.529 7  -1225826.551 7   -946670.09448  20351685.38548
  21163840.193 6  -7208767.707 6  -5576854.96148  21163837.91248
  23828400.826 2    599258.695 2                
  21161283.967 7  -1938969.969 7  -1505135.84048  21161278.37748
  22924645.779 5   1569201.121 5   1218658.77746  22924644.99046
 18  5 30  0 50 14.9980000  0 10G03G14G16G22G23G26G27G29G31G32      -0.000177586
  23335938.240 5  -1760814.547 5  -1359708.46146  23335935.39746
  20508701.561 6   -364042.504 6   -277872.57048  20508696.74048
  19907245.482 6  -3182935.313 6  -2457520.42248  19907239.24848
  23404232.506 6   -990713.820 6   -769726.99646  23404225.73246
  22869468.381 6  -7080188.207 6  -5453728.17646  22869460.40846
  20351081.240 7  -1229012.949 7   -949153.00848  20351079.25248
  21158907.857 6  -7234689.355 6  -5597053.64548  21158905.09248
  23829442.764 3    604732.387 3                
  21160106.006 7  -1945160.516 7  -1509959.64548  21160100.26048
  22926077.170 6   1576722.133 6   1224519.27746  22926076.04546
 18  5 30  0 50 19.9980000  0 11G03G14G16G21G22G23G26G27G29G31G32   -0.000183872
  23335048.084 5  -1765492.609 5  -1363353.69146  23335045.18946
  20508908.654 6   -362953.887 6   -277024.30548  20508904.22948
  19905351.748 7  -3192885.414 7  -2465273.74648  19905345.83448
  24154542.01413    -80589.99613                
  23403759.490 6   -993199.578 6   -771663.96546  23403752.88546
  22864602.904 6  -7105757.805 6  -5473652.52347  22864595.31447
  20350477.475 7  -1232185.039 7   -951624.76648  20350475.58848
  21153978.584 6  -7260593.371 6  -5617238.59048  21153975.14748
  23830488.311 3    610222.887 3                
  21158930.576 7  -1951337.797 7  -1514773.10248  21158924.91248
  22927510.795 6   1584257.289 6   1230390.78547  22927509.67847
 18  5 30  0 50 24.9980000  0 11G03G14G16G21G22G23G26G27G29G31G32   -0.000190149
  23334161.068 5  -1770152.012 5  -1366984.40646  23334158.29546
  20509120.654 6   -361842.977 6   -276158.66448  20509115.10748
  19903462.217 7  -3202815.566 7  -2473011.53148  19903456.32248
  24151889.428 2    -94524.945 2                
  23403289.107 6   -995671.594 6   -773590.18846  23403282.22546
  22859739.826 6  -7131311.324 6  -5493564.36746  22859732.49846
  20349876.842 7  -1235342.348 7   -954085.01648  20349874.69348
  21149052.584 6  -7286479.227 6  -5637409.38348  21149050.09248
  23831536.068 3    615730.641 3                
  21157757.522 7  -1957501.301 7  -1519575.83648  21157751.94348
  22928948.342 6   1591807.086 6   1236273.73047  22928946.39347
 18  5 30  0 50 29.9980000  0 11G03G14G16G21G22G23G26G27G29G31G32   -0.000196424
  23333277.928 5  -1774792.777 5  -1370600.60246  23333275.67046
  20509335.662 6   -360709.855 6   -275275.73048  20509330.59648
  19901576.303 6  -3212725.844 6  -2480733.82448  19901570.38948
  24149242.193 2   -108445.109 2                
  23402821.147 6   -998129.969 6   -775505.83646  23402814.47546
  22854880.623 6  -7156848.848 6  -5513463.71546  22854872.37746
  20349278.490 7  -1238484.863 7   -956533.72348  20349276.68248
  21144130.459 6  -7312346.879 6  -5657565.99648  21144127.38948
  23832587.428 3    621255.633 3                
  21156587.318 7  -1963651.105 7  -1524367.89148  21156581.97948
  22930387.482 6   1599371.449 6   1242168.02747  22930386.06847
 18  5 30  0 50 34.9980000  0 11G03G14G16G21G22G23G26G27G29G31G32   -0.000202692
  23332398.350 5  -1779414.422 5  -1374201.88746  23332396.36146
  20509555.607 6   -359553.957 6   -274375.03548  20509550.36948
  19899693.943 7  -3222615.648 7  -2488440.16048  19899688.23248
  24146595.295 2   -122349.957 2                
  23402356.662 6  -1000574.180 6   -777410.41846  23402349.55746
  22850023.873 6  -7182369.781 6  -5533350.16046  22850016.13146
  20348683.857 7  -1241612.109 7   -958970.52748  20348681.27548
  21139211.428 6  -7338195.824 6  -5677708.03148  21139208.64348
  23833641.561 3    626798.434 3                
  21155419.490 7  -1969786.645 7  -1529148.84048  21155414.32648
  22931829.717 6   1606950.938 6   1248074.09047  22931828.70947
 18  5 30  0 50 39.9980000  0 11G03G14G16G21G22G23G26G27G29G31G32   -0.000208954
  23331523.295 5  -1784016.594 5  -1377788.00846  23331520.55746
  20509779.982 6   -358374.949 6   -273456.33248  20509775.06148
  19897816.201 7  -3232484.625 7  -2496130.26648  19897810.18648
  24143952.576 2   -136239.059 2                
  23401893.795 6  -1003003.844 6   -779303.66046  23401887.23246
  22845170.857 6  -7207873.723 6  -5553223.35947  22845162.91647
  20348091.678 7  -1244723.691 7   -961395.16048  20348089.54948
  21134296.107 6  -7364025.645 6  -5697835.16448  21134293.34248
  23834700.436 3    632359.336 3                
  21154254.654 7  -1975907.520 7  -1533918.35248  21154249.54548
  22933274.982 6   1614545.984 6   1253992.29747  22933274.20147
 18  5 30  0 50 44.9980000  0 11G03G14G16G21G22G23G26G27G29G31G32   -0.000215208
  23330651.178 5  -1788598.695 5  -1381358.46946  23330648.17846
  20510008.607 6   -357172.254 6   -272519.16448  20510003.78748
  19895942.123 7  -3242332.234 7  -2503803.73048  19895936.08848
  24141312.186 2   -150111.852 2                
  23401434.451 6  -1005418.430 6   -781185.16446  23401427.02946
  22840320.811 6  -7233360.117 6  -5573082.87946  22840313.49846
  20347502.451 7  -1247819.063 7   -963807.14548  20347500.88548
  21129384.623 6  -7389835.801 6  -5717946.97748  21129381.91248
  23835761.342 2    637938.949 2                
  21153092.959 7  -1982013.184 7  -1538676.02048  21153087.92848
  22934723.186 6   1622157.043 6   1259922.96947  22934722.92447
 18  5 30  0 50 49.9980000  0 11G03G14G16G21G22G23G26G27G29G31G32   -0.000221455
  23329782.334 5  -1793160.418 5  -1384913.08246  23329780.25646
  20510241.826 6   -355945.500 6   -271563.27048  20510237.37748
  19894072.639 7  -3252158.121 7  -2511460.25848  19894066.53748
  24138676.154 2   -163967.918 2                
  23400976.936 6  -1007817.590 6   -783054.66046  23400970.46346
  22835474.397 6  -7258828.645 6  -5592928.47347  22835467.13547
  20346916.600 7  -1250897.855 7   -966206.21148  20346914.79148
  21124477.217 6  -7415625.895 6  -5738043.15648  21124473.95548
  23836827.764 2    643537.543 2                
  21151934.225 7  -1988103.227 7  -1543421.52048  21151928.86148
  22936174.764 6   1629784.488 6   1265866.39847  22936174.42047
 18  5 30  0 50 54.9980000  0 11G03G14G16G21G22G23G26G27G29G31G32   -0.000227695
  23328918.912 5  -1797701.801 5  -1388451.84846  23328915.81846
  20510480.256 6   -354694.789 6   -270588.68848  20510475.42448
  19892206.826 6  -3261962.359 6  -2519099.92648  19892200.93248
  24136041.248 1   -177807.445 1                
  23400523.240 6  -1010201.375 6   -784912.12546  23400517.53346
  22830631.326 6  -7284279.273 6  -5612760.13747  22830623.88947
  20346334.014 7  -1253960.160 7   -968592.42648  20346332.09648
  21119573.053 6  -7441395.961 6  -5758123.72748  21119570.29548
  23837896.592 3    649155.109 3                
  21150778.186 7  -1994177.750 7  -1548154.90248  21150772.70948
  22937629.326 6   1637428.234 6   1271822.53947  22937629.05747
 18  5 30  0 50 59.9980000  0 11G03G14G16G21G22G23G26G27G29G31G32   -0.000233929
  23328058.154 5  -1802222.527 5  -1391974.50846  23328056.04146
  20510723.295 6   -353419.777 6   -269595.18448  20510717.88148
  19890345.186 7  -3271744.613 7  -2526722.46948  19890338.92848
  24133410.545 1   -191629.988 1                
  23400073.209 6  -1012569.445 6   -786757.39846  23400066.35446
  22825791.576 6  -7309711.695 6  -5632577.58647  22825784.11147
  20345754.506 7  -1257005.617 7   -970965.52048  20345752.87748
  21114673.139 6  -7467145.707 6  -5778188.45748  21114670.38948
  23838968.592 3    654792.004 3                
  21149625.334 7  -2000236.391 7  -1552875.93048  21149620.15048
  22939087.201 6   1645088.656 6   1277791.68447  22939086.91647
 18  5 30  0 51  4.9980000  0 11G03G14G16G21G22G23G26G27G29G31G32   -0.000240152
  23327201.693 5  -1806721.633 5  -1395480.30946  23327199.66246
  20510970.803 6   -352119.527 6   -268582.00048  20510965.09648
  19888488.217 7  -3281503.965 7  -2534327.15648  19888482.02548
  24130783.068 1   -205434.520 1                
  23399625.982 6  -1014920.832 6   -788589.66046  23399619.43646
  22820955.772 6  -7335124.930 6  -5652380.12946  22820948.08046
  20345178.732 7  -1260033.285 7   -973324.74248  20345176.67448
  21109777.186 6  -7492874.074 6  -5798236.53548  21109774.99048
  23840045.818 3    660449.117 3                
  21148475.600 7  -2006278.164 7  -1557583.81348  21148470.05748
  22940548.600 6   1652766.668 6   1283774.52347  22940547.65047
 18  5 30  0 51  9.9980000  0 11G03G14G16G21G22G23G26G27G29G31G32   -0.000246368
  23326349.740 5  -1811199.141 5  -1398969.28146  23326347.10446
  20511222.967 7   -350793.941 7   -267549.08248  20511217.38148
  19886635.342 6  -3291240.352 6  -2541913.95348  19886629.23248
  24128160.07611   -219221.06311                
  23399182.123 6  -1017255.566 6   -790408.90646  23399174.85046
  22816123.139 6  -7360518.941 6  -5672167.66847  22816116.00247
  20344605.772 7  -1263043.168 7   -975670.10549  20344603.72149
  21104885.232 6  -7518581.074 6  -5818267.96148  21104882.86148
  23841126.318 4    666126.508 4                
  21147328.959 7  -2012303.094 7  -1562278.58648  21147323.57648
  22942012.490 6   1660462.293 6   1289771.09047  22942012.95547
 18  5 30  0 51 14.9980000  0 11G03G14G16G21G22G23G26G27G29G31G32   -0.000252579
  23325502.561 5  -1815654.789 5  -1402441.24646  23325499.76046
  20511479.943 7   -349442.887 7   -266496.31348  20511474.60448
  19884786.990 6  -3300953.500 6  -2549482.64548  19884780.86948
  24125540.772 1   -232989.277 1                
  23398741.022 6  -1019573.344 6   -792215.00446  23398733.32646
  22811294.982 6  -7385893.449 6  -5691940.01647  22811287.59647
  20344036.365 7  -1266034.992 7   -978001.40248  20344034.52548
  21099997.561 6  -7544266.426 6  -5838282.52048  21099994.87348
  23842210.803 4    671824.375 4                
  21146186.076 7  -2018310.922 7  -1566960.03548  21146180.52948
  22943480.311 6   1668175.766 6   1295781.56647  22943480.82647
 18  5 30  0 51 19.9980000  0 11G03G14G16G21G22G23G26G27G29G31G32   -0.000258778
  23324658.201 5  -1820088.027 5  -1405895.71946  23324656.15046
  20511741.834 7   -348065.730 7   -265423.21148  20511736.62748
  19882943.217 7  -3310642.891 7  -2557032.82048  19882936.89748
  24122923.795 1   -246738.668 1                
  23398303.475 6  -1021873.684 6   -794007.46546  23398295.67846
  22806469.701 6  -7411247.844 6  -5711696.68846  22806463.03746
  20343470.787 7  -1269008.164 7   -980318.16049  20343468.77949
  21095114.272 6  -7569929.496 6  -5858279.71948  21095111.42848
  23843299.420 4    677543.309 4                
  21145046.053 7  -2024300.957 7  -1571627.58648  21145040.45148
  22944951.404 5   1675907.695 5   1301806.42647  22944952.11947
 18  5 30  0 51 24.9980000  0 11G03G14G16G21G22G23G26G27G29G31G32   -0.000264971
  23323818.951 5  -1824498.293 5  -1409332.31046  23323817.22146
  20512009.482 7   -346661.984 7   -264329.38348  20512003.66248
  19881104.045 6  -3320307.996 6  -2564564.07448  19881097.83048
  24120310.65411                                
  23397869.014 6  -1024156.051 6   -795785.96946  23397861.20146
  22801649.006 6  -7436581.566 6  -5731437.26246  22801641.98646
  20342908.397 7  -1271962.242 7   -982620.03548  20342906.51048
  21090234.256 6  -7595569.816 6  -5878259.19148  21090232.09248
  23844391.787 4    683283.793 4                
  21143909.342 7  -2030272.781 7  -1576280.96148  21143903.99848
  22946426.897 5   1683658.563 5   1307846.03947  22946427.06847
 18  5 30  0 51 29.9980000  0 11G03G14G16G21G22G23G26G27G29G31G32   -0.000271152
  23322984.225 5  -1828885.480 5  -1412750.90646  23322982.40046
  20512281.311 6   -345231.496 6   -263214.72348  20512275.98648
  19879269.350 6  -3329948.680 6  -2572076.29748  19879263.53348
  24117701.25611                                
  23397437.662 6  -1026420.277 6   -797550.30546  23397430.65046
  22796832.084 6  -7461894.496 6  -5751161.62546  22796825.08846
  20342349.967 7  -1274897.047 7   -984906.89849  20342348.06149
  21085359.967 6  -7621187.188 6  -5898220.77048  21085357.47948
  23845488.068 5    689045.992 5                
  21142776.756 7  -2036226.207 7  -1580919.98048  21142771.15448
  22947905.264 6   1691428.469 6   1313900.48047  22947905.69347
 18  5 30  0 51 34.9980000  0 11G03G14G16G21G22G23G26G27G29G31G32   -0.000277323
  23322153.943 5  -1833248.816 5  -1416150.93046  23322152.09646
  20512558.748 7   -343773.543 7   -262078.66448  20512553.25248
  19877439.834 6  -3339564.250 6  -2579568.94948  19877433.45548
  24115096.342 1   -287869.160 1                
  23397009.889 6  -1028665.637 6   -799299.94946  23397003.04946
  22792019.295 6  -7487185.902 6  -5770869.20346  22792012.55346
  20341795.381 7  -1277811.828 7   -987178.15648  20341793.48248
  21080489.857 6  -7646780.871 6  -5918163.89848  21080487.37348
  23846588.873 5    694830.586 5                
  21141647.334 7  -2042160.465 7  -1585544.08248  21141641.63148
  22949387.600 6   1699218.172 6   1319970.36347  22949388.40847
 18  5 30  0 51 39.9980000  0 11G03G14G16G21G22G23G26G27G29G31G32   -0.000283485
  23321328.287 5  -1837588.449 5  -1419532.45746  23321326.28746
  20512841.912 7   -342288.160 7   -260921.23048  20512835.90448
  19875614.553 7  -3349154.672 7  -2587042.00848  19875608.80348
  24112494.46711   -301538.93011                
  23396587.115 6  -1030892.211 6   -801034.93046  23396579.43646
  22787210.436 6  -7512455.820 6  -5790560.04347  22787203.91647
  20341244.670 7  -1280706.668 7   -989433.87548  20341242.60048
  21075623.490 6  -7672350.883 6  -5938088.59048  21075621.12748
  23847694.201 5    700637.590 5                
  21140521.639 7  -2048075.660 7  -1590153.32848  21140516.14748
  22950873.397 5   1707027.676 5   1326055.66447  22950873.94347
 18  5 30  0 51 44.9980000  0 11G03G14G16G21G22G23G26G27G29G31G32   -0.000289642
  23320507.170 5  -1841903.375 5  -1422894.76646  23320505.00646
  20513129.740 7   -340774.461 7   -259741.72748  20513124.26448
  19873794.967 7  -3358719.070 7  -2594494.78948  19873788.59248
  24109897.31811   -315187.58211                
  23396166.967 6  -1033099.066 6   -802754.54746  23396159.45946
  22782406.029 5  -7537703.273 5  -5810233.38746  22782399.43646
  20340697.607 7  -1283580.617 7   -991673.31648  20340695.63148
  21070762.357 6  -7697896.285 6  -5957994.09448  21070759.92448
  23848803.475 4    706467.883 4                
  21139399.803 7  -2053970.758 7  -1594746.91048  21139394.34248
  22952363.373 5   1714857.816 5   1332157.04747  22952364.17847
 18  5 30  0 51 49.9980000  0 11G03G14G16G21G22G23G26G27G29G31G32   -0.000295782
  23319690.490 5  -1846193.793 5  -1426237.96946  23319688.79146
  20513422.959 6   -339232.578 6   -258540.26648  20513417.50648
  19871979.365 7  -3368257.605 7  -2601927.41048  19871973.66248
  24107304.631 1   -328815.090 1                
  23395751.045 6  -1035286.355 6   -804458.93446  23395743.31846
  22777605.779 5  -7562928.438 5  -5829889.34446  22777598.99046
  20340154.498 7  -1286433.852 7   -993896.62149  20340152.79949
  21065906.225 6  -7723417.188 6  -5977880.51248  21065903.60048
  23849917.084 4    712321.359 4                
  21138281.740 7  -2059845.926 7  -1599324.97748  21138276.16648
  22953857.639 5   1722708.496 5   1338274.43446  22953858.20146
 18  5 30  0 51 54.9980000  0 11G03G14G16G21G22G23G26G27G29G31G32   -0.000301914
  23318879.014 5  -1850459.023 5  -1429561.52346  23318877.09646
  20513722.193 7   -337661.828 7   -257316.30948  20513717.06848
  19870169.647 6  -3377769.582 6  -2609339.34448  19870163.79548
  24104716.897 1   -342420.953 1                
  23395338.287 6  -1037453.445 6   -806147.57846  23395330.76046
  22772809.795 5  -7588130.637 5  -5849527.43046  22772803.76846
  20339615.967 7  -1289265.715 7   -996103.26648  20339613.82648
  21061054.600 6  -7748912.941 6  -5997747.33248  21061051.65448
  23851035.600 5    718198.617 5                
  21137167.561 7  -2065700.555 7  -1603887.03148  21137162.29548
  22955355.834 5   1730580.305 5   1344408.28547  22955355.56847
 18  5 30  0 51 59.9980000  0 11G03G14G16G21G22G23G26G27G29G31G32   -0.000308037
  23318072.451 5  -1854698.938 5  -1432865.35246  23318070.73246
  20514026.490 7   -336062.055 7   -256069.73448  20514021.09648
  19868364.279 6  -3387254.867 6  -2616730.48048  19868358.10748
  24102132.147 1   -356004.801 1                
  23394930.209 6  -1039600.195 6   -807820.37146  23394922.25246
  22768018.803 5  -7613309.652 5  -5869147.42246  22768012.02946
  20339081.350 7  -1292076.043 7   -998293.13348  20339079.27548
  21056207.748 6  -7774383.387 6  -6017594.43048  21056204.68648
  23852158.045 4    724099.785 4                
  21136057.561 7  -2071534.430 7  -1608432.91048  21136052.09648
  22956858.045 5   1738473.395 5   1350558.72747  22956857.80747
 18  5 30  0 52  4.9980000  0 11G03G14G16G21G22G23G26G27G29G31G32   -0.000314148
  23317270.256 5  -1858913.367 5  -1436149.34846  23317268.83446
  20514336.506 7   -334433.094 7   -254800.42248  20514331.19348
  19866564.904 6  -3396713.297 6  -2624100.68048  19866558.75248
  24099551.623 1   -369566.527 1                
  23394524.897 6  -1041726.402 6   -809477.16046  23394517.73246
  22763231.631 5  -7638465.305 5  -5888749.23846  22763225.20546
  20338550.272 7  -1294864.652 7  -1000466.06648  20338548.47548
  21051365.748 6  -7799828.270 6  -6037421.61348  21051362.91248
  23853285.725 5    730025.070 5                
  21134951.568 7  -2077347.395 7  -1612962.50048  21134945.85748
  22958364.115 5   1746388.027 5   1356725.93847  22958363.79547
 18  5 30  0 52  9.9980000  0 11G03G14G16G21G22G23G26G27G29G31G32   -0.000320250
  23316472.990 4  -1863102.449 4  -1439413.54746  23316471.32246
  20514652.115 6   -332775.141 6   -253508.51648  20514647.13148
  19864770.092 6  -3406144.984 6  -2631450.04748  19864763.91648
  24096973.412 1   -383106.340 1                
  23394124.795 6  -1043832.266 6   -811118.10546  23394116.86946
  22758448.834 5  -7663597.793 5  -5908332.98846  22758442.66646
  20338023.998 7  -1297631.719 7  -1002622.20349  20338021.65849
  21046528.686 6  -7825247.770 6  -6057229.01648  21046525.51848
  23854418.350 4    735974.262 4                
  21133849.287 7  -2083139.625 7  -1617475.92248  21133843.56848
  22959874.412 6   1754323.965 6   1362909.78147  22959873.85047
 18  5 30  0 52 14.9980000  0 11G03G14G16G21G22G23G26G27G29G31G32   -0.000326340
  23315680.928 5  -1867265.595 5  -1442657.58546  23315679.10446
  20514973.092 6   -331087.512 6   -252193.48448  20514968.22548
  19862980.272 6  -3415549.313 6  -2638778.09448  19862974.11148
  24094402.061 1   -396623.539 1                
  23393727.459 6  -1045917.051 6   -812742.59446  23393720.42846
  22753671.279 5  -7688706.348 5  -5927898.13346  22753664.65846
  20337501.303 7  -1300376.559 7  -1004761.02049  20337499.57249
  21041696.561 6  -7850641.223 6  -6077016.12548  21041693.47548
  23855555.232 4    741948.149 4                
  21132751.318 7  -2088910.387 7  -1621972.61748  21132745.66248
  22961388.670 6   1762281.871 6   1369110.71947  22961387.74847
 18  5 30  0 52 19.9980000  0 11G03G14G16G21G22G23G26G27G29G31G32   -0.000332418
  23314893.725 5  -1871402.801 5  -1445881.35946  23314891.94346
  20515299.576 7   -329370.336 7   -250855.43448  20515294.92848
  19861196.045 7  -3424926.387 7  -2646084.90648  19861189.80348
  24091834.178 1   -410118.199 1                
  23393335.068 6  -1047980.965 6   -814350.85546  23393328.13146
  22748898.076 5  -7713791.082 5  -5947444.67246  22748891.20546
  20336983.482 7  -1303099.355 7  -1006882.69549  20336981.63549
  21036868.928 6  -7876008.672 6  -6096782.96948  21036866.05748
  23856696.748 4    747946.434 4                
  21131657.068 7  -2094659.824 7  -1626452.69948  21131651.51848
  22962907.600 6   1770261.641 6   1375328.71147  22962906.58047
 18  5 30  0 52 24.9980000  0 11G03G14G16G21G22G23G26G27G29G31G32   -0.000338486
  23314111.084 4  -1875513.801 4  -1449084.76246  23314109.57646
  20515632.389 6   -327623.215 6   -249494.05148  20515627.83848
  19859416.764 7  -3434275.840 7  -2653370.19948  19859410.88148
  24089270.803 2   -423589.906 2                
  23392946.053 6  -1050023.699 6   -815942.60546  23392939.22946
  22744128.865 5  -7738851.594 5  -5966972.34046  22744122.04146
  20336469.584 7  -1305799.719 7  -1008986.88348  20336467.62348
  21032046.850 6  -7901349.770 6  -6116529.27748  21032044.03748
  23857842.631 4    753969.559 4                
  21130566.951 7  -2100387.527 7  -1630915.84848  21130561.39348
  22964430.209 6   1778263.598 6   1381563.98447  22964429.31447
 18  5 30  0 52 29.9980000  0 11G03G14G16G21G22G23G26G27G29G31G32   -0.000344542
  23313333.639 4  -1879598.754 4  -1452267.83646  23313332.80746
  20515970.272 6   -325846.305 6   -248109.44948  20515965.82248
  19857643.084 7  -3443597.813 7  -2660634.07848  19857636.72548
  24086710.748 1   -437038.773 1                
  23392561.818 6  -1052045.324 6   -817517.89846  23392555.10446
  22739364.186 5  -7763888.074 5  -5986481.28146  22739358.11146
  20335960.162 7  -1308477.797 7  -1011073.70748  20335958.36548
  21027228.943 6  -7926664.652 6  -6136255.16448  21027226.60748
  23858993.170 4    760017.402 4                
  21129481.264 7  -2106093.645 7  -1635362.18848  21129475.51048
  22965957.115 6   1786287.641 6   1387816.46547  22965956.25647
 18  5 30  0 52 34.9980000  0 11G03G14G16G21G22G23G26G27G29G31G32   -0.000350588
  23312561.545 4  -1883656.789 4  -1455429.93046  23312560.58046
  20516314.475 6   -324038.828 6   -246701.03548  20516309.60748
  19855874.225 7  -3452891.477 7  -2667875.89148  19855868.29148
  24084157.264 1   -450464.031 1                
  23392181.139 6  -1054044.992 6   -819076.08246  23392174.65046
  22734604.951 5  -7788899.652 5  -6005970.82046  22734598.52946
  20335454.662 7  -1311132.734 7  -1013142.48849  20335452.76049
  21022417.061 6  -7951952.449 6  -6155959.93448  21022414.76448
  23860148.467 4    766090.746 4                
  21128399.764 7  -2111777.410 7  -1639791.10248  21128394.40448
  22967488.365 6   1794334.559 6   1394086.77347  22967487.55347
 18  5 30  0 52 39.9980000  0 11G03G14G16G21G22G23G26G27G29G31G32   -0.000356623
  23311794.881 5  -1887688.184 5  -1458571.30946  23311794.09246
  20516664.279 6   -322200.926 6   -245268.90648  20516659.27948
  19854111.389 6  -3462157.098 6  -2675095.86748  19854105.23248
  24081605.365 1   -463865.879 1                
  23391804.678 6  -1056022.938 6   -820617.37146  23391797.70146
  22729849.881 5  -7813886.570 5  -6025441.12946  22729843.42846
  20334953.748 7  -1313764.770 7  -1015193.43049  20334952.08849
  21017610.381 6  -7977213.371 6  -6175643.76648  21017607.65448
  23861309.475 4    772189.355 4    213424.41856  23861302.63156
  21127322.357 7  -2117438.930 7  -1644202.67248  21127317.08048
  22969023.576 6   1802404.105 6   1400374.71147  22969023.51047
 18  5 30  0 52 44.9980000  0 11G03G14G16G21G22G23G26G27G29G31G32   -0.000362646
  23311032.772 5  -1891693.242 5  -1461692.13346  23311031.72146
  20517019.818 6   -320332.988 6   -243813.37548  20517014.79148
  19852353.107 6  -3471394.941 6  -2682294.18848  19852347.29148
  24079061.256 1   -477244.609 1                
  23391433.232 6  -1057979.520 6   -822141.96546  23391425.54946
  22725100.170 5  -7838849.051 5  -6044892.41046  22725093.13546
  20334457.365 7  -1316374.250 7  -1017226.79348  20334455.38148
  21012808.412 6  -8002447.730 6  -6195306.90648  21012805.36948
  23862474.693 4    778312.918 4    218196.01245  23862467.88945
  21126249.295 7  -2123078.559 7  -1648597.20348  21126243.83848
  22970563.701 6   1810496.043 6   1406680.09847  22970563.37347
 18  5 30  0 52 49.9980000  0 10G03G14G16G22G23G26G27G29G31G32      -0.000368662
  23310275.123 5  -1895671.719 5  -1464792.24646  23310274.64746
  20517380.943 7   -318434.805 7   -242334.27748  20517375.97148
  19850600.748 7  -3480604.879 7  -2689470.76248  19850594.73648
  23391063.889 5  -1059914.500 5   -823649.75846  23391057.41246
  22720353.397 5  -7863786.961 5  -6064324.54346  22720347.81146
  20333965.029 7  -1318960.980 7  -1019242.43849  20333962.97549
  21008011.397 6  -8027655.281 6  -6214949.14848  21008008.79148
  23863644.670 4    784461.641 4    222987.21945  23863638.63545
  21125180.217 7  -2128696.090 7  -1652974.51248  21125174.69748
  22972107.865 6   1818610.438 6   1413002.99247  22972107.35047
 18  5 30  0 52 54.9980000  0  9G03G14G16G22G23G26G27G31G32         -0.000374662
  23309523.248 5  -1899624.082 5  -1467872.01546  23309522.54946
  20517747.592 7   -316506.828 7   -240831.95348  20517742.89348
  19848853.311 7  -3489787.328 7  -2696625.93448  19848847.40848
  23390699.623 5  -1061828.395 5   -825141.10946  23390692.97546
  22715613.131 5  -7888700.594 5  -6083737.76646  22715606.60046
  20333477.068 7  -1321525.355 7  -1021240.64848  20333474.90448
  21003219.662 6  -8052836.461 6  -6234570.84848  21003216.94348
  21124115.397 7  -2134291.910 7  -1657334.89548  21124109.63948
  22973656.490 6   1826746.934 6   1419343.09447  22973655.65447
 18  5 30  0 52 59.9980000  0  9G03G14G16G22G23G26G27G31G32         -0.000380651
  23308776.639 5  -1903550.215 5  -1470931.33646  23308775.21746
  20518120.303 6   -314548.789 6   -239306.21948  20518115.82248
  19847111.139 7  -3498942.070 7  -2703759.51248  19847105.53348
  23390339.529 5  -1063720.965 5   -826615.84446  23390333.00246
  22710876.584 5  -7913589.859 5  -6103131.98046  22710870.58446
  20332993.506 7  -1324067.172 7  -1023221.28548  20332991.53748
  20998432.928 6  -8077991.047 6  -6254171.81648  20998430.22548
  21123054.568 7  -2139865.840 7  -1661678.21548  21123048.95548
  22975208.709 6   1834905.719 6   1425700.57047  22975207.95147
 18  5 30  0 53  4.9980000  0  9G03G14G16G22G23G26G27G31G32         -0.000386631
  23308034.748 5  -1907450.480 5  -1473970.51646  23308032.85046
  20518498.537 6   -312561.176 6   -237757.43448  20518493.57248
  19845374.209 6  -3508069.520 6  -2710871.81648  19845368.90448
  23389983.490 5  -1065592.680 5   -828074.34446  23389976.38546
  22706145.029 5  -7938455.121 5  -6122507.52346  22706138.48646
  20332514.186 7  -1326586.895 7  -1025184.69548  20332512.29548
  20993650.811 6  -8103119.430 6  -6273752.37148  20993648.56448
  21121998.240 7  -2145418.297 7  -1666004.80948  21121992.59248
  22976765.443 6   1843086.363 6   1432075.06647  22976764.85447
 18  5 30  0 53  9.9980000  0  9G03G14G16G22G23G26G27G31G32         -0.000392599
  23307297.357 5  -1911325.250 5  -1476989.80946  23307295.49446
  20518882.123 6   -310544.359 6   -236185.89148  20518877.64348
  19843642.732 6  -3517170.043 6  -2717963.13348  19843636.95148
  23389630.967 5  -1067443.879 5   -829516.85246  23389624.42846
  22701418.147 5  -7963296.762 5  -6141864.63346  22701411.55346
  20332038.217 7  -1329084.863 7  -1027131.16048  20332036.76048
  20988873.990 6  -8128221.969 6  -6293312.79348  20988871.41648
  21120945.670 7  -2150949.648 7  -1670314.94948  21120940.07248
  22978326.615 6   1851288.461 6   1438466.30547  22978325.87747
 18  5 30  0 53 14.9980000  0  9G03G14G16G22G23G26G27G31G32         -0.000398556
  23306564.107 5  -1915174.777 5  -1479989.41446  23306562.56446
  20519271.209 6   -308498.566 6   -234591.77748  20519266.83048
  19841916.139 7  -3526243.918 7  -2725033.68848  19841910.01048
  23389282.615 5  -1069274.813 5   -830943.55146  23389275.68946
  22696694.982 5  -7988114.996 5  -6161203.54746  22696688.51446
  20331567.186 7  -1331561.344 7  -1029060.87948  20331565.67048
  20984102.170 6  -8153298.906 6  -6312853.25048  20984099.58848
  21119897.092 7  -2156460.113 7  -1674608.82048  21119891.28348
  22979890.967 6   1859511.777 6   1444874.05547  22979890.75647
 18  5 30  0 53 19.9980000  0  9G03G14G16G22G23G26G27G31G32         -0.000404503
  23305836.576 5  -1918998.816 5  -1482969.21546  23305834.97546
  20519666.389 6   -306423.590 6   -232974.91848  20519661.93248
  19840194.178 7  -3535290.871 7  -2732083.25848  19840188.69348
  23388939.131 5  -1071085.273 5   -832354.30546  23388931.08446
  22691976.811 5  -8012909.465 5  -6180523.89846  22691969.86146
  20331100.279 7  -1334016.145 7  -1030973.71549  20331097.97549
  20979335.162 6  -8178349.930 6  -6332373.53148  20979332.33448
  21118852.240 7  -2161949.449 7  -1678886.22748  21118846.42848
  22981459.748 5   1867756.574 5   1451298.54746  22981459.83446
 18  5 30  0 53 24.9980000  0  9G03G14G16G22G23G26G27G31G32         -0.000410439
  23305113.342 5  -1922797.695 5  -1485929.39147  23305112.36547
  20520066.740 6   -304319.742 6   -231335.56648  20520061.83848
  19838477.826 6  -3544311.195 6  -2739112.08248  19838472.04148
  23388597.787 5  -1072875.520 5   -833749.31646  23388590.86946
  22687262.904 5  -8037680.543 5  -6199826.05146  22687256.01446
  20330636.928 7  -1336449.504 7  -1032869.85948  20330635.21748
  20974573.084 6  -8203375.371 6  -6351873.87548  20974570.04948
  21117811.647 7  -2167417.934 7  -1683147.38748  21117806.02948
  22983033.272 5   1876022.508 5   1457739.51647  22983033.04947
 18  5 30  0 53 29.9980000  0  9G03G14G16G22G23G26G27G31G32         -0.000416365
  23304395.154 5  -1926571.555 5  -1488870.05946  23304394.37346
  20520472.240 6   -302187.098 6   -229673.77348  20520467.83448
  19836766.100 6  -3553305.059 6  -2746120.28148  19836760.41648
  23388261.209 5  -1074645.723 5   -835128.72346  23388254.05746
  22682553.881 5  -8062428.313 5  -6219110.02346  22682546.74846
  20330178.068 7  -1338861.586 7  -1034749.41448  20330176.15448
  20969815.287 6  -8228375.336 6  -6371354.35948  20969812.61148
  21116774.990 7  -2172865.676 7  -1687392.37948  21116769.33848
  22984610.264 5   1884309.457 5   1464196.85547  22984609.44747
 18  5 30  0 53 34.9980000  0  9G03G14G16G22G23G26G27G31G32         -0.000422281
  23303682.701 5  -1930321.215 5  -1491791.88346  23303681.13146
  20520883.881 6   -300026.520 6   -227990.21548  20520879.08048
  19835060.178 7  -3562273.273 7  -2753108.50448  19835053.80348
  23387928.857 5  -1076396.742 5   -836493.17246  23387920.88946
  22677847.865 4  -8087153.584 4  -6238376.46446  22677841.77246
  20329722.998 7  -1341253.199 7  -1036613.00049  20329721.19349
  20965062.654 6  -8253350.605 6  -6390815.60548  20965059.79948
  21115742.264 7  -2178293.551 7  -1691621.90248  21115736.65448
  22986190.670 5   1892616.566 5   1470669.89846  22986190.50646
 18  5 30  0 53 39.9980000  0  9G03G14G16G22G23G26G27G31G32         -0.000428188
  23302974.279 5  -1934046.863 5  -1494694.98446  23302971.75246
  20521299.912 6   -297838.250 6   -226285.07848  20521295.59248
  19833358.084 7  -3571216.121 7  -2760076.96148  19833352.58848
  23387598.607 5  -1078128.750 5   -837842.79746  23387591.28346
  22673148.232 5  -8111856.676 5  -6257625.64546  22673140.85746
  20329271.451 7  -1343624.590 7  -1038460.83649  20329269.76849
  20960315.076 6  -8278301.438 6  -6410257.82048  20960311.98248
  21114712.756 7  -2183701.746 7  -1695836.08648  21114707.41248
  22987775.21714                   1477158.48056  22987775.15056
 18  5 30  0 53 44.9980000  0  9G03G14G16G22G23G26G27G31G32         -0.000434086
  23302269.139 5  -1937748.996 5  -1497579.76646  23302267.19346
  20521721.389 6   -295622.582 6   -224558.58248  20521716.58848
  19831661.029 7  -3580133.867 7  -2767025.85548  19831655.29148
  23387273.100 5  -1079842.066 5   -839177.85946  23387265.58446
  22668450.740 5  -8136537.746 5  -6276857.63746  22668444.24846
  20328824.342 7  -1345976.086 7  -1040293.16449  20328822.32649
  20955571.857 6  -8303228.109 6  -6429681.19548  20955568.71348
  21113687.326 7  -2189090.551 7  -1700035.15248  21113682.06448
  22989363.95915   1909290.35915   1483662.45756  22989363.65056
 18  5 30  0 53 49.9980000  0  9G03G14G16G22G23G26G27G31G32         -0.000439970
  23301568.631 5  -1941427.621 5  -1500446.22747  23301567.19347
  20522148.529 6   -293379.738 6   -222810.92648  20522143.76448
  19829968.670 7  -3589026.742 7  -2773955.36748  19829962.98248
  23386950.162 5  -1081536.973 5   -840498.57046  23386943.23246
  22663758.225 5  -8161197.051 5  -6296072.69146  22663751.67046
  20328380.459 7  -1348307.883 7  -1042110.15649  20328378.47549
  20950832.975 6  -8328130.781 6  -6449085.87148  20950829.54948
  21112665.600 7  -2194460.191 7  -1704219.29748  21112659.95148
  22990955.959 6   1917656.461 6   1490181.42647  22990954.83447
 18  5 30  0 53 54.9980000  0  9G03G14G16G22G23G26G27G31G32         -0.000445848
  23300873.076 5  -1945083.594 5  -1503295.03947  23300871.58447
  20522580.467 6   -291110.465 6   -221042.65648  20522575.64748
  19828281.373 7  -3597895.473 7  -2780866.07048  19828275.35448
  23386630.365 5  -1083214.234 5   -841805.52746  23386623.86946
  22659070.318 5  -8185835.273 5  -6315271.29346  22659063.51046
  20327940.100 7  -1350620.734 7  -1043912.37949  20327938.32649
  20946098.740 6  -8353010.199 6  -6468472.42648  20946095.64348
  21111647.506 7  -2199811.355 7  -1708389.03948  21111641.71348
  22992551.584 6   1926041.238 6   1496714.99647  22992550.77947
 18  5 30  0 53 59.9980000  0  9G03G14G16G22G23G26G27G31G32         -0.000451717
  23300181.756 5  -1948716.816 5  -1506126.14547  23300180.23247
  20523017.147 6   -288814.727 6   -219253.77748  20523012.28748
  19826597.803 7  -3606740.020 7  -2787757.92648  19826592.17448
  23386315.045 5  -1084873.805 5   -843098.71146  23386308.57646
  22654385.811 5  -8210452.395 5  -6334453.47346  22654378.89746
  20327503.920 7  -1352914.609 7  -1045699.82048  20327502.32648
  20941368.131 6  -8377866.266 6  -6487840.79348  20941365.43248
  21110632.600 7  -2205144.039 7  -1712544.38348  21110627.11148
  22994150.639 5   1934444.684 5   1503263.12147  22994149.79947
 18  5 30  0 54  4.9980000  0  9G03G14G16G22G23G26G27G31G32         -0.000457579
  23299494.678 5  -1952328.402 5  -1508940.35947  23299493.12347
  20523459.350 6   -286493.512 6   -217445.04348  20523454.06848
  19824919.732 7  -3615561.414 7  -2794631.73848  19824914.02248
  23386002.428 5  -1086516.688 5   -844378.89546  23385995.82646
  22649704.959 5  -8235049.387 5  -6353619.95346  22649698.46346
  20327070.662 7  -1355190.535 7  -1047473.27748  20327069.26048
  20936642.764 6  -8402700.051 6  -6507191.78948  20936639.74048
  21109621.357 7  -2210459.223 7  -1716686.09448  21109615.25248
  22995753.170 5   1942865.809 5   1509825.01647  22995751.88147
 18  5 30  0 54  9.9980000  0  9G03G14G16G22G23G26G27G31G32         -0.000463432
  23298811.873 6  -1955918.348 6  -1511737.73847  23298809.67447
  20523905.772 6   -284146.953 6   -215616.55948  20523900.52248
  19823245.272 7  -3624359.734 7  -2801487.58248  19823239.72148
  23385693.436 5  -1088142.902 5   -845646.10246  23385686.01846
  22645028.029 5  -8259626.250 5  -6372770.77046  22645022.06846
  20326640.990 7  -1357448.535 7  -1049232.74249  20326638.97549
  20931921.295 6  -8427511.570 6  -6526525.43448  20931918.74048
  21108613.131 7  -2215757.008 7  -1720814.23848  21108607.38148
  22997359.139 6   1951304.500 6   1516400.60546  22997358.14746
 18  5 30  0 54 14.9980000  0  9G03G14G16G22G23G26G27G31G32         -0.000469276
  23298132.514 6  -1959487.406 6  -1514518.82447  23298131.01047
  20524356.732 6   -281775.703 6   -213768.83648  20524351.84248
  19821575.256 7  -3633135.695 7  -2808325.98848  19821569.83448
  23385386.811 5  -1089753.234 5   -846900.89146  23385379.48246
  22640354.982 5  -8284183.836 5  -6391906.53146  22640348.38546
  20326214.365 7  -1359689.391 7  -1050978.88349  20326212.68949
  20927204.357 6  -8452301.535 6  -6545842.28948  20927201.24448
  21107608.107 7  -2221038.059 7  -1724929.35248  21107602.63548
  22998968.092 6   1959760.066 6   1522989.33646  22998967.01046
 18  5 30  0 54 19.9980000  0  9G03G14G16G22G23G26G27G31G32         -0.000475115
  23297456.514 6  -1963036.105 6  -1517284.03147  23297455.46747
  20524812.443 6   -279380.305 6   -211902.29748  20524807.63548
  19819909.326 7  -3641889.844 7  -2815147.40249  19819903.52549
  23385082.943 5  -1091348.164 5   -848143.73046  23385076.09646
  22635685.107 5  -8308722.484 5  -6411027.55146  22635678.53746
  20325791.248 7  -1361913.574 7  -1052712.02049  20325789.22149
  20922491.037 6  -8477070.367 6  -6565142.66848  20922487.77248
  21106606.326 7  -2226302.883 7  -1729031.80548  21106600.91648
  23000580.365 6   1968232.039 6   1529590.85546  23000579.03346
 18  5 30  0 54 24.9980000  0  9G03G14G16G22G23G26G27G31G32         -0.000480944
  23296785.725 6  -1966564.914 6  -1520033.77047  23296784.04147
  20525272.592 6   -276961.262 6   -210017.33648  20525268.14748
  19818247.623 7  -3650622.621 7  -2821952.16449  19818242.22949
  23384782.545 5  -1092928.152 5   -849374.90646  23384775.25646
  22631019.498 5  -8333242.758 5  -6430134.23846  22631013.10746
  20325370.912 7  -1364121.578 7  -1054432.55548  20325369.60048
  20917781.475 6  -8501818.633 6  -6584427.03148  20917777.81448
  21105607.186 7  -2231551.949 7  -1733121.98848  21105601.73248
  23002195.264 6   1976719.824 6   1536204.68446  23002194.49846
 18  5 30  0 54 29.9980000  0  9G03G14G16G22G23G26G27G31G32         -0.000486767
  23296118.248 6  -1970074.195 6  -1522768.27047  23296116.18947
  20525737.397 6   -274518.938 6   -208114.23048  20525732.86148
  19816589.912 7  -3659334.402 7  -2828740.57049  19816583.99449
  23384484.326 5  -1094493.648 5   -850594.78546  23384477.78346
  22626356.217 5  -8357744.973 5  -6449226.87546  22626350.04546
  20324953.936 7  -1366313.781 7  -1056140.76648  20324952.06448
  20913075.686 6  -8526546.609 6  -6603695.58248  20913072.50248
  21104611.389 7  -2236785.621 7  -1737200.18448  21104606.18948
  23003813.561 6   1985223.121 6   1542830.61746  23003812.56146
 18  5 30  0 54 34.9980000  0  9G03G14G16G22G23G26G27G31G32         -0.000492586
  23295453.967 6  -1973564.457 6  -1525487.95747  23295452.06847
  20526206.889 6   -272053.824 6   -206193.37548  20526201.68648
  19814936.022 7  -3668025.668 7  -2835512.97748  19814930.20548
  23384189.123 5  -1096045.066 5   -851803.71946  23384182.14746
  22621697.412 5  -8382229.574 5  -6468305.77046  22621691.08446
  20324539.717 7  -1368490.652 7  -1057837.02348  20324537.64348
  20908374.186 6  -8551254.797 6  -6622948.70348  20908371.02248
  21103618.186 7  -2242004.344 7  -1741266.72748  21103612.92448
  23005434.88915                   1549468.23456  23005433.52556
 18  5 30  0 54 39.9980000  0  9G03G14G16G22G23G26G27G31G32         -0.000498392
  23294793.162 6  -1977036.262 6  -1528193.27346  23294791.06446
  20526680.389 6   -269566.449 6   -204255.16048  20526674.88548
  19813285.912 7  -3676696.988 7  -2842269.85948  19813280.30348
  23383896.693 5  -1097583.027 5   -853002.11746  23383889.71746
  22617042.037 5  -8406697.098 5  -6487371.36746  22617035.18246
  20324127.951 6  -1370652.738 6  -1059521.76648  20324126.49848
  20903676.022 6  -8575943.699 6  -6642186.81648  20903673.14748
  21102627.787 7  -2247208.684 7  -1745322.05548  21102622.10748
  23007058.545 6   2002274.184 6   1556117.10946  23007057.07646
 18  5 30  0 54 44.9970000  0  9G03G14G16G22G23G26G27G31G32          0.000495804
  23294135.798 6  -1980488.668 6  -1530883.46147  23294133.96647
  20527157.571 6   -267057.086 6   -202299.81348  20527152.40348
  19811639.798 7  -3685346.348 7  -2849009.62548  19811634.47048
  23383606.892 5  -1099106.980 5   -854189.61746  23383600.36446
  22612389.478 5  -8431142.434 5  -6506419.66446  22612383.29446
  20323719.720 7  -1372799.410 7  -1061194.50048  20323718.11048
  20898982.181 6  -8600608.137 6  -6661405.85248  20898979.52148
  21101640.517 7  -2252397.332 7  -1749365.16048  21101635.09548
  23008684.993 6   2010819.945 6   1562776.10946  23008683.17746
 18  5 30  0 54 49.9970000  0  9G03G14G16G22G23G26G27G31G32          0.000490007
  23293481.978 6  -1983924.168 6  -1533560.49247  23293480.27447
  20527639.243 6   -264525.879 6   -200327.44148  20527634.40748
  19809997.009 7  -3693978.332 7  -2855735.85248  19809991.77848
  23383318.556 5  -1100618.625 5   -855367.54646  23383312.11846
  22607739.845 5  -8455576.457 5  -6525459.16046  22607733.73546
  20323313.728 7  -1374932.645 7  -1062856.75848  20323312.16548
  20894291.532 6  -8625259.082 6  -6680614.37948  20894288.47448
  21100655.360 7  -2257573.516 7  -1753398.55548  21100649.92748
  23010314.118 6   2019380.922 6   1569446.99246  23010312.12246
 18  5 30  0 54 54.9970000  0  9G03G14G16G22G23G26G27G31G32          0.000484215
  23292831.321 6  -1987342.270 6  -1536223.94147  23292829.52147
  20528124.962 6   -261973.473 6   -198338.55548  20528119.57948
  19808358.439 7  -3702591.363 7  -2862447.30548  19808352.83748
  23383032.985 5  -1102117.895 5   -856535.81346  23383026.26746
  22603093.360 5  -8479994.348 5  -6544486.08247  22603087.39947
  20322910.439 7  -1377052.094 7  -1064508.26648  20322908.66148
  20889603.610 6  -8649891.715 6  -6699808.64148  20889600.70848
  21099672.853 7  -2262736.324 7  -1757421.53148  21099667.31748
  23011946.118 6   2027955.313 6   1576128.31346  23011943.84546
 18  5 30  0 54 59.9970000  0  9G03G14G16G22G23G26G27G31G32          0.000478428
  23292184.235 6  -1990743.520 6  -1538874.27746  23292182.28646
  20528614.478 6   -259400.426 6   -196333.59048  20528609.35648
  19806722.493 7  -3711186.109 7  -2869144.50848  19806716.98948
  23382750.696 5  -1103605.363 5   -857694.89146  23382743.47846
  22598450.204 5  -8504396.820 5  -6563500.99247  22598444.17347
  20322509.587 6  -1379158.445 6  -1066149.56649  20322507.60649
  20884919.837 6  -8674506.645 6  -6718989.09848  20884916.79048
  21098692.946 7  -2267886.344 7  -1761434.53948  21098687.65748
  23013580.142 6   2036542.520 6   1582819.60546  23013577.93946
 18  5 30  0 55  4.9970000  0  9G03G14G16G22G23G26G27G31G32          0.000472647
  23291540.142 6  -1994128.020 6  -1541511.55147  23291538.59547
  20529108.095 6   -256806.773 6   -194312.57048  20529102.93148
  19805090.501 7  -3719762.539 7  -2875827.44548  19805085.40348
  23382469.696 4  -1105081.035 4   -858844.78146  23382462.07146
  22593809.782 5  -8528783.781 5  -6582503.79747  22593803.50147
  20322111.243 7  -1381251.723 7  -1067780.69548  20322109.55248
  20880239.415 6  -8699103.852 6  -6738155.75848  20880236.56448
  21097715.470 7  -2273023.578 7  -1765437.59048  21097709.62248
  23015216.689 6   2045142.504 6   1589520.87546  23015214.68546
 18  5 30  0 55  9.9970000  0  9G03G14G16G22G23G26G27G31G32          0.000466871
  23290899.134 6  -1997496.398 6  -1544136.25846  23290897.69646
  20529605.235 6   -254193.191 6   -192276.02048  20529599.94648
  19803461.962 7  -3728321.336 7  -2882496.64148  19803456.63048
  23382190.610 4  -1106545.551 4   -859985.97746  23382183.93546
  22589171.673 5  -8553155.879 5  -6601495.04347  22589164.91547
  20321715.478 7  -1383332.520 7  -1069402.09448  20321713.56048
  20875561.571 6  -8723683.953 6  -6757309.07048  20875558.91148
  21096740.564 7  -2278148.656 7  -1769431.16848  21096734.97848
  23016855.540 6   2053754.598 6   1596231.55546  23016854.29046
 18  5 30  0 55 14.9970000  0  9G03G14G16G22G23G26G27G31G32          0.000461100
  23290261.321 6  -2000849.344 6  -1546748.95347  23290259.83747
  20530106.345 6   -251560.387 6   -190224.48848  20530101.22848
  19801836.509 7  -3736863.242 7  -2889152.67648  19801830.82948
  23381914.321 5  -1107999.668 5   -861119.04346  23381907.41946
  22584536.376 5  -8577513.844 5  -6620475.28146  22584530.22046
  20321321.571 7  -1385401.609 7  -1071014.37948  20321319.71248
  20870887.407 6  -8748247.703 6  -6776449.65248  20870884.91148
  21095767.282 7  -2283262.352 7  -1773415.86748  21095761.71648
  23018496.735 6   2062378.086 6   1602951.12946  23018494.99746
 18  5 30  0 55 19.9970000  0  9G03G14G16G22G23G26G27G31G32          0.000455332
  23289625.853 6  -2004186.762 6  -1549349.53546  23289624.47046
  20530611.149 6   -248908.281 6   -188157.92248  20530606.16148
  19800214.407 7  -3745388.070 7  -2895795.39848  19800208.66548
  23381638.845 5  -1109443.207 5   -862243.90246  23381632.62246
  22579903.657 5  -8601857.375 5  -6639444.25446  22579897.76746
  20320930.181 7  -1387458.816 7  -1072617.39848  20320928.43148
  20866216.118 6  -8772794.895 6  -6795577.33248  20866213.49748
  21094796.595 7  -2288364.434 7  -1777391.51248  21094791.10348
  23020139.548 6   2071013.055 6   1609679.65646  23020137.92746
 18  5 30  0 55 24.9970000  0  9G03G14G16G22G23G26G27G31G32          0.000449570
  23288994.415 5  -2007509.156 5  -1551938.43047  23288993.02447
  20531119.274 6   -246237.332 6   -186076.68048  20531114.50548
  19798595.149 7  -3753896.355 7  -2902425.23848  19798589.66548
  23381366.415 5  -1110876.734 5   -863360.91446  23381359.89946
  22575274.532 5  -8626187.039 5  -6658402.42646  22575268.27146
  20320541.149 7  -1389504.656 7  -1074211.55949  20320539.39249
  20861547.743 6  -8797326.008 6  -6814692.47748  20861545.70048
  21093827.814 7  -2293455.426 7  -1781358.52048  21093822.17348
  23021785.064 6   2079659.078 6   1616416.67646  23021783.72446
 18  5 30  0 55 29.9970000  0  9G03G14G16G22G23G26G27G31G32          0.000443810
  23288365.001 5  -2010816.609 5  -1554515.63747  23288363.53247
  20531631.360 6   -243547.602 6   -183980.77348  20531625.97848
  19796979.087 6  -3762388.191 6  -2909042.25448  19796973.63448
  23381095.899 4  -1112300.313 4   -864470.24646  23381089.20446
  22570646.774 5  -8650503.004 5  -6677349.92646  22570641.07546
  20320153.907 7  -1391539.289 7  -1075797.00448  20320151.87648
  20856882.923 6  -8821841.160 6  -6833795.18848  20856880.11848
  21092860.993 7  -2298535.426 7  -1785316.96948  21092855.45048
  23023432.493 6   2088315.980 6   1623162.43046  23023430.69246
 18  5 30  0 55 34.9970000  0  9G03G14G16G22G23G26G27G31G32          0.000438055
  23287738.337 6  -2014109.586 6  -1557081.60946  23287736.75546
  20532146.673 6   -240839.641 6   -181870.68848  20532141.91948
  19795366.071 6  -3770864.055 6  -2915646.83648  19795360.58748
  23380827.649 5  -1113714.449 5   -865572.19546  23380820.56046
  22566022.228 5  -8674805.688 5  -6696287.08246  22566016.32546
  20319768.501 7  -1393563.117 7  -1077374.01249  20319766.68949
  20852220.657 6  -8846340.781 6  -6852885.79748  20852218.08748
  21091896.470 7  -2303604.887 7  -1789267.19948  21091890.91948
  23025081.118 6   2096983.313 6   1629916.12146  23025080.10346
 18  5 30  0 55 39.9970000  0  9G03G14G16G22G23G26G27G31G32          0.000432302
  23287114.485 6  -2017388.570 6  -1559636.66447  23287112.79447
  20532665.454 6   -238113.875 6   -179746.72748  20532660.37248
  19793756.220 7  -3779324.387 7  -2922239.30548  19793750.57548
  23380559.189 5  -1115119.605 5   -866667.12546  23380552.92346
  22561400.485 5  -8699095.504 5  -6715214.22746  22561394.23546
  20319385.056 7  -1395576.613 7  -1078942.98449  20319383.13449
  20847561.423 6  -8870825.285 6  -6871964.63348  20847559.08348
  21090933.470 7  -2308664.207 7  -1793209.52348  21090927.98148
  23026733.032 6   2105660.617 6   1636677.64146  23026731.31746
 18  5 30  0 55 44.9970000  0  9G03G14G16G22G23G26G27G31G32          0.000426556
  23286492.298 6  -2020653.957 6  -1562181.12147  23286491.36847
  20533187.509 6   -235370.664 6   -177609.16048  20533182.56748
  19792149.618 7  -3787769.547 7  -2928819.94548  19792143.73948
  23380293.017 5  -1116516.168 5   -867755.35247  23380287.10647
  22556780.126 5  -8723372.777 5  -6734131.59047  22556774.19647
  20319004.048 7  -1397580.121 7  -1080504.17249  20319002.15749
  20842904.978 6  -8895295.031 6  -6891031.96548  20842902.84148
  21089972.423 7  -2313713.773 7  -1797144.25448  21089967.04448
  23028386.001 6   2114347.602 6   1643446.67246  23028384.49346
 18  5 30  0 55 49.9970000  0  9G03G14G16G22G23G26G27G31G32          0.000420811
  23285873.392 6  -2023905.828 6  -1564715.05147  23285872.28647
  20533713.071 6   -232610.145 6   -175458.12148  20533708.02448
  19790545.189 7  -3796199.672 7  -2935388.88748  19790539.50148
  23380029.462 5  -1117904.223 5   -868836.96146  23380022.45446
  22552162.985 5  -8747637.629 5  -6753039.26647  22552156.78647
  20318624.939 7  -1399573.797 7  -1082057.68848  20318622.91148
  20838251.501 6  -8919750.160 6  -6910087.90648  20838249.04448
  21089013.204 7  -2318753.605 7  -1801071.39848  21089007.77148
  23030040.501 6   2123043.977 6   1650223.04346  23030039.32546
 18  5 30  0 55 54.9970000  0  9G03G14G16G22G23G26G27G31G32          0.000415070
  23285257.384 6  -2027144.555 6  -1567238.72747  23285255.53247
  20534241.056 6   -229832.602 6   -173293.80548  20534236.52148
  19788943.228 7  -3804615.074 7  -2941946.34448  19788937.96648
  23379766.306 5  -1119284.102 5   -869912.19946  23379760.56046
  22547547.681 6  -8771890.383 6  -6771937.53547  22547541.26347
  20318247.415 7  -1401557.930 7  -1083603.77049  20318245.40749
  20833600.798 6  -8944190.906 6  -6929132.64148  20833598.20048
  21088056.321 7  -2323784.129 7  -1804991.29348  21088050.59948
  23031697.142 5   2131749.543 5   1657006.56346  23031696.13846
 18  5 30  0 55 59.9970000  0 10G03G14G16G21G22G23G26G27G31G32       0.000409330
  23284644.017 6  -2030370.004 6  -1569752.06646  23284641.85646
  20534772.720 6   -227037.918 6   -171116.14148  20534768.32948
  19787345.110 6  -3813015.664 6  -2948492.25048  19787339.17748
  23982670.66511                                
  23379505.501 5  -1120655.727 5   -870981.02346  23379499.23146
  22542935.095 5  -8796130.922 5  -6790826.27046  22542928.75146
  20317871.735 7  -1403532.488 7  -1085142.39148  20317869.52848
  20828952.618 6  -8968617.215 6  -6948166.13348  20828949.91148
  21087100.626 7  -2328805.281 7  -1808903.87948  21087095.24348
  23033355.485 5   2140464.340 5   1663797.28946  23033354.49346
 18  5 30  0 56  4.9970000  0 10G03G14G16G21G22G23G26G27G31G32       0.000403599
  23284031.884 6  -2033583.000 6  -1572255.69546  23284030.16946
  20535307.267 6   -224226.938 6   -168925.78148  20535303.08348
  19785748.985 7  -3821402.230 7  -2955027.25448  19785743.52848
  23980254.454 1    -37108.156 1                
  23379246.064 5  -1122019.875 5   -872044.02346  23379239.25546
  22538324.189 6  -8820359.969 6  -6809706.03146  22538318.57946
  20317497.595 7  -1405498.246 7  -1086674.14549  20317495.65749
  20824307.056 6  -8993029.828 6  -6967188.94148  20824304.64248
  21086147.064 7  -2333817.793 7  -1812809.73848  21086141.13448
  23035014.985 5   2149187.566 5   1670594.57846  23035014.32146
 18  5 30  0 56  9.9970000  0 10G03G14G16G21G22G23G26G27G31G32       0.000397865
  23283423.501 6  -2036783.379 6  -1574749.50046  23283421.09946
  20535846.235 6   -221399.520 6   -166722.60548  20535841.04848
  19784156.267 6  -3829774.652 6  -2961551.21148  19784150.43948
  23977839.556 1    -49795.734 1                
  23378987.759 5  -1123376.418 5   -873101.07046  23378981.02146
  22533715.899 6  -8844577.309 6  -6828576.66447  22533709.75947
  20317125.329 7  -1407454.996 7  -1088198.88349  20317123.48549
  20819664.079 6  -9017428.582 6  -6986200.96148  20819661.63848
  21085194.603 7  -2338821.516 7  -1816708.74648  21085188.83748
  23036677.110 5   2157919.359 5   1677398.53546  23036675.89246
 18  5 30  0 56 14.9970000  0 10G03G14G16G21G22G23G26G27G31G32       0.000392134
  23282816.548 5  -2039971.418 5  -1577233.69547  23282814.11847
  20536387.228 6   -218555.918 6   -164506.82448  20536382.05248
  19782565.314 7  -3838133.109 7  -2968064.30148  19782559.72048
  23975427.689 1    -62473.258 1                
  23378730.946 5  -1124725.625 5   -874152.41846  23378723.92346
  22529109.329 5  -8868783.270 5  -6847438.46546  22529103.32946
  20316754.595 7  -1409403.066 7  -1089716.85949  20316752.37249
  20815023.345 6  -9041813.711 6  -7005202.34848  20815021.38848
  21084243.954 7  -2343816.703 7  -1820601.10548  21084238.38448
  23038340.212 5   2166659.527 5   1684209.03146  23038338.71646
 18  5 30  0 56 19.9970000  0 10G03G14G16G21G22G23G26G27G31G32       0.000386406
  23282212.454 6  -2043147.508 6  -1579708.58647  23282210.16147
  20536931.212 6   -215696.566 6   -162278.77348  20536926.23548
  19780977.485 7  -3846478.133 7  -2974566.92248  19780971.68548
  23973015.556 1    -75141.207 1                
  23378475.962 5  -1126067.918 5   -875198.38746  23378468.75146
  22524505.548 5  -8892978.227 5  -6866291.67247  22524499.38847
  20316385.626 7  -1411342.852 7  -1091228.38349  20316383.08349
  20810386.040 6  -9066185.598 6  -7024193.43048  20810383.37248
  21083295.048 7  -2348803.762 7  -1824487.13348  21083289.45048
  23040004.899 5   2175407.559 5   1691025.66046  23040003.93946
 18  5 30  0 56 24.9970000  0 10G03G14G16G21G22G23G26G27G31G32       0.000380680
  23281610.556 6  -2046311.555 6  -1582174.06647  23281608.50547
  20537478.314 6   -212821.359 6   -160038.35248  20537473.46648
  19779391.673 7  -3854809.570 7  -2981058.95748  19779386.27148
  23970607.899 1    -87799.434 1                
  23378222.110 5  -1127403.160 5   -876238.82446  23378214.36446
  22519903.267 6  -8917162.023 6  -6885136.18847  22519897.09147
  20316017.970 7  -1413274.219 7  -1092733.34449  20316015.88049
  20805750.634 6  -9090544.164 6  -7043174.13348  20805747.93548
  21082347.751 7  -2353782.508 7  -1828366.69148  21082342.70448
  23041671.579 5   2184163.617 5   1697848.52346  23041670.18146
 18  5 30  0 56 29.9970000  0 10G03G14G16G21G22G23G26G27G31G32       0.000374956
  23281010.767 6  -2049463.848 6  -1584630.41047  23281008.81747
  20538028.485 6   -209930.477 6   -157785.72348  20538023.66548
  19777809.126 7  -3863127.586 7  -2987540.52748  19777803.22448
  23968200.743 1   -100447.996 1                
  23377969.259 5  -1128731.617 5   -877274.00846  23377961.62246
  22515304.017 6  -8941334.973 6  -6903972.25447  22515296.60647
  20315652.079 7  -1415197.441 7  -1094231.94949  20315649.68549
  20801117.720 6  -9114889.527 6  -7062144.54748  20801115.24748
  21081402.001 7  -2358753.168 7  -1832239.94148  21081396.83748
  23043338.712 5   2192927.461 5   1704677.48446  23043337.66946
 18  5 30  0 56 34.9970000  0 10G03G14G16G21G22G23G26G27G31G32       0.000369236
  23280412.642 6  -2052604.254 6  -1587077.46547  23280410.71647
  20538581.876 6   -207023.879 6   -155520.84848  20538576.71648
  19776228.626 7  -3871432.176 7  -2994011.64148  19776222.72848
  23965796.540 1   -113086.973 1                
  23377717.524 5  -1130053.289 5   -878303.88746  23377710.02446
  22510705.845 5  -8965496.910 5  -6922799.73847  22510698.86447
  20315287.618 7  -1417112.430 7  -1095724.15249  20315285.48149
  20796487.696 6  -9139221.676 6  -7081104.65248  20796484.88048
  21080457.368 7  -2363715.699 7  -1836106.85548  21080452.22848
  23045008.165 5   2201699.148 5   1711512.52746  23045006.91546
 18  5 30  0 56 39.9970000  0 10G03G14G16G21G22G23G26G27G31G32       0.000363516
  23279817.321 6  -2055733.563 6  -1589515.89847  23279815.40347
  20539137.423 6   -204102.367 6   -153244.35248  20539132.41948
  19774650.634 7  -3879724.090 7  -3000472.87548  19774644.84148
  23963393.064 1   -125717.129 1                
  23377466.798 5  -1131368.836 5   -879328.98846  23377459.29846
  22506109.767 6  -8989648.621 6  -6941619.26247  22506103.11847
  20314924.470 7  -1419019.941 7  -1097210.52349  20314922.57549
  20791859.501 6  -9163541.324 6  -7100055.03548  20791857.04048
  21079514.642 7  -2368670.828 7  -1839967.99248  21079509.31448
  23046678.962 5   2210477.910 5   1718353.09045  23046677.31045
 18  5 30  0 56 44.9970000  0 10G03G14G16G21G22G23G26G27G31G32       0.000357794
  23279223.946 6  -2058851.648 6  -1591945.59846  23279221.96246
  20539696.712 7   -201165.820 7   -150956.14148  20539690.87648
  19773075.189 7  -3888003.172 7  -3006924.10948  19773069.51348
  23960991.47011                                
  23377217.024 5  -1132678.188 5   -880349.25046  23377210.18546
  22501514.923 6  -9013789.883 6  -6960430.61747  22501508.82547
  20314562.790 7  -1420919.836 7  -1098690.96549  20314560.93149
  20787234.103 6  -9187848.309 6  -7118995.53548  20787231.58748
  21078573.040 7  -2373618.434 7  -1843823.27048  21078567.78248
  23048350.329 4   2219263.836 4   1725199.25045  23048348.94245
 18  5 30  0 56 49.9970000  0 10G03G14G16G21G22G23G26G27G31G32       0.000352083
  23278632.899 6  -2061958.430 6  -1594366.45347  23278630.63047
  20540257.884 6   -198214.133 6   -148656.12948  20540253.02148
  19771502.384 6  -3896269.359 6  -3013365.29748  19771496.62648
  23958590.767 1   -150950.223 1                
  23376970.024 5  -1133981.254 5   -881364.66046  23376962.49346
  22496923.915 6  -9037920.664 6  -6979233.82447  22496916.92747
  20314202.907 7  -1422812.070 7  -1100165.43449  20314200.53649
  20782610.993 6  -9212142.563 6  -7137926.12148  20782608.43148
  21077633.040 7  -2378558.391 7  -1847672.59048  21077627.86048
  23050024.243 5   2228057.094 5   1732051.11345  23050022.20045
 18  5 30  0 56 54.9970000  0 10G03G14G16G21G22G23G26G27G31G32       0.000346369
  23278043.415 6  -2065054.285 6  -1596778.80146  23278041.79846
  20540822.993 6   -195247.633 6   -146344.57848  20540817.28648
  19769931.728 6  -3904523.055 6  -3019796.75048  19769925.73948
  23956192.665 1   -163553.492 1                
  23376722.478 5  -1135278.383 5   -882375.42246  23376715.63046
  22492333.735 6  -9062041.301 6  -6998029.12947  22492327.36047
  20313844.142 7  -1424697.004 7  -1101634.23049  20313842.13449
  20777990.095 6  -9236424.410 6  -7156847.04348  20777987.69648
  21076694.618 7  -2383491.121 7  -1851516.27348  21076689.17348
  23051698.907 5   2236857.211 5   1738908.35545  23051696.70445
 18  5 30  0 56 59.9970000  0 10G03G14G16G21G22G23G26G27G31G32       0.000340658
  23277456.454 6  -2068139.438 6  -1599182.81346  23277454.36046
  20541390.415 6   -192266.508 6   -144021.63348  20541384.70848
  19768363.415 6  -3912764.402 6  -3026218.58648  19768357.48948
  23953797.540 1   -176148.121 1                
  23376477.493 5  -1136569.785 5   -883381.71546  23376469.92746
  22487745.649 6  -9086151.922 6  -7016816.62547  22487739.16547
  20313487.071 7  -1426574.809 7  -1103097.46949  20313484.79449
  20773372.142 6  -9260694.020 6  -7175758.42248  20773369.61848
  21075756.970 7  -2388416.770 7  -1855354.43848  21075751.77148
  23053374.142 5   2245664.051 5   1745770.80145  23053372.37645
 18  5 30  0 57  4.9970000  0 10G03G14G16G21G22G23G26G27G31G32       0.000334948
  23276871.478 6  -2071214.035 6  -1601578.60246  23276869.48146
  20541960.267 7   -189270.930 7   -141687.43448  20541954.89248
  19766797.345 6  -3920993.645 6  -3032630.98848  19766791.31748
  23951402.337 1   -188734.289 1                
  23376232.079 5  -1137855.668 5   -884383.73846  23376225.49346
  22483159.024 6  -9110252.730 6  -7035596.49247  22483152.99347
  20313130.704 7  -1428445.668 7  -1104555.28549  20313128.82149
  20768756.157 6  -9284951.555 6  -7194660.39548  20768752.66948
  21074821.196 7  -2393335.492 7  -1859187.21149  21074815.94649
  23055051.032 5   2254477.426 5   1752638.34846  23055049.63446
 18  5 30  0 57  9.9970000  0 10G03G14G16G21G22G23G26G27G31G32       0.000329239
  23276288.626 6  -2074277.922 6  -1603966.06346  23276286.31746
  20542532.790 6   -186260.820 6   -139341.89848  20542527.60648
  19765233.743 6  -3929210.602 6  -3039033.80948  19765228.08748
  23949009.392 1   -201311.867 1                
  23375988.939 5  -1139135.918 5   -885381.32046  23375981.89946
  22478574.853 6  -9134343.605 6  -7054368.60947  22478568.93547
  20312775.954 7  -1430309.480 7  -1106007.61349  20312773.88049
  20764142.329 6  -9309196.867 6  -7213552.84048  20764139.18148
  21073886.392 7  -2398247.176 7  -1863014.50848  21073881.40348
  23056730.392 5   2263297.457 5   1759511.06646  23056728.43146
 18  5 30  0 57 14.9970000  0 10G03G14G16G21G22G23G26G27G31G32       0.000323532
  23275707.493 6  -2077331.379 6  -1606345.39546  23275704.84946
  20543108.196 7   -183236.363 7   -136985.19148  20543103.36048
  19763672.532 6  -3937415.473 6  -3045427.21948  19763666.62648
  23946616.829 1   -213881.172 1                
  23375745.993 4  -1140410.707 4   -886374.69546  23375739.63046
  22473992.298 6  -9158424.668 6  -7073133.08247  22473986.18947
  20312422.673 7  -1432166.414 7  -1107454.57849  20312420.84949
  20759530.993 6  -9333430.156 6  -7232435.92648  20759527.52148
  21072953.126 7  -2403151.984 7  -1866836.43849  21072947.90349
  23058410.282 5   2272123.918 5   1766388.82446  23058408.35646
 18  5 30  0 57 19.9970000  0  9G03G14G16G22G23G26G27G31G32          0.000317822
  23275128.517 6  -2080373.707 6  -1608716.05147  23275126.20847
  20543686.970 6   -180196.891 6   -134616.77348  20543681.69248
  19762113.532 6  -3945607.633 6  -3051810.72748  19762107.52148
  23375505.235 4  -1141679.363 4   -887363.26646  23375498.00546
  22469411.821 5  -9182495.309 5  -7091889.43446  22469405.95446
  20312070.954 7  -1434015.809 7  -1108895.65649  20312068.51349
  20754922.204 6  -9357650.684 6  -7251309.06348  20754918.79048
  21072021.376 7  -2408049.242 7  -1870652.48049  21072016.04449
  23060090.907 4   2280957.461 4   1773272.05146  23060089.64246
 18  5 30  0 57 24.9970000  0 10G03G14G16G21G22G23G26G27G31G32       0.000312117
  23274551.759 6  -2083406.078 6  -1611078.94546  23274549.11846
  20544268.048 7   -177143.586 7   -132237.58648  20544262.71648
  19760556.571 6  -3953788.238 6  -3058185.21148  19760550.86048
  23941838.78211   -238992.59411                
  23375264.454 5  -1142943.078 5   -888347.98046  23375257.28246
  22464833.196 5  -9206556.598 5  -7110638.50446  22464827.32546
  20311720.103 7  -1435858.824 7  -1110331.76649  20311718.06449
  20750315.274 7  -9381859.656 7  -7270173.19548  20750311.64948
  21071090.618 7  -2412940.078 7  -1874463.52349  21071085.55249
  23061772.618 5   2289796.969 5   1780159.98445  23061772.14645
 18  5 30  0 57 29.9970000  0 10G03G14G16G21G22G23G26G27G31G32       0.000306419
  23273976.337 6  -2086428.129 6  -1613433.80547  23273974.01747
  20544851.915 7   -174076.102 7   -129847.34848  20544846.47448
  19759002.532 6  -3961956.938 6  -3064550.44148  19758996.41548
  23939451.282 1   -251536.492 1                
  23375025.470 5  -1144201.504 5   -889328.61346  23375018.00546
  22460256.196 5  -9230608.207 5  -7129380.02746  22460250.43946
  20311370.532 7  -1437695.137 7  -1111762.66049  20311368.76749
  20745710.970 7  -9406056.691 7  -7289028.02748  20745707.27848
  21070161.056 7  -2417824.180 7  -1878269.31648  21070155.89948
  23063456.181 5   2298642.711 5   1787052.76645  23063455.24345
 18  5 30  0 57 34.9970000  0 10G03G14G16G21G22G23G26G27G31G32       0.000300718
  23273403.376 6  -2089440.109 6  -1615780.80546  23273400.94246
  20545437.923 7   -170994.645 7   -127446.22748  20545432.70048
  19757450.314 7  -3970113.910 7  -3070906.52748  19757444.19248
  23937065.728 1   -264072.250 1                
  23374786.689 5  -1145454.836 5   -890305.24646  23374779.71246
  22455680.892 5  -9254650.250 5  -7148114.08247  22455675.33747
  20311022.173 7  -1439524.957 7  -1113188.49249  20311020.18949
  20741108.087 7  -9430241.922 7  -7307873.65648  20741105.20048
  21069232.915 7  -2422701.680 7  -1882069.96948  21069227.81748
  23065140.829 4   2307494.566 4   1793950.25845  23065139.91145
 18  5 30  0 57 39.9970000  0 10G03G14G16G21G22G23G26G27G31G32       0.000295019
  23272832.423 6  -2092441.551 6  -1618119.59847  23272829.69647
  20546026.798 7   -167898.754 7   -125033.84448  20546021.93548
  19755900.720 7  -3978258.676 7  -3077253.10948  19755893.81048
  23934679.407 1   -276599.512 1                
  23374549.267 5  -1146702.617 5   -891277.54746  23374541.83746
  22451108.751 6  -9278682.305 6  -7166840.34846  22451102.07146
  20310675.720 7  -1441347.793 7  -1114608.88349  20310674.06749
  20736507.970 6  -9454414.898 6  -7326709.73848  20736505.12648
  21068306.212 7  -2427572.141 7  -1885865.12948  21068301.33348
  23066826.814 5   2316352.984 5   1800852.91845  23066825.51745
 18  5 30  0 57 44.9970000  0 10G03G14G16G21G22G23G26G27G31G32       0.000289320
  23272263.103 6  -2095432.996 6  -1620450.59846  23272260.06046
  20546619.118 6   -164789.047 6   -122610.70748  20546613.18148
  19754352.845 7  -3986391.844 7  -3083590.64848  19754346.49348
  23932299.267 1   -289118.773 1                
  23374313.212 6  -1147945.484 6   -892246.03546  23374305.25146
  22446536.376 6  -9302704.902 6  -7185559.25047  22446531.32547
  20310329.821 7  -1443164.246 7  -1116024.30949  20310327.60349
  20731910.204 6  -9478576.188 6  -7345536.71548  20731907.73948
  21067380.595 7  -2432436.117 7  -1889655.24648  21067375.53248
  23068513.392 4   2325217.281 4   1807760.12146  23068512.50946
 18  5 30  0 57 49.9970000  0 10G03G14G16G21G22G23G26G27G31G32       0.000283623
  23271695.657 6  -2098414.609 6  -1622773.93046  23271692.59946
  20547213.493 7   -161665.523 7   -120176.80148  20547207.79848
  19752807.071 7  -3994513.512 7  -3089919.23048  19752801.18948
  23929919.501 1   -301630.078 1                
  23374077.345 5  -1149183.488 5   -893210.72346  23374069.89646
  22441967.298 5  -9326718.121 5  -7204270.84847  22441961.29447
  20309985.657 7  -1444974.414 7  -1117434.82449  20309983.52849
  20727314.618 6  -9502725.875 6  -7364354.64848  20727311.93948
  21066456.220 7  -2437293.707 7  -1893440.39148  21066451.42348
  23070202.071 5   2334087.473 5   1814671.96945  23070200.26345
 18  5 30  0 57 54.9970000  0 10G03G14G16G21G22G23G26G27G31G32       0.000277925
  23271130.204 6  -2101386.223 6  -1625089.49646  23271127.01346
  20547810.392 6   -158528.207 6   -117732.14548  20547804.65348
  19751263.860 7  -4002623.590 7  -3096238.77348  19751258.01748
  23927540.173 1   -314133.355 1                
  23373842.540 5  -1150416.578 5   -894171.58646  23373835.32546
  22437399.173 6  -9350721.887 6  -7222975.07847  22437393.65747
  20309642.392 7  -1446778.203 7  -1118840.37949  20309640.20849
  20722721.798 6  -9526863.836 6  -7383163.44548  20722718.73148
  21065533.079 7  -2442144.816 7  -1897220.48448  21065528.31048
  23071891.032 5   2342963.559 5   1821588.37545  23071889.51745
 18  5 30  0 57 59.9970000  0 10G03G14G16G21G22G23G26G27G31G32       0.000272224
  23270566.946 6  -2104348.422 6  -1627397.70347  23270563.75947
  20548409.876 6   -155377.520 6   -115277.06348  20548403.91548
  19749723.189 7  -4010722.590 7  -3102549.68448  19749716.84548
  23925164.11811                                
  23373608.681 5  -1151645.176 5   -895128.94146  23373601.57546
  22432833.587 5  -9374716.684 5  -7241672.32847  22432827.38047
  20309300.165 7  -1448576.121 7  -1120241.35549  20309298.23549
  20718130.524 6  -9550990.523 6  -7401963.44948  20718127.68148
  21064611.126 7  -2446989.906 7  -1900995.88348  21064606.41148
  23073580.56415   2351846.12515                
 18  5 30  0 58  4.9970000  0 10G03G14G16G21G22G23G26G27G31G32       0.000266531
  23270004.681 6  -2107300.813 6  -1629698.28147  23270001.89947
  20549011.649 6   -152213.109 6   -112811.30148  20549006.84548
  19748183.821 7  -4018810.129 7  -3108851.66048  19748177.75148
  23922784.25111                                
  23373375.368 5  -1152868.977 5   -896082.57846  23373368.31446
  22428269.384 6  -9398702.000 6  -7260362.18046  22428263.31046
  20308959.228 7  -1450367.789 7  -1121637.46149  20308957.28649
  20713541.329 6  -9575105.570 6  -7420754.39848  20713538.65348
  21063690.329 7  -2451828.605 7  -1904766.30148  21063685.23548
  23075271.603 4   2360733.418 4                
 18  5 30  0 58  9.9970000  0 10G03G14G16G21G22G23G26G27G31G32       0.000260843
  23269445.087 6  -2110243.395 6  -1631991.20347  23269442.12247
  20549616.806 6   -149034.945 6   -110334.82048  20549611.75548
  19746646.899 7  -4026886.188 7  -3115144.69148  19746640.84548
  23920408.954 1   -351598.594 1                
  23373143.774 5  -1154087.996 5   -897032.46546  23373136.43146
  22423707.095 6  -9422677.965 6  -7279044.76646  22423700.63446
  20308619.649 7  -1452153.184 7  -1123028.68049  20308617.73949
  20708954.540 6  -9599208.934 6  -7439536.23848  20708952.28248
  21062770.704 7  -2456660.887 7  -1908531.72348  21062765.89648
  23076964.071 5   2369626.543 5                
 18  5 30  0 58 14.9970000  0 10G03G14G16G21G22G23G26G27G31G32       0.000255150
  23268887.056 6  -2113176.473 6  -1634276.73847  23268883.26747
  20550223.485 6   -145843.469 6   -107847.96548  20550219.09948
  19745112.126 7  -4034951.105 7  -3121429.01648  19745106.07548
  23918036.204 1   -364070.711 1                
  23372912.540 5  -1155302.621 5   -897978.93046  23372905.08746
  22419146.446 5  -9446644.840 5  -7297720.24246  22419139.54846
  20308280.704 7  -1453932.688 7  -1124415.30949  20308278.78649
  20704370.626 7  -9623301.016 7  -7458309.28548  20704367.76348
  21061852.282 7  -2461487.133 7  -1912292.43048  21061847.12248
  23078657.845 5   2378525.070 5                
 18  5 30  0 58 19.9970000  0  9G03G14G16G22G23G26G27G31G32          0.000249454
  23268330.032 6  -2116099.617 6  -1636554.50447  23268327.20047
  20550834.040 6   -142638.082 6   -105350.27348  20550828.96248
  19743579.642 7  -4043004.426 7  -3127704.32848  19743573.69648
  23372682.712 5  -1156512.230 5   -898921.49646  23372675.05246
  22414587.189 6  -9470602.063 6  -7316388.21147  22414580.48147
  20307943.431 7  -1455705.789 7  -1125796.94949  20307941.61849
  20699787.939 6  -9647381.223 6  -7477073.07848  20699785.22448
  21060935.001 7  -2466306.734 7  -1916047.96548  21060930.00948
  23080352.040 5   2387429.605 5                
 18  5 30  0 58 24.9970000  0  9G03G14G16G22G23G26G27G31G32          0.000243767
  23267775.837 6  -2119012.813 6  -1638824.53147  23267773.10647
  20551446.728 6   -139418.859 6   -102841.79748  20551441.79848
  19742049.259 7  -4051046.137 7  -3133970.59448  19742043.38448
  23372453.314 5  -1157716.945 5   -899860.23446  23372446.08346
  22410030.064 6  -9494549.738 6  -7335048.73846  22410023.58346
  20307607.314 7  -1457472.484 7  -1127173.60248  20307605.41948
  20695207.978 7  -9671449.527 7  -7495827.59848  20695205.60648
  21060019.126 7  -2471119.785 7  -1919798.39148  21060014.27148
  23082048.517 5   2396340.020 5                
 18  5 30  0 58 29.9970000  0  9G03G14G16G22G23G26G27G31G32          0.000238077
  23267223.056 6  -2121916.598 6  -1641087.23847  23267220.79847
  20552061.540 6   -136186.289 6   -100322.92648  20552057.33748
  19740521.032 7  -4059076.789 7  -3140228.25448  19740515.20448
  23372224.540 5  -1158917.262 5   -900795.54746  23372217.74746
  22405474.720 5  -9518488.258 5  -7353702.12947  22405468.31047
  20307272.103 7  -1459233.348 7  -1128545.70748  20307269.98148
  20690630.110 7  -9695506.477 7  -7514573.27048  20690627.41148
  21059104.743 7  -2475926.715 7  -1923544.05548  21059099.33348
  23083745.024 5   2405255.805 5                
 18  5 30  0 58 34.9970000  0  9G03G14G16G22G23G26G27G31G32          0.000232389
  23266672.243 6  -2124810.691 6  -1643342.37147  23266669.65747
  20552679.251 6   -132940.156 6    -97793.47348  20552674.57948
  19738994.899 7  -4067096.043 7  -3146477.03148  19738989.29048
  23371997.329 5  -1160112.918 5   -901727.24646  23371990.47046
  22400921.337 6  -9542417.371 6  -7372348.19146  22400914.39246
  20306938.001 7  -1460988.039 7  -1129912.99648  20306936.11448
  20686054.564 7  -9719551.766 7  -7533309.86348  20686051.81048
  21058191.017 7  -2480727.316 7  -1927284.77748  21058185.95848
  23085442.478 5   2414177.336 5                
 18  5 30  0 58 39.9970000  0  9G03G14G16G22G23G26G27G31G32          0.000226704
  23266122.735 6  -2127694.914 6  -1645589.82047  23266120.79447
  20553299.407 6   -129680.230 6    -95253.27748  20553294.60348
  19737471.321 7  -4075103.773 7  -3152716.82448  19737465.66948
  23371770.782 5  -1161303.777 5   -902655.19146  23371763.51346
  22396369.470 6  -9566336.934 6  -7390986.80947  22396363.26747
  20306605.532 7  -1462736.410 7  -1131275.36748  20306603.37248
  20681481.118 7  -9743585.172 7  -7552037.18448  20681478.33748
  21057278.712 7  -2485521.379 7  -1931020.41448  21057273.20848
  23087140.759 5   2423104.641 5                
 18  5 30  0 58 44.9970000  0  9G03G14G16G22G23G26G27G31G32          0.000221018
  23265576.649 6  -2130569.902 6  -1647830.07847  23265574.13847
  20553922.079 6   -126407.129 6    -92702.82048  20553917.38048
  19735949.634 7  -4083100.594 7  -3158948.12548  19735943.90348
  23371544.790 5  -1162490.348 5   -903579.80546  23371537.32146
  22391819.470 6  -9590247.434 6  -7409618.37147  22391812.67747
  20306273.704 7  -1464479.074 7  -1132633.28148  20306271.23148
  20676909.673 7  -9767607.332 7  -7570755.74648  20676906.86448
  21056367.501 7  -2490309.531 7  -1934751.44548  21056362.24348
  23088840.228 5   2432037.211 5                
 18  5 30  0 58 49.9970000  0  9G03G14G16G22G23G26G27G31G32          0.000215334
  23265030.782 6  -2133435.328 6  -1650062.88347  23265028.37647
  20554547.704 6   -123120.523 6    -90141.83648  20554542.97848
  19734429.845 7  -4091086.195 7  -3165170.67248  19734424.33348
  23371320.439 5  -1163672.406 5   -904500.89546  23371312.09146
  22387271.110 6  -9614148.609 6  -7428242.65647  22387264.19247
  20305943.384 7  -1466215.719 7  -1133986.51648  20305941.30248
  20672340.337 7  -9791617.895 7  -7589465.28148  20672338.02148
  21055457.587 7  -2495091.430 7  -1938477.60948  21055452.29848
  23090541.649 5   2440975.305 5   1838277.19556  23090540.44656
 18  5 30  0 58 54.9970000  0  9G03G14G16G22G23G26G27G31G32          0.000209650
  23264487.696 6  -2136291.457 6  -1652288.44947  23264484.84947
  20555175.681 6   -119820.648 6    -87570.51648  20555170.91148
  19732912.696 7  -4099060.813 7  -3171384.66448  19732906.45448
  23371096.040 5  -1164850.152 5   -905418.62946  23371088.00146
  22382725.071 6  -9638040.727 6  -7446859.88747  22382717.73147
  20305613.954 7  -1467946.590 7  -1135335.24649  20305611.56749
  20667773.751 7  -9815617.035 7  -7608165.90248  20667770.81048
  21054548.790 7  -2499867.281 7  -1942199.05548  21054543.27848
  23092243.595 5   2449918.684 5   1845246.02346  23092243.10346
 18  5 30  0 58 59.9970000  0  9G03G14G16G22G23G26G27G31G32          0.000203968
  23263945.993 6  -2139137.926 6  -1654506.46547  23263943.57147
  20555806.290 6   -116507.219 6    -84988.63348  20555801.18948
  19731397.243 7  -4107024.078 7  -3177589.79748  19731391.47848
  23370872.782 5  -1166023.270 5   -906332.76646  23370864.72446
  22378180.110 6  -9661923.324 6  -7465469.69547  22378173.02447
  20305285.509 7  -1469671.309 7  -1136679.19149  20305283.35349
  20663208.892 7  -9839604.441 7  -7626857.38748  20663206.25948
  21053641.173 7  -2504636.734 7  -1945915.52048  21053635.85648
  23093946.345 5   2458867.695 5   1852219.25046  23093946.25946
 18  5 30  0 59  4.9970000  0  9G03G14G16G22G23G26G27G31G32          0.000198286
  23263406.110 6  -2141975.234 6  -1656717.38346  23263403.23146
  20556439.384 6   -113180.699 6    -82396.53148  20556434.50948
  19729883.446 7  -4114976.535 7  -3183786.52048  19729878.00948
  23370650.376 5  -1167192.313 5   -907243.72346  23370642.09546
  22373636.931 6  -9685796.898 6  -7484072.48047  22373629.84547
  20304958.759 7  -1471390.398 7  -1138018.74649  20304956.43549
  20658646.392 7  -9863580.551 7  -7645540.06648  20658643.82148
  21052734.673 7  -2509400.289 7  -1949627.38348  21052729.31048
  23095650.509 5   2467821.863 5   1859196.50046  23095650.90346
 18  5 30  0 59  9.9970000  0  9G03G14G16G22G23G26G27G31G32          0.000192606
  23262868.149 6  -2144803.070 6  -1658920.88747  23262865.45447
  20557074.860 6   -109840.785 6    -79794.00048  20557069.88448
  19728372.290 7  -4122917.852 7  -3189974.56348  19728366.86048
  23370428.306 5  -1168356.922 5   -908151.22346  23370420.75946
  22369096.298 6  -9709661.199 6  -7502668.03547  22369088.47047
  20304632.478 7  -1473103.570 7  -1139353.68449  20304630.29449
  20654086.517 7  -9887545.070 7  -7664213.71548  20654083.63048
  21051829.720 7  -2514157.605 7  -1953334.38348  21051824.60348
  23097355.571 5   2476781.434 5   1866177.98046  23097356.70846
 18  5 30  0 59 14.9970000  0  9G03G14G16G22G23G26G27G31G32          0.000186926
  23262331.735 6  -2147621.715 6  -1661117.24247  23262329.18147
  20557713.173 6   -106487.727 6    -77181.23048  20557707.75948
  19726863.696 7  -4130848.219 7  -3196154.06648  19726857.80648
  23370208.024 5  -1169517.309 5   -909055.43846  23370200.16146
  22364556.868 6  -9733516.398 6  -7521256.48847  22364549.37247
  20304308.001 7  -1474811.020 7  -1140684.15649  20304305.32149
  20649528.626 7  -9911498.203 7  -7682878.49248  20649525.54048
  21050925.720 7  -2518908.883 7  -1957036.68848  21050920.17348
  23099061.603 4   2485746.234 4   1873163.51246  23099062.56446
 18  5 30  0 59 19.9970000  0 10G03G08G14G16G22G23G26G27G31G32       0.000181248
  23261797.399 6  -2150430.813 6  -1663306.15647  23261794.59947
  23742179.75913   -209302.38713   -128522.23055  23742178.40755
  20558353.751 6   -103121.152 6    -74557.94148  20558348.18548
  19725356.524 7  -4138767.332 7  -3202324.79348  19725350.45848
  23369988.610 5  -1170673.148 5   -909956.10946  23369981.12646
  22360019.267 6  -9757362.098 6  -7539837.54347  22360011.62647
  20303983.899 7  -1476512.441 7  -1142009.94549  20303981.96649
  20644972.470 7  -9935439.586 7  -7701534.11748  20644969.44248
  21050022.548 7  -2523653.855 7  -1960734.06348  21050017.23948
  23100768.571 5   2494716.531 5   1880153.31346  23100769.49346
 18  5 30  0 59 24.9970000  0 10G03G08G14G16G22G23G26G27G31G32       0.000175573
  23261264.181 6  -2153230.602 6  -1665487.82846  23261261.82146
  23736907.212 3   -237009.648 3   -150112.30546  23736906.41546
  20558996.806 7    -99741.332 7    -71924.32048  20558991.75948
  19723851.892 7  -4146675.438 7  -3208486.94548  19723845.68948
  23369769.134 5  -1171824.719 5   -910853.45746  23369761.93146
  22355483.337 6  -9781198.566 6  -7558411.41847  22355475.41147
  20303661.056 7  -1478208.094 7  -1143331.23848  20303659.12648
  20640418.657 6  -9959369.430 6  -7720180.74248  20640415.59948
  21049120.774 7  -2528392.703 7  -1964426.68048  21049115.48948
  23102476.517 5   2503692.125 5   1887147.25446  23102477.86846
 18  5 30  0 59 29.9970000  0 10G03G08G14G16G22G23G26G27G31G32       0.000169893
  23260732.985 6  -2156021.465 6  -1667662.53547  23260731.58747
  23731636.24313                   -171700.63755  23731634.65355
  20559642.407 6    -96348.613 6    -69280.64548  20559637.63048
  19722349.439 7  -4154572.938 7  -3214640.83248  19722342.95848
  23369551.048 5  -1172972.383 5   -911747.75846  23369544.01346
  22350948.853 6  -9805026.117 6  -7576978.33647  22350941.52847
  20303339.493 7  -1479898.293 7  -1144648.28148  20303337.47448
  20635867.095 6  -9983288.094 6  -7738818.67248  20635864.22048
  21048220.032 7  -2533125.715 7  -1968114.73848  21048214.84948
  23104186.33714   2512672.62114                
 18  5 30  0 59 34.9970000  0 10G03G08G14G16G22G23G26G27G31G32       0.000164219
  23260203.618 6  -2158802.996 6  -1669829.96547  23260201.78647
  23726363.345 3   -292417.156 3   -193286.94146  23726363.34946
  20560290.571 6    -92942.617 6    -66626.63348  20560285.74748
  19720848.321 7  -4162459.398 7  -3220786.13348  19720842.12648
  23369333.001 5  -1174115.676 5   -912638.64146  23369326.65346
  22346416.329 6  -9828844.309 6  -7595537.96947  22346409.14247
  20303018.962 7  -1481582.672 7  -1145960.78148  20303016.98948
  20631317.642 6 -10007195.148 6  -7757447.53948  20631314.86848
  21047320.720 7  -2537852.578 7  -1971798.00848  21047315.85348
  23105895.931 5   2521658.445 5                
 18  5 30  0 59 39.9970000  0 10G03G08G14G16G22G23G26G27G31G32       0.000158545
  23259676.384 6  -2161575.078 6  -1671990.03147  23259674.79847
  23721092.040 3   -320116.969 3   -214871.21545  23721091.65345
  20560941.251 6    -89523.234 6    -63962.19148  20560936.62648
  19719349.962 7  -4170334.664 7  -3226922.69548  19719343.99348
  23369116.478 5  -1175254.535 5   -913526.08646  23369110.38046
  22341885.493 6  -9852653.027 6  -7614090.21547  22341878.69247
  20302699.712 7  -1483261.082 7  -1147268.62949  20302697.86849
  20626770.478 6 -10031090.449 6  -7776067.25048  20626767.87648
  21046422.126 7  -2542573.082 7  -1975476.32848  21046417.10648
  23107606.814 5   2530649.711 5                
 18  5 30  0 59 44.9970000  0 10G03G08G14G16G22G23G26G27G31G32       0.000152872
  23259150.368 6  -2164337.770 6  -1674142.76247  23259148.95447
  23715821.540 3   -347813.957 3   -236453.27746  23715820.97446
  20561594.423 6    -86090.477 6    -61287.32048  20561589.57148
  19717853.353 7  -4178198.781 7  -3233050.58248  19717847.70448
  23368900.603 5  -1176389.047 5   -914410.11346  23368895.00946
  22337357.064 6  -9876452.301 6  -7632635.10947  22337349.64947
  20302381.595 7  -1484933.590 7  -1148571.89549  20302379.30649
  20622225.689 6 -10054974.023 6  -7794677.82048  20622222.86848
  21045525.220 7  -2547287.293 7  -1979149.74248  21045520.27448
  23109318.860 5   2539646.348 5                
 18  5 30  0 59 49.9970000  0 10G03G08G14G16G22G23G26G27G31G32       0.000147198
  23258626.415 6  -2167091.344 6  -1676288.40647  23258624.63047
  23710551.610 3   -375508.582 3   -258033.48845  23710550.38445
  20562250.173 6    -82644.637 6    -58602.26248  20562245.60648
  19716358.618 7  -4186052.074 7  -3239170.03548  19716352.77848
  23368685.571 5  -1177519.484 5   -915290.96947  23368679.42747
  22332829.634 6  -9900242.398 6  -7651172.84847  22332822.54847
  20302064.157 7  -1486600.469 7  -1149870.77049  20302061.95049
  20617682.728 6 -10078846.145 6  -7813279.47748  20617680.09948
  21044629.157 7  -2551995.484 7  -1982818.46548  21044623.87648
  23111031.759 4   2548648.098 4   1893868.79756  23111031.06056
 18  5 30  0 59 54.9970000  0 10G03G08G14G16G22G23G26G27G31G32       0.000141527
  23258104.556 6  -2169835.777 6  -1678426.92246  23258102.89946
  23705282.407 3   -403200.691 3   -279611.75445  23705281.22445
  20562908.618 6    -79185.660 6    -55906.96148  20562904.11848
  19714866.423 7  -4193894.480 7  -3245281.00048  19714860.67348
  23368471.064 5  -1178645.828 5   -916168.64146  23368465.57546
  22328304.439 6  -9924023.223 6  -7669703.34047  22328297.56047
  20301748.149 7  -1488261.684 7  -1151165.22349  20301745.94249
  20613141.649 6 -10102706.734 6  -7831872.14148  20613139.38048
  21043734.642 7  -2556697.582 7  -1986482.44148  21043729.25548
  23112745.579 4   2557654.945 4   1900887.07846  23112745.34946
 18  5 30  0 59 59.9970000  0 10G03G08G14G16G22G23G26G27G31G32       0.000135855
  23257584.181 6  -2172570.941 6  -1680558.22746  23257582.29046
  23700013.001 2   -430890.242 2   -301188.00445  23700011.93545
  20563569.407 6    -75713.520 6    -53201.41448  20563564.87248
  19713376.118 7  -4201725.969 7  -3251383.45748  19713370.32548
  23368257.634 5  -1179767.984 5   -917043.06346  23368251.94646
  22323780.649 6  -9947794.738 6  -7688226.59447  22323773.64647
  20301433.321 7  -1489917.184 7  -1152455.23049  20301431.01749
  20608603.860 6 -10126555.691 6  -7850455.74248  20608601.33748
  21042840.767 7  -2561393.520 7  -1990141.62148  21042835.48548
  23114461.118 4   2566666.996 4   1907909.42646  23114460.13846
 18  5 30  1  0  4.9970000  0 10G03G08G14G16G22G23G26G27G31G32       0.000130186
  23257064.907 6  -2175296.801 6  -1682682.29346  23257063.51346
  23694744.509 3   -458577.008 3   -322762.12146  23694744.02846
  20564232.751 6    -72228.066 6    -50485.48048  20564228.27148
  19711887.642 7  -4209546.367 7  -3257477.28148  19711882.15748
  23368044.759 5  -1180885.809 5   -917914.10946  23368039.16946
  22319258.939 6  -9971556.809 6  -7706742.50047  22319252.13447
  20301119.181 7  -1491566.805 7  -1153740.65249  20301117.08749
  20604067.689 6 -10150392.887 6  -7869030.17248  20604065.16148
  21041948.337 7  -2566083.172 7  -1993795.89848  21041943.00148
  23116176.634 4   2575684.383 4   1914935.96946  23116176.16546
 18  5 30  1  0  9.9970000  0 10G03G08G14G16G22G23G26G27G31G32       0.000124516
  23256548.321 6  -2178013.102 6  -1684798.90246  23256546.67746
  23689476.134 3   -486260.820 3   -344333.89846  23689476.56746
  20564898.806 6    -68729.078 6    -47759.01248  20564894.20848
  19710401.665 7  -4217355.484 7  -3263562.31348  19710396.03648
  23367832.915 5  -1181999.141 5   -918781.65246  23367827.14646
  22314738.470 6  -9995309.082 6  -7725250.75047  22314732.37647
  20300806.407 7  -1493210.301 7  -1155021.29749  20300804.38449
  20599533.939 6 -10174218.063 6  -7887595.24648  20599531.56748
  21041057.439 7  -2570766.156 7  -1997444.97748  21041051.82948
  23117893.024 4   2584707.340 4   1921966.81346  23117893.31046
 18  5 30  1  0 14.9970000  0 10G03G08G14G16G22G23G26G27G31G32       0.000118849
  23256032.767 6  -2180719.984 6  -1686908.16446  23256031.33746
  23684209.454 3   -513941.676 3   -365903.37545  23684208.22845
  20565567.017 7    -65216.766 7    -45022.15248  20565562.17348
  19708917.970 7  -4225153.488 7  -3269638.66848  19708912.30248
  23367621.946 5  -1183108.117 5   -919645.79746  23367615.75946
  22310220.814 6 -10019051.793 6  -7743751.57047  22310214.09547
  20300494.915 7  -1494847.930 7  -1156297.37549  20300492.66149
  20595002.235 6 -10198031.410 6  -7906151.09848  20594999.75548
  21040167.470 7  -2575442.793 7  -2001089.10548  21040161.88448
  23119611.368 4   2593735.637 4   1929001.85246  23119611.34146
 18  5 30  1  0 19.9970000  0 11G03G08G14G16G21G22G23G26G27G31G32    0.000113182
  23255520.345 6  -2183417.836 6  -1689010.41047  23255517.85647
  23678941.556 3   -541620.066 3   -387470.95345  23678940.98945
  20566237.767 6    -61691.398 6    -42275.11348  20566232.97048
  19707435.837 7  -4232940.633 7  -3275706.59448  19707430.40348
  23859190.42311    -20196.33611                
  23367412.196 5  -1184213.066 5   -920506.82046  23367405.46646
  22305704.142 6 -10042785.219 6  -7762245.13347  22305697.38447
  20300184.298 7  -1496479.973 7  -1157569.10249  20300182.34949
  20590472.860 6 -10221833.168 6  -7924697.92248  20590470.13048
  21039278.642 7  -2580113.414 7  -2004728.54748  21039272.90748
  23121330.790 4   2602768.957 4   1936040.76246  23121330.42746
 18  5 30  1  0 24.9970000  0 11G03G08G14G16G21G22G23G26G27G31G32    0.000107519
  23255007.634 6  -2186106.605 6  -1691105.57046  23255006.44646
  23673675.767 3   -569295.820 3   -409036.43045  23673674.82945
  20566910.931 6    -58152.984 6    -39517.92248  20566906.30248
  19705955.907 7  -4240716.938 7  -3281766.05948  19705950.41948
  23856855.501 1    -32463.973 1                
  23367202.306 5  -1185313.938 5   -921364.64546  23367195.77846
  22301189.587 6 -10066509.336 6  -7780731.43847  22301183.01747
  20299875.149 7  -1498106.359 7  -1158836.41849  20299873.06749
  20585946.360 6 -10245623.336 6  -7943235.70348  20585943.46648
  21038391.329 7  -2584777.938 7  -2008363.23448  21038385.33748
  23123050.548 4   2611807.363 4   1943083.67645  23123050.18145
 18  5 30  1  0 29.9970000  0 11G03G08G14G16G21G22G23G26G27G31G32    0.000101854
  23254498.431 6  -2188786.285 6  -1693193.65247  23254496.06047
  23668409.251 2   -596969.105 2   -430600.07046  23668408.56046
  20567587.392 6    -54601.547 6    -36750.57848  20567581.95848
  19704478.353 7  -4248482.449 7  -3287817.11748  19704472.97448
  23854522.001 1    -44723.707 1                
  23366993.853 5  -1186410.801 5   -922219.35546  23366987.17746
  22296676.860 6 -10090224.152 6  -7799210.53147  22296670.22847
  20299566.689 7  -1499727.184 7  -1160099.40249  20299564.88049
  20581420.962 6 -10269401.906 6  -7961764.46148  20581417.93548
  21037504.790 7  -2589436.391 7  -2011993.19548  21037498.83748
  23124770.892 4   2620850.809 4   1950130.50045  23124770.60345
 18  5 30  1  0 34.9970000  0 11G03G08G14G16G21G22G23G26G27G31G32    0.000096189
  23253989.931 6  -2191456.414 6  -1695274.30147  23253987.86447
  23663144.110 3   -624639.254 3   -452161.20345  23663143.28645
  20568265.407 7    -51036.547 7    -33972.66448  20568260.32548
  19703002.845 7  -4256236.559 7  -3293859.28148  19702997.18948
  23852190.157 1    -56975.047 1                
  23366785.939 5  -1187503.039 5   -923070.44546  23366778.77846
  22292166.360 6 -10113928.953 6  -7817681.82447  22292159.96647
  20299259.556 7  -1501341.801 7  -1161357.55549  20299257.78249
  20576898.329 6 -10293168.273 6  -7980283.71148  20576895.57148
  21036619.532 7  -2594088.180 7  -2015617.97748  21036613.52448
  23126492.493 4   2629899.809 4   1957181.66445  23126492.52845
 18  5 30  1  0 39.9970000  0 11G03G08G14G16G21G22G23G26G27G31G32    0.000090527
  23253484.024 6  -2194117.297 6  -1697347.72747  23253481.60347
  23657879.103 3   -652306.676 3   -473720.24246  23657878.13446
  20568946.556 6    -47458.324 6    -31184.44548  20568941.24748
  19701529.415 7  -4263979.727 7  -3299892.91048  19701523.87648
  23849859.759 1    -69218.434 1                
  23366578.829 5  -1188591.113 5   -923918.30946  23366572.17746
  22287657.329 6 -10137624.270 6  -7836145.69947  22287650.78247
  20298953.423 7  -1502950.711 7  -1162611.25849  20298951.31749
  20572377.907 6 -10316922.859 6  -7998793.76648  20572375.43148
  21035735.149 7  -2598733.715 7  -2019237.87548  21035729.63848
  23128215.595 3   2638954.039 3   1964236.89145  23128215.44645
 18  5 30  1  0 44.9970000  0 11G03G08G14G16G21G22G23G26G27G31G32    0.000084866
  23252979.642 6  -2196769.063 6  -1699414.05146  23252976.98946
  23652614.032 3   -679971.328 3   -495277.06646  23652613.91946
  20569629.767 6    -43866.914 6    -28385.95348  20569624.97048
  19700057.931 7  -4271711.945 7  -3305918.00848  19700052.58348
  23847531.548 1    -81453.801 1                
  23366372.642 5  -1189675.066 5   -924762.91846  23366365.30246
  22283150.071 6 -10161310.063 6  -7854602.15647  22283142.98147
  20298648.071 7  -1504553.859 7  -1163860.46949  20298646.27149
  20567859.681 6 -10340665.617 6  -8017294.61348  20567857.50148
  21034852.439 7  -2603372.953 7  -2022852.87148  21034846.92348
  23129939.665 3   2648013.434 3   1971296.10245  23129939.78245
 18  5 30  1  0 49.9970000  0 11G03G08G14G16G21G22G23G26G27G31G32    0.000079205
  23252476.368 6  -2199411.773 6  -1701473.30547  23252474.62647
  23647350.954 2   -707633.320 2   -516831.85945  23647350.06745
  20570315.704 7    -40262.469 7    -25577.31348  20570310.66548
  19698588.220 7  -4279433.379 7  -3311934.71948  19698583.19248
  23845206.439 1    -93681.309 1                
  23366167.071 5  -1190754.965 5   -925604.43046  23366160.11046
  22278644.462 6 -10184986.469 6  -7873051.30947  22278637.89247
  20298344.345 7  -1506151.430 7  -1165105.32849  20298342.41949
  20563344.470 6 -10364396.707 6  -8035786.37148  20563341.52848
  21033970.774 7  -2608006.059 7  -2026463.08648  21033965.53648
  23131664.868 3   2657077.828 3   1978359.25445  23131664.66945
 18  5 30  1  0 54.9970000  0 11G03G08G14G16G21G22G23G26G27G31G32    0.000073544
  23251974.923 6  -2202045.164 6  -1703525.32846  23251973.18946
  23642087.110 3   -735292.344 3   -538384.34846  23642086.63046
  20571004.204 7    -36644.734 7    -22758.30148  20570998.82148
  19697121.173 7  -4287143.730 7  -3317942.78948  19697116.31448
  23842880.571 1   -105900.617 1                
  23365962.282 5  -1191830.621 5   -926442.59846  23365955.57146
  22274140.353 6 -10208653.238 6  -7891492.95347  22274134.26347
  20298041.220 7  -1507743.125 7  -1166345.61349  20298039.48549
  20558830.735 6 -10388115.840 6  -8054268.80548  20558827.73948
  21033090.126 7  -2612632.742 7  -2030068.29748  21033085.06448
  23133390.603 3   2666147.574 3   1985426.54345  23133390.66945
 18  5 30  1  0 59.9970000  0 11G03G08G14G16G21G22G23G26G27G31G32    0.000067884
  23251475.876 6  -2204669.320 6  -1705570.15246  23251473.82146
  23636825.056 2   -762948.477 2   -559934.53945  23636823.76745
  20571695.353 7    -33013.746 7    -19928.97348  20571689.84148
  19695655.970 7  -4294843.051 7  -3323942.25048  19695650.87648
  23840555.610 1   -118111.844 1                
  23365758.431 5  -1192902.043 5   -927277.47746  23365752.40346
  22269638.915 6 -10232310.434 6  -7909927.14847  22269632.85647
  20297739.298 7  -1509329.043 7  -1167581.39149  20297737.79449
  20554319.704 6 -10411823.004 6  -8072741.92248  20554316.39248
  21032210.759 6  -2617253.031 6  -2033668.52748  21032205.72848
  23135117.345 3   2675222.484 3   1992497.91846  23135118.02846
 18  5 30  1  1  4.9970000  0 11G03G08G14G16G21G22G23G26G27G31G32    0.000062227
  23250978.220 6  -2207284.148 6  -1707607.68846  23250976.48546
  23631562.274 3   -790601.500 3   -581482.32845  23631561.13445
  20572388.829 7    -29369.395 7    -17089.22748  20572383.27148
  19694192.829 7  -4302531.223 7  -3329933.03148  19694187.75948
  23838233.392 1   -130314.762 1                
  23365555.704 5  -1193969.086 5   -928108.96546  23365549.10346
  22265138.493 6 -10255957.773 6  -7928353.65247  22265132.54047
  20297438.735 7  -1510909.023 7  -1168812.53949  20297437.16949
  20549810.649 6 -10435518.094 6  -8091205.62948  20549807.81048
  21031333.329 7  -2621866.816 7  -2037263.68448  21031327.77448
  23136844.868 3   2684302.773 3   1999573.40246  23136845.73146
 18  5 30  1  1  9.9970000  0 11G03G08G14G16G21G22G23G26G27G31G32    0.000056570
  23250482.524 6  -2209889.328 6  -1709637.72346  23250480.28246
  23626301.056 3   -818251.328 3   -603027.67646  23626299.94646
  20573084.728 7    -25711.414 7    -14238.85548  20573079.47048
  19692732.439 7  -4310207.953 7  -3335914.89548  19692727.17348
  23835916.017 1   -142509.109 1                
  23365353.626 5  -1195031.547 5   -928936.86747  23365347.36047
  22260640.548 6 -10279595.020 6  -7946772.29347  22260634.64947
  20297139.290 7  -1512482.781 7  -1170038.84849  20297137.37649
  20545303.657 6 -10459200.785 6  -8109659.67248  20545300.82148
  21030456.157 6  -2626473.793 6  -2040853.53148  21030450.98948
  23138574.595 3   2693388.660 3   2006653.30946  23138575.31446
 18  5 30  1  1 14.9970000  0 11G03G08G14G16G21G22G23G26G27G31G32    0.000050915
  23249988.431 6  -2212485.395 6  -1711660.62546  23249986.64246
  23621039.071 3   -845898.266 3   -624570.70346  23621039.08346
  20573783.634 7    -22040.363 7    -11378.30948  20573778.24748
  19691273.235 6  -4317873.832 6  -3341888.31348  19691268.52148
  23833596.384 1   -154695.355 1                
  23365151.845 5  -1196089.961 5   -929761.60246  23365145.87246
  22256144.306 6 -10303222.691 6  -7965183.46547  22256138.36447
  20296841.009 7  -1514050.902 7  -1171260.76649  20296839.27849
  20540799.306 6 -10482871.652 6  -8128104.49648  20540796.68148
  21029580.985 6  -2631074.539 6  -2044438.52348  21029575.58748
  23140304.829 3   2702479.602 3   2013737.14546  23140305.10646
 18  5 30  1  1 19.9970000  0 11G03G08G14G16G21G22G23G26G27G31G32    0.000045261
  23249496.079 6  -2215072.074 6  -1713676.24246  23249494.38046
  23615779.048 3   -873542.020 3   -646111.27046  23615778.79846
  20574484.454 7    -18355.895 7     -8507.30148  20574479.06448
  19689816.899 6  -4325528.531 6  -3347853.02348  19689811.47448
  23831279.228 1   -166873.328 1                
  23364950.884 5  -1197144.000 5   -930582.94947  23364945.49747
  22251650.235 6 -10326840.434 6  -7983586.87147  22251644.22047
  20296543.431 7  -1515613.012 7  -1172477.98449  20296541.50949
  20536297.298 6 -10506530.293 6  -8146539.80148  20536294.70848
  21028706.774 6  -2635668.656 6  -2048018.35548  21028701.23548
  23142035.657 4   2711575.945 4   2020825.16046  23142035.82546
 18  5 30  1  1 24.9970000  0 11G03G08G14G16G21G22G23G26G27G31G32    0.000039608
  23249006.259 6  -2217649.207 6  -1715684.41846  23249003.77446
  23610518.774 3   -901182.469 3   -667649.30146  23610519.16546
  20575188.142 6    -14657.867 6     -5625.72748  20575183.25948
  19688362.431 7  -4333171.926 7  -3353808.92248  19688356.87648
  23828962.806 1   -179042.762 1                
  23364752.306 5  -1198193.586 5   -931400.84046  23364745.98146
  22247158.079 6 -10350448.137 6  -8001982.47347  22247151.89947
  20296247.431 7  -1517169.043 7  -1173690.49249  20296245.30649
  20531797.478 6 -10530176.590 6  -8164965.48848  20531794.80648
  21027833.470 6  -2640256.070 6  -2051592.94548  21027828.48548
  23143767.071 3   2720677.758 3   2027917.44146  23143767.99346
 18  5 30  1  1 29.9970000  0 11G03G08G14G16G21G22G23G26G27G31G32    0.000033953
  23248517.173 6  -2220217.219 6  -1717685.48847  23248515.39247
  23605260.618 3   -928819.922 3   -689184.95346  23605259.68946
  20575894.978 7    -10946.691 7     -2733.90248  20575889.42348
  19686910.149 6  -4340804.391 6  -3359756.30948  19686904.95848
  23826647.00111                                
  23364552.517 5  -1199239.027 5   -932215.48846  23364546.99746
  22242667.228 5 -10374046.215 5  -8020370.60947  22242661.20047
  20295952.524 7  -1518719.313 7  -1174898.50049  20295950.43949
  20527300.368 6 -10553810.898 6  -8183381.82448  20527297.44648
  21026961.689 6  -2644837.074 6  -2055162.57448  21026956.85348
  23145500.759 4   2729784.785 4   2035013.78946  23145500.87646
 18  5 30  1  1 34.9970000  0 10G03G08G14G16G22G23G26G27G31G32       0.000028301
  23248030.220 6  -2222775.738 6  -1719679.13746  23248028.06446
  23600001.931 4   -956454.078 4   -710718.07446  23600001.16546
  20576603.462 7     -7222.074 7       168.39548  20576598.26348
  19685459.806 7  -4348425.516 7  -3365694.85948  19685454.58348
  23364354.446 5  -1200280.012 5   -933026.64846  23364349.41146
  22238177.806 5 -10397634.207 5  -8038750.87147  22238172.44247
  20295658.478 7  -1520263.508 7  -1176101.78149  20295656.29049
  20522805.212 6 -10577432.852 6  -8201788.54348  20522801.88448
  21026090.923 6  -2649411.328 6  -2058726.93048  21026086.41148
  23147234.548 4   2738897.227 4   2042114.39546  23147234.90746
 18  5 30  1  1 39.9970000  0 10G03G08G14G16G22G23G26G27G31G32       0.000022652
  23247545.071 6  -2225325.031 6  -1721665.62546  23247542.29446
  23594743.876 4   -984085.195 4   -732248.78546  23594743.11446
  20577314.735 7     -3484.273 7      3080.95748  20577309.69648
  19684011.884 7  -4356035.605 7  -3371624.80148  19684006.43148
  23364157.689 5  -1201316.887 5   -933834.61347  23364151.45447
  22233692.134 6 -10421212.324 6  -8057123.41847  22233685.45447
  20295366.118 7  -1521801.902 7  -1177300.52749  20295363.72849
  20518312.259 6 -10601042.652 6  -8220185.78948  20518309.67748
  21025222.134 6  -2653979.109 6  -2062286.23848  21025216.77448
  23148969.704 4   2748014.879 4   2049218.99646  23148970.50946
 18  5 30  1  1 44.9970000  0 10G03G08G14G16G22G23G26G27G31G32       0.000017004
  23247061.704 6  -2227864.703 6  -1723644.58646  23247059.59546
  23589486.689 5  -1011712.895 5   -753776.84446  23589485.62246
  20578028.681 6       267.254 6      6004.21948  20578023.85348
  19682565.587 7  -4363634.270 7  -3377545.84448  19682560.59148
  23363960.884 5  -1202349.141 5   -934638.98046  23363955.14246
  22229206.728 6 -10444780.219 6  -8075487.96947  22229201.38847
  20295074.235 7  -1523334.035 7  -1178494.39549  20295072.32549
  20513821.743 6 -10624639.898 6  -8238573.26248  20513818.63448
  21024354.142 6  -2658539.922 6  -2065840.12148  21024349.16548
  23150706.095 4   2757138.219 4   2056328.05546  23150705.81746
 18  5 30  1  1 49.9970000  0 10G03G08G14G16G22G23G26G27G31G32       0.000011356
  23246580.353 6  -2230395.012 6  -1725616.25846  23246578.26746
  23584229.509 4  -1039337.143 4   -775302.22746  23584228.79846
  20578745.243 6      4032.137 6      8937.89148  20578739.79048
  19681122.243 7  -4371221.793 7  -3383458.19148  19681116.70048
  23363764.970 5  -1203377.059 5   -935439.97746  23363759.68546
  22224724.212 5 -10468338.125 5  -8093844.79347  22224718.17747
  20294783.876 7  -1524860.230 7  -1179683.64549  20294782.05649
  20509333.493 6 -10648224.863 6  -8256951.16048  20509330.79048
  21023487.626 6  -2663094.109 6  -2069388.84848  21023482.39248
  23152443.384 4   2766266.824 4   2063441.20746  23152443.35346
 18  5 30  1  1 54.9970000  0 10G03G08G14G16G22G23G26G27G31G32       0.000005713
  23246100.743 6  -2232915.723 6  -1727580.42646  23246098.15346
  23578973.845 4  -1066958.176 4   -796825.08646  23578972.21646
  20579463.673 6      7810.594 6     11882.13748  20579458.56748
  19679680.384 6  -4378797.930 6  -3389361.68048  19679675.13448
  23363570.923 5  -1204400.500 5   -936237.46546  23363565.32146
  22220242.946 5 -10491885.801 5  -8112193.62947  22220237.11047
  20294494.431 7  -1526380.285 7  -1180868.10949  20294492.43949
  20504848.157 6 -10671797.344 6  -8275319.32848  20504844.79848
  21022622.439 6  -2667641.414 6  -2072932.20348  21022616.97448
  23154181.860 4   2775400.957 4   2070558.70346  23154181.57146
 18  5 30  1  1 59.9970000  0 10G03G08G14G16G22G23G26G27G31G32       0.000000067
  23245622.587 6  -2235426.742 6  -1729537.05947  23245620.42747
  23573718.274 4  -1094575.488 4   -818345.08246  23573716.88846
  20580185.376 7     11602.805 7     14837.09848  20580180.18548
  19678240.314 6  -4386362.520 6  -3395256.17648  19678235.73548
  23363376.360 5  -1205419.238 5   -937031.28546  23363370.75146
  22215764.095 5 -10515423.066 5  -8130534.35247  22215758.19647
  20294206.493 7  -1527894.023 7  -1182047.64849  20294204.19649
  20500364.923 6 -10695357.094 6  -8293677.57048  20500362.03648
  21021758.556 6  -2672181.637 6  -2076470.03948  21021753.33748
  23155921.009 5   2784540.758 5   2077680.59446  23155920.79846
 18  5 30  1  2  4.9970000  0 10G03G08G14G16G22G23G26G27G31G32      -0.000005575
  23245147.157 6  -2237928.539 6  -1731486.50847  23245144.83347
  23568463.314 5  -1122189.590 5   -839862.59446  23568462.20846
  20580909.642 6     15408.328 6     17802.42648  20580904.44248
  19676802.759 6  -4393915.949 6  -3401141.96948  19676798.29448
  23363183.079 5  -1206433.734 5   -937821.80146  23363177.87246
  22211286.626 6 -10538950.359 6  -8148867.30147  22211280.95047
  20293919.524 7  -1529401.859 7  -1183222.58649  20293917.28649
  20495883.837 6 -10718904.551 6  -8312026.23848  20495880.94248
  21020895.759 6  -2676715.273 6  -2080002.73848  21020890.47448
  23157660.392 4   2793685.887 4   2084806.66046  23157661.00146
 18  5 30  1  2  9.9970000  0 10G03G08G14G16G22G23G26G27G31G32      -0.000011217
  23244672.618 6  -2240420.848 6  -1733428.57447  23244670.19647
  23563209.267 5  -1149800.273 5   -861377.41846  23563207.46646
  20581636.329 6     19227.316 6     20778.25448  20581631.61848
  19675368.181 7  -4401458.113 7  -3407018.99648  19675362.73948
  23362991.110 5  -1207443.762 5   -938608.86746  23362985.62646
  22206812.032 5 -10562467.406 5  -8167192.28547  22206805.82947
  20293634.032 7  -1530903.613 7  -1184392.78949  20293632.28249
  20491405.743 6 -10742439.488 6  -8330365.15648  20491402.59948
  21020033.962 6  -2681242.098 6  -2083530.14148  21020028.74748
  23159402.696 5   2802836.453 5   2091936.93446  23159402.63846
 18  5 30  1  2 14.9970000  0 10G03G08G14G16G22G23G26G27G31G32      -0.000016859
  23244200.282 6  -2242903.613 6  -1735363.19147  23244197.77847
  23557955.931 5  -1177407.297 5   -882889.43846  23557954.40346
  20582365.571 6     23059.977 6     23764.73048  20582361.20848
  19673934.931 6  -4408988.840 6  -3412887.09448  19673929.33348
  23362799.970 5  -1208449.270 5   -939392.39546  23362794.30246
  22202338.985 5 -10585974.105 5  -8185509.19947  22202332.44247
  20293349.368 7  -1532399.148 7  -1185558.14549  20293347.25949
  20486929.001 6 -10765961.781 6  -8348694.21948  20486926.43148
  21019174.149 6  -2685761.965 6  -2087052.10548  21019168.81748
  23161143.814 4   2811992.605 4   2099071.56346  23161144.64946
 18  5 30  1  2 19.9970000  0 10G03G08G14G16G22G23G26G27G31G32      -0.000022497
  23243729.978 6  -2245376.891 6  -1737290.44147  23243727.73147
  23552703.282 5  -1205010.883 5   -904398.74246  23552702.02146
  20583097.517 7     26906.074 7     26761.67648  20583092.93148
  19672504.165 7  -4416508.332 7  -3418746.43048  19672498.76748
  23362609.212 5  -1209450.344 5   -940172.45746  23362604.04446
  22197867.696 5 -10609470.641 5  -8203818.16847  22197861.35347
  20293065.876 7  -1533888.613 7  -1186718.76649  20293063.85649
  20482455.228 6 -10789471.531 6  -8367013.49648  20482452.81048
  21018315.399 6  -2690274.980 6  -2090568.75448  21018310.44648
  23162888.001 4   2821154.160 4   2106210.40646  23162887.81446
 18  5 30  1  2 24.9970000  0 10G03G08G14G16G22G23G26G27G31G32      -0.000028135
  23243261.087 6  -2247840.664 6  -1739210.26247  23243258.79047
  23547451.728 5  -1232610.887 5   -925905.27746  23547449.59546
  20583832.282 7     30765.727 7     29769.18848  20583826.96248
  19671075.243 6  -4424016.492 6  -3424596.95348  19671069.83748
  23362419.157 5  -1210447.020 5   -940949.10547  23362414.58747
  22193398.642 5 -10632956.863 5  -8222119.13747  22193392.04847
  20292783.564 7  -1535371.957 7  -1187874.62949  20292781.64949
  20477983.868 6 -10812968.648 6  -8385322.93848  20477981.28648
  21017457.587 6  -2694781.098 6  -2094080.01648  21017452.77448
  23164632.524 5   2830321.215 5   2113353.55946  23164632.24346
 18  5 30  1  2 29.9970000  0 10G03G08G14G16G22G23G26G27G31G32      -0.000033772
  23242793.415 6  -2250294.895 6  -1741122.63747  23242791.66147
  23542199.837 5  -1260207.258 5   -947408.95746  23542197.54046
  20584568.884 6     34639.008 6     32787.32448  20584564.41548
  19669648.954 6  -4431513.223 6  -3430438.55948  19669643.64948
  23362230.743 5  -1211439.066 5   -941722.14547  23362225.83747
  22188930.884 6 -10656432.609 6  -8240411.91847  22188924.93947
  20292502.431 7  -1536849.070 7  -1189025.62549  20292500.93949
  20473515.032 6 -10836453.051 6  -8403622.46948  20473511.96648
  21016601.110 6  -2699280.199 6  -2097585.80948  21016596.44648
  23166378.462 5   2839493.863 5   2120501.03946  23166377.81046
 18  5 30  1  2 34.9970000  0 10G03G08G14G16G22G23G26G27G31G32      -0.000039406
  23242328.251 6  -2252739.418 6  -1743027.46147  23242326.37247
  23536948.860 4  -1287800.203 4   -968910.33646  23536947.77846
  20585308.556 6     38526.012 6     35816.15248  20585303.76748
  19668224.493 7  -4438998.418 7  -3436271.18848  19668218.86848
  23362043.204 5  -1212426.438 5   -942491.54746  23362038.38846
  22184466.118 6 -10679897.793 6  -8258696.48447  22184459.67747
  20292222.610 7  -1538319.855 7  -1190171.69949  20292220.45049
  20469048.454 6 -10859924.570 6  -8421911.96548  20469045.31048
  21015747.024 6  -2703772.152 6  -2101086.03548  21015742.03248
  23168124.392 5   2848672.168 5   2127652.94946  23168123.82946
 18  5 30  1  2 39.9970000  0 10G03G08G14G16G22G23G26G27G31G32      -0.000045040
  23241865.048 6  -2255174.367 6  -1744924.85247  23241863.48147
  23531699.579 2  -1315388.863 2                
  20586050.962 6     42426.621 6     38855.57848  20586045.76348
  19666802.087 7  -4446472.199 7  -3442094.91048  19666796.95848
  23361856.204 5  -1213409.313 5   -943257.43446  23361851.41546
  22180003.001 6 -10703352.508 6  -8276972.89547  22179996.31047
  20291943.970 7  -1539784.410 7  -1191312.91449  20291941.93949
  20464584.517 6 -10883383.352 6  -8440191.53148  20464581.48548
  21014893.548 6  -2708257.070 6  -2104580.78148  21014888.52848
  23169872.337 5   2857856.020 5   2134809.17646  23169871.72846
 18  5 30  1  2 44.9970000  0 10G03G08G14G16G22G23G26G27G31G32      -0.000050673
  23241403.564 6  -2257600.168 6  -1746815.09447  23241401.97447
  23526449.845 5  -1342973.410 5   -987827.77757  23526447.33357
  20586795.837 6     46340.477 6     41905.32848  20586790.59148
  19665382.157 6  -4453934.910 6  -3447909.99648  19665376.56748
  23361669.649 5  -1214388.020 5   -944020.09846  23361665.17746
  22175541.173 6 -10726797.148 6  -8295241.46147  22175535.34547
  20291666.439 7  -1541243.164 7  -1192449.60549  20291664.36449
  20460123.157 6 -10906829.695 6  -8458461.41048  20460119.64648
  21014041.509 6  -2712735.375 6  -2108070.36748  21014036.00548
  23171620.564 5   2867045.066 5   2141969.45746  23171620.57146
 18  5 30  1  2 49.9970000  0 10G03G08G14G16G22G23G26G27G31G32      -0.000056303
  23240943.946 6  -2260016.648 6  -1748698.07047  23240942.11447
  23521201.095 5  -1370555.199 5  -1009320.10946  23521199.46646
  20587543.017 6     50267.691 6     44965.48448  20587537.73948
  19663964.064 6  -4461386.418 6  -3453716.35248  19663958.72848
  23361484.814 5  -1215362.406 5   -944779.37146  23361479.38846
  22171081.626 6 -10750231.469 6  -8313501.97347  22171075.48547
  20291390.064 7  -1542695.891 7  -1193581.59849  20291387.78649
  20455663.634 6 -10930263.488 6  -8476721.52048  20455660.60648
  21013190.884 6  -2717206.836 6  -2111554.62948  21013185.27448
  23173370.235 4   2876239.434 4   2149133.88746  23173369.77446
 18  5 30  1  2 54.9970000  0 10G03G08G14G16G22G23G26G27G31G32      -0.000061932
  23240485.946 6  -2262423.680 6  -1750573.71947  23240484.16947
  23515952.798 5  -1398133.336 5  -1030809.49246  23515951.75146
  20588292.782 6     54208.398 6     48036.16048  20588287.92348
  19662548.298 6  -4468826.648 6  -3459513.93448  19662543.14948
  23361300.149 5  -1216332.414 5   -945535.24246  23361294.59146
  22166624.978 6 -10773655.414 6  -8331754.39547  22166617.83347
  20291114.939 7  -1544142.566 7  -1194708.87149  20291112.69649
  20451206.657 6 -10953684.570 6  -8494971.70748  20451203.67348
  21012340.892 6  -2721671.344 6  -2115033.46948  21012335.22848
  23175120.814 4   2885439.195 4   2156302.49646  23175120.48146
 18  5 30  1  2 59.9970000  0 10G03G08G14G16G22G23G26G27G31G32      -0.000067560
  23240029.220 6  -2264821.043 6  -1752441.78547  23240027.81047
  23510705.954 5  -1425707.625 5  -1052295.93446  23510704.02846
  20589045.454 6     58162.809 6     51117.51248  20589040.26748
  19661135.126 6  -4476255.324 6  -3465302.51248  19661129.35348
  23361116.142 5  -1217297.816 5   -946287.51647  23361111.09147
  22162169.392 6 -10797068.703 6  -8349998.51647  22162162.56747
  20290840.407 7  -1545582.922 7  -1195831.23448  20290838.61848
  20446752.235 6 -10977092.699 6  -8513211.80548  20446748.89948
  21011493.399 6  -2726128.699 6  -2118506.73048  21011488.16948
  23176872.743 4   2894644.637 4   2163475.55146  23176872.25946
 18  5 30  1  3  4.9970000  0 10G03G08G14G16G22G23G26G27G31G32      -0.000073187
  23239574.946 6  -2267208.949 6  -1754302.47747  23239573.02447
  23505459.267 6  -1453278.262 6  -1073779.53547  23505457.21247
  20589800.462 6     62130.719 6     54209.37148  20589795.57948
  19659723.189 6  -4483672.699 6  -3471082.29748  19659717.63448
  23360933.173 5  -1218258.844 5   -947036.38746  23360928.23146
  22157715.712 6 -10820471.535 6  -8368234.47747  22157709.20047
  20290567.665 7  -1547017.160 7  -1196948.83248  20290565.45048
  20442300.196 6 -11000488.078 6  -8531441.96548  20442297.61848
  21010645.985 7  -2730579.035 7  -2121974.52748  21010640.66948
  23178625.173 4   2903855.512 4   2170652.85246  23178625.45846
 18  5 30  1  3  9.9970000  0 10G03G08G14G16G22G23G26G27G31G32      -0.000078814
  23239122.267 6  -2269587.434 6  -1756155.83646  23239120.04446
  23500213.149 5  -1480845.246 5  -1095260.28547  23500211.79447
  20590558.134 6     66112.129 6     57311.76648  20590553.22448
  19658314.118 6  -4491078.746 6  -3476853.25048  19658308.34548
  23360751.142 5  -1219215.473 5   -947781.83646  23360746.00546
  22153264.439 6 -10843863.867 6  -8386462.26647  22153257.46247
  20290295.814 7  -1548445.285 7  -1198061.65249  20290293.72449
  20437850.665 6 -11023870.641 6  -8549662.14848  20437847.82948
  21009800.829 7  -2735022.348 7  -2125436.85248  21009795.06048
  23180378.907 4   2913071.824 4   2177834.35246  23180378.79046
 18  5 30  1  3 14.9970000  0 10G03G08G14G16G22G23G26G27G31G32      -0.000084436
  23238671.868 6  -2271956.656 6  -1758002.01247  23238669.49347
  23494968.235 5  -1508408.590 5  -1116738.19146  23494966.43946
  20591318.618 6     70107.039 6     60424.67648  20591313.13448
  19656906.806 7  -4498473.531 7  -3482615.43048  19656901.18148
  23360569.868 5  -1220167.730 5   -948523.87146  23360563.92746
  22148814.665 6 -10867245.785 6  -8404681.94147  22148808.12247
  20290025.446 7  -1549867.336 7  -1199169.74649  20290023.55249
  20433403.274 6 -11047240.441 6  -8567872.38748  20433401.06048
  21008956.712 7  -2739458.719 7  -2128893.77048  21008950.92748
  23182133.876 4   2922293.527 4   2185020.07846  23182133.85646
 18  5 30  1  3 19.9970000  0 10G03G08G14G16G22G23G26G27G31G32      -0.000090059
  23238223.017 6  -2274316.188 6  -1759840.62146  23238220.08346
  23489723.470 5  -1535968.070 5  -1138213.13346  23489722.44246
  20592081.298 6     74115.586 6     63548.21148  20592076.04448
  19655501.673 7  -4505856.855 7  -3488368.67248  19655496.43148
  23360389.665 5  -1221115.418 5   -949262.31646  23360383.60646
  22144367.470 6 -10890617.043 6  -8422893.30947  22144360.80647
  20289755.837 7  -1551283.137 7  -1200272.97349  20289754.07549
  20428958.712 6 -11070597.289 6  -8586072.52048  20428956.72448
  21008113.298 6  -2743887.879 6  -2132345.05548  21008108.10648
  23183889.38414   2931520.77014                
 18  5 30  1  3 24.9970000  0 10G03G08G14G16G22G23G26G27G31G32      -0.000095680
  23237775.462 6  -2276666.145 6  -1761671.78546  23237773.16946
  23484480.126 5  -1563523.508 5  -1159684.84846  23484479.08346
  20592846.603 6     78137.832 6     66682.41448  20592841.26748
  19654098.712 6  -4513228.699 6  -3494112.97348  19654093.18148
  23360210.017 5  -1222058.590 5   -949997.27346  23360204.24746
  22139922.290 6 -10913977.609 6  -8441096.34047  22139915.84147
  20289487.657 7  -1552692.688 7  -1201371.32449  20289485.40349
  20424516.118 6 -11093941.129 6  -8604262.52048  20424513.68948
  21007272.087 6  -2748309.836 6  -2135790.73848  21007266.43948
  23185646.524 4   2940753.629 4   2191636.52756  23185646.80256
