     2.10           OBSERVATION DATA    Mixed(MIXED)        RINEX VERSION / TYPE
cnvtToRINEX 3.07.0  convertToRINEX OPR  19-May-20 12:34 UTC PGM / RUN BY / DATE 
----------------------------------------------------------- COMMENT             
98N0                                                        MARKER NAME         
98N0                                                        MARKER NUMBER       
GNSS Observer       Trimble                                 OBSERVER / AGENCY   
5319436542          TRIMBLE R5          4.85                REC # / TYPE / VERS 
                    UNKNOWN EXT                             ANT # / TYPE        
 -3050380.7427  4928080.5766  2653811.4443                  APPROX POSITION XYZ 
        0.0000        0.0000        0.0000                  ANTENNA: DELTA H/E/N
     1     1     0                                          WAVELENGTH FACT L1/2
     4    C1    L1    L2    P2                              # / TYPES OF OBSERV 
     1.000                                                  INTERVAL            
  2020     5    16     0    21   28.0000000     GPS         TIME OF FIRST OBS   
  2020     5    16     1    33   55.0000000     GPS         TIME OF LAST OBS    
     0                                                      RCV CLOCK OFFS APPL 
    18                                                      LEAP SECONDS        
     9                                                      # OF SATELLITES     
   G04  4327  4327  4327  4327                              PRN / # OF OBS      
   G08  4297  4297  4297  4297                              PRN / # OF OBS      
   G09  2917  2917  2917  2917                              PRN / # OF OBS      
   G14  2467  2407  2375  2375                              PRN / # OF OBS      
   G16  4333  4333  4333  4333                              PRN / # OF OBS      
   G21  1537  1328    57    57                              PRN / # OF OBS      
   G26  4327  4322  4322  4322                              PRN / # OF OBS      
   G27  4327  4327  4327  4327                              PRN / # OF OBS      
   G31  3375  3187  2814  2814                              PRN / # OF OBS      
CARRIER PHASE MEASUREMENTS: PHASE SHIFTS REMOVED            COMMENT             
                                                            END OF HEADER       
 20  5 16  0 21 28.0000000  0  0                                    
 20  5 16  0 21 29.0000000  0  0                                    -0.000298491
 20  5 16  0 21 30.0000000  0  0                                    -0.000298529
 20  5 16  0 21 31.0000000  0  0                                    -0.000298569
 20  5 16  0 21 32.0000000  0  0                                    -0.000298609
 20  5 16  0 21 33.0000000  0  0                                    -0.000298647
 20  5 16  0 21 34.0000000  0  0                                    -0.000298687
 20  5 16  0 21 35.0000000  0  0                                    -0.000298725
 20  5 16  0 21 36.0000000  0  0                                    -0.000298763
 20  5 16  0 21 37.0000000  0  1G14                                 -0.000298801
  22353300.500 6 117467385.96716  91533050.05857  22353306.71947
 20  5 16  0 21 38.0000000  0  1G14                                 -0.000298841
  22353903.781 6 117470554.459 6  91535519.00747  22353909.54747
 20  5 16  0 21 39.0000000  0  1G14                                 -0.000298878
  22354506.516 6 117473723.563 6  91537988.43747  22354512.71147
 20  5 16  0 21 40.0000000  0  1G14                                 -0.000298916
  22355109.258 6 117476893.326 6  91540458.37747  22355115.75447
 20  5 16  0 21 41.0000000  0  1G14                                 -0.000298954
  22355713.141 6 117480063.790 6  91542928.87447  22355719.03947
 20  5 16  0 21 42.0000000  0  1G14                                 -0.000298990
  22356316.500 6 117483234.970 6  91545399.93047  22356322.66447
 20  5 16  0 21 43.0000000  0  2G14G16                              -0.000299028
  22356919.906 6 117486406.813 6  91547871.49647  22356926.04747
  20561865.875 6 108053329.36316  84197427.18258  20561872.10548
 20  5 16  0 21 44.0000000  0  2G14G16                              -0.000394741
  22357523.695 6 117489579.386 6  91550343.63347  22357529.73847
  20561931.992 6 108053679.420 6  84197699.95348  20561938.41848
 20  5 16  0 21 45.0000000  0  2G14G16                              -0.000394768
  22358127.555 6 117492752.753 6  91552816.38747  22358133.81347
  20561999.000 6 108054030.304 6  84197973.36649  20562005.52049
 20  5 16  0 21 46.0000000  0  2G14G16                              -0.000394793
  22358731.273 6 117495926.885 6  91555289.73346  22358737.80946
  20562065.672 6 108054381.932 6  84198247.36048  20562072.66048
 20  5 16  0 21 47.0000000  0  2G14G16                              -0.000394817
  22359335.477 6 117499101.729 6  91557763.63647  22359341.72747
  20562132.656 6 108054734.283 6  84198521.92048  20562139.68448
 20  5 16  0 21 48.0000000  0  2G14G16                              -0.000394842
  22359940.070 6 117502277.347 6  91560238.14047  22359946.00447
  20562199.938 6 108055087.402 6  84198797.07648  20562206.60548
 20  5 16  0 21 49.0000000  0  6G04G14G16G26G27G31                  -0.000394867
  22137111.633 5 116331300.85415  90647802.71058  22137119.91048
  22360544.344 6 117505453.742 6  91562713.24846  22360550.37146
  20562267.305 6 108055441.363 6  84199072.89648  20562274.28148
  21266373.898 6 111755550.18416  87082287.25759  21266384.19549
  20809292.078 6 109353568.09516  85210608.50759  20809300.80549
  21816871.883 5 114648436.81215  89336464.02757  21816878.68447
 20  5 16  0 21 50.0000000  0  6G04G14G16G26G27G31                  -0.000394934
  22136671.563 6 116328990.330 6  90646002.29948  22136680.31648
  22361148.680 6 117508630.981 6  91565189.01947  22361154.74247
  20562334.578 6 108055796.121 6  84199349.33348  20562342.05548
  21266669.328 6 111757101.720 6  87083496.24649  21266679.39149
  20808831.852 6 109351151.504 6  85208725.45349  20808841.10549
  21817075.203 5 114649503.387 5  89337295.12947  21817081.46147
 20  5 16  0 21 51.0000000  0  6G04G14G16G26G27G31                  -0.000394957
  22136232.070 6 116326680.661 6  90644202.55548  22136240.73048
  22361753.813 6 117511808.866 6  91567665.29847  22361759.89147
  20562402.500 6 108056151.564 6  84199626.30048  20562408.98448
  21266964.906 6 111758653.725 6  87084705.59949  21266974.67249
  20808372.758 6 109348735.808 6  85206843.09249  20808381.42649
  21817277.914 5 114650570.581 5  89338126.70847  21817284.69147
 20  5 16  0 21 52.0000000  0  6G04G14G16G26G27G31                  -0.000394981
  22135792.813 6 116324371.971 6  90642403.57048  22135801.62148
  22362358.438 6 117514987.554 6  91570142.19447  22362364.60947
  20562470.109 6 108056507.813 6  84199903.89348  20562477.26648
  21267260.219 6 111760206.334 6  87085915.42349  21267270.16449
  20807912.703 6 109346321.132 6  85204961.52749  20807921.69549
  21817481.563 5 114651638.504 5  89338958.85147  21817487.84447
 20  5 16  0 21 53.0000000  0  6G04G14G16G26G27G31                  -0.000395004
  22135353.703 6 116322064.157 6  90640605.27848  22135362.27348
  22362963.438 6 117518166.977 6  91572619.67147  22362969.57447
  20562538.172 6 108056864.820 6  84200182.08148  20562544.96548
  21267555.875 6 111761759.472 6  87087125.66249  21267565.71549
  20807453.469 6 109343907.469 6  85203080.75449  20807462.51649
  21817684.758 5 114652707.089 5  89339791.51247  21817691.23047
 20  5 16  0 21 54.0000000  0  6G04G14G16G26G27G31                  -0.000395027
  22134914.984 6 116319757.375 6  90638807.78348  22134923.59048
  22363568.914 6 117521347.251 6  91575097.80347  22363575.12147
  20562606.508 6 108057222.648 6  84200460.91048  20562612.70348
  21267851.633 6 111763313.236 6  87088336.38049  21267861.53949
  20806994.539 6 109341494.864 6  85201200.80749  20807003.42649
  21817888.148 5 114653776.517 5  89340624.83347  21817894.57847
 20  5 16  0 21 55.0000000  0  6G04G14G16G26G27G31                  -0.000395050
  22134475.984 6 116317451.518 6  90637011.00948  22134484.52748
  22364173.938 6 117524528.263 6  91577576.51147  22364180.26647
  20562674.367 6 108057581.250 6  84200740.34348  20562681.01248
  21268146.711 6 111764867.558 6  87089547.54349  21268157.07049
  20806535.461 6 109339083.273 6  85199321.64249  20806544.82849
  21818091.109 5 114654846.587 5  89341458.66047  21818098.61747
 20  5 16  0 21 56.0000000  0  6G04G14G16G26G27G31                  -0.000395071
  22134037.133 6 116315146.578 6  90635214.95448  22134046.03948
  22364779.414 6 117527710.027 6  91580055.80547  22364785.43847
  20562742.766 6 108057940.612 6  84201020.36448  20562749.68448
  21268442.781 6 111766422.396 6  87090759.10449  21268453.19549
  20806076.602 6 109336672.629 6  85197443.21449  20806085.96549
  21818294.945 5 114655917.372 5  89342293.03347  21818302.07047
 20  5 16  0 21 57.0000000  0  6G04G14G16G26G27G31                  -0.000395094
  22133599.039 6 116312842.644 6  90633419.68048  22133607.39548
  22365385.422 6 117530892.627 6  91582535.75547  22365391.52347
  20562811.672 6 108058300.810 6  84201301.04148  20562818.00848
  21268738.969 6 111767977.887 6  87091971.16849  21268749.05949
  20805618.492 6 109334263.079 6  85195565.64449  20805627.68049
  21818499.734 5 114656988.922 5  89343128.01347  21818506.37947
 20  5 16  0 21 58.0000000  0  6G04G14G16G26G27G31                  -0.000395115
  22133161.031 6 116310539.663 6  90631625.14948  22133169.25848
  22365990.805 6 117534076.006 6  91585016.30947  22365997.23847
  20562880.422 6 108058661.796 6  84201582.32948  20562887.00848
  21269035.500 6 111769533.943 6  87093183.68149  21269045.29349
  20805159.555 6 109331854.564 6  85193688.87849  20805168.94949
  21818702.953 5 114658061.197 5  89343963.55547  21818710.18847
 20  5 16  0 21 59.0000000  0  6G04G14G16G26G27G31                  -0.000395136
  22132722.227 6 116308237.525 6  90629831.27748  22132731.01648
  22366596.422 5 117537260.058 5  91587497.39147  22366603.21147
  20562948.852 6 108059023.438 6  84201864.13248  20562955.63348
  21269331.258 6 111771090.449 6  87094396.54349  21269341.39849
  20804701.766 6 109329446.938 6  85191812.80549  20804710.94149
  21818907.922 5 114659134.068 5  89344799.55247  21818914.17647
 20  5 16  0 22  0.0000000  0  6G04G14G16G26G27G31                  -0.000395157
  22132284.797 6 116305936.449 6  90628038.22948  22132293.38748
  22367203.156 6 117540445.033 6  91589979.19047  22367209.54347
  20563017.977 6 108059386.042 6  84202146.67948  20563024.46948
  21269627.594 6 111772647.648 6  87095609.94349  21269637.34049
  20804243.938 6 109327040.449 6  85189937.62649  20804252.89549
  21819111.727 5 114660207.895 5  89345636.28547  21819118.49247
 20  5 16  0 22  1.0000000  0  6G04G14G16G26G27G31                  -0.000395176
  22131846.867 6 116303636.184 6  90626245.81048  22131855.49248
  22367809.039 6 117543630.622 6  91592461.46747  22367815.33647
  20563087.328 6 108059749.264 6  84202429.71048  20563093.55948
  21269923.906 6 111774205.310 6  87096823.70849  21269934.07449
  20803786.070 6 109324634.871 6  85188063.14749  20803795.58249
  21819316.102 4 114661282.146 4  89346473.37047  21819323.05147
 20  5 16  0 22  2.0000000  0  6G04G14G16G26G27G31                  -0.000395197
  22131409.336 6 116301337.052 6  90624454.28148  22131418.07848
  22368415.445 6 117546817.160 6  91594944.48647  22368421.99247
  20563156.945 6 108060113.424 6  84202713.47248  20563162.95348
  21270220.742 6 111775763.668 6  87098038.01449  21270230.86349
  20803328.766 6 109322230.454 6  85186189.57849  20803337.80549
  21819521.078 4 114662357.355 4  89347311.20447  21819527.90247
 20  5 16  0 22  3.0000000  0  6G04G14G16G26G27G31                  -0.000395216
  22130971.914 6 116299038.944 6  90622663.55148  22130980.78148
  22369021.305 6 117550004.563 6  91597428.17747  22369028.29747
  20563226.219 6 108060478.472 6  84202997.91948  20563232.60548
  21270517.250 6 111777322.722 6  87099252.85849  21270527.66849
  20802871.453 6 109319827.155 6  85184316.88049  20802880.81349
  21819725.727 4 114663433.400 4  89348149.68947  21819732.50847
 20  5 16  0 22  4.0000000  0  6G04G14G16G26G27G31                  -0.000395237
  22130534.695 6 116296741.799 6  90620873.56848  22130543.55148
  22369628.398 6 117553192.744 6  91599912.47047  22369635.39547
  20563295.617 6 108060844.309 6  84203282.99148  20563301.83248
  21270813.758 6 111778882.305 6  87100468.12149  21270823.87949
  20802414.242 6 109317424.848 6  85182444.95049  20802423.48849
  21819930.375 4 114664510.100 4  89348988.67447  21819937.44947
 20  5 16  0 22  5.0000000  0  6G04G14G16G26G27G31                  -0.000395256
  22130097.945 6 116294445.558 6  90619084.29548  22130106.38748
  22370235.477 6 117556381.676 6  91602397.35447  22370241.93447
  20563365.258 7 108061210.883 7  84203568.63148  20563371.87548
  21271110.766 6 111780442.460 6  87101683.82249  21271120.79349
  20801957.305 6 109315023.546 6  85180573.81049  20801966.51649
  21820135.523 4 114665587.585 4  89349828.27047  21820142.55147
 20  5 16  0 22  6.0000000  0  6G04G14G16G26G27G31                  -0.000395275
  22129661.109 6 116292150.200 6  90617295.70548  22129669.87948
  22370842.555 6 117559571.303 6  91604882.77047  22370848.93447
  20563435.359 6 108061578.188 6  84203854.84448  20563441.63348
  21271407.695 6 111782003.116 6  87102899.91949  21271417.90249
  20801500.641 6 109312623.198 6  85178703.40649  20801509.94949
  21820340.320 4 114666665.669 4  89350668.33647  21820347.45747
 20  5 16  0 22  7.0000000  0  6G04G14G16G26G27G31                  -0.000395294
  22129223.945 6 116289855.825 6  90615507.88348  22129233.04348
  22371449.320 6 117562761.743 6  91607368.82547  22371456.07447
  20563505.375 7 108061946.290 7  84204141.67548  20563511.57048
  21271704.727 6 111783564.338 6  87104116.45549  21271714.89549
  20801043.477 6 109310223.907 6  85176833.83049  20801053.21549
  21820545.500 4 114667744.507 4  89351508.98747  21820553.28547
 20  5 16  0 22  8.0000000  0  6G04G14G16G26G27G31                  -0.000395311
  22128787.805 6 116287562.483 6  90613720.86748  22128796.32048
  22372056.883 6 117565953.027 6  91609855.53247  22372063.48447
  20563575.477 7 108062315.264 7  84204429.19148  20563581.73848
  21272002.570 6 111785126.236 6  87105333.51349  21272012.17649
  20800587.055 6 109307825.683 6  85174965.08949  20800597.13749
  21820750.758 4 114668824.165 4  89352350.27247  21820758.32047
 20  5 16  0 22  9.0000000  0  6G04G14G16G26G27G31                  -0.000395330
  22128351.922 6 116285270.040 6  90611934.55148  22128360.69148
  22372664.109 6 117569145.054 6  91612342.81547  22372670.90247
  20563645.781 7 108062684.989 7  84204717.28948  20563651.93448
  21272299.438 6 111786688.644 6  87106550.97249  21272309.75449
  20800131.445 6 109305428.441 6  85173097.10749  20800140.51649
  21820956.539 4 114669904.487 4  89353192.08147  21820964.03147
 20  5 16  0 22 10.0000000  0  6G04G14G16G26G27G31                  -0.000395348
  22127915.297 6 116282978.622 6  90610149.02848  22127924.25848
  22373272.398 6 117572337.912 6  91614830.76047  22373278.51647
  20563716.141 7 108063055.558 7  84205006.04248  20563722.98848
  21272596.539 6 111788251.714 6  87107768.94749  21272607.08249
  20799674.938 6 109303032.317 6  85171229.99749  20799684.69149
  21821162.852 4 114670985.609 4  89354034.50947  21821169.89847
 20  5 16  0 22 11.0000000  0  6G04G14G16G26G27G31                  -0.000395367
  22127479.234 6 116280688.167 6  90608364.26048  22127488.29748
  22373879.641 6 117575531.560 6  91617319.31747  22373886.74647
  20563787.297 7 108063426.908 7  84205295.40748  20563792.85948
  21272894.414 6 111789815.326 6  87108987.34649  21272904.51249
  20799219.773 6 109300637.199 6  85169363.67049  20799228.94949
  21821368.508 4 114672067.449 4  89354877.49947  21821375.45347
 20  5 16  0 22 12.0000000  0  6G04G14G16G26G27G31                  -0.000395384
  22127043.867 6 116278398.686 6  90606580.24248  22127052.67648
  22374487.820 6 117578726.025 6  91619808.51247  22374494.56347
  20563857.641 7 108063799.107 7  84205585.42748  20563864.00848
  21273192.063 6 111791379.586 6  87110206.24949  21273202.10249
  20798764.008 6 109298243.140 6  85167498.17049  20798773.57049
  21821574.211 4 114673150.066 4  89355721.10947  21821581.48847
 20  5 16  0 22 13.0000000  0  6G04G14G16G26G27G31                  -0.000395401
  22126608.422 6 116276110.251 6  90604797.04948  22126617.24648
  22375095.383 6 117581921.330 6  91622298.35947  22375102.57447
  20563928.508 7 108064172.149 7  84205876.11048  20563935.03548
  21273489.570 6 111792944.474 6  87111425.64649  21273499.72749
  20798308.422 6 109295850.167 6  85165633.51949  20798318.16449
  21821780.055 3 114674233.435 3  89356565.30147  21821787.84447
 20  5 16  0 22 14.0000000  0  6G04G14G16G26G27G31                  -0.000395416
  22126173.102 6 116273822.668 6  90603014.51148  22126181.71548
  22375703.836 6 117585117.350 6  91624788.76047  22375710.64847
  20564000.000 7 108064545.892 7  84206167.33748  20564006.00448
  21273787.984 6 111794509.847 6  87112645.41649  21273797.98449
  20797853.313 6 109293458.134 6  85163769.59049  20797863.09449
  21821986.195 3 114675317.498 3  89357410.02947  21821994.41447
 20  5 16  0 22 15.0000000  0  6G04G14G16G26G27G31                  -0.000395433
  22125738.227 6 116271536.046 6  90601232.72948  22125746.94148
  22376312.242 6 117588314.095 6  91627279.72047  22376318.98447
  20564071.070 7 108064920.408 7  84206459.16848  20564077.68048
  21274086.031 6 111796075.782 6  87113865.62449  21274096.07049
  20797398.398 6 109291067.113 6  85161906.45949  20797408.02749
  21822193.273 3 114676402.261 3  89358255.29547  21822200.81347
 20  5 16  0 22 16.0000000  0  6G04G14G16G26G27G31                  -0.000395449
  22125302.945 6 116269250.413 6  90599451.71548  22125311.82848
  22376921.102 6 117591511.699 6  91629771.35947  22376927.87147
  20564142.414 7 108065295.789 7  84206751.67648  20564149.00448
  21274383.984 6 111797642.355 6  87115086.32749  21274393.88349
  20796943.789 6 109288677.182 6  85160044.17749  20796953.15649
  21822400.227 3 114677487.812 3  89359101.17047  21822407.62547
 20  5 16  0 22 17.0000000  0  6G04G14G16G26G27G31                  -0.000395466
  22124868.047 6 116266965.663 6  90597671.39448  22124877.19148
  22377529.648 6 117594709.996 6  91632263.54347  22377536.43047
  20564213.945 7 108065671.863 7  84207044.72248  20564220.28548
  21274682.281 6 111799209.418 6  87116307.41449  21274692.33249
  20796488.859 6 109286288.173 6  85158182.61049  20796498.91449
  21822606.102 3 114678573.957 3  89359947.51947  21822614.21147
 20  5 16  0 22 18.0000000  0  6G04G14G16G26G27G31                  -0.000395481
  22124433.711 6 116264681.900 6  90595891.83848  22124442.48848
  22378138.406 6 117597909.087 6  91634756.33547  22378145.53147
  20564286.047 7 108066048.765 7  84207338.41548  20564292.23848
  21274980.563 6 111800777.068 6  87117528.95649  21274990.75049
  20796034.563 6 109283900.207 6  85156321.86349  20796044.25449
  21822813.938 3 114679660.907 3  89360794.49547  21822820.88747
 20  5 16  0 22 19.0000000  0  7G04G08G14G16G26G27G31               -0.000395496
  22123999.648 6 116262399.085 6  90594113.01948  22124007.89548
  22940632.836 4 120553843.32014  93938101.68358  22940644.42248
  22378747.125 6 117601108.943 6  91637249.72947  22378754.16447
  20564357.813 7 108066426.426 7  84207632.68948  20564364.34048
  21275279.094 6 111802345.285 6  87118750.94549  21275289.16849
  20795580.227 6 109281513.292 6  85154461.92849  20795590.13349
  21823020.273 3 114680748.526 3  89361641.98847  21823027.91447
 20  5 16  0 22 20.0000000  0  7G04G08G14G16G26G27G31               -0.000395512
  22123565.383 6 116260117.291 6  90592334.99548  22123573.88348
  22939956.422 4 120550290.153 4  93935332.98048  22939967.57448
  22379356.422 6 117604309.670 6  91639743.79147  22379363.27747
  20564430.016 7 108066804.966 7  84207927.65648  20564436.49248
  21275577.672 6 111803914.160 6  87119973.43649  21275587.83649
  20795126.070 6 109279127.458 6  85152602.84349  20795136.16049
  21823227.141 3 114681837.025 3  89362490.16247  21823235.26647
 20  5 16  0 22 21.0000000  0  7G04G08G14G16G26G27G31               -0.000395527
  22123131.656 6 116257836.447 6  90590557.71448  22123139.89848
  22939280.023 4 120546737.692 4  93932564.82748  22939291.33648
  22379965.789 6 117607511.161 6  91642238.45647  22379972.69947
  20564501.953 7 108067184.273 7  84208223.22048  20564508.14848
  21275876.031 6 111805483.592 6  87121196.37149  21275886.16049
  20794672.453 6 109276742.630 6  85150744.53949  20794681.93449
  21823434.023 3 114682926.184 3  89363338.86147  21823442.08247
 20  5 16  0 22 22.0000000  0  7G04G08G14G16G26G27G31               -0.000395540
  22122697.414 6 116255556.645 6  90588781.23948  22122705.80548
  22938604.781 4 120543186.063 4  93929797.32048  22938615.79348
  22380574.523 6 117610713.514 6  91644733.79447  22380581.74247
  20564574.234 7 108067564.468 7  84208519.47648  20564580.52748
  21276175.195 6 111807053.687 6  87122419.82149  21276184.82049
  20794218.961 6 109274358.926 6  85148887.10749  20794228.84449
  21823642.102 3 114684016.157 3  89364188.19047  21823649.73447
 20  5 16  0 22 23.0000000  0  7G04G08G14G16G26G27G31               -0.000395555
  22122263.539 6 116253277.812 6  90587005.52848  22122271.84848
  22937928.820 4 120539635.148 4  93927030.37348  22937940.25448
  22381184.508 6 117613916.637 6  91647229.73247  22381191.66847
  20564646.734 7 108067945.429 7  84208816.32848  20564653.21548
  21276473.664 6 111808624.347 6  87123643.71049  21276484.29349
  20793765.148 6 109271976.235 6  85147030.46649  20793774.86749
  21823850.086 3 114685106.851 3  89365038.08147  21823857.40247
 20  5 16  0 22 24.0000000  0  7G04G08G14G16G26G27G31               -0.000395569
  22121830.031 6 116250999.866 6  90585230.50648  22121838.76248
  22937253.570 4 120536084.878 4  93924263.92648  22937264.69948
  22381794.086 6 117617120.515 6  91649726.26847  22381801.18847
  20564719.383 7 108068327.136 7  84209113.76149  20564725.62949
  21276772.461 6 111810195.539 6  87124868.01849  21276782.53949
  20793312.063 6 109269594.521 6  85145174.58449  20793322.30549
  21824057.773 3 114686198.280 3  89365888.54647  21824065.17647
 20  5 16  0 22 25.0000000  0  7G04G08G14G16G26G27G31               -0.000395582
  22121396.992 6 116248722.948 6  90583456.28648  22121405.64548
  22936577.609 4 120532535.359 4  93921498.07448  22936589.05148
  22382404.172 6 117620325.184 6  91652223.41547  22382411.15247
  20564792.125 7 108068709.706 7  84209411.86548  20564798.50048
  21277072.227 6 111811767.355 6  87126092.80949  21277082.04749
  20792859.234 6 109267213.901 6  85143319.55249  20792869.00049
  21824265.586 3 114687290.450 3  89366739.57947  21824272.71947
 20  5 16  0 22 26.0000000  0  7G04G08G14G16G26G27G31               -0.000395596
  22120964.336 6 116246447.011 6  90581682.82548  22120972.72748
  22935902.422 4 120528986.607 4  93918732.81448  22935913.42248
  22383013.898 6 117623530.706 6  91654721.22447  22383021.07847
  20564865.133 7 108069093.082 7  84209710.61048  20564871.48848
  21277371.133 6 111813339.798 6  87127318.09249  21277381.53549
  20792406.141 6 109264834.333 6  85141465.34749  20792416.07849
  21824473.094 3 114688383.383 3  89367591.21147  21824480.75047
 20  5 16  0 22 27.0000000  0  7G04G08G14G16G26G27G31               -0.000395609
  22120531.203 6 116244172.028 6  90579910.10448  22120539.64848
  22935227.414 4 120525438.539 4  93915968.08948  22935238.16848
  22383623.984 6 117626736.961 6  91657219.60047  22383631.30147
  20564937.961 7 108069477.226 7  84210009.94348  20564944.68448
  21277670.414 6 111814912.782 6  87128543.79149  21277680.34449
  20791953.641 6 109262455.748 6  85139611.90149  20791963.74249
  21824681.516 2 114689477.029 2  89368443.40647  21824689.18447
 20  5 16  0 22 28.0000000  0  7G04G08G14G16G26G27G31               -0.000395620
  22120098.656 6 116241897.986 6  90578138.12148  22120106.74648
  22934552.055 4 120521891.180 4  93913203.90848  22934563.15248
  22384234.211 6 117629944.035 6  91659718.62247  22384242.11347
  20565011.398 6 108069862.158 6  84210309.88848  20565017.83248
  21277969.906 6 111816486.343 6  87129769.93249  21277979.86349
  20791500.969 6 109260078.251 6  85137759.31349  20791510.96149
  21824889.680 2 114690571.383 2  89369296.14847  21824897.31647
 20  5 16  0 22 29.0000000  0  7G04G08G14G16G26G27G31               -0.000395634
  22119666.148 6 116239624.891 6  90576366.87548  22119674.50048
  22933877.148 4 120518344.516 4  93910440.27048  22933887.78948
  22384844.883 6 117633151.852 6  91662218.21247  22384852.41847
  20565084.664 6 108070247.896 6  84210610.46548  20565091.23448
  21278269.555 6 111818060.483 6  87130996.54049  21278279.77349
  20791049.398 6 109257701.707 6  85135907.46149  20791058.98049
  21825098.383 2 114691666.518 2  89370149.51147  21825105.91847
 20  5 16  0 22 30.0000000  0  7G04G08G14G16G26G27G31               -0.000395647
  22119233.578 6 116237352.773 6  90574596.39948  22119242.04748
  22933202.648 4 120514798.668 4  93907677.27748  22933213.54748
  22385455.000 6 117636360.463 6  91664718.42447  22385462.99247
  20565158.164 6 108070634.415 6  84210911.64648  20565164.39548
  21278568.938 6 111819635.184 6  87132223.57349  21278578.97349
  20790597.023 6 109255326.222 6  85134056.43849  20790607.04749
  21825305.805 2 114692762.356 2  89371003.40747  21825314.27047
 20  5 16  0 22 31.0000000  0  7G04G08G14G16G26G27G31               -0.000395658
  22118801.242 6 116235081.626 6  90572826.67748  22118809.96148
  22932527.750 4 120511253.489 4  93904914.79747  22932538.58647
  22386065.703 6 117639569.859 6  91667219.25147  22386073.56347
  20565232.172 6 108071021.731 6  84211213.45248  20565238.66048
  21278868.609 6 111821210.479 6  87133451.07749  21278878.69949
  20790145.250 6 109252951.779 6  85132206.22649  20790155.14849
  21825515.383 2 114693858.921 2  89371857.86647  21825522.60247
 20  5 16  0 22 32.0000000  0  7G04G08G14G16G26G27G31               -0.000395670
  22118368.969 6 116232811.338 6  90571057.61948  22118377.65648
  22931852.938 4 120507708.984 4  93902152.84548  22931863.47748
  22386676.664 6 117642779.923 6  91669720.59947  22386684.41047
  20565305.648 6 108071409.749 6  84211515.80448  20565312.46948
  21279168.586 6 111822786.267 6  87134678.96849  21279179.16049
  20789693.609 6 109250578.253 6  85130356.72249  20789703.31349
  21825724.039 3 114694956.134 3  89372712.84047  21825731.67247
 20  5 16  0 22 33.0000000  0  7G04G08G14G16G26G27G31               -0.000395681
  22117937.570 6 116230541.906 6  90569289.22848  22117945.66048
  22931178.797 4 120504165.081 4  93899391.36448  22931189.47348
  22387287.414 6 117645990.700 6  91672222.50047  22387295.23847
  20565380.273 6 108071798.475 6  84211818.70648  20565386.25848
  21279468.609 6 111824362.531 6  87135907.22449  21279479.01649
  20789241.758 6 109248205.695 6  85128507.97849  20789251.99649
  21825933.039 2 114696053.999 2  89373568.31747  21825940.70747
 20  5 16  0 22 34.0000000  0  7G04G08G14G16G26G27G31               -0.000395693
  22117505.875 6 116228273.340 6  90567521.51948  22117514.23048
  22930504.352 4 120500621.806 4  93896630.36548  22930515.07848
  22387898.938 6 117649202.147 6  91674724.92347  22387906.37947
  20565454.094 6 108072187.862 6  84212122.12248  20565460.48048
  21279768.258 6 111825939.250 6  87137135.83049  21279778.67649
  20788790.688 6 109245834.024 6  85126659.92649  20788800.71149
  21826142.227 2 114697152.441 2  89374424.24347  21826149.99247
 20  5 16  0 22 35.0000000  0  7G04G08G14G16G26G27G31               -0.000395704
  22117074.141 6 116226005.801 6  90565754.60348  22117082.47348
  22929830.875 4 120497079.289 4  93893869.96448  22929841.17248
  22388509.297 6 117652414.444 6  91677228.01547  22388517.62147
  20565528.297 6 108072578.115 6  84212426.21648  20565534.92248
  21280068.891 6 111827516.639 6  87138364.96449  21280079.03149
  20788339.820 6 109243463.456 6  85124812.73149  20788349.73049
  21826351.102 2 114698251.742 2  89375280.83547  21826358.76647
 20  5 16  0 22 36.0000000  0  7G04G08G14G16G26G27G31               -0.000395714
  22116643.195 6 116223739.245 6  90563988.45848  22116651.42248
  22929157.242 4 120493537.538 4  93891110.15448  22929167.03548
  22389121.258 6 117655627.523 6  91679731.71147  22389129.05947
  20565602.633 6 108072969.180 6  84212730.94348  20565609.46548
  21280369.156 6 111829094.588 6  87139594.53249  21280379.22349
  20787888.531 6 109241093.953 6  85122966.36449  20787898.65249
  21826561.039 3 114699351.760 3  89376137.98447  21826568.28547
 20  5 16  0 22 37.0000000  0  7G04G08G14G16G26G27G31               -0.000395725
  22116212.117 6 116221473.548 6  90562222.98048  22116220.10248
  22928482.711 4 120489996.388 4  93888350.81848  22928493.37148
  22389732.547 6 117658841.328 6  91682235.97547  22389740.53547
  20565677.281 6 108073360.944 6  84213036.21548  20565684.07848
  21280669.828 6 111830673.042 6  87140824.50149  21280679.49249
  20787437.930 6 109238725.389 6  85121120.73449  20787447.92249
  21826770.859 3 114700452.427 3  89376995.64547  21826777.56647
 20  5 16  0 22 38.0000000  0  7G04G08G14G16G26G27G31               -0.000395735
  22115781.203 6 116219208.805 6  90560458.24548  22115788.96548
  22927808.766 4 120486455.988 4  93885592.06748  22927819.27348
  22390344.664 6 117662055.863 6  91684740.80547  22390352.02347
  20565751.766 6 108073753.484 6  84213342.09048  20565758.59848
  21280969.977 6 111832252.063 6  87142054.90149  21280980.53149
  20786987.492 6 109236357.816 6  85119275.87249  20786997.32049
  21826980.680 3 114701553.817 3  89377853.85747  21826987.12147
 20  5 16  0 22 39.0000000  0  7G04G08G14G16G26G27G31               -0.000395744
  22115349.648 6 116216944.991 6  90558694.23348  22115358.45748
  22927135.578 4 120482916.260 4  93882833.83148  22927145.82448
  22390956.484 6 117665271.165 6  91687246.23747  22390964.25047
  20565826.930 6 108074146.776 6  84213648.55448  20565833.55948
  21281270.430 6 111833831.612 6  87143285.72049  21281280.84449
  20786537.242 6 109233991.241 6  85117431.78449  20786547.45749
  21827190.227 3 114702655.876 3  89378712.60347  21827197.02047
 20  5 16  0 22 40.0000000  0  7G04G08G14G16G26G27G31               -0.000395754
  22114918.656 6 116214681.944 6  90556930.82348  22114927.57848
  22926462.039 4 120479377.008 4  93880075.97448  22926472.40648
  22391568.492 6 117668487.045 6  91689752.11847  22391576.51247
  20565901.656 6 108074540.680 6  84213955.49348  20565908.38348
  21281570.813 6 111835411.551 6  87144516.83749  21281581.38349
  20786087.055 6 109231625.523 6  85115588.36749  20786097.16849
  21827399.570 3 114703758.496 3  89379571.77747  21827407.24647
 20  5 16  0 22 41.0000000  0  7G04G08G14G16G26G27G31               -0.000395761
  22114488.773 6 116212419.884 6  90555168.17748  22114497.25848
  22925789.133 4 120475838.561 4  93877318.74048  22925798.85248
  22392180.531 6 117671703.730 6  91692258.62447  22392188.10247
  20565976.680 6 108074935.425 6  84214263.08248  20565983.68048
  21281872.125 6 111836992.114 6  87145748.44549  21281882.37149
  20785636.898 6 109229260.863 6  85113745.77749  20785646.59449
  21827609.336 3 114704861.859 3  89380431.55047  21827616.88347
 20  5 16  0 22 42.0000000  0  7G04G08G14G16G26G27G31               -0.000395771
  22114058.266 6 116210158.695 6  90553406.21548  22114066.89148
  22925115.164 4 120472300.805 4  93874562.04148  22925125.97348
  22392792.750 6 117674921.129 6  91694765.68447  22392800.27747
  20566052.133 6 108075330.841 6  84214571.19948  20566058.96148
  21282173.125 6 111838573.155 6  87146980.42049  21282183.14849
  20785187.039 6 109226897.135 6  85111903.91049  20785197.43049
  21827820.063 3 114705965.871 3  89381291.81847  21827826.71547
 20  5 16  0 22 43.0000000  0  7G04G08G14G16G26G27G31               -0.000395779
  22113628.148 6 116207898.484 6  90551645.01448  22113636.93048
  22924442.969 4 120468763.711 4  93871805.86948  22924452.39848
  22393405.133 6 117678139.292 6  91697273.34547  22393413.19547
  20566127.328 6 108075727.068 6  84214879.95048  20566133.83248
  21282473.688 6 111840154.775 6  87148212.85449  21282484.00849
  20784737.695 6 109224534.449 6  85110062.85549  20784747.41449
  21828030.164 3 114707070.636 3  89382152.67347  21828036.93847
 20  5 16  0 22 44.0000000  0  7G04G08G14G16G26G27G31               -0.000395786
  22113198.297 6 116205639.176 6  90549884.51048  22113206.80548
  22923769.188 4 120465227.301 4  93869050.22848  22923779.59448
  22394017.703 6 117681358.205 6  91699781.58647  22394025.57847
  20566203.172 6 108076124.057 6  84215189.29048  20566209.78948
  21282774.430 6 111841736.933 6  87149445.70749  21282785.41449
  20784288.016 6 109222172.747 6  85108222.56749  20784298.22749
  21828240.641 4 114708176.064 4  89383014.03847  21828247.37947
 20  5 16  0 22 45.0000000  0  7G04G08G14G16G26G27G31               -0.000395796
  22112768.313 6 116203380.684 6  90548124.65548  22112776.70348
  22923095.984 4 120461691.439 4  93866295.01248  22923106.87948
  22394630.156 6 117684577.726 6  91702290.30047  22394638.00447
  20566278.586 6 108076521.641 6  84215499.09948  20566285.30148
  21283076.273 6 111843319.500 6  87150678.87349  21283086.12149
  20783838.680 6 109219811.902 6  85106382.95049  20783848.97349
  21828450.875 3 114709282.056 3  89383875.84647  21828458.14547
 20  5 16  0 22 46.0000000  0  7G04G08G14G16G26G27G31               -0.000395803
  22112339.242 6 116201123.164 6  90546365.55148  22112347.36348
  22922423.508 4 120458156.350 4  93863540.39948  22922434.06648
  22395243.180 6 117687798.058 6  91704799.64047  22395251.07447
  20566354.508 6 108076920.052 6  84215809.54848  20566361.26648
  21283377.109 6 111844902.649 6  87151912.49449  21283387.57849
  20783389.813 6 109217452.114 6  85104544.15349  20783400.34849
  21828661.430 4 114710388.859 4  89384738.28647  21828668.50447
 20  5 16  0 22 47.0000000  0  7G04G08G14G16G26G27G31               -0.000395809
  22111909.547 6 116198866.625 6  90544607.20548  22111917.85248
  22921751.320 4 120454621.955 4  93860786.32748  22921761.52348
  22395856.227 6 117691019.198 6  91707309.61747  22395863.73847
  20566430.344 6 108077319.274 6  84216120.62448  20566437.23048
  21283679.180 6 111846486.417 6  87153146.59849  21283689.20349
  20782940.844 6 109215093.370 6  85102706.17549  20782951.34449
  21828872.320 4 114711496.371 4  89385601.28347  21828879.09847
 20  5 16  0 22 48.0000000  0  7G04G08G14G16G26G27G31               -0.000395817
  22111480.000 6 116196610.902 6  90542849.50248  22111488.80148
  22921079.023 4 120451088.132 4  93858032.69248  22921088.97748
  22396468.891 6 117694240.939 6  91709820.06447  22396476.67247
  20566506.703 6 108077719.138 6  84216432.20548  20566513.24648
  21283980.055 6 111848070.607 6  87154381.03749  21283990.73049
  20782492.063 6 109212735.513 6  85100868.88349  20782502.28549
  21829082.547 4 114712604.469 4  89386464.73647  21829090.36347
 20  5 16  0 22 49.0000000  0  7G04G08G14G16G26G27G31               -0.000395823
  22111050.906 6 116194355.845 6  90541092.31648  22111059.57448
  22920406.070 4 120447554.790 4  93855279.44447  22920416.69947
  22397082.195 6 117697463.212 6  91712330.93047  22397090.46147
  20566582.438 6 108078119.516 6  84216744.18948  20566589.65248
  21284281.727 6 111849655.084 6  87155615.68849  21284292.52049
  20782043.836 6 109210378.415 6  85099032.17949  20782054.08249
  21829294.398 4 114713713.017 4  89387328.54047  21829301.31347
 20  5 16  0 22 50.0000000  0  7G04G08G14G16G26G27G31               -0.000395830
  22110621.852 6 116192101.694 6  90539335.83648  22110630.42648
  22919734.023 4 120444022.019 4  93852526.62448  22919744.32048
  22397695.836 6 117700686.169 6  91714842.32647  22397703.51647
  20566658.992 6 108078520.587 6  84217056.71148  20566665.73048
  21284583.203 6 111851240.065 6  87156850.73749  21284593.72749
  20781595.156 6 109208022.242 6  85097196.20449  20781605.59849
  21829505.344 4 114714822.224 4  89388192.85447  21829511.96147
 20  5 16  0 22 51.0000000  0  7G04G08G14G16G26G27G31               -0.000395836
  22110193.203 6 116189848.412 6  90537580.03048  22110201.79748
  22919061.734 4 120440489.935 4  93849774.35448  22919072.52348
  22398309.039 6 117703909.845 6  91717354.27847  22398317.04747
  20566735.430 6 108078922.350 6  84217369.77549  20566742.21149
  21284884.484 6 111852825.546 6  87158086.17549  21284895.21149
  20781147.055 6 109205667.029 6  85095360.96949  20781157.69149
  21829716.055 4 114715932.053 4  89389057.64847  21829723.68447
 20  5 16  0 22 52.0000000  0  7G04G08G14G16G26G27G31               -0.000395842
  22109764.469 6 116187595.960 6  90535824.86948  22109773.27748
  22918390.484 4 120436958.440 4  93847022.53848  22918400.39548
  22398922.398 6 117707134.137 6  91719866.69947  22398930.84847
  20566812.188 6 108079324.776 6  84217683.35448  20566818.95348
  21285187.195 6 111854411.451 6  87159321.94849  21285197.51649
  20780699.414 6 109203312.711 6  85093526.43349  20780709.22749
  21829927.148 4 114717042.474 4  89389922.91047  21829934.85947
 20  5 16  0 22 53.0000000  0  7G04G08G14G16G26G27G31               -0.000395847
  22109336.180 6 116185344.477 6  90534070.46748  22109344.61348
  22917718.125 4 120433427.684 4  93844271.29648  22917728.42648
  22399536.453 6 117710359.234 6  91722379.76847  22399544.37147
  20566888.992 7 108079728.008 7  84217997.56649  20566895.80549
  21285488.555 6 111855997.945 6  87160558.17649  21285498.90649
  20780251.328 6 109200959.436 6  85091692.70949  20780261.64549
  21830138.484 5 114718153.666 5  89390788.78547  21830146.18447
 20  5 16  0 22 54.0000000  0  7G04G08G14G16G26G27G31               -0.000395853
  22108907.813 6 116183093.927 6  90532316.78348  22108916.45348
  22917046.023 4 120429897.616 4  93841520.60048  22917056.21548
  22400150.203 6 117713585.071 6  91724893.40347  22400158.46547
  20566965.438 7 108080132.007 7  84218312.36748  20566972.69948
  21285790.633 6 111857584.978 6  87161794.82249  21285801.38349
  20779804.008 6 109198607.166 6  85089859.77549  20779813.65649
  21830350.438 5 114719265.560 5  89391655.19147  21830358.08647
 20  5 16  0 22 55.0000000  0  7G04G08G14G16G26G27G31               -0.000395859
  22108479.867 6 116180844.213 6  90530563.76148  22108488.43448
  22916374.203 4 120426368.134 4  93838770.36148  22916384.70748
  22400763.852 6 117716811.544 6  91727407.53847  22400772.44547
  20567043.055 7 108080536.646 7  84218627.67448  20567049.23848
  21286092.406 6 111859172.470 6  87163031.82549  21286103.19949
  20779356.344 6 109196255.783 6  85088027.52649  20779366.61749
  21830561.695 5 114720378.044 5  89392522.06647  21830569.39847
 20  5 16  0 22 56.0000000  0  7G04G08G14G16G26G27G31               -0.000395863
  22108051.711 6 116178595.305 6  90528811.36348  22108060.39848
  22915703.156 4 120422839.227 4  93836020.56348  22915712.99648
  22401378.469 6 117720038.662 6  91729922.17347  22401386.28547
  20567119.898 7 108080941.934 7  84218943.48048  20567126.48848
  21286395.047 6 111860760.379 6  87164269.15549  21286405.59849
  20778909.047 6 109193905.294 6  85086195.97949  20778918.57849
  21830773.656 5 114721491.108 5  89393389.38447  21830781.39547
 20  5 16  0 22 57.0000000  0  7G04G08G14G16G26G27G31               -0.000395868
  22107623.961 6 116176347.237 6  90527059.62448  22107632.49648
  22915031.281 4 120419310.886 4  93833271.20148  22915041.97348
  22401992.813 6 117723266.439 6  91732437.31747  22402000.73847
  20567196.945 7 108081347.885 7  84219259.80948  20567203.70748
  21286696.828 6 111862348.735 6  87165506.84349  21286707.68049
  20778462.031 6 109191555.699 6  85084365.12349  20778471.95749
  21830985.281 4 114722604.773 4  89394257.17247  21830993.47347
 20  5 16  0 22 58.0000000  0  7G04G08G14G16G26G27G31               -0.000395872
  22107196.289 6 116174100.057 6  90525308.57048  22107204.93848
  22914360.391 4 120415783.233 4  93830522.38048  22914370.57448
  22402606.547 6 117726494.906 6  91734953.00247  22402614.94547
  20567274.570 7 108081754.536 7  84219576.68148  20567281.15248
  21286999.313 6 111863937.599 6  87166744.91249  21287010.32849
  20778014.531 6 109189207.051 6  85082535.00649  20778024.89149
  21831197.344 5 114723719.106 5  89395125.48147  21831205.13747
 20  5 16  0 22 59.0000000  0  7G04G08G14G16G26G27G31               -0.000395876
  22106769.250 6 116171853.603 6  90523558.08748  22106777.19948
  22913688.555 4 120412256.001 4  93827773.88748  22913699.58648
  22403221.078 6 117729723.937 6  91737469.12647  22403229.66047
  20567352.203 7 108082161.753 7  84219893.99248  20567358.81648
  21287301.914 6 111865526.806 6  87167983.25649  21287312.55149
  20777568.242 6 109186859.229 6  85080705.53649  20777578.48049
  21831409.500 4 114724833.963 4  89395994.20147  21831417.42647
 20  5 16  0 23  0.0000000  0  7G04G08G14G16G26G27G31               -0.000395880
  22106342.273 6 116169608.146 6  90521808.38048  22106350.39548
  22913017.422 4 120408729.573 4  93825026.02248  22913028.57448
  22403835.883 6 117732953.750 6  91739985.86747  22403844.00047
  20567429.695 6 108082569.783 6  84220211.93049  20567436.24249
  21287604.477 6 111867116.591 6  87169222.04649  21287615.19149
  20777121.656 6 109184512.413 6  85078876.84949  20777131.79349
  21831622.430 4 114725949.490 4  89396863.43547  21831629.78147
 20  5 16  0 23  1.0000000  0  7G04G08G14G16G26G27G31               -0.000395882
  22105915.234 6 116167363.542 6  90520059.33048  22105923.33648
  22912346.625 4 120405203.731 4  93822278.61248  22912357.85248
  22404450.586 6 117736184.251 6  91742503.13947  22404458.70747
  20567507.250 7 108082978.498 7  84220530.41048  20567513.79748
  21287906.883 6 111868706.870 6  87170461.22549  21287918.07049
  20776675.219 6 109182166.581 6  85077048.92249  20776684.91049
  21831834.047 4 114727065.707 4  89397733.21047  21831842.28947
 20  5 16  0 23  2.0000000  0  7G04G08G14G16G26G27G31               -0.000395885
  22105488.273 6 116165119.785 6  90518310.94847  22105496.17247
  22911676.188 4 120401678.561 4  93819531.73047  22911687.09447
  22405065.383 6 117739415.452 6  91745020.95747  22405073.63747
  20567585.164 6 108083387.913 6  84220849.43648  20567591.74648
  21288209.570 6 111870297.634 6  87171700.77549  21288220.93849
  20776228.867 6 109179821.657 6  85075221.71049  20776238.67649
  21832046.477 4 114728182.562 4  89398603.48847  21832054.51647
 20  5 16  0 23  3.0000000  0  7G04G08G14G16G26G27G31               -0.000395889
  22105061.992 6 116162876.936 6  90516563.26648  22105069.23848
  22911005.227 4 120398154.009 4  93816785.33248  22911015.90648
  22405680.695 6 117742647.312 6  91747539.28247  22405688.90247
  20567663.547 7 108083798.029 7  84221169.00548  20567670.03948
  21288512.125 6 111871888.867 6  87172940.69949  21288523.29749
  20775782.906 6 109177477.681 6  85073395.22949  20775792.73049
  21832259.320 4 114729300.077 4  89399474.27947  21832267.27747
 20  5 16  0 23  4.0000000  0  7G04G08G14G16G26G27G31               -0.000395891
  22104635.406 6 116160635.016 6  90514816.31348  22104642.49648
  22910334.625 4 120394630.150 4  93814039.47248  22910345.34448
  22406296.094 6 117745879.960 6  91750058.22747  22406303.69147
  20567741.492 6 108084208.904 6  84221489.17048  20567748.44148
  21288815.211 6 111873480.657 6  87174181.05449  21288826.19949
  20775337.031 6 109175134.709 6  85071569.54349  20775347.04749
  21832472.617 5 114730418.262 5  89400345.58947  21832479.97347
 20  5 16  0 23  5.0000000  0  7G04G08G14G16G26G27G31               -0.000395893
  22104208.938 6 116158394.017 6  90513070.07747  22104216.60547
  22909664.383 4 120391106.977 4  93811294.14048  22909675.02048
  22406910.711 6 117749113.338 6  91752577.73547  22406919.37947
  20567820.008 6 108084620.533 6  84221809.92448  20567826.67648
  21289118.453 6 111875072.993 6  87175421.83449  21289129.25449
  20774891.375 6 109172792.744 6  85069744.62649  20774901.45349
  21832685.258 4 114731537.158 4  89401217.46447  21832692.80147
 20  5 16  0 23  6.0000000  0  7G04G08G14G16G26G27G31               -0.000395897
  22103782.367 6 116156153.848 6  90511324.49247  22103789.58647
  22908993.422 4 120387584.410 4  93808549.28148  22909004.80948
  22407526.648 6 117752347.324 6  91755097.72047  22407534.36747
  20567898.539 7 108085032.839 7  84222131.19948  20567904.89548
  21289421.633 6 111876665.768 6  87176662.95749  21289432.19549
  20774446.148 6 109170451.673 6  85067920.41749  20774455.39549
  21832898.063 4 114732656.665 4  89402089.81147  21832906.23847
 20  5 16  0 23  7.0000000  0  7G04G08G14G16G26G27G31               -0.000395899
  22103356.281 6 116153914.546 6  90509579.57648  22103363.77348
  22908323.313 4 120384062.448 4  93805804.88848  22908333.96948
  22408141.844 6 117755582.002 6  91757618.24547  22408150.28147
  20567976.969 7 108085445.793 7  84222452.98048  20567983.74648
  21289724.633 6 111878259.027 6  87177904.45949  21289735.50449
  20774000.703 6 109168111.518 6  85066096.91649  20774010.06649
  21833111.227 4 114733776.760 4  89402962.60047  21833119.39147
 20  5 16  0 23  8.0000000  0  7G04G08G14G16G26G27G31               -0.000395901
  22102930.367 6 116151676.008 6  90507835.26048  22102937.53948
  22907653.828 4 120380540.996 4  93803060.89948  22907664.05948
  22408757.922 6 117758817.281 6  91760139.23947  22408766.14847
  20568055.586 7 108085859.366 7  84222775.24648  20568062.35248
  21290027.711 6 111879852.650 6  87179146.23849  21290039.02049
  20773555.242 6 109165772.197 6  85064274.06949  20773564.82449
  21833324.602 3 114734897.437 3  89403835.84647  21833332.65647
 20  5 16  0 23  9.0000000  0  7G04G08G14G16G26G27G31               -0.000395903
  22102504.117 6 116149438.375 6  90506091.65348  22102511.86348
  22906983.938 4 120377020.240 4  93800317.45548  22906994.39848
  22409373.586 6 117762053.286 6  91762660.80447  22409381.46947
  20568134.711 7 108086273.684 7  84223098.09448  20568141.08248
  21290331.891 6 111881446.812 6  87180388.44949  21290342.34849
  20773110.688 6 109163433.890 6  85062452.01449  20773120.23849
  21833537.750 3 114736018.783 3  89404709.61747  21833545.85247
 20  5 16  0 23 10.0000000  0  7G04G08G14G16G26G27G31               -0.000395903
  22102078.727 6 116147201.549 6  90504348.67448  22102086.37148
  22906313.977 4 120373500.055 4  93797574.45248  22906324.45348
  22409989.266 6 117765289.890 6  91765182.83747  22409997.71147
  20568213.328 7 108086688.605 7  84223421.40348  20568220.00048
  21290634.648 6 111883041.361 6  87181630.95149  21290645.94949
  20772666.055 6 109161096.402 6  85060630.59149  20772675.33649
  21833750.594 4 114737140.659 4  89405583.82047  21833759.34847
 20  5 16  0 23 11.0000000  0  7G04G08G14G16G26G27G31               -0.000395905
  22101653.352 6 116144965.621 6  90502606.39448  22101660.89148
  22905644.523 4 120369980.540 4  93794831.96948  22905654.65248
  22410605.727 6 117768527.223 6  91767705.43647  22410613.82447
  20568292.289 7 108087104.271 7  84223745.30148  20568299.07848
  21290938.289 6 111884636.451 6  87182873.88349  21290948.92649
  20772221.078 6 109158759.928 6  85058809.95849  20772230.81349
  21833964.844 4 114738263.268 4  89406458.57247  21833972.96147
 20  5 16  0 23 12.0000000  0  7G04G08G14G16G26G27G31               -0.000395906
  22101227.602 6 116142730.561 6  90500864.78848  22101235.49248
  22904974.586 4 120366461.614 4  93792089.95248  22904984.77348
  22411222.117 6 117771765.211 6  91770228.52647  22411229.88347
  20568371.438 6 108087520.616 6  84224069.72848  20568378.11748
  21291241.906 6 111886231.984 6  87184117.15349  21291253.22349
  20771776.672 6 109156424.348 6  85056990.03249  20771786.41849
  21834179.273 3 114739386.440 3  89407333.76947  21834186.89847
 20  5 16  0 23 13.0000000  0  7G04G08G14G16G26G27G31               -0.000395906
  22100802.305 6 116140496.389 6  90499123.88048  22100810.05148
  22904304.836 3 120362943.353 3  93789348.45447  22904315.27747
  22411838.461 6 117775003.920 6  91772752.19047  22411846.29347
  20568451.023 6 108087937.676 6  84224394.70648  20568457.78948
  21291546.008 6 111887828.045 6  87185360.83949  21291556.61749
  20771332.539 6 109154089.766 6  85055170.87549  20771342.17649
  21834393.117 3 114740510.326 3  89408209.52747  21834400.89147
 20  5 16  0 23 14.0000000  0  7G04G08G14G16G26G27G31               -0.000395906
  22100377.375 6 116138263.021 6  90497383.58748  22100384.78148
  22903635.633 4 120359425.673 4  93786607.40048  22903646.16448
  22412454.813 6 117778243.240 6  91775276.33847  22412462.78947
  20568530.516 7 108088355.354 7  84224720.16848  20568537.12548
  21291849.664 6 111889424.502 6  87186604.83149  21291860.48449
  20770888.289 6 109151756.026 6  85053352.37349  20770898.00049
  21834605.492 3 114741634.753 3  89409085.70847  21834614.62147
 20  5 16  0 23 15.0000000  0  7G04G08G14G16G26G27G31               -0.000395906
  22099952.711 6 116136030.491 6  90495643.95148  22099960.35248
  22902966.555 4 120355908.614 4  93783866.83547  22902977.00447
  22413071.203 6 117781483.216 6  91777800.98547  22413079.14847
  20568610.063 7 108088773.717 7  84225046.16748  20568616.78548
  21292153.672 6 111891021.434 6  87187849.18849  21292164.48849
  20770444.555 6 109149423.202 6  85051534.59349  20770454.28949
  21834820.398 4 114742759.808 4  89409962.37047  21834828.45747
 20  5 16  0 23 16.0000000  0  7G04G08G14G16G26G27G31               -0.000395908
  22099527.867 6 116133798.828 6  90493904.99648  22099535.39148
  22902296.375 4 120352392.134 4  93781126.71848  22902307.34048
  22413687.891 6 117784723.890 6  91780326.18847  22413695.58247
  20568689.633 7 108089192.751 7  84225372.68848  20568696.40648
  21292457.680 6 111892618.798 6  87189093.89449  21292468.12149
  20770000.719 6 109147091.325 6  85049717.54449  20770010.32049
  21835034.914 4 114743885.453 4  89410839.50247  21835043.19147
 20  5 16  0 23 17.0000000  0  7G04G08G14G16G26G27G31               -0.000395908
  22099103.539 6 116131568.034 6  90492166.71147  22099111.23447
  22901627.992 4 120348876.313 4  93778387.12248  22901638.74248
  22414304.617 6 117787965.216 6  91782851.89447  22414312.57847
  20568769.773 7 108089612.479 7  84225699.75248  20568776.60548
  21292761.578 6 111894216.669 6  87190338.98749  21292772.34049
  20769557.266 6 109144760.356 6  85047901.21049  20769566.85949
  21835249.773 4 114745011.803 4  89411717.17547  21835257.41447
 20  5 16  0 23 18.0000000  0  7G04G08G14G16G26G27G31               -0.000395906
  22098678.914 6 116129338.069 6  90490429.08148  22098686.89848
  22900959.109 4 120345361.104 4  93775647.99448  22900969.55148
  22414922.086 6 117791207.200 6  91785378.11647  22414929.36747
  20568849.773 7 108090032.891 7  84226027.34548  20568856.52048
  21293065.203 6 111895815.001 6  87191584.43849  21293076.48849
  20769113.547 6 109142430.290 6  85046085.56849  20769123.22749
  21835463.375 4 114746138.677 4  89412595.26047  21835471.54747
 20  5 16  0 23 19.0000000  0  7G04G08G14G16G26G27G31               -0.000395906
  22098254.602 6 116127108.910 6  90488692.07048  22098262.89148
  22900290.586 4 120341846.414 4  93772909.27848  22900300.88748
  22415539.156 6 117794449.787 6  91787904.80947  22415546.52347
  20568929.844 7 108090453.884 7  84226355.39348  20568936.24248
  21293369.602 6 111897413.736 6  87192830.21049  21293380.61349
  20768670.273 6 109140101.103 6  85044270.62049  20768679.94149
  21835678.391 4 114747266.178 4  89413473.82247  21835686.19947
 20  5 16  0 23 20.0000000  0  7G04G08G14G16G26G27G31               -0.000395906
  22097830.883 6 116124880.667 6  90486955.78248  22097838.54348
  22899621.797 4 120338332.441 4  93770171.12147  22899632.23047
  22416156.125 6 117797693.146 6  91790432.10047  22416163.91847
  20569009.867 7 108090875.689 7  84226684.07448  20569016.61348
  21293674.133 6 111899013.000 6  87194076.38549  21293685.12549
  20768227.586 6 109137772.942 6  85042456.47049  20768236.99249
  21835893.156 4 114748394.390 4  89414352.94747  21835900.60947
 20  5 16  0 23 21.0000000  0  7G04G08G14G16G26G27G31               -0.000395905
  22097406.727 6 116122653.327 6  90485220.19048  22097414.75848
  22898953.086 4 120334819.092 4  93767433.45147  22898963.22347
  22416773.461 6 117800937.154 6  91792959.89447  22416780.87547
  20569090.305 7 108091298.144 7  84227013.25448  20569097.37548
  21293978.563 6 111900612.749 6  87195322.94049  21293989.44149
  20767784.352 6 109135445.692 6  85040643.02649  20767793.87549
  21836107.406 4 114749523.221 4  89415232.55047  21836115.61347
 20  5 16  0 23 22.0000000  0  7G04G08G14G16G26G27G31               -0.000395903
  22096982.961 6 116120426.737 6  90483485.19048  22096990.99248
  22898284.859 4 120331306.265 4  93764696.17848  22898294.94948
  22417390.906 6 117804181.764 6  91795488.16047  22417398.10947
  20569170.813 7 108091721.208 7  84227342.91948  20569178.08648
  21294283.203 6 111902212.871 6  87196569.79249  21294293.72749
  20767342.016 6 109133119.291 6  85038830.24649  20767351.74249
  21836322.406 3 114750652.615 3  89416112.59847  21836330.95347
 20  5 16  0 23 23.0000000  0  7G04G08G14G16G26G27G31               -0.000395903
  22096559.594 6 116118201.046 6  90481750.88348  22096567.48848
  22897616.313 4 120327794.116 4  93761959.44147  22897626.52347
  22418008.680 6 117807427.082 6  91798016.97947  22418015.67247
  20569251.773 7 108092145.011 7  84227673.15748  20569258.29748
  21294587.531 6 111903813.530 6  87197817.05649  21294598.50449
  20766899.508 6 109130793.866 6  85037018.22649  20766908.91049
  21836537.172 3 114751782.665 3  89416993.15747  21836545.60547
 20  5 16  0 23 24.0000000  0  7G04G08G14G16G26G27G31               -0.000395901
  22096136.039 6 116115976.253 6  90480017.27648  22096144.30548
  22896947.750 4 120324282.610 4  93759223.20147  22896958.19547
  22418626.031 6 117810673.097 6  91800546.34047  22418633.07047
  20569332.250 7 108092569.506 7  84228003.93248  20569339.01648
  21294892.414 6 111905414.679 6  87199064.70549  21294903.33249
  20766457.234 6 109128469.395 6  85035206.95149  20766466.33649
  21836752.414 3 114752913.387 3  89417874.23347  21836760.85247
 20  5 16  0 23 25.0000000  0  7G04G08G14G16G26G27G31               -0.000395899
  22095713.203 6 116113752.280 6  90478284.31348  22095721.05548
  22896279.906 4 120320771.716 4  93756487.44247  22896290.15647
  22419244.094 6 117813919.761 6  91803076.20647  22419251.02347
  20569413.242 7 108092994.664 7  84228335.22148  20569420.03148
  21295197.266 6 111907016.253 6  87200312.68349  21295208.25849
  20766014.492 6 109126145.825 6  85033396.37649  20766024.44549
  21836967.969 3 114754044.682 3  89418755.76347  21836975.91847
 20  5 16  0 23 26.0000000  0  7G04G08G14G16G26G27G31               -0.000395895
  22095289.828 6 116111529.267 6  90476552.09948  22095297.89148
  22895611.828 4 120317261.509 4  93753752.21948  22895622.43448
  22419861.820 6 117817167.173 6  91805606.65047  22419868.89847
  20569493.977 7 108093420.568 7  84228667.09848  20569501.04748
  21295502.211 6 111908618.371 6  87201561.08549  21295512.84049
  20765572.727 6 109123823.253 6  85031586.58449  20765582.66849
  21837183.797 3 114755176.669 3  89419637.82847  21837191.04347
 20  5 16  0 23 27.0000000  0  7G04G08G14G16G26G27G31               -0.000395893
  22094866.602 6 116109306.985 6  90474820.44848  22094874.91048
  22894943.953 4 120313751.846 4  93751017.41148  22894954.64848
  22420480.063 6 117820415.152 6  91808137.54247  22420487.19547
  20569575.359 7 108093847.067 7  84228999.43048  20569582.16048
  21295807.109 6 111910220.876 6  87202809.79249  21295817.64849
  20765131.008 6 109121501.494 6  85029777.41749  20765140.73049
  21837399.719 4 114756309.251 4  89420520.35547  21837406.80147
 20  5 16  0 23 28.0000000  0  7G04G08G14G16G26G27G31               -0.000395891
  22094444.188 6 116107085.521 6  90473089.43548  22094452.05548
  22894275.930 4 120310242.760 4  93748283.05948  22894287.05948
  22421098.070 6 117823663.724 6  91810668.89847  22421105.12147
  20569656.711 7 108094274.178 7  84229332.24648  20569663.48848
  21296111.852 6 111911823.783 6  87204058.81249  21296122.90649
  20764689.531 6 109119180.606 6  85027968.93749  20764699.00049
  21837614.922 4 114757442.352 4  89421403.28947  21837622.53147
 20  5 16  0 23 29.0000000  0  7G04G08G14G16G26G27G31               -0.000395887
  22094021.656 6 116104864.854 6  90471359.04548  22094029.84448
  22893608.859 4 120306734.177 4  93745549.09948  22893619.76648
  22421716.031 6 117826912.933 6  91813200.75347  22421723.30947
  20569738.023 7 108094701.922 7  84229665.54748  20569745.29348
  21296417.273 6 111913427.094 6  87205308.13949  21296427.93049
  20764247.617 6 109116860.620 6  85026161.15549  20764257.25449
  21837830.477 4 114758576.021 4  89422286.67847  21837838.40247
 20  5 16  0 23 30.0000000  0  7G04G08G14G16G26G27G31               -0.000395884
  22093598.992 6 116102645.044 6  90469629.32148  22093607.38748
  22892940.148 4 120303226.240 4  93742815.65047  22892951.49647
  22422334.703 6 117830162.788 6  91815733.12047  22422342.00847
  20569819.648 7 108095130.343 7  84229999.38348  20569826.41048
  21296721.977 6 111915030.873 6  87206557.83749  21296733.03549
  20763806.586 6 109114541.521 6  85024354.06749  20763816.40649
  21838046.359 4 114759710.327 4  89423170.55147  21838054.18047
 20  5 16  0 23 31.0000000  0  7G04G08G14G16G26G27G31               -0.000395882
  22093176.773 6 116100426.100 6  90467900.26948  22093185.10548
  22892273.023 3 120299718.907 3  93740082.66348  22892284.07848
  22422953.688 6 117833413.331 6  91818266.00947  22422960.07847
  20569901.344 7 108095559.458 7  84230333.75748  20569908.27048
  21297027.422 6 111916635.151 6  87207807.92349  21297038.65249
  20763365.219 6 109112223.367 6  85022547.71849  20763375.09449
  21838262.211 4 114760845.227 4  89424054.89547  21838270.27047
 20  5 16  0 23 32.0000000  0  7G04G08G14G16G26G27G31               -0.000395878
  22092754.742 6 116098208.077 6  90466171.94548  22092763.03948
  22891606.648 3 120296212.260 3  93737350.20947  22891617.05147
  22423572.008 6 117836664.602 6  91820799.46147  22423579.35247
  20569982.977 7 108095989.303 7  84230668.70348  20569990.04348
  21297332.680 6 111918239.923 6  87209058.39649  21297343.79749
  20762924.617 6 109109906.220 6  85020742.14949  20762933.96949
  21838478.117 4 114761980.817 4  89424939.76847  21838486.48447
 20  5 16  0 23 33.0000000  0  7G04G08G14G16G26G27G31               -0.000395874
  22092332.969 6 116095990.870 6  90464444.24948  22092341.09048
  22890939.102 4 120292706.212 4  93734618.22148  22890950.15248
  22424191.188 6 117839916.498 6  91823333.40547  22424198.15647
  20570065.039 7 108096419.788 7  84231004.14348  20570071.95748
  21297638.430 6 111919845.124 6  87210309.19849  21297649.42649
  20762483.984 6 109107589.943 6  85018937.26049  20762493.33249
  21838695.008 4 114763117.042 4  89425825.14047  21838702.43447
 20  5 16  0 23 34.0000000  0  7G04G08G14G16G26G27G31               -0.000395868
  22091910.641 6 116093774.457 6  90462717.17048  22091919.40648
  22890271.180 3 120289200.720 3  93731886.66547  22890282.89547
  22424809.313 6 117843169.021 6  91825867.84147  22424816.53547
  20570147.086 7 108096850.885 7  84231340.05848  20570153.72348
  21297943.820 6 111921450.744 6  87211560.33449  21297954.89149
  20762043.055 6 109105274.518 6  85017133.02549  20762052.59449
  21838911.258 4 114764253.766 4  89426710.89747  21838919.16447
 20  5 16  0 23 35.0000000  0  7G04G08G14G16G26G27G31               -0.000395864
  22091489.625 6 116091558.953 6  90460990.80648  22091498.06648
  22889604.633 3 120285695.860 3  93729155.60847  22889615.89147
  22425429.008 6 117846422.261 6  91828402.83247  22425435.97347
  20570228.914 7 108097282.719 7  84231676.55548  20570235.84448
  21298249.203 6 111923056.900 6  87212811.88149  21298260.23449
  20761602.648 6 109102960.074 6  85015329.56649  20761612.24649
  21839127.086 4 114765391.220 4  89427597.22347  21839135.10247
 20  5 16  0 23 36.0000000  0  7G04G08G14G16G26G27G31               -0.000395861
  22091068.156 6 116089344.279 6  90459265.08248  22091076.22348
  22888937.891 3 120282191.661 3  93726425.06547  22888949.21547
  22426047.977 6 117849676.100 6  91830938.28947  22426054.88747
  20570311.633 7 108097715.179 7  84232013.53648  20570318.60248
  21298555.297 6 111924663.430 6  87214063.71849  21298566.16449
  20761162.719 6 109100646.548 6  85013526.82149  20761171.87949
  21839343.172 4 114766529.231 4  89428483.98847  21839351.53947
 20  5 16  0 23 37.0000000  0  7G04G08G14G16G26G27G31               -0.000395855
  22090646.867 6 116087130.377 6  90457539.96348  22090654.92648
  22888270.922 4 120278687.949 4  93723694.90747  22888282.19947
  22426667.109 6 117852930.562 6  91833474.23947  22426674.46947
  20570394.000 7 108098148.272 7  84232351.00949  20570401.07449
  21298861.063 6 111926270.398 6  87215315.90449  21298871.76649
  20760722.336 6 109098333.863 6  85011724.73349  20760731.87149
  21839560.953 4 114767667.820 4  89429371.20147  21839568.41047
 20  5 16  0 23 38.0000000  0  7G04G08G14G16G26G27G31               -0.000395851
  22090226.242 6 116084917.275 6  90455815.46548  22090233.94948
  22887604.406 3 120275184.785 3  93720965.16947  22887615.43847
  22427286.156 6 117856185.617 6  91836010.64947  22427293.66847
  20570476.766 7 108098581.939 7  84232688.93649  20570483.22349
  21299167.039 6 111927877.725 6  87216568.36049  21299177.64849
  20760282.406 6 109096022.006 6  85009923.28549  20760291.75449
  21839776.883 5 114768806.925 5  89430258.81947  21839785.00847
 20  5 16  0 23 39.0000000  0  7G04G08G14G16G26G27G31               -0.000395845
  22089805.094 6 116082704.989 6  90454091.60948  22089813.21148
  22886937.859 3 120271682.200 3  93718235.88347  22886949.11347
  22427906.281 6 117859441.294 6  91838547.53347  22427913.66047
  20570559.117 7 108099016.284 7  84233027.38548  20570565.96148
  21299472.680 6 111929485.512 6  87217821.18049  21299483.73049
  20759842.789 6 109093711.064 6  85008122.55349  20759852.14849
  21839994.930 4 114769946.648 4  89431146.91547  21840002.14547
 20  5 16  0 23 40.0000000  0  7G04G08G14G16G26G27G31               -0.000395840
  22089384.203 6 116080493.518 6  90452368.38448  22089392.25848
  22886271.766 3 120268180.223 3  93715507.06447  22886282.59447
  22428526.039 6 117862697.594 6  91841084.90447  22428533.25447
  20570641.938 6 108099451.263 6  84233366.33249  20570648.69549
  21299778.852 6 111931093.719 6  87219074.33049  21299789.67649
  20759403.703 6 109091401.003 6  85006322.50649  20759412.61749
  21840210.844 5 114771086.960 5  89432035.45047  21840219.30547
 20  5 16  0 23 41.0000000  0  7G04G08G14G16G26G27G31               -0.000395834
  22088964.164 6 116078282.763 6  90450645.71748  22088971.70748
  22885604.758 3 120264678.737 3  93712778.63248  22885616.30148
  22429145.430 6 117865954.433 6  91843622.70347  22429152.77747
  20570724.922 6 108099886.747 6  84233705.66849  20570731.78549
  21300084.906 6 111932702.229 6  87220327.71649  21300095.75449
  20758963.531 6 109089091.723 6  85004523.06349  20758973.53549
  21840428.820 5 114772227.717 5  89432924.35447  21840436.05547
 20  5 16  0 23 42.0000000  0  7G04G08G14G16G26G27G31               -0.000395828
  22088543.063 6 116076072.779 6  90448923.65048  22088551.25048
  22884939.063 3 120261177.775 3  93710050.61548  22884950.03548
  22429765.570 6 117869211.833 6  91846160.93147  22429772.89847
  20570808.008 6 108100322.857 6  84234045.49548  20570814.78948
  21300391.148 6 111934311.133 6  87221581.40749  21300401.94549
  20758524.594 6 109086783.278 6  85002724.27449  20758533.94949
  21840645.367 5 114773369.016 5  89433813.67647  21840653.19947
 20  5 16  0 23 43.0000000  0  7G04G08G14G16G26G27G31               -0.000395823
  22088122.766 6 116073863.690 6  90447202.27848  22088130.68848
  22884272.977 3 120257677.443 3  93707323.08047  22884283.60247
  22430385.508 6 117872469.945 6  91848699.72147  22430392.64147
  20570891.156 7 108100759.684 7  84234385.88148  20570897.49648
  21300697.516 6 111935920.552 6  87222835.49449  21300707.93849
  20758085.508 6 109084475.802 6  85000926.24749  20758094.63349
  21840862.711 4 114774510.960 4  89434703.50247  21840870.26247
 20  5 16  0 23 44.0000000  0  7G04G08G14G16G26G27G31               -0.000395817
  22087702.273 6 116071655.372 6  90445481.50548  22087710.40648
  22883607.023 4 120254177.640 4  93704595.95748  22883617.95748
  22431005.734 6 117875728.654 6  91851238.97447  22431012.75847
  20570974.227 6 108101197.099 6  84234726.72148  20570981.15248
  21301003.898 6 111937530.352 6  87224089.88049  21301014.68449
  20757646.414 6 109082169.167 6  84999128.86749  20757655.79749
  21841080.273 4 114775653.497 4  89435593.79147  21841088.05947
 20  5 16  0 23 45.0000000  0  7G04G08G14G16G26G27G31               -0.000395809
  22087282.609 6 116069447.907 6  90443761.40548  22087290.53948
  22882941.328 3 120250678.482 3  93701869.35248  22882951.95348
  22431626.000 6 117878988.007 6  91853778.72747  22431632.87947
  20571057.984 6 108101635.176 6  84235068.07649  20571064.31649
  21301310.320 6 111939140.576 6  87225344.59949  21301320.99649
  20757207.523 6 109079863.441 6  84997332.19549  20757216.83249
  21841297.625 4 114776796.612 4  89436484.52147  21841305.47747
 20  5 16  0 23 46.0000000  0  7G04G08G14G16G26G27G31               -0.000395803
  22086862.305 6 116067241.213 6  90442041.90548  22086870.44148
  22882275.430 3 120247179.835 3  93699143.13448  22882286.32448
  22432246.164 6 117882247.932 6  91856318.92747  22432253.02747
  20571141.148 6 108102073.850 6  84235409.89949  20571147.68449
  21301616.961 6 111940751.197 6  87226599.62649  21301627.24649
  20756769.094 6 109077558.564 6  84995536.18749  20756778.37149
  21841514.797 4 114777940.284 4  89437375.70147  21841522.71547
 20  5 16  0 23 47.0000000  0  7G04G08G14G16G26G27G31               -0.000395796
  22086442.773 6 116065035.327 6  90440323.03648  22086450.60248
  22881609.453 3 120243681.720 3  93696417.33547  22881620.68047
  22432866.664 6 117885508.485 6  91858859.62147  22432873.66047
  20571224.609 7 108102513.142 7  84235752.20848  20571231.25448
  21301923.766 6 111942362.219 6  87227854.96649  21301934.10549
  20756330.742 6 109075254.567 6  84993740.86349  20756339.72349
  21841732.742 5 114779084.556 5  89438267.34047  21841740.75047
 20  5 16  0 23 48.0000000  0  7G04G08G14G16G26G27G31               -0.000395790
  22086023.063 6 116062830.321 6  90438604.84648  22086031.36348
  22880943.977 3 120240184.258 3  93693692.04047  22880954.70347
  22433487.547 6 117888769.708 6  91861400.82947  22433494.58247
  20571308.523 6 108102953.142 6  84236095.06748  20571315.07848
  21302230.258 6 111943973.745 6  87229110.70549  21302240.25449
  20755892.609 6 109072951.494 6  84991946.26249  20755901.77049
  21841950.555 5 114780229.415 5  89439159.43847  21841958.71947
 20  5 16  0 23 49.0000000  0  7G04G08G14G16G26G27G31               -0.000395782
  22085603.852 6 116060626.166 6  90436887.31748  22085611.70348
  22880278.664 3 120236687.426 3  93690967.22747  22880289.23047
  22434108.141 6 117892031.608 6  91863942.57047  22434115.07447
  20571392.445 7 108103393.813 7  84236438.44848  20571398.89848
  21302536.578 6 111945585.699 6  87230366.76749  21302547.08649
  20755454.641 6 109070649.359 6  84990152.39249  20755463.60249
  21842168.789 5 114781374.934 5  89440052.04047  21842176.44147
 20  5 16  0 23 50.0000000  0  7G04G08G14G16G26G27G31               -0.000395775
  22085184.148 6 116058422.904 6  90435170.49048  22085192.54748
  22879612.883 3 120233191.271 3  93688242.94847  22879624.38747
  22434729.203 6 117895294.188 6  91866484.83947  22434735.80947
  20571476.172 7 108103835.198 7  84236782.38148  20571482.89148
  21302843.758 6 111947198.173 6  87231623.24549  21302853.97749
  20755016.617 6 109068348.179 6  84988359.26749  20755025.62949
  21842387.063 4 114782521.099 4  89440945.14747  21842394.88347
 20  5 16  0 23 51.0000000  0  7G04G08G14G16G26G27G31               -0.000395767
  22084765.109 6 116056220.314 6  90433454.18748  22084773.27048
  22878947.469 3 120229695.554 3  93685519.01448  22878958.96548
  22435349.891 6 117898557.278 6  91869027.50347  22435356.99647
  20571560.539 7 108104277.083 7  84237126.70849  20571567.17649
  21303150.672 6 111948810.952 6  87232879.95449  21303160.91049
  20754578.867 6 109066047.772 6  84986566.74449  20754587.86349
  21842604.797 5 114783667.674 5  89441838.58247  21842612.94147
 20  5 16  0 23 52.0000000  0  7G04G08G14G16G26G27G31               -0.000395758
  22084346.133 6 116054018.567 6  90431738.53848  22084354.16848
  22878282.719 3 120226200.367 3  93682795.49547  22878294.09847
  22435970.336 6 117901820.999 6  91871570.65547  22435978.16047
  20571645.148 7 108104719.646 7  84237471.55748  20571651.25448
  21303457.352 6 111950424.151 6  87234136.99349  21303467.83649
  20754141.734 6 109063748.246 6  84984774.90049  20754150.51649
  21842823.555 5 114784814.928 5  89442732.54647  21842831.44147
 20  5 16  0 23 53.0000000  0  7G04G08G14G16G26G27G31               -0.000395750
  22083927.992 6 116051817.621 6  90430023.51447  22083935.78947
  22877618.156 3 120222705.804 3  93680072.45747  22877628.78547
  22436592.273 6 117905085.321 6  91874114.28547  22436599.51247
  20571729.070 7 108105162.782 7  84237816.86048  20571735.30948
  21303764.086 6 111952037.748 6  87235394.34249  21303774.91849
  20753703.789 6 109061449.583 6  84982983.73449  20753713.21549
  21843042.328 5 114785962.661 5  89443626.88647  21843049.98047
 20  5 16  0 23 54.0000000  0  7G04G08G14G16G26G27G31               -0.000395741
  22083508.547 6 116049617.542 6  90428309.16748  22083517.13348
  22876953.258 3 120219211.906 3  93677349.94147  22876964.60547
  22437213.148 6 117908350.331 6  91876658.44647  22437220.83647
  20571813.523 6 108105606.635 6  84238162.71548  20571820.16048
  21304071.570 6 111953651.840 6  87236652.07349  21304082.22749
  20753266.398 6 109059151.867 6  84981193.30749  20753275.77049
  21843260.547 5 114787111.083 5  89444521.76547  21843268.27347
 20  5 16  0 23 55.0000000  0  7G04G08G14G16G26G27G31               -0.000395733
  22083090.117 6 116047418.207 6  90426595.40248  22083098.44548
  22876288.516 3 120215718.457 3  93674627.77547  22876299.47747
  22437834.508 6 117911615.864 6  91879203.02247  22437841.67247
  20571898.047 6 108106051.030 6  84238509.00248  20571904.76248
  21304378.852 6 111955266.273 6  87237910.07149  21304389.12549
  20752829.922 6 109056854.955 6  84979403.50449  20752838.56349
  21843479.102 5 114788260.043 5  89445417.05747  21843486.77047
 20  5 16  0 23 56.0000000  0  7G04G08G14G16G26G27G31               -0.000395723
  22082671.531 6 116045219.683 6  90424882.27147  22082679.72747
  22875624.391 3 120212225.632 3  93671906.10247  22875634.88347
  22438456.273 6 117914882.053 6  91881748.10347  22438463.25047
  20571982.727 7 108106496.090 7  84238855.80348  20571989.41848
  21304686.063 6 111956881.125 6  87239168.39749  21304696.45749
  20752392.734 6 109054558.938 6  84977614.40149  20752401.85249
  21843697.641 5 114789409.522 5  89446312.74747  21843705.57847
 20  5 16  0 23 57.0000000  0  7G04G08G14G16G26G27G31               -0.000395714
  22082253.203 6 116043021.868 6  90423169.68448  22082261.70748
  22874959.180 3 120208733.252 3  93669184.76847  22874970.20747
  22439078.125 6 117918148.729 6  91884293.56347  22439084.93047
  20572067.195 6 108106941.662 6  84239202.99848  20572074.14148
  21304993.141 6 111958496.280 6  87240426.95549  21305003.96549
  20751956.297 6 109052263.688 6  84975825.89649  20751965.18449
  21843916.492 5 114790559.517 5  89447208.85047  21843924.23047
 20  5 16  0 23 58.0000000  0  7G04G08G14G16G26G27G31               -0.000395704
  22081835.172 6 116040824.916 6  90421457.77447  22081843.67247
  22874294.398 3 120205241.539 3  93666463.95547  22874305.30147
  22439699.836 6 117921416.081 6  91886839.54447  22439706.77747
  20572152.297 7 108107387.913 7  84239550.72348  20572158.56648
  21305301.102 6 111960111.916 6  87241685.89349  21305311.34849
  20751519.570 6 109049969.368 6  84974038.12049  20751528.28549
  21844135.195 5 114791710.109 5  89448105.41547  21844143.01247
 20  5 16  0 23 59.0000000  0  7G04G08G14G16G26G27G31               -0.000395695
  22081417.289 6 116038628.788 6  90419746.51448  22081425.75048
  22873629.664 3 120201750.348 3  93663743.54847  22873641.58247
  22440321.188 6 117924684.033 6  91889386.00547  22440328.74647
  20572237.375 7 108107834.768 7  84239898.92548  20572244.01248
  21305608.477 6 111961727.966 6  87242945.15049  21305619.05149
  20751082.914 6 109047675.914 6  84972251.01549  20751091.61749
  21844354.820 5 114792861.266 5  89449002.42747  21844361.80547
 20  5 16  0 24  0.0000000  0  7G04G08G14G16G26G27G31               -0.000395685
  22080999.328 6 116036433.337 6  90418035.77547  22081007.94547
  22872965.203 3 120198259.683 3  93661023.54647  22872977.06347
  22440943.125 6 117927952.534 6  91891932.89047  22440950.49647
  20572322.930 7 108108282.211 7  84240247.58148  20572329.69948
  21305915.781 6 111963344.345 6  87244204.67049  21305925.86749
  20750646.719 6 109045383.294 6  84970464.55049  20750655.40249
  21844573.820 5 114794012.957 5  89449899.85147  21844581.32447
 20  5 16  0 24  1.0000000  0  7G04G08G14G16G26G27G31               -0.000395676
  22080581.859 6 116034238.821 6  90416325.76647  22080590.19947
  22872301.352 2 120194769.620 2  93658304.01447  22872312.91047
  22441565.086 6 117931221.722 6  91894480.31047  22441572.65647
  20572407.875 7 108108730.310 7  84240596.75148  20572414.29748
  21306223.445 6 111964961.207 6  87245464.56049  21306234.06649
  20750210.164 6 109043091.583 6  84968678.80849  20750219.21149
  21844793.453 5 114795165.260 5  89450797.74847  21844800.23847
 20  5 16  0 24  2.0000000  0  7G04G08G14G16G26G27G31               -0.000395664
  22080164.656 6 116032045.049 6  90414616.32747  22080173.10247
  22871637.008 3 120191280.078 3  93655584.89647  22871649.03947
  22442187.805 6 117934491.455 6  91897028.15147  22442194.88347
  20572493.219 7 108109179.020 7  84240946.39148  20572499.85548
  21306531.227 6 111966578.421 6  87246724.72849  21306541.46949
  20749774.609 6 109040800.706 6  84966893.70749  20749783.56349
  21845012.133 5 114796318.104 5  89451696.06647  21845019.52347
 20  5 16  0 24  3.0000000  0  7G04G08G14G16G26G27G31               -0.000395655
  22079747.016 5 116029852.142 5  90412907.56747  22079755.84847
  22870973.039 3 120187791.137 3  93652866.23847  22870984.71547
  22442809.945 6 117937761.883 6  91899576.53447  22442817.38347
  20572578.672 7 108109628.399 7  84241296.55948  20572585.51248
  21306839.258 6 111968196.132 6  87247985.28049  21306849.57449
  20749338.906 6 109038510.775 6  84965109.34349  20749347.79749
  21845232.219 5 114797471.601 5  89452594.88847  21845239.19547
 20  5 16  0 24  4.0000000  0  7G04G08G14G16G26G27G31               -0.000395643
  22079330.133 5 116027660.030 5  90411199.42547  22079338.84447
  22870308.961 3 120184302.811 3  93650148.06447  22870321.48047
  22443432.609 6 117941032.907 6  91902125.37747  22443439.50847
  20572664.352 7 108110078.391 7  84241647.20448  20572670.96548
  21307147.492 6 111969814.231 6  87249246.13349  21307157.30549
  20748903.414 6 109036221.717 6  84963325.66549  20748912.26249
  21845451.211 5 114798625.619 5  89453494.12747  21845458.84047
 20  5 16  0 24  5.0000000  0  7G04G08G14G16G26G27G31               -0.000395632
  22078913.336 6 116025468.695 6  90409491.88747  22078921.53547
  22869646.172 3 120180815.000 3  93647430.29547  22869657.23447
  22444055.109 6 117944304.500 6  91904674.67347  22444062.26647
  20572750.141 7 108110528.978 7  84241998.30448  20572756.68848
  21307455.320 6 111971432.696 6  87250507.27649  21307465.85549
  20748468.039 6 109033933.492 6  84961542.63549  20748477.17649
  21845670.461 5 114799780.180 5  89454393.78147  21845678.61347
 20  5 16  0 24  6.0000000  0  7G04G08G14G16G26G27G31               -0.000395622
  22078495.859 5 116023278.212 5  90407785.02147  22078504.63347
  22868982.375 3 120177327.770 3  93644712.96247  22868993.77347
  22444677.758 6 117947576.742 6  91907224.47047  22444684.93847
  20572836.133 7 108110980.221 7  84242349.92648  20572842.47748
  21307763.383 6 111973051.623 6  87251768.77649  21307773.49649
  20748032.898 6 109031646.170 6  84959760.30649  20748041.60949
  21845891.258 5 114800935.365 5  89455293.92147  21845898.36747
 20  5 16  0 24  7.0000000  0  7G04G08G14G16G26G27G31               -0.000395611
  22078079.281 5 116021088.532 5  90406078.78147  22078087.74647
  22868319.219 3 120173841.134 3  93641996.10647  22868330.51647
  22445300.453 6 117950849.630 6  91909774.77347  22445307.56647
  20572921.891 7 108111432.134 7  84242702.06148  20572928.41448
  21308071.313 6 111974670.980 6  87253030.61149  21308081.75849
  20747597.531 6 109029359.764 6  84957978.68449  20747606.55149
  21846110.898 5 114802091.185 5  89456194.55047  21846118.27047
 20  5 16  0 24  8.0000000  0  7G04G08G14G16G26G27G31               -0.000395599
  22077662.711 5 116018899.671 5  90404373.17447  22077671.17647
  22867655.570 3 120170355.079 3  93639279.70747  22867667.07847
  22445923.539 6 117954123.094 6  91912325.52547  22445930.53947
  20573007.883 7 108111884.613 7  84243054.64448  20573014.50448
  21308379.828 6 111976290.735 6  87254292.76149  21308389.97349
  20747162.500 6 109027074.199 6  84956197.73249  20747171.74249
  21846331.313 5 114803247.484 5  89457095.56547  21846338.25447
 20  5 16  0 24  9.0000000  0  7G04G08G14G16G26G27G31               -0.000395588
  22077247.109 5 116016711.546 5  90402668.13947  22077254.94547
  22866992.031 3 120166869.492 3  93636563.66847  22867003.55947
  22446546.539 6 117957397.120 6  91914876.71747  22446553.37147
  20573094.422 6 108112337.689 6  84243407.68848  20573101.07448
  21308688.172 6 111977910.839 6  87255555.17849  21308698.02049
  20746727.719 6 109024789.439 6  84954417.40049  20746737.14149
  21846550.930 5 114804404.358 5  89457997.02447  21846558.08647
 20  5 16  0 24 10.0000000  0  7G04G08G14G16G26G27G31               -0.000395576
  22076830.742 6 116014524.220 6  90400963.72947  22076838.91447
  22866328.945 3 120163384.498 3  93633848.09947  22866340.25847
  22447169.469 6 117960671.749 6  91917428.37347  22447176.69547
  20573180.547 7 108112791.384 7  84243761.21749  20573187.55549
  21308996.141 6 111979531.354 6  87256817.91549  21309006.39549
  20746292.836 6 109022505.573 6  84952637.76849  20746302.48049
  21846772.031 5 114805561.764 5  89458898.89947  21846778.42647
 20  5 16  0 24 11.0000000  0  7G04G08G14G16G26G27G31               -0.000395565
  22076414.141 5 116012337.687 5  90399259.93647  22076422.50847
  22865665.563 3 120159900.019 3  93631132.92247  22865677.04347
  22447792.852 6 117963946.960 6  91919980.48447  22447800.02047
  20573266.977 6 108113245.644 6  84244115.17848  20573273.65248
  21309304.859 6 111981152.225 6  87258080.92849  21309314.81349
  20745858.805 6 109020222.542 6  84950858.78349  20745867.64549
  21846991.484 5 114806719.709 5  89459801.19247  21846998.67647
 20  5 16  0 24 12.0000000  0  7G04G08G14G16G26G27G31               -0.000395554
  22075998.438 5 116010151.910 5  90397556.73547  22076006.61747
  22865002.883 3 120156416.120 3  93628418.20147  22865014.34847
  22448416.570 6 117967222.736 6  91922533.04047  22448423.64547
  20573353.539 7 108113700.530 7  84244469.63848  20573359.89848
  21309613.258 6 111982773.513 6  87259344.26949  21309623.32049
  20745424.195 6 109017940.346 6  84949080.44749  20745433.37549
  21847212.906 5 114807878.209 5  89460703.91647  21847219.44947
 20  5 16  0 24 13.0000000  0  7G04G08G14G16G26G27G31               -0.000395540
  22075582.492 6 116007966.933 6  90395854.14747  22075590.76647
  22864339.492 3 120152932.753 3  93625703.88947  22864351.37147
  22449039.508 6 117970499.115 6  91925086.06047  22449046.51647
  20573440.063 7 108114155.990 7  84244824.54548  20573446.91448
  21309921.852 6 111984395.166 6  87260607.89349  21309932.15249
  20744990.008 6 109015659.021 6  84947302.78949  20744999.62549
  21847433.055 5 114809037.255 5  89461607.06447  21847439.38347
 20  5 16  0 24 14.0000000  0  7G04G08G14G16G26G27G31               -0.000395529
  22075167.234 6 116005782.729 6  90394152.16747  22075174.91847
  22863677.250 3 120149449.904 3  93622989.97347  22863688.61347
  22449663.609 6 117973776.083 6  91927639.53947  22449670.41447
  20573527.297 6 108114612.038 6  84245179.90648  20573534.08248
  21310230.578 6 111986017.200 6  87261871.81449  21310240.50049
  20744556.258 6 109013378.522 6  84945525.77949  20744565.52049
  21847654.727 5 114810196.838 5  89462510.63147  21847660.41847
 20  5 16  0 24 15.0000000  0  7G04G08G14G16G26G27G31               -0.000395515
  22074752.125 6 116003599.295 6  90392450.78947  22074759.62547
  22863014.883 3 120145967.620 3  93620276.51048  22863025.88748
  22450287.180 6 117977053.621 6  91930193.46247  22450293.94947
  20573613.961 7 108115068.697 7  84245535.74448  20573620.59448
  21310539.047 6 111987639.612 6  87263136.03349  21310549.52049
  20744122.781 6 109011098.881 6  84943749.43349  20744131.73449
  21847875.180 5 114811356.963 5  89463414.62047  21847880.94147
 20  5 16  0 24 16.0000000  0  7G04G08G14G16G26G27G31               -0.000395502
  22074336.727 6 116001416.641 6  90390750.01647  22074344.41047
  22862352.406 2 120142485.854 2  93617563.44347  22862363.16847
  22450910.797 6 117980331.731 6  91932747.83047  22450917.79347
  20573701.219 6 108115525.938 6  84245892.03848  20573707.95348
  21310847.914 6 111989262.422 6  87264400.56049  21310857.90649
  20743688.641 6 109008820.097 6  84941973.75749  20743698.20349
  21848095.719 5 114812517.640 5  89464319.04347  21848102.36747
 20  5 16  0 24 17.0000000  0  7G04G08G14G16G26G27G31               -0.000395491
  22073921.242 6 115999234.904 6  90389049.96047  22073928.94147
  22861689.344 2 120139004.780 2  93614850.91947  22861701.10547
  22451534.648 6 117983610.560 6  91935302.76347  22451541.93047
  20573787.898 6 108115983.909 6  84246248.90448  20573794.67248
  21311156.734 6 111990885.737 6  87265665.47949  21311166.98849
  20743255.211 6 109006542.259 6  84940198.81849  20743264.48449
  21848316.516 5 114813678.971 5  89465223.97947  21848322.95747
 20  5 16  0 24 18.0000000  0  7G04G08G14G16G26G27G31               -0.000395477
  22073505.898 6 115997053.957 6  90387350.52347  22073513.83247
  22861027.508 2 120135524.279 2  93612138.84247  22861038.71147
  22452158.961 6 117986890.016 6  91937858.18247  22452165.98847
  20573875.328 6 108116442.506 6  84246606.25548  20573882.16048
  21311465.859 6 111992509.461 6  87266930.72049  21311475.98449
  20742821.914 6 109004265.322 6  84938424.58849  20742831.55549
  21848537.656 5 114814840.903 5  89466129.38147  21848544.01247
 20  5 16  0 24 19.0000000  0  7G04G08G14G16G26G27G31               -0.000395464
  22073091.547 6 115994873.801 6  90385651.69747  22073098.73847
  22860365.000 3 120132044.280 3  93609427.14248  22860376.56348
  22452783.453 6 117990170.016 6  91940414.02247  22452790.06647
  20573962.906 7 108116901.653 7  84246964.03048  20573969.48448
  21311775.055 6 111994133.543 6  87268196.23549  21311784.98849
  20742388.391 6 109001989.213 6  84936650.99749  20742398.56349
  21848759.078 5 114816003.346 5  89467035.18847  21848765.44947
 20  5 16  0 24 20.0000000  0  7G04G08G14G16G26G27G31               -0.000395451
  22072676.797 5 115992694.333 5  90383953.41247  22072684.18447
  22859702.680 3 120128564.708 3  93606715.77447  22859714.24647
  22453407.227 6 117993450.532 6  91942970.26247  22453414.59447
  20574050.242 7 108117361.375 7  84247322.25349  20574057.05549
  21312084.195 6 111995757.947 6  87269462.00649  21312093.98449
  20741955.836 6 108999713.900 6  84934878.02549  20741965.75849
  21848979.602 5 114817166.272 5  89467941.36847  21848986.59447
 20  5 16  0 24 21.0000000  0  7G04G08G14G16G26G27G31               -0.000395435
  22072262.172 5 115990515.761 5  90382255.82747  22072269.52747
  22859041.211 3 120125085.821 3  93604004.94348  22859052.17648
  22454031.930 6 117996731.725 6  91945527.02847  22454038.93447
  20574137.836 7 108117821.774 7  84247681.00548  20574144.30148
  21312392.945 6 111997382.840 6  87270728.15449  21312403.24249
  20741522.852 6 108997439.504 6  84933105.77049  20741532.59049
  21849201.680 5 114818329.864 5  89468848.06047  21849208.16847
 20  5 16  0 24 22.0000000  0  7G04G08G14G16G26G27G31               -0.000395422
  22071847.781 5 115988337.964 5  90380558.84047  22071855.18047
  22858379.016 2 120121607.434 2  93601294.51547  22858390.30547
  22454656.383 6 118000013.508 6  91948084.26647  22454663.44147
  20574225.531 7 108118282.778 7  84248040.22648  20574232.36748
  21312702.117 6 111999008.086 6  87271994.58149  21312712.42649
  20741089.883 6 108995165.973 6  84931334.18449  20741099.92249
  21849423.039 5 114819493.960 5  89469755.14647  21849429.85247
 20  5 16  0 24 23.0000000  0  7G04G08G14G16G26G27G31               -0.000395409
  22071433.180 6 115986160.905 6  90378862.43548  22071440.94948
  22857716.641 3 120118129.600 3  93598584.51947  22857728.33247
  22455280.586 6 118003295.840 6  91950641.92547  22455288.26247
  20574313.500 7 108118744.310 7  84248399.86448  20574319.88348
  21313011.711 6 112000633.696 6  87273261.28949  21313022.02749
  20740657.977 6 108992893.223 6  84929563.21749  20740667.37549
  21849644.570 5 114820658.594 5  89470662.64847  21849650.97747
 20  5 16  0 24 24.0000000  0  7G04G08G14G16G26G27G31               -0.000395393
  22071018.695 5 115983984.570 5  90377166.58847  22071026.99647
  22857055.094 3 120114652.229 3  93595874.89447  22857066.82447
  22455905.422 6 118006578.681 6  91953199.98347  22455912.80947
  20574401.188 7 108119206.394 7  84248759.92748  20574407.91048
  21313321.227 6 112002259.640 6  87274528.25749  21313331.19549
  20740225.867 6 108990621.308 6  84927792.89749  20740235.10949
  21849866.000 5 114821823.726 5  89471570.53447  21849873.03147
 20  5 16  0 24 25.0000000  0  7G04G08G14G16G26G27G31               -0.000395380
  22070604.984 5 115981809.044 5  90375471.36348  22070613.14148
  22856393.852 3 120111175.464 3  93593165.73147  22856404.94547
  22456530.180 6 118009862.146 6  91955758.52947  22456537.87547
  20574489.398 7 108119669.125 7  84249120.49648  20574496.01248
  21313630.688 6 112003886.002 6  87275795.54849  21313641.01649
  20739793.352 6 108988350.257 6  84926023.24949  20739802.91049
  21850087.633 5 114822989.411 5  89472478.86947  21850094.67647
 20  5 16  0 24 26.0000000  0  7G04G08G14G16G26G27G31               -0.000395365
  22070191.000 5 115979634.419 5  90373776.84347  22070198.91447
  22855731.773 3 120107699.331 3  93590457.05247  22855743.84447
  22457155.266 6 118013146.296 6  91958317.60647  22457162.80547
  20574577.398 7 108120132.542 7  84249481.60348  20574584.21148
  21313940.039 6 112005512.841 6  87277063.21649  21313950.46949
  20739361.188 6 108986080.160 6  84924254.34549  20739371.25449
  21850309.375 5 114824155.796 5  89473387.74047  21850316.71547
 20  5 16  0 24 27.0000000  0  7G04G08G14G16G26G27G31               -0.000395350
  22069777.359 6 115977460.463 6  90372082.85447  22069785.21947
  22855070.422 3 120104223.573 3  93587748.66647  22855082.42647
  22457780.492 6 118016430.910 6  91960877.05447  22457787.99647
  20574665.992 7 108120596.429 7  84249843.06648  20574672.47348
  21314250.172 6 112007139.948 6  87278331.09449  21314259.94149
  20738929.227 6 108983810.794 6  84922486.00849  20738939.51649
  21850531.672 5 114825322.561 5  89474296.89547  21850538.34847
 20  5 16  0 24 28.0000000  0  7G04G08G14G16G26G27G31               -0.000395336
  22069364.039 6 115975287.254 6  90370389.44747  22069372.34047
  22854409.625 3 120100748.388 3  93585040.72747  22854420.96147
  22458406.031 6 118019716.091 6  91963436.93847  22458413.10547
  20574754.266 7 108121060.904 7  84250204.99948  20574761.07448
  21314559.898 6 112008767.421 6  87279599.25549  21314569.88749
  20738497.266 6 108981542.261 6  84920718.32649  20738507.60949
  21850754.102 5 114826489.837 5  89475206.45847  21850760.86747
 20  5 16  0 24 29.0000000  0  7G04G08G14G16G26G27G31               -0.000395321
  22068950.422 6 115973114.854 6  90368696.67447  22068958.87147
  22853748.125 2 120097273.847 2  93582333.29447  22853759.89147
  22459030.547 6 118023001.872 6  91965997.27147  22459038.39847
  20574842.500 7 108121526.020 7  84250567.43148  20574849.28948
  21314869.500 6 112010395.318 6  87280867.74449  21314879.23049
  20738065.945 6 108979274.586 6  84918951.30849  20738075.68449
  21850976.930 5 114827657.759 5  89476116.53647  21850982.78547
 20  5 16  0 24 30.0000000  0  7G04G08G14G16G26G27G31               -0.000395306
  22068537.352 6 115970943.185 6  90367004.46347  22068545.32847
  22853087.297 3 120093799.927 3  93579626.30047  22853098.78947
  22459656.172 4 118026288.242 4  91968558.11846  22459663.68446
  20574930.859 7 108121991.672 7  84250930.26648  20574937.68048
  21315178.930 6 112012023.543 6  87282136.48749  21315189.35549
  20737633.844 5 108977007.871 5  84917185.03449  20737644.64149
  21851199.227 4 114828826.061 4  89477026.90646  21851205.17646
 20  5 16  0 24 31.0000000  0  7G04G08G14G16G26G27G31               -0.000395290
  22068124.039 6 115968772.298 6  90365312.84547  22068132.31347
  22852426.563 2 120090326.315 2  93576919.47347  22852438.16047
  22460281.711 3 118029575.149 3  91971119.43246  22460289.49246
  20575019.250 7 108122457.891 7  84251293.54048  20575026.06348
  21315488.930 6 112013652.142 6  87283405.52849  21315499.57449
  20737203.219 5 108974741.835 5  84915419.27449  20737213.34049
  21851420.961 4 114829994.981 4  89477937.79446  21851427.73446
 20  5 16  0 24 32.0000000  0  7G04G08G14G16G26G27G31               -0.000395275
  22067711.086 6 115966602.271 6  90363621.89847  22067719.67647
  22851766.508 2 120086853.362 2  93574213.23646  22851777.50446
  22460906.930 4 118032862.677 4  91973681.19046  22460915.31646
  20575108.563 7 108122924.794 7  84251657.35148  20575115.66048
  21315799.625 6 112015281.192 6  87284674.92649  21315809.34449
  20736773.055 5 108972476.782 5  84913654.29049  20736782.69549
  21851643.484 4 114831164.538 4  89478849.16546  21851650.61346
 20  5 16  0 24 33.0000000  0  7G04G08G14G16G26G27G31               -0.000395260
  22067298.102 6 115964433.008 6  90361931.55947  22067306.92247
  22851106.234 2 120083380.955 2  93571507.47946  22851117.07846
  22461533.289 4 118036150.789 4  91976243.37246  22461540.66046
  20575197.469 7 108123392.265 7  84252021.61548  20575204.25048
  21316109.313 6 112016910.602 6  87285944.59249  21316119.24249
  20736341.742 6 108970212.504 6  84911889.90949  20736351.41049
  21851866.914 4 114832334.584 4  89479760.90046  21851872.90246
 20  5 16  0 24 34.0000000  0  7G04G08G14G16G26G27G31               -0.000395245
  22066885.742 6 115962264.563 6  90360241.86048  22066894.13748
  22850445.313 4 120079909.094 4  93568802.15947  22850456.04347
  22462159.359 4 118039439.480 4  91978805.99046  22462166.63346
  20575286.617 7 108123860.375 7  84252386.37948  20575293.21548
  21316419.617 6 112018540.429 6  87287214.58649  21316429.23849
  20735911.172 5 108967949.142 5  84910126.25149  20735920.58649
  21852090.086 4 114833505.244 4  89480673.09446  21852095.79346
 20  5 16  0 24 35.0000000  0  7G04G08G14G16G26G27G31               -0.000395227
  22066473.281 6 115960096.968 6  90358552.83148  22066481.67648
  22849785.383 3 120076437.844 3  93566097.29947  22849796.14847
  22462785.359 4 118042728.910 4  91981369.15546  22462792.87146
  20575376.063 7 108124329.143 7  84252751.65048  20575382.91848
  21316729.977 6 112020170.696 6  87288484.92349  21316739.41849
  20735480.477 6 108965686.682 6  84908363.30849  20735490.34849
  21852313.125 4 114834676.521 4  89481585.76246  21852319.03946
 20  5 16  0 24 36.0000000  0  7G04G08G14G16G26G27G31               -0.000395212
  22066060.422 6 115957930.081 6  90356864.34848  22066069.25048
  22849124.742 3 120072967.090 3  93563392.84047  22849135.87947
  22463411.234 4 118046018.804 4  91983932.67146  22463418.48446
  20575465.320 7 108124798.445 7  84253117.34648  20575471.92648
  21317040.352 6 112021801.297 6  87289755.52749  21317050.07449
  20735049.945 6 108963424.997 6  84906600.96849  20735059.88749
  21852535.516 4 114835848.221 4  89482498.75546  21852541.63346
 20  5 16  0 24 37.0000000  0  7G04G08G14G16G26G27G31               -0.000395195
  22065648.773 6 115955763.931 6  90355176.43648  22065657.02748
  22848464.789 3 120069496.822 3  93560688.75047  22848475.25047
  22464037.383 5 118049309.213 5  91986496.61846  22464045.02046
  20575554.625 7 108125268.277 7  84253483.45148  20575561.54348
  21317350.648 6 112023432.227 6  87291026.38649  21317360.07849
  20734619.008 6 108961164.116 6  84904839.24749  20734629.94549
  21852758.938 4 114837020.441 4  89483412.16646  21852765.14846
 20  5 16  0 24 38.0000000  0  7G04G08G14G16G26G27G31               -0.000395178
  22065236.891 6 115953598.586 6  90353489.15748  22065245.46548
  22847803.867 2 120066027.140 2  93557985.09247  22847814.80947
  22464663.656 4 118052600.226 4  91989061.04246  22464671.16446
  20575644.008 7 108125738.750 7  84253850.05648  20575650.96948
  21317661.117 6 112025063.566 6  87292297.55849  21317670.84449
  20734188.867 6 108958904.137 6  84903078.22749  20734199.39849
  21852981.758 5 114838193.268 5  89484326.05646  21852987.93046
 20  5 16  0 24 39.0000000  0  7G04G08G14G16G26G27G31               -0.000395163
  22064824.836 6 115951433.977 6  90351802.45348  22064833.37148
  22847143.594 2 120062557.915 2  93555281.80047  22847154.66447
  22465290.219 5 118055891.783 5  91991625.88646  22465297.37946
  20575733.766 7 108126209.759 7  84254217.07048  20575740.59048
  21317971.680 6 112026695.248 6  87293568.99649  21317981.13349
  20733759.594 6 108956644.933 6  84901317.80949  20733769.62949
  21853204.938 5 114839366.557 5  89485240.31346  21853210.87546
 20  5 16  0 24 40.0000000  0  7G04G08G14G16G26G27G31               -0.000395145
  22064412.781 6 115949270.272 6  90350116.44448  22064421.42248
  22846483.594 2 120059089.438 2  93552579.08347  22846494.59447
  22465916.406 5 118059184.069 5  91994191.31846  22465924.18046
  20575823.656 7 108126681.491 7  84254584.65048  20575830.54348
  21318282.063 6 112028327.416 6  87294840.81749  21318291.77749
  20733329.859 6 108954386.727 6  84899558.16649  20733340.32849
  21853428.664 5 114840540.498 5  89486155.07846  21853434.88346
 20  5 16  0 24 41.0000000  0  7G04G08G14G16G26G27G31               -0.000395128
  22064001.203 6 115947107.271 6  90348430.99048  22064009.53148
  22845824.102 2 120055621.369 2  93549876.68547  22845835.16447
  22466543.305 5 118062476.809 5  91996757.09746  22466551.16846
  20575913.109 6 108127153.752 6  84254952.64848  20575920.12948
  21318592.852 6 112029959.894 6  87296112.87449  21318602.46549
  20732900.898 6 108952129.281 6  84897799.11249  20732910.53549
  21853651.492 5 114841714.962 5  89487070.25446  21853657.85246
 20  5 16  0 24 42.0000000  0  7G04G08G14G16G26G27G31               -0.000395111
  22063589.734 6 115944945.161 6  90346746.23148  22063598.39848
  22845162.516 2 120052153.946 2  93547174.80947  22845174.87947
  22467169.586 5 118065770.256 5  91999323.42846  22467177.39546
  20576003.406 7 108127626.691 7  84255321.16848  20576009.52348
  21318903.453 6 112031592.857 6  87297385.31349  21318913.18849
  20732471.664 6 108949872.789 6  84896040.80449  20732481.44549
  21853875.070 4 114842889.998 4  89487985.87046  21853881.57046
 20  5 16  0 24 43.0000000  0  7G04G08G14G16G26G27G31               -0.000395092
  22063178.430 6 115942783.733 6  90345062.00748  22063187.03948
  22844503.133 3 120048686.961 3  93544473.28147  22844515.63347
  22467796.148 5 118069064.187 5  92001890.13246  22467804.16446
  20576093.820 7 108128100.137 7  84255690.08248  20576099.92248
  21319213.930 6 112033226.111 6  87298657.98049  21319223.91849
  20732042.422 6 108947617.063 6  84894283.09949  20732052.05549
  21854098.672 4 114844065.579 4  89488901.88846  21854105.25846
 20  5 16  0 24 44.0000000  0  7G04G08G14G16G26G27G31               -0.000395075
  22062767.242 6 115940623.067 6  90343378.37348  22062775.86748
  22843843.180 3 120045220.495 3  93541772.15047  22843855.34847
  22468423.484 5 118072358.670 5  92004457.26346  22468431.31346
  20576183.938 7 108128574.163 7  84256059.45048  20576190.10548
  21319525.250 6 112034859.723 6  87299930.92549  21319534.94949
  20731613.117 6 108945362.137 6  84892526.00449  20731622.89149
  21854322.000 4 114845241.608 4  89489818.27246  21854329.49246
 20  5 16  0 24 45.0000000  0  7G04G08G14G16G26G27G31               -0.000395058
  22062356.508 6 115938463.235 6  90341695.38748  22062364.69148
  22843183.508 2 120041754.631 2  93539071.47947  22843195.93847
  22469050.477 5 118075653.775 5  92007024.87846  22469058.34846
  20576274.125 7 108129048.823 7  84256429.31848  20576280.79348
  21319836.016 6 112036493.773 6  87301204.21149  21319845.81349
  20731183.422 6 108943108.133 6  84890769.64049  20731194.21549
  21854546.281 5 114846418.248 5  89490735.14346  21854552.66046
 20  5 16  0 24 46.0000000  0  7G04G08G14G16G26G27G31               -0.000395039
  22061945.719 6 115936304.115 6  90340012.95448  22061953.94148
  22842524.836 2 120038289.318 2  93536371.22746  22842536.57046
  22469677.117 5 118078949.399 5  92009592.90346  22469685.50046
  20576364.680 7 108129523.990 7  84256799.57348  20576370.91448
  21320146.875 6 112038128.116 6  87302477.72449  21320156.79349
  20730754.172 6 108940854.919 6  84889013.88749  20730765.04349
  21854771.313 5 114847595.365 5  89491652.39046  21854776.72746
 20  5 16  0 24 47.0000000  0  7G04G08G14G16G26G27G31               -0.000395021
  22061534.875 6 115934145.749 6  90338331.10748  22061543.21548
  22841865.336 2 120034824.427 2  93533671.30346  22841876.66846
  22470304.367 5 118082245.599 5  92012161.36846  22470312.51246
  20576455.234 7 108129999.745 7  84257170.29148  20576461.65648
  21320458.422 6 112039762.831 6  87303751.52449  21320468.19549
  20730325.578 6 108938602.524 6  84887258.77449  20730336.70749
  21854994.742 4 114848773.027 4  89492570.05846  21855001.04346
 20  5 16  0 24 48.0000000  0  7G04G08G14G16G26G27G31               -0.000395002
  22061124.406 6 115931988.271 6  90336649.95548  22061132.73448
  22841206.188 2 120031360.244 2  93530971.92446  22841217.71546
  22470931.922 5 118085542.475 5  92014730.34546  22470940.43846
  20576545.750 7 108130476.186 7  84257541.54448  20576552.27048
  21320769.391 6 112041398.028 6  87305025.70549  21320779.12149
  20729897.602 6 108936351.062 6  84885504.38449  20729908.43449
  21855218.656 5 114849951.301 5  89493488.19646  21855225.36746
 20  5 16  0 24 49.0000000  0  7G04G08G14G16G26G27G31               -0.000394983
  22060713.938 6 115929831.480 6  90334969.34448  22060722.94548
  22840547.570 2 120027896.505 2  93528272.89047  22840558.96547
  22471559.500 5 118088839.824 5  92017299.72846  22471568.14846
  20576636.680 7 108130953.126 7  84257913.17848  20576643.11748
  21321080.211 6 112043033.496 6  87306300.09649  21321090.32849
  20729469.820 6 108934100.388 6  84883750.60549  20729480.05549
  21855443.148 5 114851130.072 5  89494406.72546  21855449.52746
 20  5 16  0 24 50.0000000  0  7G04G08G14G16G26G27G31               -0.000394964
  22060303.563 6 115927675.514 6  90333289.36748  22060312.57448
  22839887.938 3 120024433.296 3  93525574.27747  22839900.18047
  22472186.742 5 118092137.775 5  92019869.57446  22472195.35246
  20576727.578 7 108131430.691 7  84258285.31148  20576734.24248
  21321391.563 6 112044669.402 6  87307574.82849  21321401.62949
  20729041.734 6 108931850.542 6  84881997.48249  20729052.07449
  21855667.086 5 114852309.396 5  89495325.67646  21855674.00846
 20  5 16  0 24 51.0000000  0  7G04G08G14G16G26G27G31               -0.000394945
  22059893.273 6 115925520.339 6  90331610.02548  22059902.18848
  22839226.852 2 120020970.416 2  93522876.00647  22839240.86747
  22472813.547 6 118095436.390 6  92022439.81247  22472822.99247
  20576818.633 7 108131908.854 7  84258657.92149  20576824.91049
  21321702.883 6 112046305.681 6  87308849.85149  21321713.10549
  20728613.695 6 108929601.515 6  84880245.00749  20728623.28549
  21855891.969 5 114853489.281 5  89496245.04547  21855898.51247
 20  5 16  0 24 52.0000000  0  7G04G08G14G16G26G27G31               -0.000394926
  22059483.461 6 115923365.871 6  90329931.24048  22059492.15248
  22838568.461 3 120017508.276 3  93520178.32547  22838581.28147
  22473441.945 6 118098735.466 6  92025010.41047  22473449.99247
  20576909.820 7 108132387.529 7  84259030.93348  20576916.01648
  21322014.328 6 112047942.267 6  87310125.10549  21322024.68849
  20728185.758 6 108927353.353 6  84878493.21049  20728195.47749
  21856116.406 4 114854669.637 4  89497164.77147  21856123.10947
 20  5 16  0 24 53.0000000  0  7G04G08G14G16G26G27G31               -0.000394907
  22059073.898 6 115921212.289 6  90328253.13448  22059082.40648
  22837910.734 2 120014046.731 2  93517481.05747  22837922.67647
  22474069.820 6 118102035.178 6  92027581.56047  22474077.77747
  20577000.836 7 108132866.921 7  84259404.48848  20577007.16448
  21322325.750 6 112049579.342 6  87311400.73949  21322335.88749
  20727758.031 6 108925106.121 6  84876742.12149  20727768.30149
  21856341.563 5 114855850.603 5  89498084.99746  21856347.88746
 20  5 16  0 24 54.0000000  0  7G04G08G14G16G26G27G31               -0.000394888
  22058664.609 6 115919059.500 6  90326575.64048  22058672.87148
  22837251.969 2 120010585.769 2  93514784.20447  22837263.95347
  22474697.992 6 118105335.537 6  92030153.26847  22474705.52747
  20577092.398 7 108133346.923 7  84259778.51448  20577098.69148
  21322637.383 6 112051216.820 6  87312676.70049  21322647.59049
  20727330.609 6 108922859.784 6  84874991.72549  20727340.86349
  21856566.203 5 114857032.183 5  89499005.70446  21856572.35946
 20  5 16  0 24 55.0000000  0  7G04G08G14G16G26G27G31               -0.000394869
  22058254.867 6 115916907.305 6  90324898.59348  22058263.25048
  22836593.938 2 120007125.121 2  93512087.57347  22836605.07847
  22475325.930 6 118108636.240 6  92032725.27047  22475333.48047
  20577183.641 7 108133827.312 7  84260152.84548  20577189.89548
  21322949.156 6 112052854.485 6  87313952.79849  21322959.30949
  20726903.477 6 108920614.088 6  84873241.82749  20726913.40649
  21856791.023 5 114858214.124 5  89499926.69747  21856797.17247
 20  5 16  0 24 56.0000000  0  7G04G08G14G16G26G27G31               -0.000394848
  22057845.117 6 115914755.796 6  90323222.08348  22057853.51248
  22835935.453 2 120003664.984 2  93509391.34147  22835946.73847
  22475954.227 6 118111937.419 6  92035297.64647  22475962.00847
  20577275.195 7 108134308.208 7  84260527.56348  20577281.73848
  21323260.672 6 112054492.396 6  87315229.09549  21323271.23449
  20726476.031 6 108918369.151 6  84871492.52649  20726486.09449
  21857015.602 4 114859396.473 4  89500848.00846  21857022.40646
 20  5 16  0 24 57.0000000  0  7G04G08G14G16G26G27G31               -0.000394829
  22057435.969 6 115912605.093 6  90321546.20448  22057444.30548
  22835276.578 2 120000205.433 2  93506695.57247  22835288.73047
  22476582.969 6 118115239.237 6  92037870.50947  22476590.33247
  20577366.953 7 108134789.715 7  84260902.76548  20577373.43448
  21323572.453 6 112056130.776 6  87316505.75749  21323582.78549
  20726049.203 6 108916125.087 6  84869743.90349  20726059.09449
  21857241.984 5 114860579.401 5  89501769.78646  21857247.42246
 20  5 16  0 24 58.0000000  0  7G04G08G14G16G26G27G31               -0.000394808
  22057027.000 6 115910455.167 6  90319870.92948  22057035.37948
  22834618.188 2 119996746.329 2  93504000.16247  22834629.79347
  22477211.031 6 118118541.586 6  92040443.76647  22477218.45347
  20577458.492 7 108135271.788 7  84261278.39948  20577464.60248
  21323884.453 6 112057769.484 6  87317782.67349  21323894.53149
  20725622.164 6 108913881.856 6  84867995.92949  20725632.26649
  21857466.984 5 114861762.866 5  89502691.96947  21857472.54347
 20  5 16  0 24 59.0000000  0  7G04G08G14G16G26G27G31               -0.000394787
  22056617.680 6 115908305.963 6  90318196.22948  22056626.20348
  22833960.383 2 119993287.812 2  93501305.20547  22833971.90647
  22477839.438 6 118121844.479 6  92043017.44447  22477847.31647
  20577550.344 7 108135754.442 7  84261654.49648  20577556.73048
  21324196.289 6 112059408.551 6  87319059.86449  21324206.42249
  20725195.914 7 108911639.438 7  84866248.58749  20725205.39149
  21857691.805 5 114862946.855 5  89503614.55346  21857698.12146
 20  5 16  0 25  0.0000000  0  7G04G08G14G16G26G27G31               -0.000394766
  22056208.797 6 115906157.492 6  90316522.09348  22056217.40248
  22833301.945 2 119989829.700 2  93498610.57747  22833314.15247
  22478468.188 6 118125147.892 6  92045591.52647  22478475.58647
  20577642.000 7 108136237.597 7  84262030.98048  20577648.72748
  21324508.727 6 112061047.914 6  87320337.28749  21324518.50849
  20724769.016 6 108909397.811 6  84864501.86449  20724779.34449
  21857918.008 5 114864131.319 5  89504537.50347  21857923.40247
 20  5 16  0 25  1.0000000  0  7G04G08G14G16G26G27G31               -0.000394745
  22055800.313 6 115904009.710 6  90314848.50348  22055808.59048
  22832644.359 2 119986372.132 2  93495916.37447  22832655.87147
  22479097.188 6 118128451.780 6  92048165.97447  22479104.62547
  20577734.313 7 108136721.249 7  84262407.85848  20577740.61748
  21324820.508 6 112062687.569 6  87321614.94149  21324830.44949
  20724342.555 6 108907156.935 6  84862755.72249  20724352.65249
  21858142.930 5 114865316.201 5  89505460.78846  21858148.33246
 20  5 16  0 25  2.0000000  0  7G04G08G14G16G26G27G31               -0.000394724
  22055391.594 6 115901862.632 6  90313175.45548  22055400.10948
  22831986.555 2 119982914.971 2  93493222.48747  22831997.73847
  22479725.859 6 118131756.174 6  92050740.81647  22479733.04347
  20577826.352 7 108137205.432 7  84262785.14048  20577832.67648
  21325132.414 6 112064327.534 6  87322892.83949  21325142.37949
  20723916.602 6 108904916.826 6  84861010.18449  20723926.58249
  21858368.625 5 114866501.563 5  89506384.44847  21858374.35247
 20  5 16  0 25  3.0000000  0  7G04G08G14G16G26G27G31               -0.000394703
  22054983.109 6 115899716.354 6  90311503.03548  22054991.82448
  22831328.664 2 119979458.384 2  93490529.04948  22831340.50848
  22480354.688 6 118135061.150 6  92053316.12147  22480362.35947
  20577918.898 7 108137690.217 7  84263162.89848  20577925.08648
  21325444.734 6 112065967.875 6  87324171.02149  21325454.62949
  20723490.188 6 108902677.582 6  84859265.32349  20723500.12149
  21858593.977 5 114867687.495 5  89507308.54747  21858599.93047
 20  5 16  0 25  4.0000000  0  7G04G08G14G16G26G27G31               -0.000394682
  22054575.078 6 115897570.982 6  90309831.31948  22054583.74648
  22830670.633 2 119976002.497 2  93487836.14947  22830682.55547
  22480983.570 6 118138366.842 6  92055891.98447  22480991.09047
  20578011.258 7 108138175.732 7  84263541.22348  20578017.65248
  21325756.961 6 112067608.758 6  87325449.62849  21325767.05949
  20723064.344 6 108900439.344 6  84857521.23749  20723074.39549
  21858819.875 5 114868874.153 5  89508233.20546  21858825.82046
 20  5 16  0 25  5.0000000  0  7G04G08G14G16G26G27G31               -0.000394661
  22054166.898 6 115895426.261 6  90308160.10648  22054175.27048
  22830013.000 2 119972546.958 2  93485143.52247  22830024.83247
  22481612.898 6 118141672.972 6  92058468.19547  22481620.68047
  20578103.648 7 108138661.680 7  84263919.88248  20578110.04348
  21326069.500 6 112069249.843 6  87326728.39949  21326079.28549
  20722638.570 6 108898201.791 6  84855777.69549  20722648.43049
  21859045.563 5 114870061.134 5  89509158.12746  21859051.69546
 20  5 16  0 25  6.0000000  0  7G04G08G14G16G26G27G31               -0.000394640
  22053759.109 6 115893282.215 6  90306489.41948  22053767.55148
  22829355.477 2 119969091.923 2  93482451.28547  22829367.62147
  22482242.469 6 118144979.570 6  92061044.75947  22482249.35947
  20578196.500 7 108139148.134 7  84264298.93748  20578202.32448
  21326381.477 6 112070891.233 6  87328007.40949  21326391.62149
  20722213.258 6 108895965.006 6  84854034.74249  20722222.52349
  21859271.531 5 114871248.594 5  89510083.42347  21859277.45747
 20  5 16  0 25  7.0000000  0  7G04G08G14G16G26G27G31               -0.000394617
  22053351.344 6 115891138.947 6  90304819.34048  22053359.68448
  22828698.297 2 119965637.400 2  93479759.44647  22828710.00447
  22482871.805 6 118148286.742 6  92063621.77047  22482878.87547
  20578289.086 7 108139635.185 7  84264678.46048  20578295.03548
  21326694.102 6 112072532.981 6  87329286.68749  21326704.14149
  20721787.367 6 108893729.055 6  84852292.44549  20721797.14149
  21859497.930 5 114872436.599 5  89511009.15546  21859503.89546
 20  5 16  0 25  8.0000000  0  7G04G08G14G16G26G27G31               -0.000394596
  22052943.273 6 115888996.461 6  90303149.87048  22052951.46148
  22828040.992 1 119962183.495 1  93477068.08747  22828052.98847
  22483501.086 6 118151594.479 6  92066199.23447  22483508.78547
  20578381.602 7 108140122.801 7  84265058.41648  20578387.78948
  21327006.445 6 112074175.124 6  87330566.27749  21327016.82049
  20721362.664 7 108891493.969 7  84850550.81849  20721371.79749
  21859724.539 5 114873625.142 5  89511935.28147  21859730.16847
 20  5 16  0 25  9.0000000  0  7G04G08G14G16G26G27G31               -0.000394573
  22052535.688 6 115886854.729 6  90301480.98948  22052544.43448
  22827384.008 2 119958730.022 2  93474377.06047  22827395.51247
  22484130.563 6 118154902.777 6  92068777.13447  22484138.11747
  20578474.703 7 108140611.014 7  84265438.84148  20578480.56348
  21327319.125 6 112075817.610 6  87331846.13749  21327329.17649
  20720937.188 6 108889259.679 6  84848809.81049  20720946.77349
  21859949.609 5 114874814.213 5  89512861.83347  21859956.50047
 20  5 16  0 25 10.0000000  0  7G04G08G14G16G26G27G31               -0.000394550
  22052128.148 6 115884713.900 6  90299812.81348  22052137.14548
  22826726.867 2 119955277.263 2  93471686.59947  22826738.83247
  22484760.313 6 118158211.759 6  92071355.55547  22484767.85247
  20578567.531 7 108141099.904 7  84265819.79648  20578573.69948
  21327631.289 6 112077460.579 6  87333126.37449  21327641.60549
  20720512.297 6 108887026.381 6  84847069.58349  20720521.86749
  21860176.672 5 114876003.912 5  89513788.87047  21860182.78547
 20  5 16  0 25 11.0000000  0  7G04G08G14G16G26G27G31               -0.000394527
  22051720.680 6 115882573.926 6  90298145.30148  22051729.87548
  22826070.648 2 119951825.081 2  93468996.59547  22826081.86347
  22485389.695 6 118161521.377 6  92073934.47347  22485397.50847
  20578661.031 7 108141589.473 7  84266201.27848  20578667.01248
  21327944.305 6 112079104.004 6  87334406.96449  21327954.81349
  20720087.484 6 108884793.983 6  84845330.05049  20720097.16049
  21860403.117 5 114877194.218 5  89514716.37347  21860409.40647
 20  5 16  0 25 12.0000000  0  7G04G08G14G16G26G27G31               -0.000394506
  22051313.703 6 115880434.702 6  90296478.37148  22051322.60948
  22825414.063 2 119948373.413 2  93466306.99048  22825424.87548
  22486019.969 6 118164831.560 6  92076513.83647  22486027.90247
  20578754.070 7 108142079.578 7  84266583.18048  20578760.56348
  21328256.953 6 112080747.792 6  87335687.83449  21328267.32449
  20719662.680 6 108882562.429 6  84843591.18049  20719672.21549
  21860629.383 5 114878385.053 5  89515644.30446  21860636.16046
 20  5 16  0 25 13.0000000  0  7G04G08G14G16G26G27G31               -0.000394484
  22050906.930 6 115878296.098 6  90294811.92748  22050915.83648
  22824757.289 2 119944922.171 2  93463617.71148  22824767.87148
  22486649.461 6 118168142.159 6  92079093.51447  22486657.67247
  20578847.266 7 108142570.145 7  84266965.43848  20578854.01648
  21328569.672 6 112082391.775 6  87336968.86249  21328580.02349
  20719238.172 7 108880331.559 7  84841852.83949  20719248.21149
  21860856.266 5 114879576.318 5  89516572.58346  21860862.45346
 20  5 16  0 25 14.0000000  0  7G04G08G14G16G26G27G31               -0.000394459
  22050500.023 6 115876158.348 6  90293146.14948  22050508.95748
  22824100.352 2 119941471.479 2  93460928.85448  22824111.29748
  22487280.250 6 118171453.364 6  92081673.67647  22487288.39847
  20578940.922 7 108143061.353 7  84267348.20248  20578947.32848
  21328883.000 6 112084036.229 6  87338250.25749  21328892.84849
  20718813.828 7 108878101.591 7  84840115.19749  20718823.72749
  21861083.242 5 114880768.178 5  89517501.31047  21861089.53147
 20  5 16  0 25 15.0000000  0  7G04G08G14G16G26G27G31               -0.000394436
  22050093.508 6 115874021.302 6  90291480.92148  22050102.29748
  22823443.461 2 119938021.258 2  93458240.37148  22823454.85948
  22487910.289 6 118174765.118 6  92084254.26147  22487918.16047
  20579034.688 7 108143553.082 7  84267731.36948  20579040.39148
  21329196.039 6 112085680.970 6  87339531.87349  21329206.00049
  20718389.734 7 108875872.420 7  84838378.18349  20718399.44149
  21861309.922 5 114881960.453 5  89518430.34347  21861316.26247
 20  5 16  0 25 16.0000000  0  7G04G08G14G16G26G27G31               -0.000394413
  22049686.617 6 115871885.005 6  90289816.27548  22049695.55548
  22822787.453 2 119934571.577 2  93455552.30748  22822798.18848
  22488540.805 6 118178077.374 6  92086835.23647  22488548.68047
  20579128.305 7 108144045.354 7  84268114.95448  20579134.37948
  21329508.734 6 112087326.042 6  87340813.74449  21329519.03949
  20717965.820 6 108873644.054 6  84836641.78649  20717975.19949
  21861536.867 5 114883153.316 5  89519359.83647  21861543.00847
 20  5 16  0 25 17.0000000  0  7G04G08G14G16G26G27G31               -0.000394390
  22049280.414 6 115869749.445 6  90288152.20648  22049289.13748
  22822130.883 2 119931122.413 2  93452864.64548  22822141.94948
  22489171.219 6 118181390.159 6  92089416.62347  22489178.70747
  20579221.891 7 108144538.172 7  84268498.97148  20579228.46548
  21329822.352 6 112088971.477 6  87342095.90449  21329832.19149
  20717542.086 6 108871416.492 6  84834906.03049  20717551.41449
  21861764.008 5 114884346.642 5  89520289.69346  21861770.41846
 20  5 16  0 25 18.0000000  0  7G04G08G14G16G26G27G31               -0.000394367
  22048873.938 6 115867614.666 6  90286488.74348  22048883.04748
  22821474.508 2 119927673.771 2  93450177.39248  22821485.60548
  22489801.477 6 118184703.528 6  92091998.47047  22489809.33247
  20579315.820 7 108145031.563 7  84268883.42748  20579322.28948
  21330135.094 6 112090617.248 6  87343378.31949  21330145.84849
  20717118.547 6 108869189.758 6  84833170.90749  20717127.59049
  21861990.836 5 114885540.484 5  89521219.95846  21861997.32846
 20  5 16  0 25 19.0000000  0  7G04G08G14G16G26G27G31               -0.000394342
  22048468.469 6 115865480.693 6  90284825.90248  22048477.27748
  22820817.922 2 119924225.695 2  93447490.57448  22820829.44548
  22490432.008 6 118188017.490 6  92094580.77247  22490440.20747
  20579409.875 7 108145525.587 7  84269268.38248  20579416.27348
  21330448.430 6 112092263.443 6  87344661.07549  21330458.92249
  20716694.719 6 108866963.932 6  84831436.50049  20716703.80549
  21862218.430 5 114886734.934 5  89522150.70347  21862224.56347
 20  5 16  0 25 20.0000000  0  7G04G08G14G16G26G27G31               -0.000394318
  22048062.164 6 115863347.427 6  90283163.61748  22048070.52748
  22820162.617 2 119920778.081 2  93444804.12548  22820173.37148
  22491062.789 6 118191331.942 6  92097163.46047  22491070.93847
  20579503.930 7 108146020.110 7  84269653.72548  20579510.64548
  21330761.703 6 112093909.938 6  87345944.05649  21330772.08249
  20716271.172 6 108864738.844 6  84829702.66749  20716280.48049
  21862445.773 5 114887929.807 5  89523081.77347  21862452.33647
 20  5 16  0 25 21.0000000  0  7G04G08G14G16G26G27G31               -0.000394295
  22047656.594 6 115861215.049 6  90281502.02648  22047665.45748
  22819505.680 3 119917331.162 3  93442118.21848  22819517.27348
  22491693.859 6 118194647.068 6  92099746.67247  22491701.65247
  20579597.852 7 108146515.334 7  84270039.61048  20579604.51248
  21331075.305 6 112095556.901 6  87347227.40249  21331085.46149
  20715847.695 6 108862514.717 6  84827969.57849  20715857.30949
  21862672.375 5 114889125.346 5  89524013.37046  21862679.44146
 20  5 16  0 25 22.0000000  0  7G04G08G14G16G26G27G31               -0.000394270
  22047250.781 6 115859083.379 6  90279840.98748  22047259.53548
  22818850.563 2 119913884.668 2  93439432.63848  22818861.64548
  22492324.828 6 118197962.720 6  92102330.29647  22492332.37547
  20579692.758 7 108147011.086 7  84270425.90748  20579698.91448
  21331388.719 6 112097204.199 6  87348511.00849  21331398.95749
  20715424.492 6 108860291.402 6  84826237.12349  20715434.24649
  21862900.797 5 114890321.371 5  89524945.34047  21862907.13747
 20  5 16  0 25 23.0000000  0  7G04G08G14G16G26G27G31               -0.000394245
  22046845.328 6 115856952.432 6  90278180.50948  22046853.99248
  22818194.445 2 119910438.683 2  93436747.44948  22818205.52748
  22492955.664 6 118201278.864 6  92104914.30347  22492963.68847
  20579786.992 7 108147507.353 7  84270812.61348  20579793.21548
  21331702.695 6 112098851.795 6  87349794.84549  21331712.25449
  20715001.906 6 108858068.862 6  84824505.27149  20715011.48049
  21863128.805 5 114891517.889 5  89525877.68447  21863135.35547
 20  5 16  0 25 24.0000000  0  7G04G08G14G16G26G27G31               -0.000394220
  22046439.969 6 115854822.232 6  90276520.61348  22046448.68448
  22817538.313 2 119906993.242 2  93434062.69748  22817550.35948
  22493586.547 6 118204595.559 6  92107498.73947  22493594.62947
  20579881.508 7 108148004.171 7  84271199.74448  20579888.02348
  21332015.648 6 112100499.728 6  87351078.95049  21332025.93849
  20714579.000 6 108855847.142 6  84822774.06149  20714588.32449
  21863356.539 5 114892714.912 5  89526810.43546  21863362.88746
 20  5 16  0 25 25.0000000  0  7G04G08G14G16G26G27G31               -0.000394196
  22046034.469 6 115852692.725 6  90274861.25448  22046043.30548
  22816882.922 2 119903548.211 2  93431378.26248  22816894.58248
  22494218.094 6 118207912.737 6  92110083.55947  22494225.81347
  20579976.203 7 108148501.480 7  84271587.25548  20579982.59048
  21332329.258 6 112102147.964 6  87352363.28749  21332339.95349
  20714156.586 6 108853626.174 6  84821043.43849  20714166.06349
  21863584.867 5 114893912.382 5  89527743.52147  21863590.81647
 20  5 16  0 25 26.0000000  0  7G04G08G14G16G26G27G31               -0.000394171
  22045629.664 6 115850564.023 6  90273202.52148  22045638.64548
  22816227.828 2 119900103.791 2  93428694.29848  22816238.84848
  22494849.633 6 118211230.504 6  92112668.83447  22494857.28547
  20580071.344 7 108148999.416 7  84271975.25848  20580077.53948
  21332642.695 6 112103796.582 6  87353647.92349  21332653.57849
  20713734.000 6 108851406.078 6  84819313.49349  20713743.46949
  21863812.273 5 114895110.424 5  89528677.06247  21863818.98447
 20  5 16  0 25 27.0000000  0  7G04G08G14G16G26G27G31               -0.000394146
  22045224.945 6 115848435.989 6  90271544.31448  22045233.78548
  22815572.875 3 119896659.703 3  93426010.59048  22815583.56348
  22495480.648 6 118214548.716 6  92115254.44747  22495488.79347
  20580165.719 7 108149497.791 7  84272363.60348  20580172.01648
  21332956.805 6 112105445.453 6  87354932.75949  21332967.38349
  20713311.734 6 108849186.705 6  84817584.10749  20713320.71549
  21864040.289 5 114896308.875 5  89529610.92046  21864046.89546
 20  5 16  0 25 28.0000000  0  7G04G08G14G16G26G27G31               -0.000394121
  22044820.063 6 115846308.695 6  90269886.68448  22044828.63348
  22814917.352 2 119893216.159 2  93423327.30448  22814928.46148
  22496112.430 6 118217867.461 6  92117840.48247  22496120.53947
  20580260.570 7 108149996.748 7  84272752.40248  20580267.03548
  21333270.813 6 112107094.668 6  87356217.86249  21333281.09449
  20712889.445 7 108846968.158 7  84815855.37049  20712898.52349
  21864268.031 5 114897507.805 5  89530545.15346  21864275.14846
 20  5 16  0 25 29.0000000  0  7G04G08G14G16G26G27G31               -0.000394094
  22044415.688 6 115844182.106 6  90268229.59648  22044424.09848
  22814262.164 2 119889773.067 2  93420644.37248  22814273.35248
  22496743.852 6 118221186.716 6  92120426.91447  22496752.14547
  20580355.617 7 108150496.188 7  84273141.57548  20580362.48448
  21333584.984 6 112108744.177 6  87357503.19649  21333594.99249
  20712467.430 7 108844750.372 7  84814127.22949  20712476.65249
  21864496.125 5 114898707.223 5  89531479.77346  21864503.07846
 20  5 16  0 25 30.0000000  0  7G04G08G14G16G26G27G31               -0.000394070
  22044010.828 6 115842056.384 6  90266573.19248  22044019.68848
  22813607.781 3 119886330.642 3  93417961.96148  22813617.75448
  22497375.828 6 118224506.616 6  92123013.85147  22497383.98847
  20580450.992 7 108150996.322 7  84273531.29148  20580457.19948
  21333898.734 6 112110394.151 6  87358788.89049  21333909.00049
  20712045.438 7 108842533.547 7  84812399.83349  20712054.40249
  21864724.688 5 114899907.307 5  89532414.90746  21864731.45346
 20  5 16  0 25 31.0000000  0  7G04G08G14G16G26G27G31               -0.000394043
  22043606.711 6 115839931.400 6  90264917.35748  22043615.03548
  22812952.086 3 119882888.699 3  93415279.92648  22812962.95748
  22498007.461 6 118227827.035 6  92125601.18647  22498015.47347
  20580546.102 7 108151496.970 7  84273921.40248  20580552.59848
  21334212.672 6 112112044.473 6  87360074.84949  21334223.49249
  20711623.727 6 108840317.496 6  84810673.04049  20711632.89549
  21864953.211 5 114901107.873 5  89533350.42147  21864959.77047
 20  5 16  0 25 32.0000000  0  7G04G08G14G16G26G27G31               -0.000394018
  22043202.367 6 115837807.106 6  90263262.06448  22043211.02748
  22812297.055 3 119879447.242 3  93412598.27448  22812308.43848
  22498639.578 6 118231147.956 6  92128188.91847  22498647.59047
  20580641.266 7 108151998.153 7  84274311.93848  20580647.73048
  21334526.875 6 112113695.065 6  87361361.02549  21334537.17649
  20711202.680 7 108838102.214 7  84808946.84349  20711211.17249
  21865181.398 5 114902308.891 5  89534286.27946  21865188.61346
 20  5 16  0 25 33.0000000  0  7G04G08G14G16G26G27G31               -0.000393991
  22042798.234 6 115835683.723 6  90261607.47948  22042806.77048
  22811642.797 3 119876006.405 3  93409917.10648  22811653.27748
  22499271.273 6 118234469.553 6  92130777.17147  22499279.56347
  20580736.969 7 108152500.009 7  84274702.99548  20580743.44548
  21334841.297 6 112115346.148 6  87362647.58349  21334851.01249
  20710781.016 6 108835887.884 6  84807221.39249  20710789.93449
  21865410.641 5 114903510.548 5  89535222.63546  21865417.50846
 20  5 16  0 25 34.0000000  0  7G04G08G14G16G26G27G31               -0.000393965
  22042394.242 6 115833561.003 6  90259953.41048  22042402.95348
  22810987.789 3 119872566.014 3  93407236.27948  22810998.61348
  22499903.680 6 118237791.599 6  92133365.78247  22499911.79747
  20580832.461 7 108153002.348 7  84275094.42548  20580839.23448
  21335155.273 6 112116997.486 6  87363934.34149  21335165.59849
  20710359.516 6 108833674.314 6  84805496.53649  20710368.14849
  21865638.516 5 114904712.646 5  89536159.33347  21865646.06347
 20  5 16  0 25 35.0000000  0  7G04G08G14G16G26G27G31               -0.000393938
  22041990.422 6 115831439.041 6  90258299.93648  22041999.24248
  22810333.117 3 119869126.175 3  93404555.88948  22810343.91048
  22500535.977 6 118241114.184 6  92135954.80547  22500543.64547
  20580928.445 7 108153505.237 7  84275486.29448  20580934.71948
  21335469.805 6 112118649.193 6  87365221.38149  21335480.08649
  20709938.492 6 108831461.565 6  84803772.31349  20709947.50849
  21865867.781 5 114905915.279 5  89537096.45647  21865875.10247
 20  5 16  0 25 36.0000000  0  7G04G08G14G16G26G27G31               -0.000393911
  22041586.789 6 115829317.856 6  90256647.06548  22041595.57448
  22809678.703 3 119865686.846 3  93401875.89448  22809689.61748
  22501168.539 6 118244437.395 6  92138544.32047  22501176.18847
  20581024.039 7 108154008.746 7  84275878.63348  20581030.63348
  21335783.836 6 112120301.277 6  87366508.72149  21335794.46549
  20709517.617 6 108829249.680 6  84802048.76249  20709526.27349
  21866096.680 5 114907118.464 5  89538033.99947  21866103.94147
 20  5 16  0 25 37.0000000  0  7G04G08G14G16G26G27G31               -0.000393885
  22041183.398 6 115827197.485 6  90254994.82348  22041191.87948
  22809024.711 3 119862248.086 3  93399196.34048  22809035.26248
  22501800.680 6 118247761.146 6  92141134.25347  22501808.60247
  20581119.883 7 108154512.828 7  84276271.42748  20581126.40248
  21336098.297 6 112121953.731 6  87367796.35149  21336108.80549
  20709097.273 6 108827038.650 6  84800325.88049  20709105.84449
  21866326.594 5 114908322.182 5  89538971.95447  21866333.09447
 20  5 16  0 25 38.0000000  0  7G04G08G14G16G26G27G31               -0.000393858
  22040779.883 6 115825077.768 6  90253343.09948  22040788.57048
  22808370.375 3 119858809.780 3  93396517.14548  22808380.96548
  22502433.945 6 118251085.383 6  92143724.57047  22502441.32847
  20581215.680 7 108155017.433 7  84276664.62248  20581222.34848
  21336412.734 6 112123606.484 6  87369084.20549  21336423.49649
  20708676.219 6 108824828.375 6  84798603.58849  20708685.26649
  21866555.117 5 114909526.350 5  89539910.25847  21866562.22747
 20  5 16  0 25 39.0000000  0  7G04G08G14G16G26G27G31               -0.000393831
  22040376.883 6 115822958.896 6  90251692.02748  22040385.39548
  22807716.016 3 119855372.025 3  93393838.36948  22807726.72348
  22503066.172 6 118254410.221 6  92146315.35447  22503074.00847
  20581312.281 7 108155522.595 7  84277058.26548  20581318.42248
  21336727.148 6 112125259.623 6  87370372.36949  21336737.83249
  20708255.977 6 108822618.955 6  84796881.96649  20708264.76249
  21866783.977 5 114910731.083 5  89540849.01946  21866791.63346
 20  5 16  0 25 40.0000000  0  7G04G08G14G16G26G27G31               -0.000393803
  22039973.578 6 115820840.715 6  90250041.49948  22039982.21148
  22807062.336 3 119851934.777 3  93391159.99548  22807072.93048
  22503698.766 6 118257735.535 6  92148906.50647  22503706.75447
  20581408.328 7 108156028.287 7  84277452.31048  20581414.73048
  21337041.938 6 112126913.054 6  87371660.75249  21337052.16849
  20707835.477 6 108820410.318 6  84795160.94749  20707844.14849
  21867013.898 5 114911936.299 5  89541788.14647  21867020.93047
 20  5 16  0 25 41.0000000  0  7G04G08G14G16G26G27G31               -0.000393776
  22039570.508 6 115818723.227 6  90248391.50548  22039579.31648
  22806407.859 3 119848498.031 3  93388482.00948  22806418.94548
  22504331.836 6 118261061.368 6  92151498.06347  22504339.34847
  20581504.602 7 108156534.500 7  84277846.76548  20581510.71948
  21337356.742 6 112128566.797 6  87372949.38849  21337367.09049
  20707415.703 6 108818202.479 6  84793440.55449  20707424.27349
  21867243.359 5 114913141.984 5  89542727.64047  21867250.38347
 20  5 16  0 25 42.0000000  0  7G04G08G14G16G26G27G31               -0.000393749
  22039167.898 6 115816606.606 6  90246742.18848  22039176.44548
  22805754.383 3 119845061.856 3  93385804.47548  22805764.30548
  22504965.156 6 118264387.808 6  92154090.09147  22504972.88747
  20581600.773 7 108157041.361 7  84278241.71948  20581607.52348
  21337671.445 6 112130220.965 6  87374238.35149  21337682.27049
  20706995.680 6 108815995.532 6  84791720.85449  20707004.20349
  21867473.031 5 114914348.237 5  89543667.57947  21867480.43847
 20  5 16  0 25 43.0000000  0  7G04G08G14G16G26G27G31               -0.000393721
  22038765.359 6 115814490.644 6  90245093.39248  22038773.68048
  22805100.523 3 119841626.076 3  93383127.24148  22805111.18048
  22505598.211 6 118267714.712 6  92156682.48147  22505605.85547
  20581697.695 7 108157548.692 7  84278637.04548  20581704.21948
  21337986.242 6 112131875.408 6  87375527.53049  21337996.96549
  20706575.867 6 108813789.332 6  84790001.73549  20706584.49249
  21867701.844 5 114915554.959 5  89544607.88347  21867709.77747
 20  5 16  0 25 44.0000000  0  7G04G08G14G16G26G27G31               -0.000393692
  22038362.523 6 115812375.462 6  90243445.19748  22038370.73848
  22804446.750 3 119838190.888 3  93380450.47548  22804457.09448
  22506231.234 6 118271042.170 6  92159275.30647  22506238.88347
  20581794.172 7 108158056.597 7  84279032.81148  20581800.63748
  21338301.250 6 112133530.201 6  87376816.97849  21338311.86749
  20706156.258 6 108811583.966 6  84788283.27249  20706165.02349
  21867932.055 5 114916762.179 5  89545548.57547  21867939.54747
 20  5 16  0 25 45.0000000  0  7G04G08G14G16G26G27G31               -0.000393665
  22037960.656 6 115810261.053 6  90241797.60448  22037968.81348
  22803793.133 3 119834756.228 3  93377774.11248  22803803.60548
  22506865.047 6 118274370.218 6  92161868.59347  22506872.35247
  20581891.219 7 108158565.082 7  84279429.03948  20581897.35948
  21338616.516 6 112135185.376 6  87378106.72449  21338627.10549
  20705736.695 6 108809379.456 6  84786565.47349  20705745.41049
  21868162.367 5 114917969.955 5  89546489.70347  21868169.39847
 20  5 16  0 25 46.0000000  0  7G04G08G14G16G26G27G31               -0.000393637
  22037558.047 6 115808147.264 6  90240150.49348  22037566.46548
  22803139.445 3 119831321.897 3  93375098.00948  22803150.07048
  22507498.297 6 118277698.646 6  92164462.17347  22507505.66847
  20581987.898 7 108159074.000 7  84279825.60248  20581994.28148
  21338931.273 6 112136840.751 6  87379396.62549  21338941.79349
  20705317.383 6 108807175.632 6  84784848.20949  20705326.12149
  21868391.523 5 114919178.116 5  89547431.12647  21868399.27347
 20  5 16  0 25 47.0000000  0  7G04G08G14G16G26G27G31               -0.000393608
  22037155.570 6 115806034.281 6  90238504.01548  22037164.25848
  22802486.000 3 119827888.196 3  93372422.39648  22802496.59448
  22508131.266 6 118281027.666 6  92167056.21447  22508138.94547
  20582084.914 7 108159583.491 7  84280222.60548  20582091.65248
  21339246.406 6 112138496.535 6  87380686.84849  21339257.05949
  20704897.898 6 108804972.665 6  84783131.60849  20704906.71149
  21868621.875 5 114920386.862 5  89548373.00947  21868629.45747
 20  5 16  0 25 48.0000000  0  7G04G08G14G16G26G27G31               -0.000393579
  22036753.711 6 115803922.021 6  90236858.10348  22036762.39148
  22801832.758 3 119824454.991 3  93369747.17848  22801843.30548
  22508764.906 6 118284357.200 6  92169650.66147  22508772.96147
  20582182.227 7 108160093.549 7  84280620.05548  20582188.18848
  21339561.430 6 112140152.632 6  87381977.31449  21339572.01249
  20704478.492 6 108802770.503 6  84781415.64249  20704487.52349
  21868852.023 5 114921596.057 5  89549315.23447  21868859.46547
 20  5 16  0 25 49.0000000  0  7G04G08G14G16G26G27G31               -0.000393551
  22036352.391 6 115801810.418 6  90235212.69048  22036360.65248
  22801179.656 3 119821022.154 3  93367072.23848  22801190.17648
  22509398.789 6 118287687.179 6  92172245.44647  22509406.32447
  20582278.945 7 108160604.054 7  84281017.84848  20582285.44948
  21339876.930 6 112141808.969 6  87383267.96349  21339887.36349
  20704059.719 6 108800569.063 6  84779700.23349  20704069.01649
  21869082.477 5 114922805.664 5  89550257.78347  21869089.68047
 20  5 16  0 25 50.0000000  0  7G04G08G14G16G26G27G31               -0.000393522
  22035950.594 6 115799699.671 6  90233567.95548  22035958.91448
  22800526.109 3 119817589.955 3  93364397.80148  22800536.90248
  22510032.641 6 118291017.817 6  92174840.74547  22510040.37147
  20582376.180 7 108161115.222 7  84281416.16148  20582382.65248
  21340192.000 6 112143465.760 6  87384558.96849  21340202.29349
  20703640.945 6 108798368.547 6  84777985.54849  20703649.86749
  21869312.445 5 114924015.909 5  89551200.83847  21869320.19947
 20  5 16  0 25 51.0000000  0  7G04G08G14G16G26G27G31               -0.000393494
  22035548.617 6 115797589.674 6  90231923.80148  22035557.31348
  22799873.398 3 119814158.278 3  93361723.76748  22799884.02748
  22510666.383 6 118294348.963 6  92177436.43847  22510673.94147
  20582473.477 7 108161626.956 7  84281814.91548  20582479.99648
  21340506.930 6 112145122.893 6  87385850.24049  21340517.36749
  20703222.203 6 108796168.858 6  84776271.50349  20703231.36349
  21869542.891 5 114925226.676 5  89552144.29347  21869550.62547
 20  5 16  0 25 52.0000000  0  7G04G08G14G16G26G27G31               -0.000393465
  22035147.445 6 115795480.450 6  90230280.25348  22035155.96148
  22799219.906 3 119810727.090 3  93359050.11148  22799230.84448
  22511300.297 6 118297680.683 6  92180032.58347  22511308.24247
  20582571.055 7 108162139.241 7  84282214.09448  20582577.68448
  21340823.016 6 112146780.390 6  87387141.79649  21340832.91449
  20702804.359 6 108793970.004 6  84774558.10649  20702812.97349
  21869773.539 5 114926437.935 5  89553088.12847  21869780.81647
 20  5 16  0 25 53.0000000  0  7G04G08G14G16G26G27G31               -0.000393435
  22034746.156 6 115793371.931 6  90228637.24848  22034755.08248
  22798567.453 3 119807296.364 3  93356376.81948  22798577.66448
  22511934.328 6 118301012.869 6  92182629.09447  22511942.43847
  20582668.695 7 108162652.026 7  84282613.67548  20582674.71948
  21341137.961 6 112148438.157 6  87388433.56149  21341148.77349
  20702385.906 6 108791771.909 6  84772845.30649  20702394.85549
  21870004.383 5 114927649.699 5  89554032.35947  21870011.39547
 20  5 16  0 25 54.0000000  0  7G04G08G14G16G26G27G31               -0.000393406
  22034345.625 6 115791264.244 6  90226994.89648  22034353.65648
  22797914.164 3 119803866.249 3  93353703.99648  22797925.47348
  22512568.672 6 118304345.687 6  92185226.09547  22512576.42647
  20582766.422 7 108163165.459 7  84283013.74748  20582772.71148
  21341453.867 6 112150096.371 6  87389725.67649  21341464.52349
  20701967.992 7 108789574.724 7  84771133.21349  20701977.07449
  21870234.977 5 114928862.020 5  89554977.02447  21870242.19947
 20  5 16  0 25 55.0000000  0  7G04G08G14G16G26G27G31               -0.000393375
  22033944.289 6 115789157.261 6  90225353.09148  22033952.83248
  22797261.664 4 119800436.650 4  93351031.58548  22797272.66448
  22513202.820 6 118307679.007 6  92187823.49247  22513210.86347
  20582864.172 7 108163679.391 7  84283414.21548  20582870.60548
  21341769.289 6 112151754.890 6  87391018.02949  21341779.87949
  20701549.820 6 108787378.306 6  84769421.72449  20701559.03949
  21870465.914 5 114930074.827 5  89555922.08247  21870473.18847
 20  5 16  0 25 56.0000000  0  7G04G08G14G16G26G27G31               -0.000393347
  22033543.656 6 115787051.056 6  90223711.89248  22033552.10548
  22796609.703 3 119797007.538 3  93348359.54548  22796620.28948
  22513837.539 6 118311012.877 6  92190421.31347  22513845.12547
  20582962.055 7 108164193.919 7  84283815.14448  20582968.45748
  21342084.953 6 112153413.768 6  87392310.65949  21342095.90649
  20701131.492 6 108785182.729 6  84767710.88349  20701141.30149
  21870696.531 5 114931288.154 5  89556867.53047  21870704.15647
 20  5 16  0 25 57.0000000  0  7G04G08G14G16G26G27G31               -0.000393316
  22033143.000 6 115784945.561 6  90222071.24848  22033151.38748
  22795957.125 3 119793578.958 3  93345687.92948  22795967.73448
  22514471.813 6 118314347.225 6  92193019.50547  22514480.06647
  20583060.125 7 108164708.938 7  84284216.46048  20583066.99248
  21342400.555 6 112155072.934 6  87393603.51149  21342411.53149
  20700713.867 7 108782987.936 7  84766000.65249  20700723.76249
  21870927.523 5 114932501.944 5  89557813.34047  21870934.92647
 20  5 16  0 25 58.0000000  0  7G04G08G14G16G26G27G31               -0.000393286
  22032742.125 6 115782840.858 6  90220431.22348  22032751.23048
  22795304.602 4 119790150.817 4  93343016.65248  22795315.40648
  22515106.000 6 118317682.127 6  92195618.12747  22515114.47747
  20583158.141 7 108165224.539 7  84284618.22548  20583164.73048
  21342716.461 6 112156732.459 6  87394896.64649  21342727.23049
  20700296.492 7 108780793.983 7  84764291.08549  20700306.13349
  21871158.594 5 114933716.262 5  89558759.56347  21871166.35247
 20  5 16  0 25 59.0000000  0  7G04G08G14G16G26G27G31               -0.000393257
  22032342.141 6 115780736.845 6  90218791.73148  22032350.90248
  22794652.914 4 119786723.258 4  93340345.82448  22794663.35948
  22515741.281 6 118321017.572 6  92198217.17447  22515748.95747
  20583256.273 7 108165740.662 7  84285020.39748  20583263.24248
  21343031.734 6 112158392.312 6  87396190.04349  21343043.10949
  20699879.445 6 108778600.813 6  84762582.12249  20699888.90249
  21871389.914 5 114934931.093 5  89559706.17547  21871397.03147
 20  5 16  0 26  0.0000000  0  7G04G08G14G16G26G27G31               -0.000393227
  22031941.977 6 115778633.609 6  90217152.84748  22031950.79748
  22794000.414 4 119783296.234 4  93337675.41348  22794011.23848
  22516375.531 6 118324353.538 6  92200816.62847  22516383.98447
  20583354.688 7 108166257.358 7  84285423.01948  20583361.74648
  21343348.094 6 112160052.516 6  87397483.70149  21343358.75849
  20699461.930 7 108776408.493 7  84760873.82149  20699471.41049
  21871621.453 4 114936146.442 4  89560653.19947  21871628.54347
 20  5 16  0 26  1.0000000  0  7G04G08G14G16G26G27G31               -0.000393196
  22031541.633 6 115776531.162 6  90215514.57248  22031550.26648
  22793348.406 3 119779869.720 3  93335005.40648  22793358.85548
  22517010.547 6 118327690.096 6  92203416.54947  22517018.77747
  20583452.883 7 108166774.620 7  84285826.07848  20583459.53948
  21343664.367 6 112161713.090 6  87398777.65549  21343675.37949
  20699045.938 6 108774217.037 6  84759166.19149  20699054.37949
  21871852.453 4 114937362.339 4  89561600.64547  21871859.85247
 20  5 16  0 26  2.0000000  0  7G04G08G14G16G26G27G31               -0.000393164
  22031141.766 6 115774429.452 6  90213876.87847  22031150.46547
  22792697.102 3 119776443.716 3  93332335.79248  22792706.93448
  22517645.867 6 118331027.162 6  92206016.85747  22517654.19947
  20583551.547 7 108167292.441 7  84286229.57048  20583558.33248
  21343979.773 6 112163373.979 6  87400071.85649  21343991.05149
  20698628.406 6 108772026.349 6  84757459.16549  20698637.97349
  21872084.727 4 114938578.682 4  89562548.44647  21872091.28947
 20  5 16  0 26  3.0000000  0  7G04G08G14G16G26G27G31               -0.000393133
  22030741.883 6 115772328.443 6  90212239.72948  22030750.33248
  22792044.789 3 119773018.197 3  93329666.56148  22792055.52048
  22518280.867 6 118334364.705 6  92208617.53847  22518289.29347
  20583650.664 7 108167810.739 7  84286633.44348  20583657.10948
  21344296.180 6 112165035.166 6  87401366.28849  21344307.24249
  20698211.508 7 108769836.458 7  84755752.75749  20698220.75849
  21872316.711 5 114939795.526 5  89563496.63647  21872322.99647
 20  5 16  0 26  4.0000000  0  7G04G08G14G16G26G27G31               -0.000393103
  22030342.453 6 115770228.024 6  90210603.04148  22030350.80148
  22791393.586 4 119769592.990 4  93326997.56548  22791403.64148
  22518916.156 6 118337702.613 6  92211218.50547  22518924.26647
  20583749.523 7 108168329.455 7  84287037.63648  20583755.85548
  21344612.523 6 112166696.553 6  87402660.87849  21344623.34449
  20697795.445 6 108767647.215 6  84754046.85549  20697804.51649
  21872547.602 4 114941012.739 4  89564445.11747  21872554.51247
 20  5 16  0 26  5.0000000  0  7G04G08G14G16G26G27G31               -0.000393072
  22029942.781 6 115768128.438 6  90208966.99548  22029951.57048
  22790741.484 3 119766168.391 3  93324329.04348  22790751.75048
  22519550.969 6 118341041.135 6  92213819.94847  22519559.36747
  20583847.586 7 108168848.773 7  84287442.29848  20583854.75848
  21344928.977 6 112168358.344 6  87403955.77249  21344939.93449
  20697378.578 6 108765458.865 6  84752341.64749  20697387.91049
  21872779.094 4 114942230.505 4  89565394.01647  21872786.06347
 20  5 16  0 26  6.0000000  0  7G04G08G14G16G26G27G31               -0.000393040
  22029543.672 6 115766029.558 6  90207331.50448  22029551.86748
  22790089.961 4 119762744.285 4  93321660.91248  22790100.11748
  22520186.742 6 118344380.161 6  92216421.78447  22520194.94547
  20583946.602 7 108169368.599 7  84287847.35448  20583953.43048
  21345245.242 6 112170020.400 6  87405250.88149  21345255.84049
  20696962.242 6 108763271.254 6  84750637.01349  20696971.73049
  21873012.219 4 114943448.724 4  89566343.26947  21873018.38347
 20  5 16  0 26  7.0000000  0  7G04G08G14G16G26G27G31               -0.000393009
  22029144.422 6 115763931.409 6  90205696.58348  22029152.66448
  22789438.406 4 119759320.692 4  93318993.17548  22789449.08648
  22520822.055 6 118347719.701 6  92219024.03047  22520830.75847
  20584045.867 7 108169888.983 7  84288252.85148  20584052.22348
  21345561.344 6 112171682.832 6  87406546.28249  21345572.04349
  20696546.055 6 108761084.514 6  84748933.05649  20696555.80549
  21873243.102 4 114944667.494 4  89567292.95447  21873250.40247
 20  5 16  0 26  8.0000000  0  7G04G08G14G16G26G27G31               -0.000392977
  22028745.234 6 115761833.917 6  90204062.17448  22028753.61348
  22788786.750 4 119755897.471 4  93316325.73448  22788797.06648
  22521457.563 6 118351059.692 6  92221626.62447  22521466.09847
  20584144.938 7 108170409.800 7  84288658.68348  20584151.87948
  21345877.688 6 112173345.500 6  87407841.86849  21345888.60249
  20696130.164 6 108758898.475 6  84747229.65049  20696139.91049
  21873475.383 5 114945886.657 5  89568242.95247  21873481.89147
 20  5 16  0 26  9.0000000  0  7G04G08G14G16G26G27G31               -0.000392944
  22028346.281 6 115759737.191 6  90202428.36248  22028354.57448
  22788135.758 4 119752474.792 4  93313658.71048  22788145.97348
  22522093.484 6 118354400.216 6  92224229.62447  22522101.66047
  20584244.273 7 108170931.204 7  84289064.96948  20584250.98048
  21346194.242 6 112175008.489 6  87409137.70149  21346205.28149
  20695714.391 6 108756713.255 6  84745526.88649  20695723.48449
  21873706.938 5 114947106.335 5  89569193.35147  21873713.98447
 20  5 16  0 26 10.0000000  0  7G04G08G14G16G26G27G31               -0.000392914
  22027947.188 6 115757641.189 6  90200795.11048  22027955.70748
  22787485.391 4 119749052.611 4  93310992.07648  22787494.59048
  22522729.242 6 118357741.241 6  92226833.01247  22522737.33647
  20584343.844 7 108171453.124 7  84289471.65848  20584350.27348
  21346511.031 6 112176671.838 6  87410433.81649  21346521.14149
  20695298.859 6 108754528.854 6  84743824.75449  20695307.90249
  21873939.469 5 114948326.477 5  89570144.12447  21873946.33647
 20  5 16  0 26 11.0000000  0  7G04G08G14G16G26G27G31               -0.000392881
  22027548.898 6 115755546.007 6  90199162.50348  22027556.70348
  22786833.977 4 119745630.982 4  93308325.86748  22786843.89848
  22523365.273 6 118361082.862 6  92229436.87247  22523373.86347
  20584442.922 7 108171975.646 7  84289878.81548  20584449.84448
  21346827.680 6 112178335.556 6  87411730.21649  21346838.38749
  20694883.141 6 108752345.318 6  84742123.30149  20694892.71549
  21874171.594 5 114949547.229 5  89571095.35447  21874178.57447
 20  5 16  0 26 12.0000000  0  7G04G08G14G16G26G27G31               -0.000392849
  22027150.031 6 115753451.644 6  90197530.53248  22027158.25848
  22786182.938 4 119742209.954 4  93305660.13548  22786192.63748
  22524000.961 6 118364425.098 6  92232041.20947  22524009.39547
  20584542.398 7 108172498.787 7  84290286.45848  20584549.17248
  21347143.914 6 112179999.686 6  87413026.94249  21347155.01249
  20694467.914 7 108750162.662 7  84740422.52549  20694477.52049
  21874404.586 5 114950768.550 5  89572047.03247  21874410.87147
 20  5 16  0 26 13.0000000  0  7G04G08G14G16G26G27G31               -0.000392817
  22026751.766 6 115751357.967 6  90195899.09848  22026759.84448
  22785532.320 4 119738789.363 4  93302994.74248  22785541.43448
  22524637.500 6 118367767.806 6  92234645.91547  22524645.45347
  20584641.938 7 108173022.435 7  84290694.49548  20584648.28948
  21347460.492 6 112181664.106 6  87414323.89349  21347471.98449
  20694052.453 6 108747980.787 6  84738722.36949  20694061.93049
  21874637.086 5 114951990.302 5  89572999.05047  21874643.18047
 20  5 16  0 26 14.0000000  0  7G04G08G14G16G26G27G31               -0.000392784
  22026353.289 6 115749265.040 6  90194268.24248  22026361.58648
  22784881.344 4 119735369.260 4  93300329.72648  22784890.93048
  22525273.328 6 118371111.002 6  92237251.00547  22525281.44947
  20584741.953 7 108173546.611 7  84291102.94948  20584748.61348
  21347777.461 6 112183328.847 6  87415621.09049  21347788.51649
  20693637.609 6 108745799.688 6  84737022.80849  20693646.97749
  21874869.547 5 114953212.564 5  89573951.46247  21874875.71547
 20  5 16  0 26 15.0000000  0  7G04G08G14G16G26G27G31               -0.000392752
  22025955.430 6 115747172.858 6  90192637.97748  22025963.25048
  22784230.875 4 119731949.689 4  93297665.11748  22784240.59848
  22525909.586 6 118374454.771 6  92239856.53647  22525917.81647
  20584841.813 7 108174071.316 7  84291511.80748  20584848.56648
  21348094.273 6 112184993.898 6  87416918.53049  21348105.09849
  20693222.219 6 108743619.430 6  84735323.91049  20693231.89149
  21875102.242 5 114954435.320 5  89574904.25447  21875108.71947
 20  5 16  0 26 16.0000000  0  7G04G08G14G16G26G27G31               -0.000392717
  22025557.148 6 115745081.446 6  90191008.30048  22025565.53948
  22783579.797 4 119728530.668 4  93295000.94548  22783589.42648
  22526546.219 6 118377799.052 6  92242462.47347  22526553.98047
  20584942.047 7 108174596.611 7  84291921.12548  20584948.11748
  21348411.023 6 112186659.362 6  87418216.29449  21348422.05949
  20692807.523 6 108741439.999 6  84733625.65349  20692817.21549
  21875335.266 5 114955658.653 5  89575857.48847  21875341.21947
 20  5 16  0 26 17.0000000  0  7G04G08G14G16G26G27G31               -0.000392685
  22025159.094 6 115742990.801 6  90189379.22648  22025167.59448
  22782929.758 4 119725112.134 4  93292337.15448  22782939.27348
  22527182.727 6 118381143.922 6  92245068.85847  22527190.62147
  20585042.297 7 108175122.464 7  84292330.88348  20585048.53148
  21348728.563 6 112188325.146 6  87419514.30249  21348739.47749
  20692393.539 6 108739261.418 6  84731928.05949  20692402.53549
  21875567.641 5 114956882.485 5  89576811.11847  21875574.55947
 20  5 16  0 26 18.0000000  0  7G04G08G14G16G26G27G31               -0.000392651
  22024761.766 6 115740900.789 6  90187750.64548  22024769.55948
  22782279.094 4 119721694.081 4  93289673.73748  22782288.96548
  22527819.492 6 118384489.191 6  92247675.56447  22527827.39147
  20585141.969 7 108175648.764 7  84292740.98448  20585148.59448
  21349045.516 6 112189991.152 6  87420812.48949  21349056.07849
  20691978.922 6 108737083.544 6  84730231.01749  20691988.44549
  21875800.766 4 114958106.694 4  89577765.05147  21875807.67647
 20  5 16  0 26 19.0000000  0  7G04G08G14G16G26G27G31               -0.000392618
  22024364.016 6 115738811.380 6  90186122.53248  22024372.08648
  22781628.664 4 119718276.334 4  93287010.56048  22781638.13348
  22528455.758 6 118387834.833 6  92250282.55147  22528463.66447
  20585242.016 6 108176175.437 6  84293151.38348  20585248.77048
  21349362.695 6 112191657.347 6  87422110.81849  21349373.64549
  20691564.844 6 108734906.304 6  84728534.46649  20691574.03549
  21876033.625 5 114959331.308 5  89578719.29147  21876040.55147
 20  5 16  0 26 20.0000000  0  7G04G08G14G16G26G27G31               -0.000392584
  22023966.688 6 115736722.665 6  90184494.96348  22023974.57848
  22780978.508 4 119714859.073 4  93284347.76348  22780987.77048
  22529092.109 6 118391180.957 6  92252889.92047  22529100.86347
  20585342.422 6 108176702.593 6  84293562.15448  20585349.18848
  21349679.570 6 112193323.830 6  87423409.37749  21349690.53149
  20691150.758 6 108732729.846 6  84726838.52549  20691159.89549
  21876266.664 5 114960556.316 5  89579673.83747  21876273.57447
 20  5 16  0 26 21.0000000  0  7G04G08G14G16G26G27G31               -0.000392551
  22023568.813 6 115734634.716 6  90182867.99148  22023577.35548
  22780328.266 4 119711442.310 4  93281685.34948  22780337.83648
  22529729.148 6 118394527.635 6  92255497.71147  22529737.43047
  20585442.852 6 108177230.354 6  84293973.39648  20585449.89848
  21349997.063 6 112194990.672 6  87424708.21449  21350008.15249
  20690736.477 6 108730554.229 6  84725143.23449  20690746.14549
  21876500.445 5 114961781.890 5  89580628.82847  21876506.98447
 20  5 16  0 26 22.0000000  0  7G04G08G14G16G26G27G31               -0.000392517
  22023172.453 6 115732547.470 6  90181241.56348  22023180.19148
  22779677.781 4 119708026.058 4  93279023.33448  22779687.87148
  22530366.070 6 118397874.776 6  92258105.86747  22530374.35947
  20585543.508 6 108177758.583 6  84294385.00948  20585550.30148
  21350314.359 6 112196657.803 6  87426007.27949  21350325.10249
  20690322.461 6 108728379.374 6  84723448.54649  20690332.29349
  21876733.461 5 114963007.890 5  89581584.14947  21876739.99247
 20  5 16  0 26 23.0000000  0  7G04G08G14G16G26G27G31               -0.000392483
  22022775.000 6 115730460.981 6  90179615.73048  22022783.14148
  22779027.930 4 119704610.280 4  93276361.68948  22779037.99248
  22531003.641 6 118401222.478 6  92260714.47147  22531011.56347
  20585644.305 6 108178287.394 6  84294797.06948  20585650.38348
  21350631.195 6 112198325.256 6  87427306.59249  21350642.31349
  20689908.797 6 108726205.367 6  84721754.51349  20689918.51649
  21876966.945 5 114964234.429 5  89582539.89147  21876973.69947
 20  5 16  0 26 24.0000000  0  7G04G08G14G16G26G27G31               -0.000392450
  22022378.188 6 115728375.312 6  90177990.53048  22022385.95748
  22778378.320 4 119701195.110 4  93273700.51748  22778388.12948
  22531640.531 6 118404570.767 6  92263323.52947  22531649.11347
  20585744.938 6 108178816.793 6  84295209.58448  20585751.50048
  21350948.703 6 112199993.146 6  87428606.24549  21350959.82449
  20689495.367 6 108724032.202 6  84720061.13749  20689504.77749
  21877201.086 5 114965461.559 5  89583496.09547  21877207.04747
 20  5 16  0 26 25.0000000  0  7G04G08G14G16G26G27G31               -0.000392416
  22021981.664 6 115726290.455 6  90176365.96548  22021989.47748
  22777728.602 4 119697780.480 4  93271039.75948  22777738.29348
  22532278.063 6 118407919.638 6  92265933.03647  22532286.36747
  20585846.180 7 108179346.796 7  84295622.57648  20585852.41448
  21351265.891 6 112201661.389 6  87429906.17649  21351277.36749
  20689081.625 7 108721859.938 7  84718368.46049  20689091.74249
  21877434.156 5 114966689.193 5  89584452.68847  21877440.56647
 20  5 16  0 26 26.0000000  0  7G04G08G14G16G26G27G31               -0.000392380
  22021585.188 6 115724206.314 6  90174741.95748  22021593.38348
  22777078.813 4 119694366.414 4  93268379.44548  22777088.39148
  22532915.172 6 118411268.997 6  92268542.91947  22532923.36747
  20585946.797 7 108179877.320 7  84296035.97048  20585953.04348
  21351583.414 6 112203329.967 6  87431206.36049  21351594.89849
  20688668.352 6 108719688.450 6  84716676.39549  20688678.01649
  21877667.594 5 114967917.323 5  89585409.66047  21877674.00047
 20  5 16  0 26 27.0000000  0  7G04G08G14G16G26G27G31               -0.000392345
  22021188.523 6 115722122.830 6  90173118.46748  22021196.76648
  22776429.336 4 119690952.685 4  93265719.40248  22776439.07448
  22533552.727 6 118414618.804 6  92271153.15147  22533561.00847
  20586047.641 7 108180408.307 7  84296449.72948  20586054.23048
  21351901.320 6 112204998.782 6  87432506.73749  21351912.18849
  20688256.055 6 108717517.707 6  84714984.90249  20688265.13349
  21877901.641 5 114969145.904 5  89586366.99847  21877907.97747
 20  5 16  0 26 28.0000000  0  7G04G08G14G16G26G27G31               -0.000392311
  22020792.117 6 115720039.979 6  90171495.46548  22020800.10248
  22775779.586 4 119687539.400 4  93263059.70048  22775789.26648
  22534189.953 6 118417969.037 6  92273763.72247  22534198.44947
  20586149.141 7 108180939.703 7  84296863.80248  20586155.30948
  21352218.836 6 112206667.821 6  87433807.28649  21352230.37949
  20687843.328 6 108715347.656 6  84713293.95449  20687852.38349
  21878134.875 5 114970374.839 5  89587324.61047  21878141.84847
 20  5 16  0 26 29.0000000  0  7G04G08G14G16G26G27G31               -0.000392277
  22020395.914 6 115717957.841 6  90169873.02348  22020403.83648
  22775130.164 4 119684126.561 4  93260400.35448  22775139.62148
  22534827.828 6 118421319.751 6  92276374.67047  22534836.03947
  20586250.164 7 108181471.635 7  84297278.29848  20586256.59848
  21352536.227 6 112208337.160 6  87435108.07549  21352547.47349
  20687430.148 6 108713178.389 6  84711603.61749  20687439.22349
  21878369.023 5 114971604.242 5  89588282.59747  21878375.82447
 20  5 16  0 26 30.0000000  0  7G04G08G14G16G26G27G31               -0.000392242
  22019999.844 6 115715876.466 6  90168251.16948  22020007.71948
  22774482.492 4 119680714.530 4  93257741.61747  22774490.95747
  22535465.516 4 118424670.955 4  92278986.00046  22535473.75046
  20586350.781 6 108182004.127 6  84297693.22048  20586357.84848
  21352854.273 6 112210006.862 6  87436409.13949  21352865.71549
  20687018.141 6 108711010.081 6  84709914.03249  20687027.29749
  21878602.539 5 114972834.184 5  89589240.99046  21878610.06346
 20  5 16  0 26 31.0000000  0  7G04G08G14G16G26G27G31               -0.000392206
  22019603.805 6 115713795.817 6  90166629.85748  22019611.47348
  22773833.563 3 119677302.744 3  93255083.07146  22773842.04346
  22536103.852 3 118428022.695 3  92281597.82046  22536111.99646
  20586452.773 7 108182537.132 7  84298108.53648  20586459.37148
  21353171.961 6 112211676.841 6  87437710.43949  21353183.43849
  20686605.266 6 108708842.430 6  84708224.94749  20686615.24649
  21878836.625 5 114974064.583 5  89590199.76446  21878843.88346
 20  5 16  0 26 32.0000000  0  7G04G08G14G16G26G27G31               -0.000392172
  22019208.070 6 115711715.857 6  90165009.08547  22019216.51647
  22773184.734 3 119673891.427 3  93252424.97246  22773192.89846
  22536741.273 4 118431374.943 4  92284209.97246  22536749.76246
  20586554.500 6 108183070.629 6  84298524.24048  20586560.71548
  21353489.828 6 112213347.124 6  87439011.95749  21353501.48049
  20686192.344 6 108706675.562 6  84706536.46549  20686203.30949
  21879071.469 5 114975295.477 5  89591158.92846  21879078.18846
 20  5 16  0 26 33.0000000  0  7G04G08G14G16G26G27G31               -0.000392136
  22018812.328 6 115709636.596 6  90163388.87047  22018820.59847
  22772535.914 2 119670480.526 2  93249767.22146  22772543.62546
  22537378.844 5 118434727.671 5  92286822.47745  22537387.49245
  20586655.875 7 108183604.618 7  84298940.33948  20586662.50448
  21353807.750 6 112215017.685 6  87440313.69249  21353819.15649
  20685780.313 6 108704509.438 6  84704848.57249  20685791.00849
  21879305.820 5 114976526.787 5  89592118.41246  21879312.56646
 20  5 16  0 26 34.0000000  0  7G04G08G14G16G26G27G31               -0.000392101
  22018417.250 6 115707558.109 6  90161769.27247  22018424.53947
  22771888.547 2 119667070.150 2  93247109.81546  22771895.79746
  22538017.703 5 118438080.882 5  92289435.34045  22538025.98045
  20586757.766 7 108184139.151 7  84299356.86148  20586764.00048
  21354126.023 6 112216688.570 6  87441615.67749  21354137.00849
  20685368.180 6 108702344.133 6  84703161.31949  20685378.23849
  21879539.313 5 114977758.625 5  89593078.28846  21879547.04346
 20  5 16  0 26 35.0000000  0  7G04G08G14G16G26G27G31               -0.000392065
  22018021.867 6 115705480.359 6  90160150.24947  22018029.57047
  22771239.102 2 119663660.307 2  93244452.79346  22771246.95346
  22538655.883 5 118441434.633 5  92292048.63245  22538664.28945
  20586859.570 7 108184674.235 7  84299773.81748  20586865.81348
  21354444.023 6 112218359.813 6  87442917.93949  21354455.28949
  20684957.313 6 108700179.678 6  84701474.73049  20684966.44149
  21879774.586 5 114978990.968 5  89594038.55246  21879781.26646
 20  5 16  0 26 36.0000000  0  7G04G08G14G16G26G27G31               -0.000392029
  22017626.383 6 115703403.331 6  90158531.79747  22017634.07847
  22770591.023 2 119660250.936 2  93241796.14346  22770598.24646
  22539294.164 5 118444788.905 5  92294662.30246  22539302.41446
  20586961.438 7 108185209.849 7  84300191.18348  20586967.59448
  21354762.063 6 112220031.341 6  87444220.43349  21354773.34049
  20684545.602 6 108698015.960 6  84699788.71549  20684554.68849
  21880008.961 5 114980223.799 5  89594999.19146  21880016.37546
 20  5 16  0 26 37.0000000  0  7G04G08G14G16G26G27G31               -0.000391993
  22017231.625 6 115701326.937 6  90156913.82447  22017239.10547
  22769942.219 2 119656841.998 2  93239139.82346  22769950.32846
  22539932.398 5 118448143.590 5  92297276.32446  22539940.78146
  20587063.469 7 108185745.887 7  84300608.87648  20587069.86748
  21355080.148 6 112221703.109 6  87445523.10649  21355091.38349
  20684133.891 6 108695852.973 6  84698103.27249  20684142.95749
  21880243.359 5 114981457.029 5  89595960.14246  21880250.98846
 20  5 16  0 26 38.0000000  0  7G04G08G14G16G26G27G31               -0.000391956
  22016836.320 6 115699251.319 6  90155296.46247  22016843.91047
  22769293.039 2 119653433.532 2  93236483.84746  22769301.47346
  22540570.789 5 118451498.780 5  92299890.77846  22540579.30946
  20587165.594 7 108186282.476 7  84301026.99348  20587171.62148
  21355397.914 6 112223375.217 6  87446826.05449  21355409.54749
  20683722.086 6 108693690.820 6  84696418.49349  20683731.60949
  21880478.469 5 114982690.772 5  89596921.50146  21880485.62146
 20  5 16  0 26 39.0000000  0  7G04G08G14G16G26G27G31               -0.000391920
  22016441.570 6 115697176.433 6  90153679.66847  22016449.58647
  22768644.336 2 119650025.632 2  93233828.35146  22768653.16446
  22541209.070 5 118454854.533 5  92302505.67146  22541217.97746
  20587267.313 7 108186819.616 7  84301445.53648  20587273.48448
  21355716.297 6 112225047.655 6  87448129.24149  21355727.41049
  20683310.656 6 108691529.472 6  84694734.33349  20683320.30949
  21880713.164 5 114983925.004 5  89597883.23546  21880721.05146
 20  5 16  0 26 40.0000000  0  7G04G08G14G16G26G27G31               -0.000391884
  22016046.758 6 115695102.229 6  90152063.40147  22016054.72347
  22767995.594 2 119646618.117 2  93231173.16146  22768005.51246
  22541848.102 5 118458210.728 5  92305120.90546  22541856.46946
  20587370.555 7 108187357.233 7  84301864.45848  20587376.14148
  21356034.492 6 112226720.360 6  87449432.64549  21356045.98849
  20682899.727 6 108689368.861 6  84693050.74649  20682909.18449
  21880947.734 5 114985159.675 5  89598845.32746  21880955.03546
 20  5 16  0 26 41.0000000  0  7G04G08G14G16G26G27G31               -0.000391848
  22015652.313 6 115693028.817 6  90150447.76147  22015660.03547
  22767347.703 1 119643211.118 1  93228518.37946  22767356.80546
  22542487.250 5 118461567.549 5  92307736.58846  22542495.51246
  20587472.547 7 108187895.425 7  84302283.82848  20587478.56348
  21356353.398 6 112228393.436 6  87450736.34349  21356364.24649
  20682488.156 6 108687209.123 6  84691367.83049  20682497.96949
  21881182.867 5 114986394.924 5  89599807.85546  21881190.95746
 20  5 16  0 26 42.0000000  0  7G04G08G14G16G26G27G31               -0.000391811
  22015257.867 6 115690956.105 6  90148832.67147  22015265.45747
  22766699.086 1 119639804.743 1  93225864.07046  22766709.25846
  22543126.070 5 118464924.748 5  92310352.58146  22543134.18446
  20587574.984 7 108188434.130 7  84302703.60048  20587581.59448
  21356671.578 6 112230066.819 6  87452040.27449  21356682.79749
  20682076.648 5 108685050.181 5  84689685.53249  20682087.46949
  21881417.789 5 114987630.625 5  89600770.74046  21881425.16446
 20  5 16  0 26 43.0000000  0  7G04G08G14G16G26G27G31               -0.000391775
  22014863.492 6 115688884.235 6  90147218.24648  22014871.37548
  22766048.625 4 119636398.547 4  93223209.78448  22766059.71548
  22543764.906 6 118468282.644 6  92312969.09047  22543773.36347
  20587677.609 7 108188973.431 7  84303123.84148  20587683.88748
  21356990.023 6 112231740.590 6  87453344.50449  21357001.12549
  20681666.430 6 108682891.954 6  84688003.80049  20681675.84849
  21881652.961 5 114988866.901 5  89601734.04847  21881661.22747
 20  5 16  0 26 44.0000000  0  7G04G08G14G16G26G27G31               -0.000391737
  22014468.891 6 115686812.842 6  90145604.20148  22014477.06348
  22765399.156 4 119632992.924 4  93220555.94948  22765410.23848
  22544403.258 6 118471640.745 6  92315585.78147  22544412.12947
  20587780.203 7 108189513.030 7  84303544.31348  20587786.91848
  21357308.711 6 112233414.436 6  87454648.79449  21357319.57849
  20681256.203 6 108680734.443 6  84686322.62049  20681265.57449
  21881887.953 5 114990103.422 5  89602697.53647  21881896.11347
 20  5 16  0 26 45.0000000  0  7G04G08G14G16G26G27G31               -0.000391701
  22014074.875 6 115684742.187 6  90143990.72248  22014083.09848
  22764751.180 4 119629587.769 4  93217902.53648  22764762.05948
  22545042.695 6 118474999.366 6  92318202.88747  22545051.25847
  20587882.742 7 108190053.158 7  84303965.19548  20587889.45348
  21357627.383 6 112235088.616 6  87455953.34549  21357638.07049
  20680845.484 6 108678577.752 6  84684642.07349  20680854.74649
  21882124.094 5 114991340.454 5  89603661.46147  21882131.91047
 20  5 16  0 26 46.0000000  0  7G04G08G14G16G26G27G31               -0.000391665
  22013681.320 6 115682672.313 6  90142377.83048  22013689.50448
  22764103.758 4 119626183.227 4  93215249.64648  22764113.60248
  22545681.859 6 118478358.543 6  92320820.43347  22545690.27347
  20587985.789 7 108190593.853 7  84304386.51748  20587992.11748
  21357946.063 6 112236763.153 6  87457258.18449  21357956.74249
  20680435.578 6 108676421.888 6  84682962.17449  20680444.49249
  21882359.211 5 114992578.009 5  89604625.78147  21882366.81647
 20  5 16  0 26 47.0000000  0  7G04G08G14G16G26G27G31               -0.000391626
  22013287.586 6 115680603.215 6  90140765.53648  22013295.38748
  22763456.594 5 119622779.163 5  93212597.14648  22763466.04748
  22546321.172 6 118481718.249 6  92323438.39247  22546329.79747
  20588088.813 7 108191135.106 7  84304808.27148  20588095.08248
  21358264.734 6 112238438.012 6  87458563.27149  21358275.43049
  20680025.563 6 108674266.827 6  84681282.90949  20680034.61349
  21882594.438 5 114993816.054 5  89605590.49447  21882602.66847
 20  5 16  0 26 48.0000000  0  7G04G08G14G16G26G27G31               -0.000391588
  22012894.023 6 115678534.757 6  90139153.74148  22012902.28148
  22762807.844 4 119619375.508 4  93209944.97448  22762818.45348
  22546960.273 6 118485078.415 6  92326056.70347  22546968.62547
  20588192.094 7 108191676.836 7  84305230.39648  20588198.70748
  21358583.117 6 112240113.153 6  87459868.57349  21358594.37949
  20679615.172 6 108672112.550 6  84679604.25449  20679624.77749
  21882830.281 5 114995054.528 5  89606555.54947  21882837.75047
 20  5 16  0 26 49.0000000  0  7G04G08G14G16G26G27G31               -0.000391552
  22012500.617 6 115676467.060 6  90137542.54148  22012508.47348
  22762161.133 4 119615972.391 4  93207293.21148  22762170.75848
  22547600.344 6 118488439.083 6  92328675.40747  22547608.53547
  20588295.180 7 108192219.080 7  84305652.92548  20588301.55148
  21358901.852 6 112241788.593 6  87461174.11449  21358913.09849
  20679205.383 6 108669959.063 6  84677926.21149  20679214.85549
  21883066.219 5 114996293.503 5  89607520.99047  21883074.01647
 20  5 16  0 26 50.0000000  0  7G04G08G14G16G26G27G31               -0.000391514
  22012107.133 6 115674399.989 6  90135931.83448  22012115.05548
  22761513.539 4 119612569.694 4  93204641.76448  22761523.55548
  22548239.648 6 118491800.182 6  92331294.44947  22548248.03947
  20588398.633 7 108192761.794 7  84306075.81848  20588404.98048
  21359221.141 6 112243464.301 6  87462479.85549  21359231.82849
  20678795.867 6 108667806.274 6  84676248.71149  20678805.27749
  21883300.883 5 114997532.937 5  89608486.78647  21883309.71147
 20  5 16  0 26 51.0000000  0  7G04G08G14G16G26G27G31               -0.000391476
  22011713.891 6 115672333.663 6  90134321.70848  22011721.97748
  22760866.063 5 119609167.496 5  93201990.70448  22760875.96548
  22548879.703 6 118495161.785 6  92333913.87047  22548887.93847
  20588501.883 7 108193304.984 7  84306499.08548  20588508.27048
  21359540.047 6 112245140.276 6  87463785.81449  21359550.87149
  20678386.445 6 108665654.284 6  84674571.83749  20678396.13349
  21883537.398 5 114998772.788 5  89609452.89847  21883545.68047
 20  5 16  0 26 52.0000000  0  7G04G08G14G16G26G27G31               -0.000391438
  22011320.820 6 115670268.155 6  90132712.22948  22011328.77048
  22760218.836 4 119605765.848 4  93199340.06248  22760229.05548
  22549519.031 6 118498523.963 6  92336533.74947  22549527.60547
  20588605.539 7 108193848.823 7  84306922.85748  20588611.68048
  21359859.000 6 112246816.685 6  87465092.10749  21359870.16449
  20677976.945 6 108663503.196 6  84672895.66349  20677986.33649
  21883773.531 5 115000013.230 5  89610419.46747  21883781.50847
 20  5 16  0 26 53.0000000  0  7G04G08G14G16G26G27G31               -0.000391399
  22010927.938 6 115668203.414 6  90131103.33948  22010936.04748
  22759571.258 4 119602364.742 4  93196689.84948  22759581.35948
  22550159.000 6 118501886.693 6  92339154.05547  22550167.53947
  20588709.031 7 108194393.184 7  84307347.03248  20588715.65648
  21360177.883 6 112248493.435 6  87466398.66149  21360188.74249
  20677568.273 6 108661352.935 6  84671220.13149  20677577.59049
  21884010.094 5 115001254.220 5  89611386.46947  21884017.57847
 20  5 16  0 26 54.0000000  0  7G04G08G14G16G26G27G31               -0.000391361
  22010535.313 6 115666139.398 6  90129495.02148  22010543.47748
  22758924.711 4 119598964.134 4  93194040.02148  22758934.30148
  22550799.188 6 118505249.956 6  92341774.78347  22550807.76247
  20588812.523 7 108194938.087 7  84307771.63248  20588819.25048
  21360497.219 6 112250170.478 6  87467705.45449  21360507.59849
  20677159.273 6 108659203.478 6  84669545.23149  20677168.46949
  21884246.930 5 115002495.722 5  89612353.87247  21884254.30947
 20  5 16  0 26 55.0000000  0  7G04G08G14G16G26G27G31               -0.000391323
  22010142.563 6 115664075.955 6  90127887.14048  22010150.80548
  22758277.453 4 119595563.846 4  93191390.44148  22758287.19548
  22551439.047 6 118508613.507 6  92344395.72847  22551447.74647
  20588916.297 7 108195483.371 7  84308196.53048  20588923.16848
  21360816.664 6 112251847.696 6  87469012.37349  21360827.02349
  20676749.992 6 108657054.646 6  84667870.81649  20676759.62549
  21884483.258 5 115003737.470 5  89613321.46947  21884490.23047
 20  5 16  0 26 56.0000000  0  7G04G08G14G16G26G27G31               -0.000391285
  22009750.008 6 115662013.189 6  90126279.79248  22009757.97748
  22757630.672 4 119592164.008 4  93188741.21548  22757640.41448
  22552079.414 6 118511977.539 6  92347017.04447  22552087.91847
  20589020.305 7 108196029.095 7  84308621.77148  20589026.91448
  21361135.703 6 112253525.154 6  87470319.48649  21361146.37149
  20676341.047 6 108654906.545 6  84666196.97549  20676350.65649
  21884719.352 5 115004979.672 5  89614289.42347  21884726.82847
 20  5 16  0 26 57.0000000  0  7G04G08G14G16G26G27G31               -0.000391247
  22009357.672 6 115659951.095 6  90124672.96548  22009365.81648
  22756983.875 5 119588764.591 5  93186092.31848  22756993.51648
  22552719.578 6 118515342.041 6  92349638.73747  22552728.26247
  20589124.289 7 108196575.310 7  84309047.39148  20589130.58248
  21361455.102 6 112255202.912 6  87471626.82349  21361465.41849
  20675932.461 6 108652759.227 6  84664523.74449  20675941.74649
  21884955.570 5 115006222.336 5  89615257.73547  21884963.12547
 20  5 16  0 26 58.0000000  0  7G04G08G14G16G26G27G31               -0.000391209
  22008965.242 6 115657889.770 6  90123066.73648  22008973.14848
  22756336.500 5 119585365.707 5  93183443.84148  22756346.76648
  22553360.336 6 118518707.029 6  92352260.79947  22553368.37547
  20589228.094 7 108197122.062 7  84309473.42948  20589234.72348
  21361774.359 6 112256880.959 6  87472934.39149  21361784.87949
  20675523.750 6 108650612.705 6  84662851.13249  20675533.40249
  21885192.094 5 115007465.499 5  89616226.42847  21885199.62547
 20  5 16  0 26 59.0000000  0  7G04G08G14G16G26G27G31               -0.000391169
  22008573.414 6 115655829.075 6  90121460.99848  22008581.09448
  22755690.289 5 119581967.262 5  93180795.69948  22755699.95348
  22554000.711 6 118522072.445 6  92354883.19847  22554008.90247
  20589332.508 7 108197669.275 7  84309899.83148  20589338.78148
  21362093.734 6 112258559.260 6  87474242.15949  21362104.00849
  20675115.352 6 108648466.906 6  84661179.07949  20675125.64149
  21885428.086 5 115008709.078 5  89617195.44547  21885436.59447
 20  5 16  0 27  0.0000000  0  7G04G08G14G16G26G27G31               -0.000391130
  22008181.758 6 115653769.169 6  90119855.87848  22008189.77048
  22755043.039 5 119578569.325 5  93178147.95848  22755053.07048
  22554640.969 6 118525438.400 6  92357506.01647  22554649.41047
  20589436.836 7 108198217.003 7  84310326.63748  20589442.95748
  21362413.047 6 112260237.909 6  87475550.19549  21362423.49649
  20674706.984 6 108646321.941 6  84659507.68149  20674717.04749
  21885665.406 4 115009953.187 4  89618164.88147  21885673.31647
 20  5 16  0 27  1.0000000  0  7G04G08G14G16G26G27G31               -0.000391090
  22007789.266 6 115651710.034 6  90118251.35448  22007797.25448
  22754396.492 5 119575171.898 5  93175500.61648  22754406.79748
  22555281.594 6 118528804.913 6  92360129.27147  22555289.68447
  20589540.813 7 108198765.342 7  84310753.91148  20589547.25448
  21362732.602 6 112261916.933 6  87476858.52349  21362743.27749
  20674299.359 6 108644177.812 6  84657836.92449  20674309.17249
  21885902.313 4 115011197.816 4  89619134.72847  21885910.07047
 20  5 16  0 27  2.0000000  0  7G04G08G14G16G26G27G31               -0.000391052
  22007397.914 6 115649651.687 6  90116647.44948  22007406.02348
  22753750.617 5 119571775.093 5  93172853.75148  22753760.34448
  22555922.547 6 118532172.016 6  92362752.98747  22555930.59847
  20589645.461 7 108199314.255 7  84311181.63348  20589651.98848
  21363052.000 6 112263596.321 6  87478167.14249  21363062.40249
  20673891.344 6 108642034.562 6  84656166.86049  20673901.23449
  21886139.828 5 115012442.980 5  89620104.97947  21886146.84447
 20  5 16  0 27  3.0000000  0  7G04G08G14G16G26G27G31               -0.000391012
  22007006.313 6 115647594.032 6  90115044.08148  22007014.28148
  22753104.266 5 119568378.727 5  93170207.23648  22753114.18048
  22556563.281 6 118535539.557 6  92365377.04347  22556571.23047
  20589750.195 7 108199863.659 7  84311609.74148  20589756.50448
  21363371.789 6 112265275.970 6  87479475.95349  21363382.41449
  20673484.438 6 108639892.078 6  84654497.39349  20673493.71549
  21886376.602 5 115013688.662 5  89621075.63347  21886383.60547
 20  5 16  0 27  4.0000000  0  7G04G08G14G16G26G27G31               -0.000390972
  22006615.234 6 115645537.121 6  90113441.29848  22006622.85548
  22752458.258 5 119564982.852 5  93167561.10448  22752468.27748
  22557204.352 6 118538907.610 6  92368001.49947  22557212.43447
  20589854.625 7 108200413.600 7  84312038.26848  20589861.11348
  21363691.766 6 112266955.977 6  87480785.04849  21363701.83249
  20673076.477 6 108637750.392 6  84652828.55049  20673086.21549
  21886613.516 5 115014934.692 5  89622046.56447  21886621.28547
 20  5 16  0 27  5.0000000  0  7G04G08G14G16G26G27G31               -0.000390932
  22006223.820 6 115643480.996 6  90111839.12248  22006231.57448
  22751811.727 5 119561587.485 5  93164915.36648  22751821.98048
  22557845.070 6 118542276.220 6  92370626.39247  22557853.25447
  20589959.320 7 108200964.092 7  84312467.21948  20589965.86748
  21364010.961 6 112268636.304 6  87482094.39049  21364021.62949
  20672668.977 6 108635609.548 6  84651160.35649  20672678.66449
  21886851.375 5 115016181.391 5  89623018.02447  21886858.41447
 20  5 16  0 27  6.0000000  0  7G04G08G14G16G26G27G31               -0.000390894
  22005832.539 6 115641425.568 6  90110237.48848  22005840.33248
  22751166.430 5 119558192.637 5  93162270.02349  22751175.86349
  22558486.273 6 118545645.313 6  92373251.65947  22558494.69947
  20590064.383 7 108201515.090 7  84312896.57248  20590070.71548
  21364331.258 6 112270316.949 6  87483403.98249  21364341.32849
  20672261.531 6 108633469.493 6  84649492.78049  20672271.31349
  21887087.734 5 115017428.500 5  89623989.79847  21887095.90647
 20  5 16  0 27  7.0000000  0  7G04G08G14G16G26G27G31               -0.000390854
  22005441.305 6 115639370.770 6  90108636.34848  22005449.28548
  22750520.125 5 119554798.155 5  93159624.96949  22750530.19549
  22559127.117 6 118549014.771 6  92375877.21147  22559135.68847
  20590169.156 7 108202066.498 7  84313326.23848  20590175.87948
  21364650.578 6 112271997.763 6  87484713.71149  21364661.50449
  20671854.648 6 108631330.109 6  84647825.72749  20671864.43049
  21887324.898 4 115018675.987 4  89624961.86847  21887333.02747
 20  5 16  0 27  8.0000000  0  7G04G08G14G16G26G27G31               -0.000390814
  22005050.852 6 115637316.626 6  90107035.71648  22005058.48048
  22749874.422 5 119551404.123 5  93156980.27249  22749884.19949
  22559768.563 6 118552384.708 6  92378503.13747  22559776.35547
  20590274.172 7 108202618.354 7  84313756.25548  20590280.62148
  21364970.945 6 112273678.843 6  87486023.64149  21364981.36349
  20671447.719 6 108629191.464 6  84646159.25449  20671457.05949
  21887563.477 5 115019923.904 5  89625934.26447  21887571.02747
 20  5 16  0 27  9.0000000  0  7G04G08G14G16G26G27G31               -0.000390772
  22004659.820 6 115635263.172 6  90105435.62348  22004667.59048
  22749228.633 5 119548010.554 5  93154335.93349  22749238.57849
  22560409.961 6 118555755.081 6  92381129.39747  22560418.10247
  20590379.234 7 108203170.708 7  84314186.66648  20590385.92648
  21365290.672 6 112275360.204 6  87487333.79349  21365300.78549
  20671040.852 6 108627053.577 6  84644493.37049  20671050.50049
  21887800.688 5 115021172.269 5  89626907.00947  21887808.42247
 20  5 16  0 27 10.0000000  0  7G04G08G14G16G26G27G31               -0.000390732
  22004269.414 6 115633210.495 6  90103836.13748  22004277.35948
  22748582.922 5 119544617.480 5  93151691.97948  22748592.76648
  22561051.398 6 118559126.006 6  92383756.09147  22561059.55547
  20590484.422 7 108203723.585 7  84314617.47948  20590491.22748
  21365610.688 6 112277041.873 6  87488644.18449  21365621.01649
  20670634.359 6 108624916.495 6  84642828.11149  20670644.12549
  21888037.672 5 115022421.110 5  89627880.13547  21888046.20347
 20  5 16  0 27 11.0000000  0  7G04G08G14G16G26G27G31               -0.000390692
  22003878.805 6 115631158.532 6  90102237.20048  22003887.32848
  22747936.805 5 119541224.938 5  93149048.43949  22747947.29349
  22561692.898 6 118562497.409 6  92386383.15447  22561701.21547
  20590589.844 7 108204276.982 7  84315048.69548  20590596.69548
  21365930.539 6 112278723.883 6  87489954.83549  21365940.93049
  20670227.828 6 108622780.264 6  84641163.51649  20670236.93449
  21888276.148 5 115023670.492 5  89628853.68947  21888284.10947
 20  5 16  0 27 12.0000000  0  7G04G08G14G16G26G27G31               -0.000390652
  22003488.008 6 115629107.227 6  90100638.77948  22003496.39848
  22747291.906 5 119537832.779 5  93146405.19749  22747301.92649
  22562334.414 6 118565869.247 6  92389010.56347  22562342.75847
  20590695.188 7 108204830.872 7  84315480.29948  20590701.60248
  21366250.773 6 112280406.118 6  87491265.67349  21366261.34049
  20669821.445 6 108620644.709 6  84639499.45049  20669830.86349
  21888512.945 5 115024920.266 5  89629827.53247  21888521.81347
 20  5 16  0 27 13.0000000  0  7G04G08G14G16G26G27G31               -0.000390610
  22003098.297 6 115627056.723 6  90099040.98848  22003106.03548
  22746646.000 5 119534441.208 5  93143762.41849  22746656.40649
  22562976.609 6 118569241.637 6  92391638.40147  22562984.42247
  20590800.867 7 108205385.298 7  84315912.31948  20590807.58248
  21366571.211 6 112282088.731 6  87492576.79649  21366581.35549
  20669415.156 6 108618510.042 6  84637836.06949  20669424.53949
  21888751.766 5 115026170.597 5  89630801.81247  21888759.65247
 20  5 16  0 27 14.0000000  0  7G04G08G14G16G26G27G31               -0.000390570
  22002708.336 6 115625007.058 6  90097443.84348  22002716.13348
  22746000.969 5 119531050.229 5  93141120.09849  22746011.39149
  22563618.328 6 118572614.677 6  92394266.74247  22563626.65247
  20590906.445 7 108205940.372 7  84316344.84748  20590913.24648
  21366891.125 6 112283771.792 6  87493888.27349  21366901.91449
  20669009.188 6 108616376.268 6  84636173.38949  20669018.31649
  21888989.773 5 115027421.526 5  89631776.56547  21888997.69947
 20  5 16  0 27 15.0000000  0  7G04G08G14G16G26G27G31               -0.000390528
  22002318.258 6 115622958.143 6  90095847.28348  22002325.92648
  22745355.234 5 119527659.756 5  93138478.17049  22745365.82449
  22564260.508 6 118575988.209 6  92396895.46947  22564268.85247
  20591012.156 7 108206495.997 7  84316777.79848  20591018.82448
  21367211.695 6 112285455.152 6  87495199.97749  21367222.42249
  20668602.977 6 108614243.329 6  84634511.36349  20668612.20749
  21889228.164 5 115028672.949 5  89632751.70547  21889235.84447
 20  5 16  0 27 16.0000000  0  7G04G08G14G16G26G27G31               -0.000390488
  22001928.547 6 115620909.843 6  90094251.20648  22001936.41848
  22744710.695 5 119524269.683 5  93135836.56049  22744721.32849
  22564902.109 6 118579362.115 6  92399524.48447  22564910.45747
  20591117.867 6 108207052.010 6  84317211.05648  20591124.73848
  21367532.055 6 112287138.705 6  87496511.83649  21367542.25049
  20668197.367 6 108612111.068 6  84632849.86049  20668206.77049
  21889466.422 5 115029924.760 5  89633727.13847  21889474.10947
 20  5 16  0 27 17.0000000  0  7G04G08G14G16G26G27G31               -0.000390446
  22001539.063 6 115618862.287 6  90092655.70748  22001546.58248
  22744065.023 5 119520880.086 5  93133195.31749  22744075.77049
  22565544.563 6 118582736.574 6  92402153.93847  22565552.72747
  20591223.859 7 108207608.574 7  84317644.74548  20591230.78148
  21367852.867 6 112288822.593 6  87497823.95449  21367862.71149
  20667791.703 6 108609979.619 6  84631188.99049  20667801.20349
  21889704.680 5 115031177.077 5  89634702.96447  21889712.07047
 20  5 16  0 27 18.0000000  0  7G04G08G14G16G26G27G31               -0.000390404
  22001149.484 6 115616815.496 6  90091060.80948  22001157.08648
  22743420.414 5 119517491.073 5  93130554.53049  22743431.11349
  22566186.414 6 118586111.549 6  92404783.78047  22566194.78547
  20591330.125 7 108208165.660 7  84318078.83748  20591336.61748
  21368172.930 6 112290506.817 6  87499136.33649  21368183.29749
  20667386.234 6 108607849.005 6  84629528.76949  20667395.33249
  21889943.078 5 115032429.881 5  89635679.16847  21889950.82047
 20  5 16  0 27 19.0000000  0  7G04G08G14G16G26G27G31               -0.000390362
  22000759.813 6 115614769.436 6  90089466.47748  22000767.75448
  22742776.125 5 119514102.498 5  93127914.07549  22742786.08249
  22566829.242 6 118589486.998 6  92407414.00047  22566837.42247
  20591435.969 7 108208723.297 7  84318513.36148  20591442.87548
  21368493.523 6 112292191.360 6  87500448.97049  21368504.12149
  20666980.688 6 108605719.172 6  84627869.15849  20666990.55549
  21890181.914 5 115033683.153 5  89636655.74647  21890189.46547
 20  5 16  0 27 20.0000000  0  7G04G08G14G16G26G27G31               -0.000390320
  22000370.664 6 115612724.076 6  90087872.68548  22000378.55948
  22742130.977 5 119510714.426 5  93125274.02049  22742141.34449
  22567472.055 6 118592862.946 6  92410044.60747  22567479.71947
  20591542.211 7 108209281.403 7  84318948.25048  20591548.78948
  21368814.102 6 112293876.166 6  87501761.80449  21368824.32449
  20666576.102 6 108603590.107 6  84626210.15049  20666585.32049
  21890420.391 5 115034936.931 5  89637632.70747  21890427.75847
 20  5 16  0 27 21.0000000  0  7G04G08G14G16G26G27G31               -0.000390278
  21999981.852 6 115610679.443 6  90086279.46248  21999989.68848
  22741486.352 5 119507326.858 5  93122634.35649  22741496.83649
  22568114.539 6 118596239.374 6  92412675.58747  22568122.14547
  20591648.500 7 108209840.039 7  84319383.54948  20591655.41848
  21369134.641 6 112295561.290 6  87503074.88549  21369145.19949
  20666171.219 6 108601461.862 6  84624551.77649  20666180.24249
  21890659.391 5 115036191.170 5  89638610.03247  21890666.41847
 20  5 16  0 27 22.0000000  0  7G04G08G14G16G26G27G31               -0.000390236
  21999592.742 6 115608635.528 6  90084686.80548  21999600.87148
  22740841.938 5 119503939.709 5  93119995.01749  22740852.18449
  22568756.672 6 118599616.304 6  92415306.95947  22568764.80947
  20591754.938 7 108210399.203 7  84319819.25748  20591761.95748
  21369455.281 6 112297246.729 6  87504388.21149  21369466.02749
  20665766.008 6 108599334.370 6  84622893.98349  20665775.03949
  21890897.609 5 115037445.855 5  89639587.70347  21890905.08247
 20  5 16  0 27 23.0000000  0  7G04G08G14G16G26G27G31               -0.000390194
  21999204.125 6 115606592.249 6  90083094.63848  21999211.82848
  22740197.250 5 119500552.993 5  93117356.01749  22740208.06649
  22569399.156 6 118602993.605 6  92417938.62247  22569407.25047
  20591861.281 7 108210958.755 7  84320255.27148  20591868.15648
  21369776.297 6 112298932.347 6  87505701.68149  21369786.90249
  20665361.117 6 108597207.593 6  84621236.75749  20665370.34049
  21891136.570 5 115038700.988 5  89640565.72947  21891144.01247
 20  5 16  0 27 24.0000000  0  7G04G08G14G16G26G27G31               -0.000390152
  21998815.563 6 115604549.739 6  90081503.06848  21998823.39848
  22739552.766 5 119497166.824 5  93114717.44249  22739563.81349
  22570042.180 6 118606371.469 6  92420570.72047  22570050.35947
  20591968.180 7 108211518.873 7  84320691.73248  20591975.18048
  21370097.250 6 112300618.335 6  87507015.43849  21370107.59449
  20664956.867 6 108595081.657 6  84619580.17949  20664966.18049
  21891376.117 5 115039956.604 5  89641544.12647  21891383.43447
 20  5 16  0 27 25.0000000  0  7G04G08G14G16G26G27G31               -0.000390110
  21998426.492 6 115602507.964 6  90079912.07648  21998434.57848
  22738908.938 5 119493781.159 5  93112079.26549  22738919.16449
  22570685.313 6 118609749.838 6  92423203.21347  22570693.30147
  20592074.633 7 108212079.528 7  84321128.60448  20592081.71148
  21370417.711 6 112302304.639 6  87508329.43849  21370428.25449
  20664552.766 6 108592956.526 6  84617924.23349  20664561.48049
  21891614.578 5 115041212.729 5  89642522.91847  21891622.05147
 20  5 16  0 27 26.0000000  0  7G04G08G14G16G26G27G31               -0.000390066
  21998038.125 6 115600467.028 6  90078321.73148  21998046.45748
  22738264.508 5 119490396.091 5  93109441.55149  22738275.22749
  22571327.945 6 118613128.799 6  92425836.16947  22571335.89547
  20592181.328 7 108212640.823 7  84321565.97448  20592188.33248
  21370739.008 6 112303991.365 6  87509643.77049  21370749.43449
  20664148.422 6 108590832.297 6  84616268.99649  20664157.08249
  21891854.047 5 115042469.449 5  89643502.17947  21891861.28147
 20  5 16  0 27 27.0000000  0  7G04G08G14G16G26G27G31               -0.000390024
  21997649.891 6 115598426.741 6  90076731.89948  21997658.06348
  22737620.789 5 119487011.437 5  93106804.15649  22737631.21149
  22571970.953 6 118616508.177 6  92428469.44947  22571979.29347
  20592288.180 7 108213202.506 7  84322003.64948  20592295.16048
  21371059.594 6 112305678.278 6  87510958.25149  21371070.56649
  20663744.406 6 108588708.753 6  84614614.28049  20663752.90649
  21892093.148 5 115043726.533 5  89644481.72947  21892100.45347
 20  5 16  0 27 28.0000000  0  7G04G08G14G16G26G27G31               -0.000389980
  21997261.914 6 115596387.079 6  90075142.55248  21997270.09848
  22736976.875 5 119483627.147 5  93104167.04949  22736987.40249
  22572614.133 6 118619887.973 6  92431103.04747  22572622.48447
  20592395.422 7 108213764.644 7  84322441.67548  20592402.17248
  21371381.141 6 112307365.445 6  87512272.92649  21371391.50049
  20663340.695 6 108586585.939 6  84612960.14649  20663349.29349
  21892332.672 5 115044984.044 5  89645461.60847  21892340.00847
 20  5 16  0 27 29.0000000  0  7G04G08G14G16G26G27G31               -0.000389938
  21996873.984 6 115594348.081 6  90073553.72648  21996882.08648
  22736333.047 5 119480243.330 5  93101530.30949  22736343.29349
  22573257.625 6 118623268.175 6  92433736.97247  22573265.56347
  20592502.398 7 108214327.220 7  84322880.05148  20592508.82048
  21371701.984 6 112309052.844 6  87513587.77349  21371712.37149
  20662936.711 6 108584463.870 6  84611306.58549  20662945.66849
  21892572.031 5 115046241.959 5  89646441.79847  21892579.25447
 20  5 16  0 27 30.0000000  0  7G04G08G14G16G26G27G31               -0.000389894
  21996486.117 6 115592309.905 6  90071965.52848  21996494.33648
  22735689.055 5 119476860.064 5  93098893.99449  22735699.60249
  22573901.203 6 118626648.983 6  92436371.36747  22573909.16847
  20592609.469 7 108214890.400 7  84323318.88948  20592616.03148
  21372023.094 6 112310740.619 6  87514902.92549  21372033.67649
  20662533.250 6 108582342.651 6  84609653.68749  20662542.03149
  21892811.367 5 115047500.448 5  89647422.44047  21892818.88747
 20  5 16  0 27 31.0000000  0  7G04G08G14G16G26G27G31               -0.000389851
  21996098.422 6 115590272.338 6  90070377.81448  21996106.53148
  22735044.875 5 119473477.206 5  93096258.00449  22735055.59049
  22574544.063 6 118630030.175 6  92439006.06247  22574552.52747
  20592716.508 7 108215453.990 7  84323758.05448  20592723.28948
  21372344.500 6 112312428.600 6  87516218.23449  21372354.96149
  20662129.797 6 108580222.140 6  84608001.34049  20662138.70349
  21893050.836 5 115048759.311 5  89648403.37347  21893058.19147
 20  5 16  0 27 32.0000000  0  7G04G08G14G16G26G27G31               -0.000389807
  21995710.758 6 115588235.388 6  90068790.58148  21995718.94548
  22734401.148 5 119470094.729 5  93093622.30849  22734411.91049
  22575187.992 6 118633411.733 6  92441641.03547  22575196.22347
  20592824.023 7 108216017.976 7  84324197.51848  20592830.96548
  21372665.586 6 112314116.779 6  87517533.69949  21372676.01649
  20661726.141 6 108578102.307 6  84606349.52249  20661734.93049
  21893290.383 5 115050018.538 5  89649384.57747  21893297.76247
 20  5 16  0 27 33.0000000  0  7G04G08G14G16G26G27G31               -0.000389765
  21995323.273 6 115586199.142 6  90067203.89648  21995331.87948
  22733758.539 5 119466712.661 5  93090986.92949  22733768.65249
  22575831.156 6 118636793.756 6  92444276.37747  22575839.60247
  20592931.063 7 108216582.430 7  84324637.35448  20592937.99248
  21372986.945 6 112315805.220 6  87518849.36549  21372997.59449
  20661323.031 6 108575983.218 6  84604698.27949  20661331.71949
  21893529.648 5 115051278.221 5  89650366.15147  21893537.52347
 20  5 16  0 27 34.0000000  0  7G04G08G14G16G26G27G31               -0.000389721
  21994935.711 6 115584163.520 6  90065617.70048  21994944.18448
  22733114.461 5 119463331.015 5  93088351.88349  22733124.70749
  22576475.125 6 118640176.199 6  92446912.05147  22576483.37547
  20593039.102 7 108217147.339 7  84325077.54048  20593045.69548
  21373308.156 6 112317493.891 6  87520165.21749  21373318.71149
  20660919.477 6 108573864.859 6  84603047.60849  20660928.55549
  21893769.031 5 115052538.294 5  89651348.02747  21893777.42647
 20  5 16  0 27 35.0000000  0  7G04G08G14G16G26G27G31               -0.000389677
  21994548.992 6 115582128.722 6  90064032.14548  21994557.04748
  22732470.781 5 119459949.957 5  93085717.29449  22732481.60249
  22577118.539 6 118643559.193 6  92449548.15347  22577126.85247
  20593146.648 7 108217712.799 7  84325518.15948  20593153.61348
  21373629.656 6 112319182.928 6  87521481.34549  21373640.11749
  20660516.695 6 108571747.365 6  84601397.61649  20660525.77049
  21894009.211 5 115053798.905 5  89652330.32447  21894017.68847
 20  5 16  0 27 36.0000000  0  7G04G08G14G16G26G27G31               -0.000389633
  21994161.602 6 115580094.598 6  90062447.11248  21994169.94948
  22731827.719 5 119456569.336 5  93083083.04649  22731837.98849
  22577762.805 6 118646942.691 6  92452184.64347  22577770.84047
  20593254.039 7 108218278.751 7  84325959.15749  20593260.66449
  21373951.031 6 112320872.233 6  87522797.68449  21373961.39549
  20660113.953 6 108569630.602 6  84599748.18449  20660122.74249
  21894249.594 5 115055059.976 5  89653312.98147  21894257.21547
 20  5 16  0 27 37.0000000  0  7G04G08G14G16G26G27G31               -0.000389589
  21993774.547 6 115578061.275 6  90060862.70548  21993783.29348
  22731184.539 5 119453189.311 5  93080449.26449  22731194.93449
  22578406.992 6 118650326.741 6  92454821.55847  22578414.64147
  20593361.867 7 108218845.269 7  84326400.60348  20593368.90248
  21374272.859 6 112322561.910 6  87524114.31649  21374283.30549
  20659711.430 6 108567514.739 6  84598099.45849  20659720.23049
  21894489.836 5 115056321.593 5  89654296.05347  21894497.42647
 20  5 16  0 27 38.0000000  0  7G04G08G14G16G26G27G31               -0.000389544
  21993387.773 6 115576028.646 6  90059278.83348  21993396.71548
  22730541.203 5 119449809.721 5  93077815.81349  22730552.00849
  22579050.820 6 118653711.245 6  92457458.82847  22579058.76647
  20593470.008 7 108219412.286 7  84326842.43649  20593476.83249
  21374594.273 6 112324251.871 6  87525431.16849  21374605.25049
  20659308.719 6 108565399.607 6  84596451.30649  20659317.97349
  21894730.203 5 115057583.640 5  89655279.47147  21894737.60947
 20  5 16  0 27 39.0000000  0  7G04G08G14G16G26G27G31               -0.000389500
  21993001.227 6 115573996.610 6  90057695.43548  21993010.11748
  22729898.484 5 119446430.483 5  93075182.64249  22729908.55149
  22579694.539 6 118657096.104 6  92460096.38047  22579703.02047
  20593577.773 7 108219979.684 7  84327284.56049  20593584.65649
  21374915.703 6 112325941.995 6  87526748.15249  21374926.57449
  20658906.172 6 108563285.176 6  84594803.69849  20658915.25849
  21894969.930 5 115058846.063 5  89656263.17647  21894978.14547
 20  5 16  0 27 40.0000000  0  7G04G08G14G16G26G27G31               -0.000389456
  21992614.656 6 115571965.359 6  90056112.64248  21992623.26248
  22729255.352 5 119443051.856 5  93072549.94549  22729265.72749
  22580339.023 6 118660481.540 6  92462734.37647  22580347.55547
  20593686.070 7 108220547.669 7  84327727.14549  20593692.53549
  21375237.773 6 112327632.500 6  87528065.42949  21375248.07449
  20658503.828 6 108561171.586 6  84593156.73849  20658513.21549
  21895210.219 5 115060109.045 5  89657247.31347  21895218.33247
 20  5 16  0 27 41.0000000  0  7G04G08G14G16G26G27G31               -0.000389410
  21992228.109 6 115569934.842 6  90054530.42048  21992236.80148
  22728612.789 5 119439673.628 5  93069917.56349  22728622.85949
  22580983.281 6 118663867.438 6  92465372.74147  22580991.82047
  20593794.266 7 108221116.147 7  84328170.11749  20593800.52349
  21375559.367 6 112329323.280 6  87529382.92049  21375570.36749
  20658102.094 6 108559058.771 6  84591510.39749  20658110.98849
  21895450.320 5 115061372.479 5  89658231.81447  21895458.49247
 20  5 16  0 27 42.0000000  0  7G04G08G14G16G26G27G31               -0.000389366
  21991841.555 6 115567905.083 6  90052948.79148  21991850.48448
  22727969.875 5 119436295.960 5  93067285.61749  22727980.36749
  22581627.977 6 118667253.868 6  92468011.51547  22581636.14547
  20593902.445 7 108221685.184 7  84328613.52248  20593909.37148
  21375880.977 6 112331014.417 6  87530700.68749  21375892.14549
  20657700.078 6 108556946.782 6  84589864.68949  20657709.35549
  21895691.148 5 115062636.402 5  89659216.68347  21895698.97347
 20  5 16  0 27 43.0000000  0  7G04G08G14G16G26G27G31               -0.000389320
  21991455.789 6 115565876.150 6  90051367.80548  21991464.21148
  22727327.094 5 119432918.870 5  93064654.11849  22727337.95749
  22582272.305 6 118670640.891 6  92470650.75347  22582280.37147
  20594011.398 7 108222254.823 7  84329057.39749  20594017.91849
  21376203.461 6 112332705.950 6  87532018.76749  21376213.80949
  20657298.109 6 108554835.696 6  84588219.68849  20657307.14149
  21895931.719 5 115063900.947 5  89660202.04747  21895939.49247
 20  5 16  0 27 44.0000000  0  7G04G08G14G16G26G27G31               -0.000389277
  21991069.492 6 115563847.889 6  90049787.34548  21991078.36348
  22726683.875 5 119429542.238 5  93062022.97749  22726695.03149
  22582916.703 6 118674028.341 6  92473290.32347  22582925.02047
  20594119.359 7 108222824.926 7  84329501.63748  20594125.98448
  21376524.930 6 112334397.722 6  87533337.02749  21376535.73849
  20656896.727 6 108552725.354 6  84586575.27049  20656905.71149
  21896172.633 5 115065165.889 5  89661187.70547  21896180.34847
 20  5 16  0 27 45.0000000  0  7G04G08G14G16G26G27G31               -0.000389231
  21990683.844 6 115561820.296 6  90048207.40648  21990692.64848
  22726042.180 5 119426166.022 5  93059392.15449  22726052.64549
  22583561.820 6 118677416.228 6  92475930.22747  22583570.02747
  20594228.344 7 108223395.489 7  84329946.23348  20594234.57048
  21376847.492 6 112336089.753 6  87534655.49449  21376858.03949
  20656495.469 6 108550615.766 6  84584931.43249  20656504.48449
  21896413.172 5 115066431.289 5  89662173.73147  21896421.18447
 20  5 16  0 27 46.0000000  0  7G04G08G14G16G26G27G31               -0.000389185
  21990298.492 6 115559793.440 6  90046628.03448  21990307.14848
  22725399.844 5 119422790.297 5  93056761.72149  22725410.80949
  22584206.508 6 118680804.615 6  92478570.52947  22584214.61747
  20594337.055 7 108223966.560 7  84330391.21948  20594343.25448
  21377169.313 6 112337782.113 6  87535974.21549  21377179.84849
  20656094.320 6 108548506.944 6  84583288.18949  20656102.87149
  21896654.109 5 115067697.164 5  89663160.12947  21896661.77347
 20  5 16  0 27 47.0000000  0  7G04G08G14G16G26G27G31               -0.000389141
  21989912.516 6 115557767.255 6  90045049.18948  21989921.28948
  22724757.625 5 119419415.030 5  93054131.64549  22724768.03149
  22584851.461 6 118684193.453 6  92481211.18047  22584859.23447
  20594445.961 7 108224538.092 7  84330836.56848  20594451.85948
  21377491.148 6 112339474.688 6  87537293.10749  21377501.66449
  20655693.469 6 108546398.891 6  84581645.55249  20655702.01649
  21896894.836 5 115068963.460 5  89664146.85147  21896902.87147
 20  5 16  0 27 48.0000000  0  7G04G08G14G16G26G27G31               -0.000389095
  21989527.320 6 115555741.685 6  90043470.82648  21989536.10248
  22724115.430 5 119416040.112 5  93051501.83649  22724125.61749
  22585496.453 6 118687582.639 6  92483852.10647  22585504.40647
  20594554.039 7 108225110.041 7  84331282.23748  20594560.55948
  21377813.383 6 112341167.466 6  87538612.14949  21377824.04349
  20655291.773 6 108544291.484 6  84580003.41249  20655301.02049
  21897136.016 5 115070230.096 5  89665133.83747  21897144.25847
 20  5 16  0 27 49.0000000  0  7G04G08G14G16G26G27G31               -0.000389050
  21989141.875 6 115553716.780 6  90041892.97548  21989150.55948
  22723473.219 5 119412665.700 5  93048872.42649  22723483.43849
  22586141.641 6 118690972.267 6  92486493.37647  22586149.23047
  20594663.508 7 108225682.445 7  84331728.26648  20594669.37948
  21378135.281 6 112342860.504 6  87539931.39949  21378146.03149
  20654891.203 6 108542184.839 6  84578361.86949  20654899.93849
  21897377.281 5 115071497.188 5  89666121.18847  21897385.03547
 20  5 16  0 27 50.0000000  0  7G04G08G14G16G26G27G31               -0.000389004
  21988756.813 6 115551692.641 6  90040315.71948  21988765.39148
  22722831.352 5 119409291.755 5  93046243.38249  22722841.34449
  22586786.664 6 118694362.421 6  92489135.04847  22586794.21147
  20594772.586 7 108226255.371 7  84332174.70348  20594778.96948
  21378457.859 6 112344553.867 6  87541250.90049  21378468.79349
  20654490.289 6 108540079.042 6  84576720.98949  20654499.60949
  21897618.438 5 115072764.795 5  89667108.93147  21897626.50847
 20  5 16  0 27 51.0000000  0  7G04G08G14G16G26G27G31               -0.000388958
  21988371.227 6 115549669.271 6  90038739.06748  21988380.35548
  22722189.227 5 119405918.354 5  93043614.75949  22722199.86749
  22587431.781 6 118697753.121 6  92491777.15147  22587439.53147
  20594881.273 7 108226828.855 7  84332621.57248  20594887.72748
  21378780.188 6 112346247.555 6  87542570.65849  21378790.91449
  20654089.484 6 108537974.058 6  84575080.74249  20654098.82849
  21897859.320 5 115074032.905 5  89668097.07247  21897867.31647
 20  5 16  0 27 52.0000000  0  7G04G08G14G16G26G27G31               -0.000388912
  21987986.805 6 115547646.614 6  90037162.96848  21987995.62948
  22721547.250 5 119402545.441 5  93040986.51849  22721558.17249
  22588077.242 6 118701144.306 6  92494419.63347  22588084.76647
  20594990.641 7 108227402.847 7  84333068.83748  20594997.06348
  21379102.227 6 112347941.576 6  87543890.67649  21379112.91049
  20653688.953 6 108535869.855 6  84573441.10049  20653698.37549
  21898101.039 5 115075301.504 5  89669085.58947  21898109.28947
 20  5 16  0 27 53.0000000  0  7G04G08G14G16G26G27G31               -0.000388866
  21987601.391 6 115545624.647 6  90035587.41148  21987610.44148
  22720904.875 5 119399172.947 5  93038358.60049  22720915.89149
  22588722.813 6 118704535.880 6  92497062.41147  22588730.23847
  20595099.719 7 108227977.285 7  84333516.45948  20595106.73048
  21379424.609 6 112349635.807 6  87545210.85749  21379435.62949
  20653288.719 6 108533766.384 6  84571802.02949  20653298.05549
  21898342.953 5 115076570.495 5  89670074.41847  21898350.50847
 20  5 16  0 27 54.0000000  0  7G04G08G14G16G26G27G31               -0.000388819
  21987216.727 6 115543603.328 6  90034012.36148  21987226.14148
  22720263.867 5 119395800.922 5  93035731.04949  22720274.49649
  22589368.258 6 118707927.932 6  92499705.56147  22589376.19947
  20595209.188 7 108228552.186 7  84333964.43248  20595215.73048
  21379747.172 6 112351330.303 6  87546531.23949  21379758.07449
  20652888.695 6 108531663.671 6  84570163.55649  20652898.21149
  21898584.461 5 115077839.931 5  89671063.59147  21898591.93047
 20  5 16  0 27 55.0000000  0  7G04G08G14G16G26G27G31               -0.000388773
  21986832.313 6 115541582.743 6  90032437.88148  21986841.57848
  22719622.305 5 119392429.376 5  93033103.87149  22719632.91049
  22590013.734 6 118711320.453 6  92502349.08547  22590021.34047
  20595318.703 7 108229127.584 7  84334412.79148  20595325.32448
  21380069.922 6 112353025.085 6  87547851.85349  21380080.59449
  20652488.875 6 108529561.741 6  84568525.68749  20652497.85249
  21898826.742 5 115079109.856 5  89672053.14647  21898833.82447
 20  5 16  0 27 56.0000000  0  7G04G08G14G16G26G27G31               -0.000388727
  21986448.188 6 115539562.856 6  90030863.94848  21986457.25448
  22718980.672 5 119389058.231 5  93030477.00649  22718991.12949
  22590659.094 6 118714713.440 6  92504992.97747  22590667.28947
  20595428.102 7 108229703.453 7  84334861.52348  20595435.09848
  21380392.438 6 112354720.127 6  87549172.66849  21380403.31649
  20652089.359 6 108527460.550 6  84566888.39749  20652098.25449
  21899067.977 5 115080380.204 5  89673043.03947  21899075.67247
 20  5 16  0 27 57.0000000  0  7G04G08G14G16G26G27G31               -0.000388680
  21986063.961 6 115537543.609 6  90029290.50848  21986072.61348
  22718339.383 5 119385687.558 5  93027850.50849  22718350.04749
  22591305.008 6 118718106.818 6  92507637.16147  22591312.42247
  20595538.313 7 108230279.783 7  84335310.60548  20595544.79348
  21380714.898 6 112356415.430 6  87550493.68349  21380725.97749
  20651689.281 6 108525360.103 6  84565251.68249  20651698.75049
  21899309.734 5 115081650.980 5  89674033.24947  21899317.16047
 20  5 16  0 27 58.0000000  0  7G04G08G14G16G26G27G31               -0.000388634
  21985679.750 6 115535525.153 6  90027717.68848  21985688.72748
  22717698.289 5 119382317.438 5  93025224.44249  22717708.45749
  22591950.914 6 118721500.762 6  92510281.79347  22591958.62547
  20595647.766 7 108230856.695 7  84335760.14948  20595654.47348
  21381037.641 6 112358111.067 6  87551814.95249  21381048.86749
  20651289.875 6 108523260.505 6  84563615.63049  20651298.96149
  21899551.352 5 115082922.312 5  89675023.89647  21899559.34847
 20  5 16  0 27 59.0000000  0  7G04G08G14G16G26G27G31               -0.000388586
  21985295.875 6 115533507.367 6  90026145.38148  21985304.81348
  22717056.539 5 119378947.729 5  93022598.69749  22717067.55549
  22592596.961 6 118724895.121 6  92512926.74647  22592604.58247
  20595757.797 7 108231434.031 7  84336210.02148  20595764.43448
  21381360.281 6 112359806.930 6  87553136.40149  21381371.33249
  20650890.289 6 108521161.630 6  84561980.14549  20650899.65249
  21899793.617 5 115084194.028 5  89676014.84547  21899801.32047
 20  5 16  0 28  0.0000000  0  7G04G08G14G16G26G27G31               -0.000388538
  21984911.422 6 115531490.244 6  90024573.60248  21984920.40248
  22716415.328 5 119375578.495 5  93019973.31749  22716426.28949
  22593243.000 6 118728289.944 6  92515572.05647  22593250.77047
  20595868.008 7 108232011.853 7  84336660.26748  20595874.51248
  21381683.008 6 112361503.097 6  87554458.09549  21381694.19949
  20650490.563 6 108519063.515 6  84560345.25449  20650500.25049
  21900035.797 5 115085466.195 5  89677006.14247  21900044.01247
 20  5 16  0 28  1.0000000  0  7G04G08G14G16G26G27G31               -0.000388493
  21984527.867 6 115529473.815 6  90023002.35348  21984536.91448
  22715774.266 5 119372209.701 5  93017348.28549  22715784.89849
  22593888.922 6 118731685.191 6  92518217.70347  22593896.41447
  20595977.656 7 108232590.105 7  84337110.85448  20595984.19148
  21382006.266 6 112363199.472 6  87555779.94449  21382016.80949
  20650091.422 6 108516966.138 6  84558710.93849  20650101.51249
  21900277.609 5 115086738.796 5  89677997.77347  21900285.71947
 20  5 16  0 28  2.0000000  0  7G04G08G14G16G26G27G31               -0.000388445
  21984144.891 6 115527458.086 6  90021431.65548  21984153.39548
  22715133.445 5 119368841.403 5  93014723.63849  22715143.80549
  22594534.820 6 118735080.901 6  92520863.71347  22594542.66847
  20596087.758 7 108233168.880 7  84337561.85148  20596094.42648
  21382328.289 6 112364896.153 6  87557102.03349  21382339.52049
  20649692.766 6 108514869.558 6  84557077.24049  20649702.41049
  21900519.883 5 115088011.830 5  89678989.74247  21900527.91447
 20  5 16  0 28  3.0000000  0  7G04G08G14G16G26G27G31               -0.000388397
  21983761.242 6 115525443.035 6  90019861.48748  21983770.12948
  22714492.789 5 119365473.538 5  93012099.33149  22714503.48449
  22595180.805 6 118738477.063 6  92523510.07147  22595188.70747
  20596198.195 7 108233748.086 7  84338013.18448  20596204.57848
  21382651.297 6 112366593.058 6  87558424.30149  21382662.68449
  20649293.883 6 108512773.707 6  84555444.10949  20649303.20349
  21900762.500 5 115089285.301 5  89679982.06047  21900770.41847
 20  5 16  0 28  4.0000000  0  7G04G08G14G16G26G27G31               -0.000388350
  21983378.188 6 115523428.660 6  90018291.84548  21983386.94948
  22713852.391 5 119362106.104 5  93009475.35249  22713862.81349
  22595827.125 6 118741873.659 6  92526156.76747  22595834.95347
  20596308.633 7 108234327.755 7  84338464.87448  20596315.25048
  21382974.680 6 112368290.251 6  87559746.78349  21382985.47749
  20648895.352 6 108510678.580 6  84553811.54449  20648904.79749
  21901004.898 5 115090559.225 5  89680974.73947  21901012.61747
 20  5 16  0 28  5.0000000  0  7G04G08G14G16G26G27G31               -0.000388302
  21982994.641 6 115521414.958 6  90016722.72948  21983003.70748
  22713211.492 5 119358739.108 5  93006851.72049  22713221.82049
  22596474.141 6 118745270.673 6  92528803.79347  22596481.45747
  20596418.664 7 108234907.885 7  84338916.92148  20596425.41848
  21383297.641 6 112369987.655 6  87561069.43849  21383308.71549
  20648496.695 6 108508584.190 6  84552179.55349  20648506.10949
  21901247.438 5 115091833.550 5  89681967.71547  21901255.44547
 20  5 16  0 28  6.0000000  0  7G04G08G14G16G26G27G31               -0.000388254
  21982611.703 6 115519401.978 6  90015154.17648  21982620.32448
  22712570.734 5 119355372.562 5  93004228.43849  22712581.32449
  22597120.539 6 118748668.193 6  92531451.21147  22597127.98447
  20596529.227 7 108235488.515 7  84339369.36448  20596536.23848
  21383620.508 6 112371685.387 6  87562392.34049  21383631.48049
  20648098.352 6 108506490.591 6  84550548.18049  20648107.76249
  21901490.180 5 115093108.384 5  89682961.09147  21901498.08647
 20  5 16  0 28  7.0000000  0  7G04G08G14G16G26G27G31               -0.000388206
  21982228.813 6 115517389.776 6  90013586.21748  21982237.50048
  22711930.523 5 119352006.573 5  93001605.59449  22711940.43049
  22597767.000 6 118752066.200 6  92534099.00547  22597774.59447
  20596639.836 7 108236069.665 7  84339822.20948  20596646.40248
  21383943.289 6 112373383.425 6  87563715.48549  21383954.80549
  20647699.906 6 108504397.840 6  84548917.47049  20647709.55949
  21901732.391 5 115094383.670 5  89683954.81247  21901740.44947
 20  5 16  0 28  8.0000000  0  7G04G08G14G16G26G27G31               -0.000388159
  21981846.039 6 115515378.206 6  90012018.76148  21981854.82448
  22711289.406 5 119348640.976 5  92998983.05849  22711300.24649
  22598413.945 6 118755464.630 6  92536747.12347  22598421.55947
  20596750.594 7 108236651.278 7  84340275.41148  20596757.50048
  21384266.992 6 112375081.685 6  87565038.80449  21384277.88349
  20647301.813 6 108502305.797 6  84547287.31149  20647311.53549
  21901975.430 5 115095659.405 5  89684948.88747  21901983.07447
 20  5 16  0 28  9.0000000  0  7G04G08G14G16G26G27G31               -0.000388111
  21981463.680 6 115513367.247 6  90010451.77548  21981472.07848
  22710649.242 5 119345275.790 5  92996360.84049  22710660.02349
  22599060.563 6 118758863.437 6  92539395.54047  22599068.12147
  20596861.305 7 108237233.264 7  84340728.90448  20596868.43848
  21384589.500 6 112376780.148 6  87566362.28049  21384600.94149
  20646903.430 6 108500214.425 6  84545657.67449  20646913.27349
  21902218.352 5 115096935.490 5  89685943.23447  21902225.86747
 20  5 16  0 28 10.0000000  0  7G04G08G14G16G26G27G31               -0.000388063
  21981080.984 6 115511357.098 6  90008885.42248  21981089.37948
  22710008.969 5 119341911.161 5  92993739.04849  22710019.86749
  22599707.063 6 118762262.824 6  92542044.40947  22599714.94947
  20596972.102 7 108237815.846 7  84341182.86748  20596978.61748
  21384913.523 6 112378478.997 6  87567686.06049  21384924.28149
  20646505.711 6 108498123.939 6  84544028.72249  20646515.72749
  21902461.836 5 115098212.132 5  89686938.01647  21902468.87947
 20  5 16  0 28 11.0000000  0  7G04G08G14G16G26G27G31               -0.000388014
  21980698.930 6 115509347.655 6  90007319.62448  21980707.28148
  22709368.805 5 119338547.040 5  92991117.64949  22709379.17649
  22600354.117 6 118765662.687 6  92544693.65047  22600361.82447
  20597083.172 7 108238398.948 7  84341637.23148  20597089.78948
  21385236.766 6 112380178.122 6  87569010.05549  21385247.79749
  20646108.297 6 108496034.251 6  84542400.39649  20646117.75049
  21902704.047 5 115099489.259 5  89687933.18447  21902711.82447
 20  5 16  0 28 12.0000000  0  7G04G08G14G16G26G27G31               -0.000387966
  21980316.461 6 115507338.945 6  90005754.39648  21980324.62148
  22708728.422 5 119335183.372 5  92988496.61049  22708739.16049
  22601001.461 6 118769063.016 6  92547343.25947  22601008.89847
  20597194.305 7 108238982.514 7  84342091.96248  20597201.03548
  21385559.828 6 112381877.537 6  87570334.26749  21385571.09049
  20645710.742 6 108493945.315 6  84540772.65149  20645720.34049
  21902947.367 5 115100766.846 5  89688928.70647  21902955.13747
 20  5 16  0 28 13.0000000  0  7G04G08G14G16G26G27G31               -0.000387918
  21979934.188 6 115505331.021 6  90004189.78348  21979942.53148
  22708088.422 5 119331820.255 5  92985876.00449  22708099.33249
  22601648.477 6 118772463.905 6  92549993.30347  22601656.25447
  20597305.406 7 108239566.683 7  84342547.15348  20597312.27748
  21385883.492 6 112383577.302 6  87571658.76249  21385894.37949
  20645313.625 6 108491857.243 6  84539145.58549  20645322.96149
  21903190.398 5 115102044.921 5  89689924.60747  21903198.61747
 20  5 16  0 28 14.0000000  0  7G04G08G14G16G26G27G31               -0.000387869
  21979551.977 6 115503323.733 6  90002625.66548  21979560.99248
  22707448.898 5 119328457.583 5  92983255.73749  22707459.22749
  22602295.844 6 118775865.161 6  92552643.62947  22602303.30547
  20597416.430 7 108240151.238 7  84343002.65848  20597423.26648
  21386207.398 6 112385277.298 6  87572983.43649  21386218.46949
  20644916.641 6 108489769.895 6  84537519.07749  20644925.71149
  21903433.625 5 115103323.466 5  89690920.88047  21903441.78547
 20  5 16  0 28 15.0000000  0  7G04G08G14G16G26G27G31               -0.000387819
  21979170.164 6 115501317.204 6  90001062.13248  21979178.97748
  22706809.523 4 119325095.402 4  92980635.86149  22706819.51649
  22602943.211 6 118779266.955 6  92555294.37847  22602950.65247
  20597527.906 7 108240736.323 7  84343458.56548  20597535.03948
  21386530.492 6 112386977.615 6  87574308.35549  21386541.43849
  20644519.664 6 108487683.357 6  84535893.20249  20644528.76649
  21903677.781 5 115104602.533 5  89691917.54847  21903685.08247
 20  5 16  0 28 16.0000000  0  7G04G08G14G16G26G27G31               -0.000387772
  21978788.422 6 115499311.452 6  89999499.20748  21978797.31348
  22706169.273 4 119321733.763 4  92978016.40449  22706179.98449
  22603590.680 6 118782669.289 6  92557945.54947  22603598.32847
  20597639.609 7 108241322.012 7  84343914.94948  20597646.18448
  21386853.969 6 112388678.289 6  87575633.55949  21386865.47749
  20644122.453 6 108485597.670 6  84534267.99849  20644131.91449
  21903920.703 5 115105882.054 5  89692914.56747  21903928.54347
 20  5 16  0 28 17.0000000  0  7G04G08G14G16G26G27G31               -0.000387722
  21978407.352 6 115497306.349 6  89997936.79448  21978415.78548
  22705530.438 5 119318372.526 5  92975397.26149  22705540.27749
  22604238.102 6 118786072.042 6  92560597.03347  22604245.76647
  20597750.969 7 108241908.110 7  84344371.65348  20597757.68448
  21387178.117 6 112390379.194 6  87576958.93349  21387188.63349
  20643725.633 6 108483512.698 6  84532643.33949  20643734.91049
  21904164.758 5 115107161.985 5  89693911.92047  21904172.00847
 20  5 16  0 28 18.0000000  0  7G04G08G14G16G26G27G31               -0.000387672
  21978025.961 6 115495301.926 6  89996374.90148  21978034.14848
  22704889.844 5 119315011.744 5  92972778.46949  22704900.53949
  22604885.594 6 118789475.212 6  92563248.85047  22604893.41047
  20597862.695 7 108242494.671 7  84344828.70848  20597869.84048
  21387501.750 6 112392080.332 6  87578284.49349  21387512.39549
  20643328.813 6 108481428.479 6  84531019.27449  20643338.52349
  21904407.984 5 115108442.386 5  89694909.63147  21904415.77747
 20  5 16  0 28 19.0000000  0  7G04G08G14G16G26G27G31               -0.000387623
  21977644.367 6 115493298.114 6  89994813.49148  21977652.92248
  22704251.234 5 119311651.326 5  92970159.96649  22704260.84849
  22605533.234 6 118792878.745 6  92565900.94747  22605541.37147
  20597974.328 7 108243081.596 7  84345286.05448  20597981.34448
  21387825.313 6 112393781.656 6  87579610.19749  21387836.45749
  20642932.414 6 108479344.922 6  84529395.73149  20642941.80149
  21904651.734 5 115109723.146 5  89695907.62847  21904659.44947
 20  5 16  0 28 20.0000000  0  7G04G08G14G16G26G27G31               -0.000387573
  21977263.164 6 115491294.961 6  89993252.59048  21977271.48448
  22703611.758 5 119308291.386 5  92967541.83349  22703622.07849
  22606180.883 6 118796282.710 6  92568553.38747  22606188.25847
  20598086.133 7 108243668.998 7  84345743.77148  20598093.04748
  21388148.734 6 112395483.231 6  87580936.10049  21388160.27749
  20642536.414 6 108477262.103 6  84527772.75649  20642545.57449
  21904896.063 5 115111004.308 5  89696905.93647  21904903.42647
 20  5 16  0 28 21.0000000  0  7G04G08G14G16G26G27G31               -0.000387524
  21976882.109 6 115489292.521 6  89991692.24748  21976890.71548
  22702972.188 5 119304931.851 5  92964924.00849  22702982.42249
  22606828.891 6 118799687.149 6  92571206.19947  22606836.56647
  20598198.102 7 108244256.877 7  84346201.86048  20598204.70348
  21388472.594 6 112397185.054 6  87582262.19649  21388483.70749
  20642140.281 6 108475180.052 6  84526150.38349  20642149.35949
  21905139.523 5 115112285.888 5  89697904.56647  21905147.14847
 20  5 16  0 28 22.0000000  0  7G04G08G14G16G26G27G31               -0.000387474
  21976501.461 6 115487290.683 6  89990132.37748  21976509.59848
  22702332.984 5 119301572.762 5  92962306.54049  22702343.53949
  22607477.172 6 118803091.943 6  92573859.28347  22607484.55947
  20598309.961 7 108244845.136 7  84346660.24148  20598316.56348
  21388796.727 6 112398887.076 6  87583588.44349  21388807.75449
  20641744.289 6 108473098.693 6  84524528.53949  20641753.60549
  21905383.688 5 115113567.896 5  89698903.52847  21905391.13347
 20  5 16  0 28 23.0000000  0  7G04G08G14G16G26G27G31               -0.000387424
  21976120.438 6 115485289.694 6  89988573.16548  21976128.75048
  22701693.695 5 119298214.242 5  92959689.51349  22701704.25449
  22608125.094 6 118806497.364 6  92576512.86047  22608132.48847
  20598421.969 7 108245434.021 7  84347119.11448  20598428.95348
  21389120.539 6 112400589.524 6  87584915.02449  21389131.88749
  20641348.148 6 108471018.251 6  84522907.41849  20641357.48849
  21905628.078 5 115114850.485 5  89699902.95247  21905635.18847
 20  5 16  0 28 24.0000000  0  7G04G08G14G16G26G27G31               -0.000387375
  21975739.305 6 115483289.426 6  89987014.52148  21975748.09048
  22701054.953 5 119294856.191 5  92957072.85049  22701065.22749
  22608772.609 6 118809903.229 6  92579166.78347  22608780.23447
  20598534.195 6 108246023.404 6  84347578.37448  20598540.80148
  21389444.695 6 112402292.248 6  87586241.82249  21389455.84049
  20640952.477 6 108468938.568 6  84521286.88649  20640961.83249
  21905872.359 5 115116133.505 5  89700902.70147  21905878.95347
 20  5 16  0 28 25.0000000  0  7G04G08G14G16G26G27G31               -0.000387325
  21975359.586 6 115481289.846 6  89985456.40648  21975368.04348
  22700415.633 5 119291498.638 5  92954456.57448  22700426.44948
  22609420.977 6 118813309.528 6  92581821.04147  22609428.92247
  20598646.227 7 108246613.251 7  84348037.99948  20598653.15648
  21389768.719 6 112403995.202 6  87587568.79849  21389779.80549
  20640556.594 6 108466859.646 6  84519666.94149  20640566.11749
  21906116.820 5 115117416.989 5  89701902.81747  21906123.25047
 20  5 16  0 28 26.0000000  0  7G04G08G14G16G26G27G31               -0.000387276
  21974979.008 6 115479291.053 6  89983898.90348  21974987.39848
  22699776.789 5 119288141.625 5  92951840.72448  22699787.16048
  22610069.383 6 118816716.419 6  92584475.76147  22610076.88347
  20598759.000 7 108247203.678 7  84348498.07048  20598765.81648
  21390092.352 6 112405698.588 6  87588896.10849  21390104.21549
  20640161.383 6 108464781.604 6  84518047.69049  20640170.86749
  21906360.766 5 115118701.034 5  89702903.36847  21906367.78147
 20  5 16  0 28 27.0000000  0  7G04G08G14G16G26G27G31               -0.000387224
  21974598.219 6 115477293.013 6  89982341.98948  21974606.88748
  22699138.078 5 119284785.117 5  92949225.26648  22699148.59448
  22610717.445 6 118820123.796 6  92587130.85547  22610725.62947
  20598871.328 7 108247794.634 7  84348958.56048  20598878.13348
  21390417.516 6 112407402.242 6  87590223.63649  21390428.60549
  20639766.242 6 108462704.364 6  84516429.05849  20639775.47349
  21906604.898 5 115119985.534 5  89703904.28547  21906611.89147
 20  5 16  0 28 28.0000000  0  7G04G08G14G16G26G27G31               -0.000387175
  21974218.742 6 115475295.646 6  89980785.60348  21974226.98048
  22698499.313 5 119281429.075 5  92946610.17249  22698510.07849
  22611366.242 6 118823531.610 6  92589786.28947  22611373.78947
  20598983.492 7 108248386.037 7  84349419.39248  20598990.44548
  21390741.023 6 112409106.188 6  87591551.38749  21390752.43849
  20639370.906 6 108460627.879 6  84514811.02149  20639379.94549
  21906849.609 5 115121270.478 5  89704905.54847  21906856.66447
 20  5 16  0 28 29.0000000  0  7G04G08G14G16G26G27G31               -0.000387123
  21973838.305 6 115473299.027 6  89979229.80048  21973847.21548
  22697861.031 5 119278073.488 5  92943995.42949  22697871.42249
  22612014.469 6 118826939.924 6  92592442.11647  22612022.20347
  20599096.141 7 108248977.969 7  84349880.63448  20599102.98448
  21391065.477 6 112410810.401 6  87592879.34749  21391077.05549
  20638976.102 6 108458552.168 6  84513193.58149  20638985.21149
  21907093.625 5 115122555.921 5  89705907.20047  21907101.60547
 20  5 16  0 28 30.0000000  0  7G04G08G14G16G26G27G31               -0.000387074
  21973458.211 6 115471303.036 6  89977674.47547  21973467.12947
  22697222.750 5 119274718.344 5  92941381.03449  22697233.21149
  22612663.469 6 118830348.630 6  92595098.24747  22612671.15647
  20599209.195 7 108249570.333 7  84350342.21848  20599215.74648
  21391389.844 5 112412514.832 5  87594207.47149  21391400.88749
  20638581.164 6 108456477.187 6  84511576.70749  20638590.25449
  21907338.602 5 115123841.771 5  89706909.16047  21907346.17247
 20  5 16  0 28 31.0000000  0  7G04G08G14G16G26G27G31               -0.000387022
  21973078.828 6 115469307.704 6  89976119.66648  21973087.35548
  22696584.219 5 119271363.606 5  92938766.95449  22696594.47749
  22613312.055 6 118833757.748 6  92597754.70347  22613319.53947
  20599321.766 7 108250163.107 7  84350804.12348  20599328.69548
  21391714.344 6 112414219.506 6  87595535.78649  21391725.50449
  20638186.438 6 108454402.936 6  84509960.41449  20638195.79349
  21907583.070 5 115125128.018 5  89707911.42347  21907590.74647
 20  5 16  0 28 32.0000000  0  7G04G08G14G16G26G27G31               -0.000386971
  21972699.133 6 115467313.009 6  89974565.36047  21972707.66447
  22695945.898 5 119268009.262 5  92936153.17548  22695956.25848
  22613960.898 6 118837167.252 6  92600411.45747  22613968.44947
  20599434.891 7 108250756.320 7  84351266.37048  20599441.30548
  21392039.016 5 112415924.391 5  87596864.26349  21392050.07849
  20637792.117 6 108452329.378 6  84508344.64949  20637800.98849
  21907827.836 5 115126414.642 5  89708913.98547  21907835.28547
 20  5 16  0 28 33.0000000  0  7G04G08G14G16G26G27G31               -0.000386921
  21972320.242 6 115465319.103 6  89973011.67148  21972328.38348
  22695307.672 5 119264655.490 5  92933539.85048  22695318.20748
  22614610.008 6 118840577.281 6  92603068.62347  22614617.32447
  20599547.484 7 108251350.056 7  84351729.02148  20599554.40648
  21392363.680 6 112417629.596 6  87598192.99549  21392374.18449
  20637397.609 6 108450256.677 6  84506729.55649  20637406.48049
  21908072.961 5 115127701.781 5  89709916.94647  21908080.64847
 20  5 16  0 28 34.0000000  0  7G04G08G14G16G26G27G31               -0.000386869
  21971940.930 6 115463325.815 6  89971458.46247  21971948.96947
  22694669.641 5 119261302.086 5  92930926.81148  22694679.91848
  22615258.703 6 118843987.721 6  92605726.11447  22615266.15247
  20599660.742 7 108251944.223 7  84352192.00649  20599667.68849
  21392687.719 6 112419335.039 6  87599521.91049  21392698.87549
  20637003.547 6 108448184.669 6  84505115.00649  20637012.49249
  21908318.430 5 115128989.317 5  89710920.22147  21908325.35947
 20  5 16  0 28 35.0000000  0  7G04G08G14G16G26G27G31               -0.000386818
  21971561.359 6 115461333.212 6  89969905.78648  21971569.80148
  22694031.430 5 119257949.145 5  92928314.12648  22694042.26648
  22615907.859 6 118847398.567 6  92608383.91147  22615915.38347
  20599774.008 7 108252538.830 7  84352655.34148  20599780.55548
  21393012.609 5 112421040.690 5  87600850.98749  21393023.50849
  20636609.289 6 108446113.384 6  84503501.01649  20636618.32449
  21908563.094 5 115130277.275 5  89711923.82747  21908570.63747
 20  5 16  0 28 36.0000000  0  7G04G08G14G16G26G27G31               -0.000386766
  21971182.125 6 115459341.369 6  89968353.70047  21971190.55147
  22693394.000 5 119254596.701 5  92925701.83748  22693404.36348
  22616557.469 6 118850809.946 6  92611042.13147  22616564.42247
  20599887.523 7 108253134.011 7  84353119.12348  20599893.57848
  21393337.328 5 112422746.714 5  87602180.35449  21393347.94949
  20636215.031 6 108444042.947 6  84501887.68849  20636224.01649
  21908808.063 5 115131565.778 5  89712927.85447  21908815.54747
 20  5 16  0 28 37.0000000  0  7G04G08G14G16G26G27G31               -0.000386715
  21970803.219 6 115457350.211 6  89966802.14248  21970811.87148
  22692755.852 5 119251244.726 5  92923089.91249  22692766.11749
  22617206.344 6 118854221.783 6  92613700.69747  22617213.62147
  20600000.844 7 108253729.646 7  84353583.24849  20600007.42249
  21393661.984 5 112424452.976 5  87603509.90849  21393673.03149
  20635821.422 6 108441973.264 6  84500274.94849  20635830.66049
  21909053.438 5 115132854.682 5  89713932.19147  21909061.45347
 20  5 16  0 28 38.0000000  0  7G04G08G14G16G26G27G31               -0.000386663
  21970424.297 6 115455359.797 6  89965251.17147  21970433.27747
  22692118.242 5 119247893.271 5  92920478.39448  22692128.63348
  22617855.992 6 118857634.093 6  92616359.64247  22617863.22747
  20600114.133 7 108254325.779 7  84354047.77549  20600120.49249
  21393986.797 6 112426159.516 6  87604839.68049  21393997.99649
  20635427.703 6 108439904.385 6  84498662.83549  20635436.38749
  21909299.094 5 115134144.113 5  89714936.95147  21909306.19547
 20  5 16  0 28 39.0000000  0  7G04G08G14G16G26G27G31               -0.000386612
  21970045.836 6 115453369.856 6  89963700.56348  21970054.20748
  22691479.641 5 119244542.033 5  92917867.04349  22691490.60549
  22618505.367 6 118861046.648 6  92619018.77747  22618512.12147
  20600227.203 7 108254922.174 7  84354512.49648  20600233.86748
  21394311.477 6 112427866.128 6  87606169.50949  21394322.67649
  20635034.086 6 108437836.050 6  84497051.13949  20635043.08649
  21909544.594 5 115135433.769 5  89715941.88247  21909551.61747
 20  5 16  0 28 40.0000000  0  7G04G08G14G16G26G27G31               -0.000386560
  21969667.484 6 115451380.666 6  89962150.54747  21969675.75447
  22690842.102 5 119241191.321 5  92915256.10049  22690853.33249
  22619155.008 6 118864459.698 6  92621678.29347  22619161.66047
  20600340.977 7 108255519.091 7  84354977.62048  20600347.65248
  21394636.586 6 112429573.062 6  87607499.58649  21394647.12149
  20634640.703 6 108435768.520 6  84495440.07649  20634649.17649
  21909790.297 5 115136723.951 5  89716947.21647  21909797.21147
 20  5 16  0 28 41.0000000  0  7G04G08G14G16G26G27G31               -0.000386507
  21969288.602 6 115449392.256 6  89960601.13347  21969297.06647
  22690205.195 5 119237841.196 5  92912645.61048  22690215.57048
  22619804.227 6 118867873.310 6  92624338.24847  22619811.30547
  20600454.766 7 108256116.589 7  84355443.20648  20600460.91448
  21394961.352 6 112431280.343 6  87608829.93649  21394972.19949
  20634247.289 6 108433701.854 6  84493829.69149  20634256.56349
  21910035.836 5 115138014.628 5  89717952.93847  21910042.83647
 20  5 16  0 28 42.0000000  0  7G04G08G14G16G26G27G31               -0.000386456
  21968910.922 6 115447404.423 6  89959052.17148  21968919.03548
  22689567.688 5 119234491.384 5  92910035.37348  22689577.87548
  22620454.367 6 118871287.229 6  92626998.43847  22620461.17647
  20600568.711 7 108256714.422 7  84355909.05248  20600574.98848
  21395285.883 6 112432987.783 6  87610160.40649  21395297.00049
  20633853.945 6 108431635.836 6  84492219.80649  20633863.42649
  21910281.398 5 115139305.653 5  89718958.92847  21910288.27747
 20  5 16  0 28 43.0000000  0  7G04G08G14G16G26G27G31               -0.000386404
  21968533.016 6 115445417.341 6  89957503.78847  21968540.78147
  22688930.234 5 119231142.082 5  92907425.52748  22688940.70348
  22621103.547 6 118874701.658 6  92629659.03547  22621110.59847
  20600682.055 7 108257312.820 7  84356375.33848  20600688.86348
  21395610.898 6 112434695.543 6  87611491.13049  21395621.90649
  20633460.969 6 108429570.630 6  84490610.56149  20633470.42249
  21910527.281 5 115140597.185 5  89719965.31147  21910534.38747
 20  5 16  0 28 44.0000000  0  7G04G08G14G16G26G27G31               -0.000386351
  21968154.898 6 115443430.957 6  89955955.95547  21968162.59047
  22688293.047 4 119227793.251 4  92904816.05448  22688303.55948
  22621753.570 6 118878116.519 6  92632319.96447  22621760.52747
  20600796.430 7 108257911.645 7  84356841.95148  20600803.00048
  21395936.227 6 112436403.534 6  87612822.03249  21395947.14549
  20633068.172 6 108427506.177 6  84489001.89749  20633077.66849
  21910772.875 5 115141889.136 5  89720972.01747  21910780.30947
 20  5 16  0 28 45.0000000  0  7G04G08G14G16G26G27G31               -0.000386299
  21967776.789 6 115441445.283 6  89954408.68047  21967784.82047
  22687655.656 5 119224444.882 5  92902206.93948  22687666.41448
  22622403.563 6 118881531.846 6  92634981.26347  22622410.47347
  20600910.125 7 108258510.968 7  84357308.95248  20600916.69948
  21396261.195 6 112438111.830 6  87614153.16749  21396272.57449
  20632675.188 6 108425442.491 6  84487393.83049  20632684.47749
  21911019.258 5 115143181.540 5  89721979.08847  21911026.28947
 20  5 16  0 28 46.0000000  0  7G04G08G14G16G26G27G31               -0.000386246
  21967398.867 6 115439460.355 6  89952861.98247  21967407.51647
  22687018.469 4 119221097.058 4  92899598.24648  22687029.03948
  22623053.344 6 118884947.689 6  92637642.96247  22623060.15647
  20601024.672 7 108259110.813 7  84357776.37048  20601031.10548
  21396586.172 6 112439820.448 6  87615484.56149  21396597.53549
  20632283.125 6 108423379.625 6  84485786.40349  20632292.26249
  21911264.969 5 115144474.479 5  89722986.57347  21911272.48447
 20  5 16  0 28 47.0000000  0  7G04G08G14G16G26G27G31               -0.000386194
  21967021.586 6 115437476.119 6  89951315.82547  21967029.57847
  22686381.688 4 119217749.634 4  92896989.86848  22686392.14148
  22623703.570 6 118888363.973 6  92640304.99847  22623710.30947
  20601138.430 7 108259711.148 7  84358244.16148  20601145.09848
  21396911.633 6 112441529.305 6  87616816.13549  21396922.57049
  20631890.539 6 108421317.526 6  84484179.57249  20631899.58649
  21911511.883 5 115145767.851 5  89723994.39547  21911518.39847
 20  5 16  0 28 48.0000000  0  7G04G08G14G16G26G27G31               -0.000386141
  21966644.648 6 115435492.599 6  89949770.22248  21966651.93448
  22685744.695 4 119214402.784 4  92894381.93848  22685755.41048
  22624353.648 6 118891780.713 6  92642967.39347  22624360.86347
  20601253.305 7 108260311.954 7  84358712.32448  20601259.77048
  21397236.469 6 112443238.456 6  87618147.93849  21397247.76249
  20631498.602 6 108419256.225 6  84482573.35949  20631507.44149
  21911757.375 5 115147061.661 5  89725002.56547  21911764.25447
 20  5 16  0 28 49.0000000  0  7G04G08G14G16G26G27G31               -0.000386087
  21966266.609 6 115433509.742 6  89948225.13247  21966274.73847
  22685108.633 4 119211056.272 4  92891774.26548  22685118.61348
  22625003.992 6 118895197.880 6  92645630.12147  22625011.03947
  20601367.422 7 108260913.185 7  84359180.81548  20601373.75048
  21397561.898 6 112444947.827 6  87619479.91549  21397572.68849
  20631106.523 6 108417195.631 6  84480967.69849  20631115.60249
  21912003.586 5 115148355.896 5  89726011.05647  21912010.61347
 20  5 16  0 28 50.0000000  0  7G04G08G14G16G26G27G31               -0.000386036
  21965889.555 6 115431527.546 6  89946680.56347  21965897.78147
  22684470.609 5 119207710.255 5  92889166.98748  22684481.68048
  22625654.281 6 118898615.487 6  92648293.19347  22625661.37947
  20601482.133 7 108261514.885 7  84359649.67248  20601488.48848
  21397887.820 6 112446657.471 6  87620812.10549  21397898.43049
  20630714.375 6 108415135.774 6  84479362.61849  20630723.61749
  21912250.453 5 115149650.547 5  89727019.87447  21912256.91847
 20  5 16  0 28 51.0000000  0  7G04G08G14G16G26G27G31               -0.000385983
  21965512.773 6 115429546.138 6  89945136.61447  21965520.43047
  22683834.219 5 119204364.780 5  92886560.11948  22683844.99648
  22626304.648 6 118902033.615 6  92650956.66347  22626311.63747
  20601596.461 7 108262117.143 7  84360118.96848  20601602.90648
  21398212.602 6 112448367.444 6  87622144.55949  21398223.75449
  20630322.375 6 108413076.805 6  84477758.23149  20630331.44149
  21912496.703 5 115150945.748 5  89728029.12147  21912503.59847
 20  5 16  0 28 52.0000000  0  7G04G08G14G16G26G27G31               -0.000385929
  21965135.734 6 115427565.484 6  89943593.24447  21965143.42647
  22683197.523 4 119201019.818 4  92883953.65948  22683208.43448
  22626955.445 6 118905452.241 6  92653620.52247  22626962.27747
  20601711.031 7 108262719.923 7  84360588.66648  20601717.73048
  21398538.523 6 112450077.736 6  87623477.24949  21398549.26249
  20629930.711 6 108411018.625 6  84476154.44849  20629940.03549
  21912742.820 5 115152241.446 5  89729038.74947  21912750.23847
 20  5 16  0 28 53.0000000  0  7G04G08G14G16G26G27G31               -0.000385876
  21964759.188 6 115425585.575 6  89942050.46147  21964767.03147
  22682561.258 4 119197675.365 4  92881347.59148  22682572.29748
  22627606.297 6 118908871.360 6  92656284.76747  22627612.75447
  20601826.023 7 108263323.195 7  84361058.75148  20601832.50048
  21398863.961 6 112451788.336 6  87624810.18649  21398874.70749
  20629539.367 6 108408961.220 6  84474551.27549  20629548.23049
  21912990.148 5 115153537.607 5  89730048.75047  21912996.63747
 20  5 16  0 28 54.0000000  0  7G04G08G14G16G26G27G31               -0.000385822
  21964382.328 6 115423606.241 6  89940508.12148  21964390.03148
  22681924.938 4 119194331.310 4  92878741.83948  22681935.89848
  22628256.688 6 118912290.825 6  92658949.28647  22628263.91847
  20601940.711 7 108263926.877 7  84361529.14948  20601947.42248
  21399189.641 6 112453499.083 6  87626143.23449  21399200.20349
  20629147.688 6 108406904.522 6  84472948.65449  20629157.14549
  21913236.813 5 115154834.135 5  89731059.03247  21913243.48047
 20  5 16  0 28 55.0000000  0  7G04G08G14G16G26G27G31               -0.000385769
  21964005.555 6 115421627.541 6  89938966.27847  21964013.73447
  22681288.898 4 119190987.594 4  92876136.34948  22681299.86348
  22628907.719 6 118915710.664 6  92661614.09247  22628914.79347
  20602055.672 7 108264530.931 7  84361999.84648  20602062.46148
  21399514.773 6 112455210.039 6  87627476.44649  21399525.67649
  20628756.719 6 108404848.488 6  84471346.55549  20628765.56349
  21913483.234 5 115156131.028 5  89732069.60147  21913490.10947
 20  5 16  0 28 56.0000000  0  7G04G08G14G16G26G27G31               -0.000385715
  21963629.438 6 115419649.572 6  89937424.99747  21963637.46947
  22680652.711 4 119187644.362 4  92873531.23748  22680663.51248
  22629558.570 6 118919130.991 6  92664279.27947  22629565.51247
  20602170.805 7 108265135.491 7  84362470.93048  20602176.94548
  21399840.422 6 112456921.273 6  87628809.87749  21399851.47349
  20628365.344 6 108402793.267 6  84469745.08049  20628374.58649
  21913730.867 5 115157428.388 5  89733080.53147  21913737.00047
 20  5 16  0 28 57.0000000  0  7G04G08G14G16G26G27G31               -0.000385660
  21963252.797 6 115417672.192 6  89935884.18547  21963261.06347
  22680016.195 4 119184301.474 4  92870926.38448  22680027.05948
  22630209.805 6 118922551.670 6  92666944.73847  22630216.36747
  20602286.047 7 108265740.425 7  84362942.30548  20602292.05948
  21400166.352 6 112458632.661 6  87630143.42349  21400177.35949
  20627974.633 6 108400738.700 6  84468144.12049  20627983.74249
  21913977.211 5 115158726.100 5  89734091.73947  21913984.07047
 20  5 16  0 28 58.0000000  0  7G04G08G14G16G26G27G31               -0.000385607
  21962877.133 6 115415695.481 6  89934343.89947  21962884.59847
  22679380.008 4 119180959.082 4  92868321.92848  22679391.11748
  22630860.344 6 118925972.762 6  92669610.52047  22630867.60547
  20602401.156 7 108266345.806 7  84363414.03648  20602407.26648
  21400491.859 6 112460344.333 6  87631477.19449  21400502.79749
  20627583.867 7 108398684.887 7  84466543.74249  20627592.78549
  21914224.102 5 115160024.245 5  89735103.28347  21914230.92647
 20  5 16  0 28 59.0000000  0  7G04G08G14G16G26G27G31               -0.000385553
  21962500.930 6 115413719.477 6  89932804.15747  21962508.97347
  22678744.164 4 119177617.138 4  92865717.81348  22678755.16848
  22631511.805 6 118929394.300 6  92672276.65447  22631518.85247
  20602516.547 7 108266951.662 7  84363886.13448  20602522.68048
  21400817.789 6 112462056.250 6  87632811.15849  21400828.70749
  20627192.813 6 108396631.788 6  84464943.92249  20627201.97349
  21914471.484 5 115161322.832 5  89736115.16647  21914477.96147
 20  5 16  0 29  0.0000000  0  7G04G08G14G16G26G27G31               -0.000385498
  21962124.992 6 115411744.153 6  89931264.94047  21962133.15647
  22678108.414 4 119174275.563 4  92863113.99148  22678119.52348
  22632162.859 6 118932816.260 6  92674943.11147  22632169.58647
  20602632.055 7 108267557.967 7  84364358.57448  20602638.04348
  21401143.641 6 112463768.398 6  87634145.29649  21401154.52749
  20626802.773 6 108394579.479 6  84463344.72149  20626811.55549
  21914718.438 5 115162621.831 5  89737127.37047  21914724.98847
 20  5 16  0 29  1.0000000  0  7G04G08G14G16G26G27G31               -0.000385445
  21961749.008 6 115409769.580 6  89929726.31647  21961757.39547
  22677473.070 4 119170934.566 4  92860510.62248  22677483.79748
  22632814.211 6 118936238.747 6  92677609.99047  22632821.06347
  20602747.492 7 108268164.814 7  84364831.44548  20602753.37148
  21401469.688 6 112465480.890 6  87635479.70749  21401480.06349
  20626411.773 6 108392527.976 6  84461746.14649  20626421.44149
  21914965.867 5 115163921.344 5  89738139.97647  21914972.27047
 20  5 16  0 29  2.0000000  0  7G04G08G14G16G26G27G31               -0.000385391
  21961373.750 6 115407795.618 6  89928188.16347  21961381.38347
  22676837.266 4 119167593.903 4  92857907.51048  22676847.93048
  22633465.766 6 118939661.590 6  92680277.13647  22633472.75047
  20602862.547 7 108268772.050 7  84365304.61648  20602869.11748
  21401795.273 6 112467193.545 6  87636814.23849  21401806.10249
  20626021.578 6 108390477.179 6  84460148.12849  20626030.72749
  21915212.953 5 115165221.240 5  89739152.88647  21915219.63347
 20  5 16  0 29  3.0000000  0  7G04G08G14G16G26G27G31               -0.000385336
  21960997.961 6 115405822.298 6  89926650.51647  21961005.90647
  22676201.180 4 119164253.677 4  92855304.73448  22676212.26248
  22634116.875 6 118943084.814 6  92682944.58347  22634124.33247
  20602978.625 7 108269379.681 7  84365778.09948  20602984.73448
  21402120.992 6 112468906.402 6  87638148.93549  21402132.14149
  20625631.563 6 108388427.068 6  84458550.63349  20625641.08649
  21915461.180 5 115166521.497 5  89740166.06447  21915467.37147
 20  5 16  0 29  4.0000000  0  7G04G08G14G16G26G27G31               -0.000385281
  21960622.273 6 115403849.705 6  89925113.43247  21960630.58647
  22675566.273 4 119160913.910 4  92852702.31748  22675576.83648
  22634768.289 6 118946508.528 6  92685612.41447  22634775.64547
  20603094.086 7 108269987.818 7  84366251.97748  20603100.10948
  21402447.438 6 112470619.578 6  87639483.87549  21402458.36349
  20625241.586 6 108386377.755 6  84456953.77149  20625251.05949
  21915708.359 5 115167822.238 5  89741179.62347  21915714.84447
 20  5 16  0 29  5.0000000  0  7G04G08G14G16G26G27G31               -0.000385227
  21960246.828 6 115401877.852 6  89923576.91847  21960255.40647
  22674930.250 4 119157574.675 4  92850100.32548  22674941.05948
  22635419.836 6 118949932.736 6  92688280.62747  22635426.99647
  20603209.977 7 108270596.484 7  84366726.25748  20603216.25048
  21402772.922 6 112472333.052 6  87640819.05249  21402784.21949
  20624851.594 6 108384329.238 6  84455357.52149  20624861.28149
  21915955.820 5 115169123.464 5  89742193.57147  21915962.35947
 20  5 16  0 29  6.0000000  0  7G04G08G14G16G26G27G31               -0.000385172
  21959871.758 6 115399906.748 6  89922040.99647  21959880.21547
  22674295.391 4 119154235.951 4  92847498.72848  22674305.60948
  22636071.797 6 118953357.446 6  92690949.22547  22636079.09447
  20603325.977 7 108271205.656 7  84367200.93948  20603332.09848
  21403099.266 6 112474046.841 6  87642154.47149  21403110.23449
  20624462.297 6 108382281.556 6  84453761.92549  20624471.47349
  21916203.617 5 115170425.214 5  89743207.92247  21916210.21147
 20  5 16  0 29  7.0000000  0  7G04G08G14G16G26G27G31               -0.000385117
  21959496.281 6 115397936.257 6  89920505.55247  21959505.15247
  22673659.734 4 119150897.596 4  92844897.41048  22673670.75048
  22636723.266 6 118956782.499 6  92693618.09147  22636730.60547
  20603441.813 7 108271815.217 7  84367675.92848  20603448.13748
  21403425.586 6 112475760.793 6  87643490.01649  21403436.61749
  20624072.422 6 108380234.515 6  84452166.82849  20624081.81649
  21916452.219 5 115171727.285 5  89744222.52147  21916457.88347
 20  5 16  0 29  8.0000000  0  7G04G08G14G16G26G27G31               -0.000385061
  21959122.234 6 115395966.480 6  89918970.66047  21959130.07447
  22673024.641 4 119147559.771 4  92842296.51148  22673035.38748
  22637375.602 6 118960208.028 6  92696287.33247  22637382.74647
  20603557.969 7 108272425.276 7  84368151.29648  20603563.99648
  21403751.773 6 112477475.042 6  87644825.79249  21403762.82049
  20623683.211 6 108378188.301 6  84450572.38149  20623692.33649
  21916699.258 5 115173029.862 5  89745237.52047  21916705.90647
 20  5 16  0 29  9.0000000  0  7G04G08G14G16G26G27G31               -0.000385006
  21958747.680 6 115393997.334 6  89917436.25547  21958755.89147
  22672389.211 4 119144222.289 4  92839695.87648  22672400.15648
  22638027.516 6 118963633.947 6  92698956.87647  22638034.47747
  20603674.008 7 108273035.723 7  84368626.96948  20603680.14548
  21404077.672 6 112479189.477 6  87646161.71549  21404088.94549
  20623294.008 6 108376142.757 6  84448978.44649  20623303.41449
  21916947.273 5 115174332.792 5  89746252.78647  21916953.72347
 20  5 16  0 29 10.0000000  0  7G04G08G14G16G26G27G31               -0.000384951
  21958373.000 6 115392028.869 6  89915902.39247  21958380.73847
  22671754.203 4 119140885.316 4  92837095.64348  22671765.26248
  22638679.445 6 118967060.283 6  92701626.74347  22638686.44147
  20603790.461 7 108273646.632 7  84369103.00848  20603796.63748
  21404404.039 6 112480904.180 6  87647497.84749  21404415.29349
  20622904.836 6 108374097.966 6  84447385.10249  20622914.14149
  21917195.000 6 115175636.147 6  89747268.39847  21917201.93447
 20  5 16  0 29 11.0000000  0  7G04G08G14G16G26G27G31               -0.000384895
  21957998.664 6 115390061.093 6  89914369.05947  21958006.80547
  22671119.055 4 119137548.775 4  92834495.74048  22671130.27348
  22639331.523 6 118970487.090 6  92704296.97947  22639338.57047
  20603907.047 7 108274257.995 7  84369579.39648  20603912.89848
  21404730.477 6 112482619.122 6  87648834.16649  21404741.80149
  20622516.141 6 108372053.935 6  84445792.35349  20622525.37949
  21917443.125 6 115176939.949 6  89748284.35047  21917450.07847
 20  5 16  0 29 12.0000000  0  7G04G08G14G16G26G27G31               -0.000384840
  21957624.391 6 115388094.067 6  89912836.30647  21957632.05147
  22670484.953 4 119134212.769 4  92831896.26248  22670495.37548
  22639983.852 6 118973914.357 6  92706967.57447  22639990.90247
  20604023.133 7 108274869.887 7  84370056.19548  20604029.07048
  21405056.938 6 112484334.364 6  87650170.71849  21405067.92249
  20622127.203 6 108370010.708 6  84444200.22949  20622136.36749
  21917691.398 5 115178244.246 5  89749300.68247  21917697.86347
 20  5 16  0 29 13.0000000  0  7G04G08G14G16G26G27G31               -0.000384785
  21957249.922 6 115386127.677 6  89911304.05647  21957258.20747
  22669849.742 4 119130877.177 4  92829297.10148  22669860.93848
  22640635.742 6 118977342.075 6  92709638.52947  22640643.20747
  20604139.781 7 108275482.211 7  84370533.33648  20604145.77048
  21405383.383 6 112486049.828 6  87651507.44049  21405394.35949
  20621738.430 6 108367968.212 6  84442608.67949  20621747.46949
  21917939.391 5 115179548.945 5  89750317.33647  21917946.44947
 20  5 16  0 29 14.0000000  0  7G04G08G14G16G26G27G31               -0.000384729
  21956876.359 6 115384161.987 6  89909772.34747  21956884.05147
  22669215.938 4 119127542.015 4  92826698.27148  22669225.74648
  22641288.297 6 118980770.165 6  92712309.76247  22641295.28547
  20604256.453 7 108276094.968 7  84371010.80648  20604262.69148
  21405709.547 6 112487765.546 6  87652844.36349  21405721.07849
  20621350.156 6 108365926.482 6  84441017.71849  20621359.26249
  21918188.000 5 115180854.074 5  89751334.32047  21918194.82447
 20  5 16  0 29 15.0000000  0  7G04G08G14G16G26G27G31               -0.000384674
  21956502.531 6 115382196.904 6  89908241.11247  21956510.52047
  22668580.680 4 119124207.276 4  92824099.77348  22668591.46548
  22641940.695 6 118984198.651 6  92714981.31547  22641947.73047
  20604372.789 7 108276708.126 7  84371488.59548  20604379.31348
  21406036.266 6 112489481.441 6  87654181.42749  21406047.52049
  20620961.555 6 108363885.409 6  84439427.27149  20620970.93049
  21918435.961 5 115182159.577 5  89752351.60447  21918442.66447
 20  5 16  0 29 16.0000000  0  7G04G08G14G16G26G27G31               -0.000384619
  21956128.219 6 115380232.490 6  89906710.39847  21956136.29747
  22667946.313 4 119120872.896 4  92821501.55648  22667956.96148
  22642593.070 6 118987627.531 6  92717653.15647  22642600.20347
  20604489.602 7 108277321.717 7  84371966.71248  20604496.18048
  21406363.180 6 112491197.584 6  87655518.67849  21406374.12549
  20620573.563 6 108361845.059 6  84437837.38349  20620582.77349
  21918684.633 5 115183465.466 5  89753369.17247  21918691.51247
 20  5 16  0 29 17.0000000  0  7G04G08G14G16G26G27G31               -0.000384562
  21955754.844 6 115378268.852 6  89905180.28847  21955762.50447
  22667311.773 4 119117539.059 4  92818903.76848  22667322.13748
  22643245.930 6 118991056.920 6  92720325.39747  22643253.12147
  20604606.625 6 108277935.830 6  84372445.24648  20604612.79748
  21406689.398 6 112492914.024 6  87656856.16749  21406700.67649
  20620185.422 6 108359805.543 6  84436248.15049  20620194.30949
  21918933.164 5 115184771.879 5  89754387.15747  21918939.92647
 20  5 16  0 29 18.0000000  0  7G04G08G14G16G26G27G31               -0.000384506
  21955381.297 6 115376305.866 6  89903650.68847  21955389.27047
  22666678.305 4 119114205.659 4  92816306.31548  22666688.29748
  22643898.531 6 118994486.741 6  92722997.97947  22643905.25047
  20604723.594 6 108278550.419 6  84372924.14648  20604729.71548
  21407016.164 6 112494630.724 6  87658193.85049  21407027.59449
  20619797.352 6 108357766.794 6  84434659.51449  20619806.49649
  21919182.422 5 115186078.706 5  89755405.47047  21919188.41047
 20  5 16  0 29 19.0000000  0  7G04G08G14G16G26G27G31               -0.000384449
  21955008.289 6 115374343.602 6  89902121.65347  21955015.55947
  22666043.164 4 119110872.799 4  92813709.28248  22666054.09048
  22644551.305 6 118997917.017 6  92725670.91847  22644557.96947
  20604840.711 7 108279165.470 7  84373403.41048  20604847.17648
  21407342.688 6 112496347.686 6  87659531.74049  21407353.80549
  20619409.352 6 108355728.775 6  84433071.44349  20619418.70349
  21919430.656 5 115187386.011 5  89756424.14847  21919437.16847
 20  5 16  0 29 20.0000000  0  7G04G08G14G16G26G27G31               -0.000384394
  21954634.602 6 115372382.077 6  89900593.19347  21954642.46547
  22665409.516 4 119107540.352 4  92811112.56748  22665419.85548
  22645204.078 6 119001347.776 6  92728344.23747  22645210.82447
  20604957.961 7 108279781.028 7  84373883.06348  20604963.79348
  21407669.664 6 112498064.961 6  87660869.87849  21407680.84449
  20619021.594 6 108353691.614 6  84431484.04449  20619031.06349
  21919679.656 5 115188693.784 5  89757443.19747  21919685.93447
 20  5 16  0 29 21.0000000  0  7G04G08G14G16G26G27G31               -0.000384336
  21954261.820 6 115370421.189 6  89899065.22447  21954269.32447
  22664775.531 4 119104208.351 4  92808516.20748  22664785.91848
  22645857.297 6 119004778.926 6  92731017.85947  22645863.81647
  20605074.938 7 108280397.011 7  84374363.05848  20605081.10248
  21407996.477 6 112499782.428 6  87662208.16449  21408007.36349
  20618633.883 6 108351655.130 6  84429897.18149  20618643.64149
  21919928.461 5 115190001.940 5  89758462.53947  21919935.29347
 20  5 16  0 29 22.0000000  0  7G04G08G14G16G26G27G31               -0.000384279
  21953888.664 6 115368461.004 6  89897537.80647  21953895.80147
  22664142.078 4 119100876.850 4  92805920.22948  22664151.95348
  22646509.875 6 119008210.535 6  92733691.84247  22646516.89547
  20605192.539 7 108281013.478 7  84374843.41748  20605198.73448
  21408323.359 6 112501500.200 6  87663546.68749  21408334.66049
  20618246.930 6 108349619.414 6  84428310.90649  20618256.13749
  21920177.422 5 115191310.599 5  89759482.27347  21920184.07447
 20  5 16  0 29 23.0000000  0  7G04G08G14G16G26G27G31               -0.000384224
  21953515.781 6 115366501.593 6  89896010.99147  21953523.19147
  22663506.805 4 119097545.864 4  92803324.66248  22663518.32848
  22647163.438 6 119011642.658 6  92736366.22647  22647169.64547
  20605309.813 7 108281630.474 7  84375324.19448  20605315.88748
  21408650.406 6 112503218.266 6  87664885.43749  21408661.54349
  20617859.320 6 108347584.540 6  84426725.29449  20617868.72749
  21920426.930 5 115192619.743 5  89760502.38247  21920433.74247
 20  5 16  0 29 24.0000000  0  7G04G08G14G16G26G27G31               -0.000384167
  21953143.203 6 115364542.951 6  89894484.77547  21953150.62547
  22662873.711 4 119094215.403 4  92800729.49948  22662884.27048
  22647816.641 6 119015075.272 6  92739040.99047  22647823.34047
  20605427.328 7 108282247.998 7  84375805.38248  20605433.30148
  21408977.242 6 112504936.666 6  87666224.45349  21408988.05149
  20617472.539 6 108345550.500 6  84425140.32349  20617482.04349
  21920676.031 5 115193929.382 5  89761522.87747  21920682.44547
 20  5 16  0 29 25.0000000  0  7G04G08G14G16G26G27G31               -0.000384109
  21952770.617 6 115362584.943 6  89892959.05347  21952777.89847
  22662239.461 5 119090885.367 5  92798134.66748  22662250.62548
  22648469.867 6 119018508.287 6  92741716.06547  22648476.55147
  20605544.711 7 108282865.947 7  84376286.90348  20605550.85548
  21409304.516 6 112506655.304 6  87667563.64849  21409315.29749
  20617085.570 6 108343517.175 6  84423555.91949  20617094.62149
  21920925.781 5 115195239.438 5  89762543.70247  21920931.98447
 20  5 16  0 29 26.0000000  0  7G04G08G14G16G26G27G31               -0.000384052
  21952398.234 6 115360627.621 6  89891433.86347  21952405.57847
  22661606.438 5 119087555.743 5  92795540.15448  22661617.16048
  22649123.563 6 119021941.737 6  92744391.47347  22649129.78947
  20605662.375 7 108283484.344 7  84376768.76948  20605668.81348
  21409631.320 6 112508374.149 6  87668903.00749  21409642.51249
  20616698.875 6 108341484.603 6  84421972.09649  20616708.25849
  21921174.320 5 115196549.900 5  89763564.84547  21921180.93047
 20  5 16  0 29 27.0000000  0  7G04G08G14G16G26G27G31               -0.000383995
  21952025.578 6 115358671.021 6  89889909.24247  21952033.27347
  22660972.578 5 119084226.650 5  92792946.06248  22660983.77748
  22649776.063 6 119025375.663 6  92747067.25347  22649783.12547
  20605780.297 6 108284103.247 6  84377251.02848  20605786.47748
  21409958.656 6 112510093.316 6  87670242.62049  21409969.74649
  20616312.484 6 108339452.813 6  84420388.88349  20616321.32849
  21921424.625 5 115197860.885 5  89764586.39147  21921431.10547
 20  5 16  0 29 28.0000000  0  7G04G08G14G16G26G27G31               -0.000383938
  21951653.766 6 115356715.029 6  89888385.09548  21951661.18048
  22660339.555 4 119080897.900 4  92790352.23248  22660350.08648
  22650430.211 6 119028809.922 6  92749743.30947  22650436.38747
  20605897.906 6 108284722.485 6  84377733.55748  20605904.35948
  21410285.531 6 112511812.617 6  87671582.33649  21410296.66849
  20615925.609 6 108337421.687 6  84418806.19249  20615935.12549
  21921673.359 5 115199172.162 5  89765608.16047  21921680.33647
 20  5 16  0 29 29.0000000  0  7G04G08G14G16G26G27G31               -0.000383881
  21951281.813 6 115354759.748 6  89886861.50147  21951289.37147
  22659706.211 4 119077569.683 4  92787758.82048  22659716.73048
  22651084.070 6 119032244.690 6  92752419.75047  22651090.06647
  20606016.078 6 108285342.269 6  84378216.50248  20606022.26248
  21410612.906 6 112513532.238 6  87672922.29949  21410623.87549
  20615539.344 6 108335391.379 6  84417224.13549  20615548.69949
  21921922.969 5 115200483.930 5  89766630.31747  21921929.86347
 20  5 16  0 29 30.0000000  0  7G04G08G14G16G26G27G31               -0.000383823
  21950909.766 6 115352805.245 6  89885338.50747  21950917.10947
  22659072.766 4 119074241.963 4  92785165.79648  22659083.61748
  22651737.250 6 119035679.920 6  92755096.54647  22651743.66847
  20606134.047 7 108285962.535 7  84378699.82748  20606140.50048
  21410940.391 6 112515252.173 6  87674262.50749  21410951.21949
  20615153.359 6 108333361.869 6  84415642.69549  20615163.02349
  21922173.039 5 115201796.203 5  89767652.86147  21922179.99647
 20  5 16  0 29 31.0000000  0  7G04G08G14G16G26G27G31               -0.000383764
  21950538.023 6 115350851.528 6  89883816.12747  21950545.35247
  22658439.633 4 119070914.801 4  92782573.19948  22658450.50448
  22652391.008 6 119039115.699 6  92757773.77847  22652397.28947
  20606252.148 7 108286583.390 7  84379183.61448  20606258.47748
  21411268.023 6 112516972.457 6  87675602.99049  21411278.56349
  20614767.031 6 108331333.230 6  84414061.94149  20614776.60549
  21922422.602 5 115203108.994 5  89768675.81047  21922429.50847
 20  5 16  0 29 32.0000000  0  7G04G08G14G16G26G27G31               -0.000383707
  21950166.078 6 115348898.436 6  89882294.23847  21950173.59047
  22657805.734 5 119067587.985 5  92779980.87548  22657817.18848
  22653044.789 6 119042551.851 6  92760451.29247  22653051.07847
  20606370.484 7 108287204.640 7  84379667.69948  20606377.02348
  21411595.070 6 112518692.929 6  87676943.60949  21411606.05149
  20614381.102 6 108329305.301 6  84412481.73149  20614390.69149
  21922672.750 5 115204422.220 5  89769699.11147  21922679.30947
 20  5 16  0 29 33.0000000  0  7G04G08G14G16G26G27G31               -0.000383650
  21949794.641 6 115346946.043 6  89880772.89347  21949802.03147
  22657173.367 5 119064261.712 5  92777388.97548  22657184.34848
  22653699.039 6 119045988.441 6  92763129.16147  22653704.93047
  20606488.555 7 108287826.322 7  84380152.12748  20606495.06348
  21411922.414 6 112520413.646 6  87678284.42949  21411933.19549
  20613995.156 6 108327278.101 6  84410902.10349  20614005.04749
  21922922.430 5 115205735.844 5  89770722.70947  21922929.30947
 20  5 16  0 29 34.0000000  0  7G04G08G14G16G26G27G31               -0.000383591
  21949423.188 6 115344994.292 6  89879252.05347  21949430.87947
  22656540.563 5 119060935.813 5  92774797.36348  22656551.32448
  22654352.969 6 119049425.437 6  92765807.34647  22654359.42247
  20606607.117 7 108288448.467 7  84380636.91348  20606613.56648
  21412250.141 6 112522134.586 6  87679625.42149  21412260.85549
  20613609.883 6 108325251.623 6  84409323.02549  20613619.09849
  21923172.633 5 115207049.879 5  89771746.63447  21923179.37547
 20  5 16  0 29 35.0000000  0  7G04G08G14G16G26G27G31               -0.000383533
  21949052.102 6 115343043.226 6  89877731.74447  21949059.47347
  22655908.516 5 119057610.371 5  92772206.11548  22655918.89148
  22655007.047 6 119052862.843 6  92768485.84347  22655013.13747
  20606725.688 7 108289071.043 7  84381122.04148  20606731.78148
  21412578.078 6 112523855.802 6  87680966.62749  21412588.14549
  20613224.273 6 108323225.920 6  84407744.55949  20613233.55549
  21923423.078 5 115208364.365 5  89772770.91247  21923429.25047
 20  5 16  0 29 36.0000000  0  7G04G08G14G16G26G27G31               -0.000383474
  21948680.578 6 115341092.733 6  89876211.88148  21948688.21148
  22655275.508 5 119054285.297 5  92769615.14648  22655286.32448
  22655661.320 6 119056300.605 6  92771164.63347  22655667.62947
  20606844.195 7 108289693.977 7  84381607.44448  20606850.51648
  21412905.500 6 112525577.138 6  87682307.92449  21412916.03549
  20612838.922 6 108321200.843 6  84406166.57749  20612848.64549
  21923672.883 5 115209679.166 5  89773795.43247  21923679.34847
 20  5 16  0 29 37.0000000  0  7G04G08G14G16G26G27G31               -0.000383415
  21948309.109 6 115339142.947 6  89874692.56847  21948316.91847
  22654642.266 4 119050960.662 4  92767024.52348  22654653.46548
  22656315.641 6 119059738.781 6  92773843.72947  22656321.51647
  20606962.688 7 108290317.357 7  84382093.19148  20606968.93448
  21413233.336 6 112527298.732 6  87683649.42849  21413243.49649
  20612453.531 6 108319176.533 6  84404589.19049  20612463.38749
  21923923.656 5 115210994.390 5  89774820.27647  21923929.96547
 20  5 16  0 29 38.0000000  0  7G04G08G14G16G26G27G31               -0.000383358
  21947938.703 6 115337193.948 6  89873173.86247  21947946.05147
  22654009.875 5 119047636.557 5  92764434.31548  22654021.03948
  22656969.656 6 119063177.506 6  92776523.26247  22656975.66047
  20607081.516 7 108290941.305 7  84382579.38548  20607087.77048
  21413560.516 6 112529020.670 6  87684991.19349  21413571.09449
  20612068.844 6 108317153.081 6  84403012.47549  20612078.36749
  21924174.023 5 115212310.159 5  89775845.54247  21924180.03547
 20  5 16  0 29 39.0000000  0  7G04G08G14G16G26G27G31               -0.000383299
  21947567.992 6 115335245.707 6  89871655.75947  21947575.53947
  22653377.820 4 119044313.013 4  92761844.54248  22653388.43448
  22657623.969 6 119066616.707 6  92779203.15447  22657630.60947
  20607200.461 7 108291565.767 7  84383065.98148  20607206.85948
  21413888.133 6 112530742.923 6  87686333.21249  21413898.76249
  20611683.750 6 108315130.426 6  84401436.37849  20611693.58649
  21924424.570 5 115213626.412 5  89776871.20147  21924430.78547
 20  5 16  0 29 40.0000000  0  7G04G08G14G16G26G27G31               -0.000383240
  21947197.539 6 115333298.120 6  89870138.15547  21947205.03547
  22652744.984 4 119040989.888 4  92759255.09148  22652756.19548
  22658278.984 6 119070056.354 6  92781883.39947  22658285.06647
  20607319.281 7 108292190.689 7  84383552.93548  20607325.93448
  21414215.875 6 112532465.428 6  87687675.42549  21414226.57049
  20611299.133 6 108313108.538 6  84399860.88449  20611309.02049
  21924674.297 5 115214943.129 5  89777897.21147  21924680.86747
 20  5 16  0 29 41.0000000  0  7G04G08G14G16G26G27G31               -0.000383181
  21946826.734 6 115331351.226 6  89868621.09347  21946834.53947
  22652113.438 5 119037667.223 5  92756666.00648  22652124.00448
  22658933.414 6 119073496.396 6  92784563.94647  22658939.82447
  20607438.641 7 108292816.074 7  84384040.24648  20607444.80548
  21414543.734 6 112534188.163 6  87689017.81649  21414554.69949
  20610914.234 6 108311087.395 6  84398285.96449  20610924.05549
  21924925.242 5 115216260.261 5  89778923.54847  21924931.41847
 20  5 16  0 29 42.0000000  0  7G04G08G14G16G26G27G31               -0.000383121
  21946456.586 6 115329404.937 6  89867104.50847  21946464.05547
  22651480.469 4 119034344.923 4  92754077.20548  22651491.71548
  22659587.594 6 119076936.816 6  92787244.78747  22659594.08647
  20607557.055 7 108293441.803 7  84384527.82548  20607563.67648
  21414871.609 6 112535911.047 6  87690360.31949  21414882.42649
  20610529.695 6 108309066.893 6  84396711.54449  20610539.69949
  21925176.141 5 115217577.698 5  89779950.11647  21925182.61347
 20  5 16  0 29 43.0000000  0  7G04G08G14G16G26G27G31               -0.000383062
  21946086.141 6 115327459.369 6  89865588.47647  21946093.74247
  22650849.086 5 119031023.142 5  92751488.80648  22650859.38748
  22660242.906 6 119080377.671 6  92789925.96747  22660249.30947
  20607676.531 7 108294068.037 7  84385015.80048  20607683.18448
  21415199.633 6 112537634.216 6  87691703.04749  21415210.42249
  20610145.430 6 108307047.210 6  84395137.76449  20610155.14849
  21925426.750 5 115218895.642 5  89780977.09247  21925433.39547
 20  5 16  0 29 44.0000000  0  7G04G08G14G16G26G27G31               -0.000383003
  21945716.234 6 115325514.449 6  89864072.94947  21945724.07447
  22650216.852 5 119027701.743 5  92748900.70548  22650227.45748
  22660897.586 6 119083818.921 6  92792607.46747  22660903.91847
  20607795.805 7 108294694.674 7  84385504.09548  20607802.21948
  21415528.133 6 112539357.620 6  87693045.95949  21415538.44549
  20609761.188 6 108305028.228 6  84393564.53449  20609770.93449
  21925678.141 5 115220213.953 5  89782004.34147  21925684.47747
 20  5 16  0 29 45.0000000  0  7G04G08G14G16G26G27G31               -0.000382944
  21945345.625 6 115323570.236 6  89862557.97947  21945353.87947
  22649585.086 5 119024380.829 5  92746312.97948  22649596.02348
  22661552.930 6 119087260.641 6  92795289.32647  22661559.01247
  20607915.281 7 108295321.810 7  84385992.77048  20607921.64548
  21415855.453 6 112541081.298 6  87694389.09049  21415866.06649
  20609377.344 6 108303010.035 6  84391991.90949  20609387.09449
  21925929.281 5 115221532.753 5  89783031.98747  21925935.34447
 20  5 16  0 29 46.0000000  0  7G04G08G14G16G26G27G31               -0.000382885
  21944976.461 6 115321626.757 6  89861043.58147  21944984.16447
  22648952.922 5 119021060.419 5  92743725.65148  22648963.67248
  22662207.766 6 119090702.854 6  92797971.56847  22662214.17647
  20608034.586 7 108295949.438 7  84386481.83248  20608041.43048
  21416183.602 6 112542805.269 6  87695732.44149  21416194.15649
  20608993.906 6 108300992.662 6  84390419.93349  20609003.24249
  21926180.203 5 115222852.047 5  89784060.00847  21926186.25847
 20  5 16  0 29 47.0000000  0  7G04G08G14G16G26G27G31               -0.000382826
  21944606.328 6 115319684.041 6  89859529.78047  21944614.43447
  22648320.703 4 119017740.580 4  92741138.76448  22648331.78148
  22662862.883 6 119094145.550 6  92800654.19347  22662869.21947
  20608154.250 7 108296577.595 7  84386971.30448  20608160.60248
  21416512.000 6 112544529.554 6  87697076.04049  21416522.42249
  20608609.805 6 108298976.071 6  84388848.56049  20608619.28949
  21926431.500 5 115224171.766 5  89785088.35747  21926437.63747
 20  5 16  0 29 48.0000000  0  7G04G08G14G16G26G27G31               -0.000382767
  21944237.055 6 115317742.038 6  89858016.52847  21944244.63347
  22647689.727 5 119014421.165 5  92738552.20348  22647700.36748
  22663517.695 6 119097588.715 6  92803337.18147  22663524.31347
  20608273.539 7 108297206.235 7  84387461.15548  20608280.39148
  21416839.836 6 112546254.094 6  87698419.84049  21416850.39849
  20608226.406 6 108296960.308 6  84387277.84149  20608235.52049
  21926682.703 5 115225492.043 5  89786117.14647  21926689.09447
 20  5 16  0 29 49.0000000  0  7G04G08G14G16G26G27G31               -0.000382706
  21943867.531 6 115315800.770 6  89856503.85547  21943875.37147
  22647057.492 5 119011102.271 5  92735966.04648  22647068.64548
  22664173.367 6 119101032.316 6  92806020.49947  22664180.04347
  20608393.445 7 108297835.354 7  84387951.37248  20608400.02748
  21417168.039 6 112547978.951 6  87699763.88449  21417178.70349
  20607842.445 6 108294945.289 6  84385707.69749  20607852.50849
  21926933.602 5 115226812.741 5  89787146.25947  21926940.02347
 20  5 16  0 29 50.0000000  0  7G04G08G14G16G26G27G31               -0.000382647
  21943498.289 6 115313860.146 6  89854991.67947  21943505.99647
  22646425.672 5 119007783.800 5  92733380.23648  22646437.00848
  22664829.094 6 119104476.318 6  92808704.14247  22664835.55547
  20608513.430 7 108298464.911 7  84388441.93948  20608519.64548
  21417496.469 6 112549704.013 6  87701108.08749  21417507.42249
  20607459.680 6 108292931.023 6  84384138.13449  20607469.18049
  21927184.430 5 115228133.861 5  89788175.69647  21927191.19147
 20  5 16  0 29 51.0000000  0  7G04G08G14G16G26G27G31               -0.000382587
  21943129.461 6 115311920.242 6  89853480.05947  21943136.91847
  22645794.508 5 119004465.759 5  92730794.75448  22645805.91048
  22665484.195 6 119107920.790 6  92811388.14547  22665490.82847
  20608633.328 7 108299094.938 7  84388932.87249  20608639.96149
  21417824.734 6 112551429.348 6  87702452.50449  21417835.06349
  20607076.367 6 108290917.517 6  84382569.17549  20607085.56649
  21927436.977 5 115229455.405 5  89789205.47047  21927442.76647
 20  5 16  0 29 52.0000000  0  7G04G08G14G16G26G27G31               -0.000382526
  21942760.367 6 115309981.054 6  89851969.00447  21942767.65647
  22645163.461 5 119001148.242 5  92728209.68248  22645174.57448
  22666139.477 6 119111365.732 6  92814072.51347  22666146.10547
  20608753.250 7 108299725.456 7  84389424.18448  20608759.57048
  21418153.648 6 112553154.959 6  87703797.13149  21418163.55949
  20606693.328 6 108288904.801 6  84381000.81849  20606702.65249
  21927688.266 5 115230777.467 5  89790235.64247  21927694.61347
 20  5 16  0 29 53.0000000  0  7G04G08G14G16G26G27G31               -0.000382465
  21942391.250 6 115308042.658 6  89850458.56947  21942399.09047
  22644531.961 5 118997831.239 5  92725625.00448  22644543.14848
  22666795.602 6 119114811.170 6  92816757.26947  22666802.00447
  20608873.414 7 108300356.526 7  84389915.92949  20608879.69549
  21418481.617 5 112554880.921 5  87705142.04149  21418492.28149
  20606310.563 6 108286892.934 6  84379433.13349  20606319.89849
  21927940.313 5 115232100.015 5  89791266.19447  21927945.99647
 20  5 16  0 29 54.0000000  0  7G04G08G14G16G26G27G31               -0.000382406
  21942022.664 6 115306104.946 6  89848948.66547  21942030.62947
  22643901.531 5 118994514.788 5  92723040.75248  22643912.38348
  22667451.148 6 119118257.104 6  92819442.41747  22667458.19947
  20608993.648 7 108300988.088 7  84390408.05349  20608999.73049
  21418810.492 5 112556607.165 5  87706487.15949  21418820.75849
  20605927.656 6 108284881.871 6  84377866.06649  20605936.97749
  21928191.617 5 115233423.079 5  89792297.14647  21928198.14847
 20  5 16  0 29 55.0000000  0  7G04G08G14G16G26G27G31               -0.000382345
  21941654.008 6 115304167.948 6  89847439.31547  21941661.93847
  22643270.109 5 118991198.712 5  92720456.79448  22643281.07848
  22668106.586 6 119121703.405 6  92822127.83847  22668113.84047
  20609113.719 7 108301620.089 7  84390900.52049  20609120.24649
  21419139.000 5 112558333.629 5  87707832.45849  21419148.91849
  20605545.094 6 108282871.524 6  84376299.56549  20605554.80549
  21928443.219 5 115234746.525 5  89793328.40147  21928450.03147
 20  5 16  0 29 56.0000000  0  7G04G08G14G16G26G27G31               -0.000382284
  21941285.383 6 115302231.561 6  89845930.44347  21941293.16047
  22642639.398 5 118987883.083 5  92717873.19248  22642650.27048
  22668762.609 6 119125150.119 6  92824813.58747  22668769.79347
  20609233.984 6 108302252.485 6  84391393.29348  20609240.26248
  21419467.445 6 112560060.275 6  87709177.90349  21419477.41849
  20605162.953 6 108280861.893 6  84374733.61649  20605171.98049
  21928695.734 5 115236070.340 5  89794359.93847  21928701.39547
 20  5 16  0 29 57.0000000  0  7G04G08G14G16G26G27G31               -0.000382223
  21940917.219 6 115300295.855 6  89844422.10447  21940925.14547
  22642008.180 5 118984567.903 5  92715289.93648  22642019.46948
  22669418.859 6 119128597.253 6  92827499.66647  22669425.62947
  20609354.266 7 108302885.336 7  84391886.43049  20609361.16049
  21419796.117 6 112561787.198 6  87710523.55949  21419806.27749
  20604780.492 6 108278853.021 6  84373168.26349  20604789.75449
  21928948.078 5 115237394.637 5  89795391.84647  21928953.47347
 20  5 16  0 29 58.0000000  0  7G04G08G14G16G26G27G31               -0.000382162
  21940548.914 6 115298360.743 6  89842914.22547  21940556.69547
  22641377.750 5 118981253.041 5  92712706.92548  22641388.87548
  22670074.625 6 119132044.736 6  92830186.02347  22670081.75847
  20609474.750 7 108303518.529 7  84392379.82149  20609481.22749
  21420124.828 5 112563514.262 5  87711869.31749  21420135.20349
  20604398.430 6 108276844.790 6  84371603.40049  20604407.74249
  21929200.461 5 115238719.230 5  89796423.99747  21929205.71947
 20  5 16  0 29 59.0000000  0  7G04G08G14G16G26G27G31               -0.000382103
  21940180.563 6 115296426.202 6  89841406.79548  21940188.63748
  22640746.797 5 118977938.526 5  92710124.18948  22640757.73848
  22670730.508 6 119135492.498 6  92832872.58847  22670738.12147
  20609595.586 7 108304152.080 7  84392873.50348  20609601.83648
  21420453.391 5 112565241.455 5  87713215.18849  21420463.84049
  20604016.063 6 108274837.185 6  84370039.03049  20604025.66849
  21929451.891 5 115240044.169 5  89797456.42547  21929457.98847
 20  5 16  0 30  0.0000000  0  7G04G08G14G16G26G27G31               -0.000382042
  21939812.617 6 115294492.333 6  89839899.88447  21939820.61747
  22640116.445 5 118974624.452 5  92707541.79448  22640127.00048
  22671387.047 6 119138940.673 6  92835559.47247  22671394.47747
  20609716.117 7 108304786.026 7  84393367.48248  20609722.72348
  21420781.961 5 112566968.846 5  87714561.20049  21420792.32449
  20603634.250 6 108272830.310 6  84368475.23449  20603643.90249
  21929704.148 5 115241369.475 5  89798489.13447  21929709.66847
 20  5 16  0 30  1.0000000  0  7G04G08G14G16G26G27G31               -0.000381981
  21939444.773 6 115292559.078 6  89838393.45047  21939452.93847
  22639485.438 5 118971310.777 5  92704959.71048  22639496.43848
  22672042.953 6 119142389.222 6  92838246.65347  22672050.68447
  20609837.086 7 108305420.396 7  84393861.79748  20609843.75848
  21421110.906 5 112568696.469 5  87715907.39849  21421121.39549
  20603252.523 6 108270824.157 6  84366911.99749  20603262.10249
  21929957.344 5 115242695.199 5  89799522.16147  21929962.27047
 20  5 16  0 30  2.0000000  0  7G04G08G14G16G26G27G31               -0.000381920
  21939077.031 6 115290626.551 6  89836887.58247  21939085.16847
  22638855.547 5 118967997.602 5  92702378.01848  22638866.28548
  22672699.141 6 119145838.210 6  92840934.17947  22672706.67647
  20609957.867 7 108306055.236 7  84394356.47748  20609964.30548
  21421439.688 6 112570424.331 6  87717253.78549  21421450.07049
  20602871.250 6 108268818.750 6  84365349.34149  20602880.43849
  21930209.141 5 115244021.331 5  89800555.50947  21930214.63347
 20  5 16  0 30  3.0000000  0  7G04G08G14G16G26G27G31               -0.000381857
  21938709.430 6 115288694.627 6  89835382.18947  21938717.55147
  22638224.984 5 118964684.752 5  92699796.57648  22638235.75448
  22673355.953 6 119149287.552 6  92843621.97447  22673362.99647
  20610078.750 7 108306690.449 7  84394851.44748  20610085.25848
  21421768.305 6 112572152.379 6  87718600.31749  21421779.11349
  20602489.609 6 108266814.035 6  84363787.22949  20602498.64149
  21930460.859 5 115245347.836 5  89801589.14747  21930467.25047
 20  5 16  0 30  4.0000000  0  7G04G08G14G16G26G27G31               -0.000381796
  21938342.023 6 115286763.463 6  89833877.39347  21938349.97747
  22637594.594 5 118961372.463 5  92697215.56948  22637605.29348
  22674012.477 6 119152737.393 6  92846310.15147  22674019.97347
  20610199.594 7 108307326.176 7  84395346.82048  20610206.17648
  21422097.234 6 112573880.704 6  87719947.06249  21422107.67249
  20602108.328 6 108264810.133 6  84362225.74249  20602117.95749
  21930714.008 5 115246674.827 5  89802623.16747  21930719.46947
 20  5 16  0 30  5.0000000  0  7G04G08G14G16G26G27G31               -0.000381735
  21937974.594 6 115284832.854 6  89832373.02647  21937982.36347
  22636963.727 5 118958060.507 5  92694634.82348  22636975.00448
  22674668.773 6 119156187.546 6  92848998.58047  22674676.51647
  20610320.445 6 108307962.245 6  84395842.45348  20610327.21948
  21422426.453 6 112575609.214 6  87721293.95349  21422436.38349
  20601726.742 6 108262806.894 6  84360664.78449  20601736.26649
  21930966.250 5 115248002.181 5  89803657.46947  21930972.27047
 20  5 16  0 30  6.0000000  0  7G04G08G14G16G26G27G31               -0.000381674
  21937607.305 6 115282902.987 6  89830869.22947  21937615.25047
  22636334.508 5 118954749.052 5  92692054.47348  22636345.02748
  22675325.273 6 119159638.159 6  92851687.37247  22675333.07447
  20610441.656 6 108308598.828 6  84396338.49748  20610448.12548
  21422755.016 6 112577337.984 6  87722641.04649  21422765.49649
  20601346.211 6 108260804.437 6  84359104.42349  20601355.54349
  21931218.930 5 115249329.994 5  89804692.13247  21931225.03547
 20  5 16  0 30  7.0000000  0  7G04G08G14G16G26G27G31               -0.000381613
  21937240.203 6 115280973.736 6  89829365.92047  21937248.53547
  22635704.102 5 118951437.950 5  92689474.39748  22635715.28548
  22675982.195 6 119163089.156 6  92854376.46647  22675990.32047
  20610562.672 6 108309235.762 6  84396834.80948  20610569.59848
  21423084.102 6 112579066.957 6  87723988.30349  21423094.52049
  20600965.289 6 108258802.673 6  84357544.61249  20600974.62949
  21931471.922 5 115250658.154 5  89805727.06047  21931477.79747
 20  5 16  0 30  8.0000000  0  7G04G08G14G16G26G27G31               -0.000381550
  21936873.383 6 115279045.183 6  89827863.14747  21936881.80547
  22635073.836 5 118948127.350 5  92686894.70948  22635085.42248
  22676638.680 6 119166540.544 6  92857065.85647  22676646.66847
  20610683.945 6 108309873.165 6  84397331.49248  20610690.23448
  21423413.047 5 112580796.121 5  87725335.70049  21423423.90249
  20600584.438 6 108256801.646 6  84355985.36849  20600593.75449
  21931723.805 5 115251986.762 5  89806762.33347  21931731.15647
 20  5 16  0 30  9.0000000  0  7G04G08G14G16G26G27G31               -0.000381489
  21936506.305 6 115277117.561 6  89826361.10447  21936514.20347
  22634444.273 5 118944817.426 5  92684315.54548  22634455.32448
  22677296.000 6 119169992.633 6  92859755.79547  22677303.52047
  20610805.750 6 108310511.275 6  84397828.72148  20610812.39848
  21423742.852 6 112582525.839 6  87726683.53949  21423752.87149
  20600203.898 6 108254801.604 6  84354426.89349  20600213.25849
  21931976.461 5 115253316.053 5  89807798.15247  21931983.62147
 20  5 16  0 30 10.0000000  0  7G04G08G14G16G26G27G31               -0.000381426
  21936139.688 6 115275190.513 6  89824859.51347  21936148.07047
  22633814.430 5 118941507.868 5  92681736.67748  22633825.52748
  22677952.828 6 119173445.041 6  92862445.97947  22677960.71547
  20610927.336 6 108311149.729 6  84398326.21748  20610933.40248
  21424071.938 6 112584255.631 6  87728031.42249  21424081.97749
  20599823.539 6 108252802.254 6  84352868.96049  20599832.80149
  21932230.078 5 115254645.693 5  89808834.24047  21932236.63747
 20  5 16  0 30 11.0000000  0  7G04G08G14G16G26G27G31               -0.000381365
  21935773.234 6 115273264.161 6  89823358.45847  21935781.34047
  22633184.773 5 118938198.756 5  92679158.15348  22633196.01248
  22678610.117 6 119176897.874 6  92865136.49247  22678617.51247
  20611048.555 6 108311788.652 6  84398824.07848  20611055.19548
  21424400.570 5 112585985.757 5  87729379.57249  21424411.24249
  20599442.813 6 108250803.648 6  84351311.60849  20599452.03149
  21932483.406 5 115255975.769 5  89809870.66147  21932489.47347
 20  5 16  0 30 12.0000000  0  7G04G08G14G16G26G27G31               -0.000381302
  21935406.719 6 115271338.576 6  89821858.00347  21935414.96147
  22632555.695 5 118934890.162 5  92676580.02548  22632566.00848
  22679267.328 6 119180351.212 6  92867827.39947  22679274.92247
  20611170.125 6 108312428.082 6  84399322.33448  20611176.99648
  21424730.438 6 112587716.144 6  87730727.93049  21424740.43849
  20599062.734 6 108248805.856 6  84349754.88349  20599071.74649
  21932736.430 5 115257306.321 5  89810907.45147  21932743.22347
 20  5 16  0 30 13.0000000  0  7G04G08G14G16G26G27G31               -0.000381239
  21935039.914 6 115269413.677 6  89820358.07847  21935048.82447
  22631925.945 5 118931582.073 5  92674002.29448  22631936.82048
  22679924.125 6 119183804.983 6  92870518.64947  22679932.05547
  20611292.414 6 108313067.980 6  84399820.96348  20611298.44148
  21425059.344 6 112589446.814 6  87732076.50749  21425069.41049
  20598682.656 6 108246808.854 6  84348198.77549  20598691.71549
  21932989.445 5 115258637.327 5  89811944.60147  21932996.41847
 20  5 16  0 30 14.0000000  0  7G04G08G14G16G26G27G31               -0.000381178
  21934674.031 6 115267489.546 6  89818858.75747  21934682.34447
  22631296.211 5 118928274.501 5  92671424.96148  22631307.05148
  22680581.531 6 119187259.263 6  92873210.29447  22680589.39547
  20611414.031 6 108313708.408 6  84400319.99448  20611420.54348
  21425389.414 6 112591177.791 6  87733425.32149  21425399.19149
  20598303.203 6 108244812.662 6  84346643.30149  20598311.59449
  21933243.172 5 115259968.852 5  89812982.14147  21933250.09047
 20  5 16  0 30 15.0000000  0  7G04G08G14G16G26G27G31               -0.000381115
  21934307.891 6 115265566.196 6  89817360.04047  21934316.40247
  22630666.641 5 118924967.475 5  92668848.05548  22630677.85548
  22681239.008 6 119190714.027 6  92875902.32147  22681246.72747
  20611535.750 6 108314349.351 6  84400819.43548  20611542.26648
  21425717.938 5 112592909.088 5  87734774.38849  21425728.73449
  20597923.258 6 108242817.298 6  84345088.47649  20597932.12149
  21933495.836 5 115261300.887 5  89814020.09447  21933503.22347
 20  5 16  0 30 16.0000000  0  7G04G08G14G16G26G27G31               -0.000381052
  21933941.922 6 115263643.454 6  89815861.80447  21933950.84447
  22630037.852 5 118921660.788 5  92666271.42148  22630048.48448
  22681896.625 6 119194169.136 6  92878594.61247  22681904.41847
  20611657.719 6 108314990.665 6  84401319.15948  20611664.30548
  21426047.578 6 112594640.548 6  87736123.57549  21426058.24649
  20597543.438 6 108240822.604 6  84343534.17149  20597552.59849
  21933749.594 5 115262633.248 5  89815058.29947  21933757.08247
 20  5 16  0 30 17.0000000  0  7G04G08G14G16G26G27G31               -0.000380989
  21933576.539 6 115261721.277 6  89814364.00547  21933584.84447
  22629408.766 5 118918354.529 5  92663695.11348  22629419.60948
  22682553.781 6 119197624.589 6  92881287.17147  22682561.60247
  20611779.898 6 108315632.359 6  84401819.18148  20611786.48048
  21426377.344 6 112596372.188 6  87737472.91049  21426387.60249
  20597163.656 6 108238828.590 6  84341980.38949  20597173.31649
  21934003.188 5 115263965.990 5  89816096.79747  21934010.57047
 20  5 16  0 30 18.0000000  0  7G04G08G14G16G26G27G31               -0.000380926
  21933210.594 6 115259799.717 6  89812866.68847  21933219.12147
  22628779.461 5 118915048.578 5  92661119.04948  22628790.26248
  22683211.453 6 119201080.390 6  92883980.00347  22683219.56647
  20611902.211 6 108316274.419 6  84402319.48648  20611908.46548
  21426706.609 6 112598103.976 6  87738822.35149  21426717.07049
  20596784.609 6 108236835.245 6  84340427.13549  20596793.68449
  21934256.961 5 115265299.067 5  89817135.55547  21934264.37547
 20  5 16  0 30 19.0000000  0  7G04G08G14G16G26G27G31               -0.000380863
  21932845.766 6 115257878.913 6  89811369.95947  21932854.03547
  22628150.211 5 118911743.184 5  92658543.41948  22628161.38748
  22683869.219 6 119204536.678 6  92886673.21047  22683877.36747
  20612024.469 6 108316916.992 6  84402820.19348  20612030.94548
  21427036.547 6 112599836.062 6  87740172.02749  21427046.91049
  20596405.461 6 108234842.712 6  84338874.51549  20596414.43849
  21934510.109 5 115266632.653 5  89818174.72447  21934517.77047
 20  5 16  0 30 20.0000000  0  7G04G08G14G16G26G27G31               -0.000380800
  21932479.641 6 115255958.813 6  89809873.77548  21932488.58248
  22627522.008 5 118908438.253 5  92655968.15648  22627532.53148
  22684527.211 6 119207993.402 6  92889366.76547  22684534.84847
  20612146.672 6 108317560.035 6  84403321.26648  20612152.90248
  21427366.320 6 112601568.430 6  87741521.92249  21427376.43049
  20596026.633 6 108232850.947 6  84337322.49049  20596035.63349
  21934764.664 5 115267966.687 5  89819214.22947  21934772.03947
 20  5 16  0 30 21.0000000  0  7G04G08G14G16G26G27G31               -0.000380737
  21932114.320 6 115254039.332 6  89808378.07548  21932123.38348
  22626892.625 5 118905133.688 5  92653393.17248  22626903.81648
  22685184.930 6 119211450.471 6  92892060.58347  22685192.74247
  20612269.250 6 108318203.437 6  84403822.61448  20612275.59448
  21427695.977 6 112603300.971 6  87742871.95749  21427705.90249
  20595647.781 6 108230859.867 6  84335770.99549  20595656.76649
  21935018.359 5 115269301.062 5  89820254.00147  21935025.57447
 20  5 16  0 30 22.0000000  0  7G04G08G14G16G26G27G31               -0.000380674
  21931749.344 6 115252120.561 6  89806882.93247  21931758.27347
  22626264.461 5 118901829.604 5  92650818.56348  22626275.12948
  22685843.070 6 119214908.005 6  92894754.76147  22685851.28947
  20612391.914 6 108318847.344 6  84404324.36448  20612398.21948
  21428026.039 6 112605033.758 6  87744222.17249  21428035.99649
  20595268.609 6 108228869.584 6  84334220.13349  20595278.22749
  21935272.492 5 115270635.919 5  89821294.15147  21935279.64847
 20  5 16  0 30 23.0000000  0  7G04G08G14G16G26G27G31               -0.000380611
  21931384.953 6 115250202.657 6  89805388.46147  21931393.11747
  22625635.430 5 118898526.154 5  92648244.44348  22625646.30148
  22686501.023 6 119218366.125 6  92897449.39447  22686508.87947
  20612514.602 6 108319491.847 6  84404826.56948  20612520.78948
  21428355.461 5 112606766.983 5  87745572.74449  21428365.84849
  20594889.781 6 108226880.211 6  84332669.97249  20594899.50449
  21935526.523 4 115271971.356 4  89822334.74947  21935533.83247
 20  5 16  0 30 24.0000000  0  7G04G08G14G16G26G27G31               -0.000380547
  21931019.688 6 115248285.403 6  89803894.49648  21931028.26648
  22625006.852 5 118895223.097 5  92645670.63448  22625017.58648
  22687159.500 6 119221824.648 6  92900144.34547  22687167.21547
  20612637.109 6 108320136.790 6  84405329.12548  20612643.45748
  21428685.203 6 112608500.419 6  87746923.47349  21428695.00449
  20594511.672 6 108224891.574 6  84331120.38349  20594520.84049
  21935780.766 4 115273307.220 4  89823375.67447  21935788.21947
 20  5 16  0 30 25.0000000  0  7G04G08G14G16G26G27G31               -0.000380484
  21930654.797 6 115246368.846 6  89802401.07348  21930663.86348
  22624378.578 5 118891920.563 5  92643097.23148  22624389.19148
  22687817.086 6 119225283.601 6  92902839.63547  22687825.09047
  20612760.195 6 108320782.188 6  84405832.03048  20612766.12548
  21429015.078 6 112610234.107 6  87748274.39649  21429025.47749
  20594133.680 6 108222903.691 6  84329571.38449  20594142.87549
  21936034.953 4 115274643.538 4  89824416.96447  21936042.64147
 20  5 16  0 30 26.0000000  0  7G04G08G14G16G26G27G31               -0.000380419
  21930290.352 6 115244452.966 6  89800908.18047  21930299.12947
  22623749.695 5 118888618.415 5  92640524.13848  22623760.48448
  22688475.883 6 119228742.937 6  92905535.21947  22688483.47747
  20612882.500 6 108321427.994 6  84406335.26348  20612888.98448
  21429344.766 6 112611968.033 6  87749625.50449  21429355.27349
  20593755.531 6 108220916.530 6  84328022.95149  20593764.81349
  21936289.773 4 115275980.184 4  89825458.49547  21936296.62947
 20  5 16  0 30 27.0000000  0  7G04G08G14G16G26G27G31               -0.000380356
  21929926.375 6 115242537.698 6  89799415.76347  21929934.85547
  22623121.625 5 118885316.690 5  92637951.36648  22623132.36348
  22689133.602 6 119232202.676 6  92908231.12047  22689142.00447
  20613005.852 6 108322074.227 6  84406838.81648  20613011.77748
  21429675.023 6 112613702.108 6  87750976.73149  21429685.38349
  20593377.703 6 108218930.077 6  84326475.06249  20593386.46149
  21936543.758 4 115277317.313 4  89826500.42347  21936551.28147
 20  5 16  0 30 28.0000000  0  7G04G08G14G16G26G27G31               -0.000380291
  21929561.438 6 115240623.222 6  89797923.96747  21929570.24247
  22622494.164 5 118882015.485 5  92635378.99948  22622504.57848
  22689792.438 6 119235662.938 6  92910927.43047  22689800.42247
  20613129.016 6 108322720.994 6  84407342.79548  20613135.27048
  21430004.766 5 112615436.564 5  87752328.25849  21430015.35549
  20592999.313 6 108216944.474 6  84324927.83649  20593008.62149
  21936798.453 4 115278654.896 4  89827542.68846  21936805.59446
 20  5 16  0 30 29.0000000  0  7G04G08G14G16G26G27G31               -0.000380228
  21929197.695 6 115238709.589 6  89796432.82548  21929206.31648
  22621865.297 5 118878714.901 5  92632807.12048  22621876.06648
  22690450.758 6 119239123.740 6  92913624.16147  22690458.82447
  20613252.125 6 108323368.344 6  84407847.22048  20613258.27348
  21430334.930 6 112617171.376 6  87753680.05949  21430345.32449
  20592621.961 6 108214959.765 6  84323381.31049  20592630.89549
  21937053.484 4 115279993.069 4  89828585.41747  21937060.28947
 20  5 16  0 30 30.0000000  0  7G04G08G14G16G26G27G31               -0.000380163
  21928833.805 6 115236796.661 6  89794942.22947  21928842.19547
  22621237.508 5 118875414.800 5  92630235.61048  22621248.24648
  22691109.398 6 119242585.015 6  92916321.25247  22691117.67647
  20613375.352 7 108324016.171 7  84408352.01848  20613381.51648
  21430665.492 6 112618906.487 6  87755032.09149  21430675.82449
  20592244.250 6 108212975.837 6  84321835.39549  20592253.48049
  21937308.242 4 115281331.742 4  89829628.54047  21937315.12947
 20  5 16  0 30 31.0000000  0  7G04G08G14G16G26G27G31               -0.000380098
  21928470.117 6 115234884.360 6  89793452.12447  21928478.51247
  22620609.656 5 118872115.082 5  92627664.40348  22620620.14148
  22691768.367 6 119246046.630 6  92919018.61147  22691776.62947
  20613498.492 7 108324664.362 7  84408857.10648  20613504.74248
  21430995.375 6 112620641.742 6  87756384.23749  21431005.67649
  20591866.766 6 108210992.588 6  84320290.00249  20591876.17649
  21937562.125 4 115282670.724 4  89830671.90747  21937570.04347
 20  5 16  0 30 32.0000000  0  7G04G08G14G16G26G27G31               -0.000380035
  21928105.820 6 115232972.661 6  89791962.49347  21928114.82447
  22619981.336 5 118868815.747 5  92625093.49248  22619992.26248
  22692426.742 6 119249508.615 6  92921716.26447  22692435.43847
  20613622.109 7 108325312.956 7  84409362.50048  20613628.51248
  21431325.688 6 112622377.157 6  87757736.51449  21431335.92649
  20591489.492 6 108209010.009 6  84318745.13849  20591498.68849
  21937817.195 5 115284010.086 5  89831715.56347  21937824.74247
 20  5 16  0 30 33.0000000  0  7G04G08G14G16G26G27G31               -0.000379971
  21927742.016 6 115231061.589 6  89790473.34047  21927750.85547
  22619354.102 5 118865516.840 5  92622522.91648  22619364.54748
  22693085.758 6 119252970.920 6  92924414.16247  22693094.44547
  20613745.453 6 108325961.922 6  84409868.19148  20613751.60948
  21431656.227 6 112624112.806 6  87759088.96449  21431666.46549
  20591112.484 6 108207028.153 6  84317200.83949  20591121.62949
  21938072.070 4 115285349.850 4  89832759.53247  21938079.84047
 20  5 16  0 30 34.0000000  0  7G04G08G14G16G26G27G31               -0.000379906
  21927379.063 6 115229151.147 6  89788984.68648  21927387.04748
  22618726.398 5 118862218.252 5  92619952.59448  22618737.02748
  22693745.227 6 119256433.601 6  92927112.35447  22693753.07047
  20613869.258 6 108326611.275 6  84410374.18248  20613875.50848
  21431986.477 6 112625848.572 6  87760441.50449  21431996.94549
  20590735.273 6 108205046.968 6  84315657.05649  20590744.37549
  21938327.195 5 115286689.952 5  89833803.76747  21938334.57447
 20  5 16  0 30 35.0000000  0  7G04G08G14G16G26G27G31               -0.000379841
  21927015.422 6 115227241.413 6  89787496.57847  21927024.19147
  22618098.414 5 118858920.201 5  92617382.68448  22618108.98448
  22694404.117 6 119259896.730 6  92929810.88647  22694412.03147
  20613993.023 6 108327261.099 6  84410880.53748  20613999.04748
  21432316.930 6 112627584.636 6  87761794.28049  21432326.86749
  20590358.563 6 108203066.572 6  84314113.89749  20590367.59849
  21938582.664 5 115288030.509 5  89834848.35747  21938589.79347
 20  5 16  0 30 36.0000000  0  7G04G08G14G16G26G27G31               -0.000379776
  21926652.328 6 115225332.359 6  89786008.99948  21926660.49248
  22617470.523 5 118855622.558 5  92614813.09648  22617481.71948
  22695063.313 6 119263360.298 6  92932509.77147  22695071.62147
  20614116.516 6 108327911.398 6  84411387.26448  20614122.99248
  21432647.438 6 112629320.956 6  87763147.26149  21432657.41049
  20589981.938 6 108201086.929 6  84312571.31349  20589990.93849
  21938838.227 5 115289371.521 5  89835893.29847  21938845.09847
 20  5 16  0 30 37.0000000  0  7G04G08G14G16G26G27G31               -0.000379711
  21926288.750 6 115223423.897 6  89784521.89148  21926297.22348
  22616843.555 5 118852325.279 5  92612243.78748  22616854.30548
  22695722.305 6 119266824.152 6  92935208.87647  22695730.46947
  20614240.578 6 108328562.011 6  84411894.23048  20614246.55148
  21432977.414 6 112631057.407 6  87764500.34349  21432987.73849
  20589605.344 6 108199107.927 6  84311029.23549  20589614.08249
  21939093.195 5 115290712.801 5  89836938.44947  21939100.56347
 20  5 16  0 30 38.0000000  0  7G04G08G14G16G26G27G31               -0.000379646
  21925925.523 6 115221516.103 6  89783035.29248  21925934.37948
  22616215.938 5 118849028.428 5  92609674.81148  22616226.94548
  22696381.375 6 119270288.417 6  92937908.29447  22696389.35247
  20614364.164 6 108329213.049 6  84412401.53948  20614370.17248
  21433308.164 6 112632794.062 6  87765853.57549  21433318.24649
  20589228.875 6 108197129.661 6  84309487.73049  20589237.83649
  21939348.133 5 115292054.544 5  89837983.97347  21939355.85947
 20  5 16  0 30 39.0000000  0  7G04G08G14G16G26G27G31               -0.000379581
  21925563.320 6 115219608.995 6  89781549.23348  21925571.18448
  22615589.180 5 118845732.049 5  92607106.19848  22615599.85948
  22697040.719 6 119273753.119 6  92940608.06047  22697049.46147
  20614487.945 6 108329864.548 6  84412909.19748  20614493.96148
  21433638.594 6 112634530.976 6  87767207.01649  21433649.03949
  20588852.383 6 108195152.134 6  84307946.80149  20588861.58649
  21939603.656 5 115293396.694 5  89839029.81347  21939611.13347
 20  5 16  0 30 40.0000000  0  7G04G08G14G16G26G27G31               -0.000379517
  21925200.406 6 115217702.498 6  89780063.65047  21925209.05147
  22614961.813 5 118842436.034 5  92604537.88348  22614972.48048
  22697700.141 6 119277218.146 6  92943308.07947  22697708.81647
  20614612.508 6 108330516.435 6  84413417.16248  20614618.51248
  21433968.898 6 112636268.055 6  87768560.58449  21433979.32849
  20588476.289 6 108193175.293 6  84306406.40649  20588485.28949
  21939859.219 5 115294739.215 5  89840075.93347  21939866.44147
 20  5 16  0 30 41.0000000  0  7G04G08G14G16G26G27G31               -0.000379452
  21924837.445 6 115215796.754 6  89778578.64947  21924845.96547
  22614334.797 5 118839140.576 5  92601969.99648  22614345.47748
  22698359.391 6 119280683.676 6  92946008.48647  22698368.00447
  20614736.500 6 108331168.828 6  84413925.52148  20614742.25448
  21434299.438 6 112638005.445 6  87769914.39049  21434310.23849
  20588100.156 6 108191199.285 6  84304866.66149  20588109.15649
  21940114.453 5 115296082.234 5  89841122.44447  21940122.10247
 20  5 16  0 30 42.0000000  0  7G04G08G14G16G26G27G31               -0.000379385
  21924475.023 6 115213891.644 6  89777094.14647  21924483.34447
  22613707.711 5 118835845.490 5  92599402.39448  22613718.14548
  22699019.031 6 119284149.560 6  92948709.17647  22699027.73047
  20614860.680 6 108331821.587 6  84414434.16348  20614867.09848
  21434630.117 6 112639743.008 6  87771268.33849  21434640.60949
  20587724.078 6 108189223.948 6  84303327.43749  20587733.40249
  21940370.250 5 115297425.638 5  89842169.25047  21940377.62547
 20  5 16  0 30 43.0000000  0  7G04G08G14G16G26G27G31               -0.000379320
  21924112.672 6 115211987.308 6  89775610.24947  21924121.39147
  22613080.336 5 118832550.994 5  92596835.25548  22613091.45748
  22699678.539 6 119287616.005 6  92951410.30647  22699687.37947
  20614985.133 6 108332474.941 6  84414943.26848  20614991.29748
  21434961.008 6 112641480.936 6  87772622.56749  21434971.56649
  20587348.313 6 108187249.521 6  84301788.92049  20587357.82449
  21940626.000 5 115298769.578 5  89843216.47847  21940633.39147
 20  5 16  0 30 44.0000000  0  7G04G08G14G16G26G27G31               -0.000379255
  21923750.617 6 115210083.645 6  89774126.88248  21923758.69548
  22612453.742 5 118829256.879 5  92594268.41448  22612464.62148
  22700338.977 6 119291082.783 6  92954111.68647  22700346.98047
  20615109.703 7 108333128.677 7  84415452.67748  20615115.57848
  21435291.914 6 112643219.056 6  87773976.94649  21435302.05149
  20586973.258 6 108185275.764 6  84300250.92649  20586982.15649
  21940881.758 5 115300113.885 5  89844263.98147  21940889.16847
 20  5 16  0 30 45.0000000  0  7G04G08G14G16G26G27G31               -0.000379189
  21923388.133 6 115208180.635 6  89772644.01848  21923397.05548
  22611826.617 5 118825963.220 5  92591701.92448  22611837.26648
  22700998.383 6 119294549.993 6  92956813.39947  22701006.76247
  20615234.188 7 108333782.843 7  84415962.41448  20615240.29748
  21435622.719 6 112644957.394 6  87775331.49849  21435632.87149
  20586597.680 6 108183302.744 6  84298713.51249  20586606.94549
  21941137.664 5 115301458.599 5  89845311.80847  21941145.47747
 20  5 16  0 30 46.0000000  0  7G04G08G14G16G26G27G31               -0.000379124
  21923026.211 6 115206278.247 6  89771161.63547  21923034.78947
  22611200.180 5 118822669.967 5  92589135.75948  22611210.59048
  22701658.047 6 119298017.547 6  92959515.38647  22701666.87947
  20615358.797 7 108334437.397 7  84416472.45848  20615364.27348
  21435953.336 6 112646695.805 6  87776686.10149  21435963.83249
  20586222.289 6 108181330.432 6  84297176.64249  20586231.23049
  21941393.477 5 115302803.743 5  89846359.96447  21941401.35947
 20  5 16  0 30 47.0000000  0  7G04G08G14G16G26G27G31               -0.000379057
  21922663.961 6 115204376.590 6  89769679.82648  21922672.51648
  22610573.227 5 118819377.188 5  92586569.95648  22610584.19548
  22702318.164 6 119301485.537 6  92962217.70947  22702326.44147
  20615483.117 7 108335092.406 7  84416982.85148  20615489.21148
  21436284.102 6 112648434.568 6  87778040.97949  21436294.49649
  20585847.313 6 108179358.873 6  84295640.36149  20585856.06349
  21941648.727 4 115304149.271 4  89847408.43147  21941657.43447
 20  5 16  0 30 48.0000000  0  7G04G08G14G16G26G27G31               -0.000378990
  21922302.359 6 115202475.622 6  89768198.55747  21922311.36747
  22609946.969 5 118816084.813 5  92584004.46948  22609957.55148
  22702977.563 6 119304953.962 6  92964920.37947  22702986.71947
  20615607.992 7 108335747.906 7  84417493.63248  20615613.78548
  21436615.086 6 112650173.627 6  87779396.08949  21436625.44549
  20585472.109 6 108177388.111 6  84294104.70549  20585481.33249
  21941905.234 4 115305495.280 4  89848457.27546  21941913.18446
 20  5 16  0 30 49.0000000  0  7G04G08G14G16G26G27G31               -0.000378925
  21921940.719 6 115200575.382 6  89766717.85448  21921949.74248
  22609320.438 5 118812792.990 5  92581439.41448  22609331.63748
  22703637.883 6 119308422.843 6  92967623.40347  22703646.46947
  20615732.828 7 108336403.876 7  84418004.77748  20615738.27348
  21436946.086 6 112651912.956 6  87780751.40849  21436956.58649
  20585097.102 6 108175418.153 6  84292569.67649  20585106.55549
  21942162.016 4 115306841.755 4  89849506.47247  21942169.59047
 20  5 16  0 30 50.0000000  0  7G04G08G14G16G26G27G31               -0.000378859
  21921578.719 6 115198675.846 6  89765237.69647  21921587.85947
  22608694.039 5 118809501.601 5  92578874.69648  22608705.08248
  22704297.820 6 119311892.180 6  92970326.78247  22704307.07047
  20615857.750 7 108337060.338 7  84418516.30348  20615863.62548
  21437277.414 6 112653652.559 6  87782106.94149  21437287.89549
  20584722.508 6 108173448.926 6  84291035.21349  20584731.57849
  21942417.891 4 115308188.694 4  89850556.03847  21942425.71947
 20  5 16  0 30 51.0000000  0  7G04G08G14G16G26G27G31               -0.000378792
  21921217.813 6 115196777.135 6  89763758.17947  21921226.51247
  22608067.789 5 118806210.826 5  92576310.45948  22608078.71548
  22704958.367 6 119315362.027 6  92973030.56347  22704967.30147
  20615982.680 7 108337717.336 7  84419028.25348  20615988.87548
  21437608.094 6 112655392.482 6  87783462.72949  21437618.82449
  20584347.875 6 108171480.593 6  84289501.45049  20584356.94149
  21942674.219 4 115309536.195 4  89851606.03047  21942681.87947
 20  5 16  0 30 52.0000000  0  7G04G08G14G16G26G27G31               -0.000378725
  21920856.563 6 115194878.960 6  89762279.07948  21920865.62948
  22607442.063 5 118802920.377 5  92573746.47248  22607452.73048
  22705618.484 6 119318832.203 6  92975734.59047  22705627.44547
  20616107.648 7 108338374.661 7  84419540.44948  20616114.03948
  21437939.273 6 112657132.587 6  87784818.65049  21437949.72749
  20583973.570 6 108169512.915 6  84287968.19349  20583982.77749
  21942930.930 4 115310883.950 4  89852656.22547  21942938.58247
 20  5 16  0 30 53.0000000  0  7G04G08G14G16G26G27G31               -0.000378660
  21920495.844 6 115192981.460 6  89760800.51648  21920504.96548
  22606816.195 5 118799630.351 5  92571182.81048  22606826.53548
  22706279.117 6 119322302.743 6  92978438.90547  22706287.86347
  20616233.133 7 108339032.396 7  84420052.97448  20616238.98048
  21438270.750 6 112658872.869 6  87786174.71549  21438281.03949
  20583599.359 6 108167545.924 6  84286435.47449  20583608.24649
  21943187.578 4 115312232.167 4  89853706.78347  21943195.35247
 20  5 16  0 30 54.0000000  0  7G04G08G14G16G26G27G31               -0.000378593
  21920134.695 6 115191084.582 6  89759322.43047  21920143.70747
  22606190.016 5 118796340.781 5  92568619.50848  22606200.23848
  22706939.391 6 119325773.645 6  92981143.50047  22706948.53947
  20616357.945 7 108339690.550 7  84420565.82548  20616364.45348
  21438601.852 6 112660613.339 6  87787530.92149  21438612.05949
  20583225.227 6 108165579.661 6  84284903.32049  20583234.19549
  21943444.750 4 115313580.739 4  89854757.62547  21943451.87147
 20  5 16  0 30 55.0000000  0  7G04G08G14G16G26G27G31               -0.000378527
  21919774.086 6 115189188.337 6  89757844.83348  21919782.84448
  22605563.547 5 118793051.571 5  92566056.48448  22605574.77048
  22707599.930 6 119329244.923 6  92983848.39647  22707608.97747
  20616483.688 7 108340349.075 7  84421078.96048  20616489.48048
  21438932.547 6 112662353.991 6  87788887.27349  21438943.33249
  20582851.313 6 108163614.085 6  84283371.70349  20582860.68849
  21943701.477 4 115314929.680 4  89855808.74947  21943708.72347
 20  5 16  0 30 56.0000000  0  7G04G08G14G16G26G27G31               -0.000378460
  21919413.047 6 115187292.769 6  89756367.77248  21919422.50448
  22604938.352 5 118789762.770 5  92563493.78448  22604949.19148
  22708260.586 6 119332716.571 6  92986553.57747  22708270.03547
  20616609.242 6 108341008.003 6  84421592.41548  20616615.03548
  21439264.281 6 112664094.831 6  87790243.77549  21439274.45749
  20582477.148 6 108161649.201 6  84281840.62249  20582486.46549
  21943957.617 3 115316278.990 3  89856860.16547  21943965.52347
 20  5 16  0 30 57.0000000  0  7G04G08G14G16G26G27G31               -0.000378393
  21919051.773 6 115185397.819 6  89754891.18447  21919061.62547
  22604312.852 5 118786474.430 5  92560931.44348  22604322.99648
  22708921.648 6 119336188.639 6  92989259.08247  22708930.42247
  20616734.359 7 108341667.355 7  84422106.19148  20616740.40248
  21439595.773 6 112665835.889 6  87791600.44349  21439605.80549
  20582103.367 6 108159685.056 6  84280310.12349  20582112.72349
  21944214.961 3 115317628.729 3  89857911.90947  21944222.34847
 20  5 16  0 30 58.0000000  0  7G04G08G14G16G26G27G31               -0.000378326
  21918692.375 6 115183503.598 6  89753415.17147  21918701.13347
  22603687.320 5 118783186.559 5  92558369.47448  22603697.23048
  22709582.008 6 119339661.117 6  92991964.89847  22709591.16447
  20616860.000 7 108342327.154 7  84422620.31748  20616865.98048
  21439926.758 6 112667577.214 6  87792957.31249  21439937.07849
  20581729.344 6 108157721.691 6  84278780.23349  20581738.81349
  21944471.953 3 115318978.913 3  89858964.00547  21944479.42247
 20  5 16  0 30 59.0000000  0  7G04G08G14G16G26G27G31               -0.000378258
  21918331.758 6 115181610.131 6  89751939.74148  21918340.39148
  22603061.461 5 118779899.187 5  92555807.88848  22603071.66848
  22710243.094 6 119343134.069 6  92994671.08947  22710252.27747
  20616985.953 7 108342987.453 7  84423134.83848  20616991.58648
  21440258.711 6 112669318.828 6  87794314.41749  21440268.74649
  20581356.156 6 108155759.126 6  84277250.96449  20581365.78149
  21944728.656 3 115320329.585 3  89860016.47547  21944736.25047
 20  5 16  0 31  0.0000000  0  7G04G08G14G16G26G27G31               -0.000378191
  21917971.547 6 115179717.345 6  89750464.84448  21917980.35948
  22602435.781 5 118776612.299 5  92553246.67248  22602446.30148
  22710904.297 6 119346607.443 6  92997377.61347  22710913.01247
  20617111.477 7 108343648.229 7  84423649.73148  20617117.57448
  21440589.906 6 112671060.705 6  87795671.72549  21440600.14849
  20580982.945 6 108153797.342 6  84275722.29749  20580992.32849
  21944986.523 3 115321680.703 3  89861069.28847  21944993.63347
 20  5 16  0 31  1.0000000  0  7G04G08G14G16G26G27G31               -0.000378124
  21917611.125 6 115177825.123 6  89748990.38647  21917620.38747
  22601810.305 5 118773325.747 5  92550685.72048  22601820.77048
  22711565.078 6 119350081.113 6  93000084.36747  22711574.38347
  20617237.297 7 108344309.332 7  84424164.87048  20617243.30148
  21440921.172 6 112672802.701 6  87797029.12249  21440931.59449
  20580609.813 6 108151836.184 6  84274194.12249  20580619.13349
  21945244.047 3 115323032.137 3  89862122.34947  21945250.57047
