     2.10           OBSERVATION DATA    Mixed(MIXED)        RINEX VERSION / TYPE
cnvtToRINEX 3.07.0  convertToRINEX OPR  19-May-20 12:34 UTC PGM / RUN BY / DATE 
----------------------------------------------------------- COMMENT             
G054                                                        MARKER NAME         
G054                                                        MARKER NUMBER       
GNSS Observer       Trimble                                 OBSERVER / AGENCY   
5319436542          R5                  4.85                REC # / TYPE / VERS 
                    UNKNOWN EXT                             ANT # / TYPE        
 -3048824.6292  4929226.3035  2653475.0320                  APPROX POSITION XYZ 
        0.0000        0.0000        0.0000                  ANTENNA: DELTA H/E/N
     1     1     0                                          WAVELENGTH FACT L1/2
     4    C1    L1    L2    P2                              # / TYPES OF OBSERV 
     1.000                                                  INTERVAL            
  2020     5    16     1    53   48.0000000     GPS         TIME OF FIRST OBS   
  2020     5    16     3     9   12.0000000     GPS         TIME OF LAST OBS    
     0                                                      RCV CLOCK OFFS APPL 
    18                                                      LEAP SECONDS        
    10                                                      # OF SATELLITES     
   G01  2556  2554  2554  2554                              PRN / # OF OBS      
   G04  4525  4525  4525  4525                              PRN / # OF OBS      
   G07  2240  2227  2223  2223                              PRN / # OF OBS      
   G08  4525  4525  4525  4525                              PRN / # OF OBS      
   G09  4525  4525  4522  4522                              PRN / # OF OBS      
   G11  4525  4525  4522  4522                              PRN / # OF OBS      
   G16  4525  4525  4525  4525                              PRN / # OF OBS      
   G26  3235  2967  2220  2220                              PRN / # OF OBS      
   G27  4525  4525  4525  4525                              PRN / # OF OBS      
   G31  1346  1314  1261  1261                              PRN / # OF OBS      
CARRIER PHASE MEASUREMENTS: PHASE SHIFTS REMOVED            COMMENT             
                                                            END OF HEADER       
 20  5 16  1 53 48.0000000  0  7G04G08G09G11G16G27G31                0.000432091
  21669767.602 6 113875393.69416  88734099.22158  21669776.07048
  20624326.203 6 108381564.42216  84453190.05559  20624336.16049
  22973701.211 5 120727611.96115                
  23024800.320 5 120996146.20815                
  21816549.023 6 114646768.47816  89335139.82757  21816555.22747
  20371998.156 6 107055688.87216  83419917.44159  20371996.45749
  24034897.125 5 126304234.03415  98418913.65357  24034906.07447
 20  5 16  1 53 49.0000000  0  7G04G08G09G11G16G27G31                0.000432133
  21669970.703 6 113876462.635 6  88734932.16548  21669979.35248
  20624136.094 6 108380564.217 6  84452410.67049  20624145.62949
  22973544.383 5 120726788.387 5                
  23024184.875 5 120992910.082 5                
  21816804.703 6 114648112.744 6  89336187.29847  21816811.59047
  20372216.344 6 107056835.991 6  83420811.28449  20372214.30549
  24035414.891 5 126306953.305 5  98421032.56057  24035423.89547
 20  5 16  1 53 50.0000000  0  7G04G08G09G11G16G27G31                0.000432175
  21670174.484 6 113877531.642 6  88735765.16048  21670182.62148
  20623945.820 6 108379564.072 6  84451631.33849  20623955.21949
  22973387.875 5 120725964.877 5                
  23023568.961 5 120989673.588 5                
  21817060.281 6 114649456.553 6  89337234.41847  21817066.75047
  20372435.125 6 107057983.155 6  83421705.19549  20372434.73049
  24035932.086 5 126309672.299 5  98423151.25347  24035941.68447
 20  5 16  1 53 51.0000000  0  7G04G08G09G11G16G27G31                0.000432217
  21670377.391 6 113878600.767 6  88736598.24348  21670385.78548
  20623755.078 6 108378564.061 6  84450852.11049  20623765.14149
  22973231.188 5 120725141.537 5  94071577.30259  22973240.75849
  23022953.352 5 120986436.863 5  94275175.49557  23022961.03147
  21817315.969 6 114650799.985 6  89338281.25147  21817322.40247
  20372653.234 6 107059130.446 6  83422599.19749  20372663.20749
  24036449.906 6 126312391.114 6  98425269.80647  24036459.11747
 20  5 16  1 53 52.0000000  0  7G04G08G09G11G16G27G31                0.000432259
  21670580.945 6 113879670.082 6  88737431.47348  21670589.64848
  20623564.563 6 108377564.206 6  84450073.00249  20623574.45749
  22973074.164 5 120724318.393 5  94070935.89249  22973083.87149
  23022337.125 5 120983199.900 5  94272653.19747  23022344.92247
  21817571.406 6 114652143.102 6  89339327.83447  21817577.76247
  20372871.523 7 107060277.908 7  83423493.32549  20372880.53549
  24036967.211 6 126315109.812 6  98427388.27047  24036976.35947
 20  5 16  1 53 53.0000000  0  7G04G08G09G11G16G27G31                0.000432301
  21670784.578 6 113880739.714 6  88738264.95048  21670793.17248
  20623375.094 6 108376564.656 6  84449294.12449  20623384.84049
  22972917.758 5 120723495.538 5  94070294.70549  22972927.46149
  23021721.266 5 120979962.884 5  94270130.84347  23021729.75847
  21817827.219 6 114653486.001 6  89340374.24547  21817833.53147
  20373090.117 7 107061425.654 7  83424387.67749  20373098.51249
  24037484.648 5 126317828.480 5  98429506.71747  24037493.62547
 20  5 16  1 53 54.0000000  0  7G04G08G09G11G16G27G31                0.000432343
  21670988.453 6 113881809.628 6  88739098.64548  21670996.97348
  20623184.852 6 108375565.376 6  84448515.46249  20623194.68049
  22972761.219 5 120722673.063 5  94069653.81649  22972770.86749
  23021105.336 5 120976725.752 5  94267608.39847  23021113.55947
  21818082.805 6 114654828.678 6  89341420.48647  21818088.97747
  20373308.266 6 107062573.683 6  83425282.24449  20373317.29349
  24038001.781 5 126320547.170 5  98431625.17747  24038010.76247
 20  5 16  1 53 55.0000000  0  7G04G08G09G11G16G27G31                0.000432383
  21671192.047 6 113882879.745 6  88739932.49948  21671199.97748
  20622994.516 6 108374566.325 6  84447736.97949  20623004.10549
  22972604.359 5 120721850.766 5  94069013.06349  22972614.32449
  23020489.539 5 120973488.424 5  94265085.79747  23020497.30947
  21818338.172 6 114656171.056 6  89342466.48747  21818344.84447
  20373526.984 7 107063721.897 7  83426176.95349  20373536.22349
  24038519.688 5 126323265.736 5  98433743.53147  24038528.41447
 20  5 16  1 53 56.0000000  0  7G04G08G09G11G16G27G31                0.000432425
  21671395.516 6 113883950.286 6  88740766.68648  21671404.00448
  20622804.406 6 108373567.641 6  84446958.78749  20622814.27049
  22972448.281 5 120721028.909 5  94068372.65149  22972458.05149
  23019873.180 5 120970251.107 5  94262563.20847  23019881.30147
  21818593.734 6 114657513.308 6  89343512.39847  21818599.99247
  20373745.445 6 107064870.508 6  83427071.96849  20373754.60249
  24039037.000 5 126325984.389 5  98435861.95047  24039045.64547
 20  5 16  1 53 57.0000000  0  7G04G08G09G11G16G27G31                0.000432467
  21671599.953 6 113885021.318 6  88741601.25848  21671607.90248
  20622614.367 6 108372569.529 6  84446181.03549  20622623.88749
  22972292.117 5 120720207.609 5  94067732.67649  22972301.93849
  23019257.430 5 120967013.969 5  94260040.76247  23019265.63747
  21818849.141 6 114658855.592 6  89344558.33847  21818855.39147
  20373964.305 6 107066019.624 6  83427967.37849  20373972.88749
  24039554.445 5 126328703.260 5  98437980.55247  24039563.28147
 20  5 16  1 53 58.0000000  0  8G04G08G09G11G16G26G27G31             0.000432507
  21671803.305 6 113886092.821 6  88742436.19848  21671812.05548
  20622424.609 6 108371571.888 6  84445403.65449  20622434.79349
  22972136.250 5 120719386.808 5  94067093.09049  22972145.78149
  23018641.539 5 120963776.871 5  94257518.34747  23018649.66847
  21819104.258 6 114660197.813 6  89345604.22747  21819110.75847
  23302085.352 1                                
  20374182.836 6 107067169.203 6  83428863.15249  20374191.69149
  24040071.797 5 126331422.299 5  98440099.27947  24040080.64547
 20  5 16  1 53 59.0000000  0  8G04G08G09G11G16G26G27G31             0.000432549
  21672007.547 6 113887164.813 6  88743271.51748  21672016.01248
  20622234.750 6 108370574.723 6  84444626.64649  20622244.59849
  22971980.078 5 120718566.476 5  94066453.87549  22971989.63749
  23018025.453 5 120960539.843 5  94254995.99047  23018033.55947
  21819359.750 6 114661539.989 6  89346650.07247  21819366.53947
  23302426.586 1                                
  20374401.680 7 107068319.229 7  83429759.27749  20374410.35949
  24040589.031 5 126334141.491 5  98442218.12147  24040598.03547
 20  5 16  1 54  0.0000000  0  8G04G08G09G11G16G26G27G31             0.000432589
  21672211.508 6 113888237.238 6  88744107.17048  21672219.58648
  20622045.000 6 108369577.989 6  84443849.96849  20622055.25849
  22971823.758 5 120717746.637 5  94065815.04049  22971833.69149
  23017409.578 5 120957302.848 5  94252473.65547  23017418.03147
  21819615.273 6 114662882.111 6  89347695.88547  21819621.60247
  23302766.523 1                                
  20374620.336 6 107069469.680 6  83430655.73049  20374629.71549
  24041106.273 5 126336860.771 5  98444337.03947  24041115.85947
 20  5 16  1 54  1.0000000  0  8G04G08G09G11G16G26G27G31             0.000432629
  21672415.508 6 113889310.313 6  88744943.33248  21672423.94148
  20621855.469 6 108368581.904 6  84443073.80249  20621865.57449
  22971668.203 5 120716927.426 5  94065176.69549  22971677.45349
  23016794.063 4 120954066.134 4  94249951.54947  23016801.80947
  21819870.398 6 114664224.354 6  89348741.78847  21819876.59447
  23303108.125 1 122458527.965 1                
  20374839.789 6 107070620.777 6  83431552.69049  20374848.57449
  24041624.172 5 126339580.437 5  98446456.27047  24041633.16047
 20  5 16  1 54  2.0000000  0  8G04G08G09G11G16G26G27G31             0.000432671
  21672619.906 6 113890384.004 6  88745779.97548  21672627.91848
  20621666.047 6 108367586.461 6  84442298.12849  20621675.86349
  22971512.141 5 120716108.915 5  94064538.89249  22971521.50449
  23016178.219 5 120950829.645 5  94247429.60847  23016186.07847
  21820126.727 6 114665566.693 6  89349787.76747  21820132.60547
  23303450.031 1 122460320.364 1                
  20375058.773 6 107071772.472 6  83432450.11849  20375067.57049
  24042141.602 5 126342300.398 5  98448575.72347  24042150.87547
 20  5 16  1 54  3.0000000  0  8G04G08G09G11G16G26G27G31             0.000432713
  21672824.344 6 113891458.310 6  88746617.09348  21672832.61348
  20621477.234 6 108366591.643 6  84441522.94549  20621487.21949
  22971356.578 5 120715291.001 5  94063901.55749  22971366.12149
  23015562.609 5 120947593.383 5  94244907.84147  23015570.26247
  21820381.805 6 114666909.161 6  89350833.84347  21820388.00447
  23303790.688 1 122462112.760 1                
  20375277.867 7 107072924.785 7  83433348.02449  20375286.85249
  24042659.734 5 126345020.682 5  98450695.42247  24042668.12947
 20  5 16  1 54  4.0000000  0  8G04G08G09G11G16G26G27G31             0.000432753
  21673028.852 6 113892533.193 6  88747454.66948  21673037.32048
  20621287.875 6 108365597.368 6  84440748.18849  20621297.91049
  22971201.164 5 120714473.706 5  94063264.70449  22971210.55549
  23014946.320 4 120944357.278 4  94242386.19547  23014954.35547
  21820637.344 6 114668251.678 6  89351879.96147  21820643.31347
  23304132.508 1 122463905.244 1                
  20375497.578 7 107074077.635 7  83434246.34049  20375506.37149
  24043177.445 5 126347741.210 5  98452815.30847  24043185.93047
 20  5 16  1 54  5.0000000  0  8G04G08G09G11G16G26G27G31             0.000432795
  21673233.125 6 113893608.730 6  88748292.75748  21673241.90648
  20621098.563 6 108364603.728 6  84439973.92349  20621108.18849
  22971045.672 5 120713657.085 5  94062628.38049  22971054.92649
  23014331.492 4 120941121.467 4  94239864.78047  23014338.56647
  21820892.594 6 114669594.329 6  89352926.18447  21820898.68047
  23304473.813 1 122465697.824 1                
  20375717.031 6 107075231.147 6  83435145.18549  20375726.03549
  24043695.469 5 126350462.074 5  98454935.45047  24043703.87947
 20  5 16  1 54  6.0000000  0  8G04G08G09G11G16G26G27G31             0.000432835
  21673438.336 6 113894685.088 6  88749131.47948  21673446.72748
  20620909.742 6 108363610.914 6  84439200.29849  20620919.13749
  22970890.352 5 120712841.281 5  94061992.68249  22970899.78549
  23013715.289 5 120937886.070 5  94237343.68847  23013722.93047
  21821148.203 6 114670937.300 6  89353972.65247  21821154.41047
  23304815.375 1 122467490.588 1                
  20375936.602 6 107076385.442 6  83436044.63349  20375945.37149
  24044213.313 5 126353183.461 5  98457056.00847  24044221.42247
 20  5 16  1 54  7.0000000  0  8G04G08G09G11G16G26G27G31             0.000432877
  21673642.609 6 113895762.164 6  88749970.75648  21673651.68048
  20620721.125 6 108362618.830 6  84438427.24649  20620730.72749
  22970735.242 5 120712026.265 5  94061357.60549  22970744.77749
  23013099.953 5 120934651.058 5  94234822.90447  23013107.21147
  21821404.172 6 114672280.496 6  89355019.30147  21821410.01247
  23305155.063 1 122469283.665 1                
  20376156.391 6 107077540.482 6  83436944.66249  20376165.34449
  24044731.125 5 126355905.273 5  98459176.89847  24044739.13347
 20  5 16  1 54  8.0000000  0  8G04G08G09G11G16G26G27G31             0.000432919
  21673848.125 6 113896840.169 6  88750810.76048  21673856.74648
  20620532.367 6 108361627.648 6  84437654.90349  20620542.06349
  22970580.281 5 120711212.175 5  94060723.24849  22970590.16049
  23012484.242 5 120931416.510 5  94232302.48047  23012491.64847
  21821659.766 6 114673624.064 6  89356066.23847  21821665.82847
  23305496.602 1 122471076.973 1                
  20376376.711 7 107078696.372 7  83437845.35449  20376385.18849
  24045249.117 5 126358627.644 5  98461298.23347  24045257.49647
 20  5 16  1 54  9.0000000  0  8G04G08G09G11G16G26G27G31             0.000432961
  21674053.656 6 113897918.941 6  88751651.35948  21674062.41048
  20620343.813 6 108360637.263 6  84436883.17049  20620353.80549
  22970425.156 5 120710398.884 5  94060089.51249  22970435.22349
  23011868.680 5 120928182.409 5  94229782.39847  23011876.21547
  21821915.383 6 114674967.928 6  89357113.39947  21821921.17247
  23305838.133 1 122472870.564 1                
  20376596.531 7 107079853.060 7  83438746.67349  20376605.41049
  24045766.711 5 126361350.508 5  98463419.94047  24045775.88747
 20  5 16  1 54 10.0000000  0  8G04G08G09G11G16G26G27G31             0.000433004
  21674258.914 6 113898998.591 6  88752492.63848  21674267.56648
  20620155.820 6 108359647.735 6  84436112.10849  20620165.26249
  22970270.875 5 120709586.510 5  94059456.49649  22970280.24649
  23011253.391 5 120924948.750 5  94227262.65747  23011260.72747
  21822170.859 6 114676312.139 6  89358160.83847  21822176.80947
  23306179.172 1 122474664.468 1                
  20376816.789 6 107081010.618 6  83439648.66249  20376825.79749
  24046284.625 5 126364073.979 5  98465542.12447  24046293.71147
 20  5 16  1 54 11.0000000  0  8G04G08G09G11G16G26G27G31             0.000433046
  21674464.969 6 113900079.173 6  88753334.65348  21674473.88748
  20619967.344 6 108358659.131 6  84435341.77049  20619977.03549
  22970116.703 5 120708775.047 5  94058824.18649  22970126.18849
  23010638.258 5 120921715.629 5  94224743.34747  23010645.79347
  21822427.133 6 114677656.763 6  89359208.59647  21822432.87547
  23306520.781 1 122476458.771 1                
  20377037.133 6 107082169.070 6  83440551.35849  20377045.92249
  24046803.492 5 126366797.990 5  98467664.72247  24046811.94947
 20  5 16  1 54 12.0000000  0  8G04G08G09G11G16G26G27G31             0.000433088
  21674670.492 6 113901160.572 6  88754177.29948  21674679.30948
  20619779.594 6 108357671.361 6  84434572.07849  20619789.31649
  22969962.336 5 120707964.464 5  94058192.56349  22969972.11749
  23010023.305 4 120918482.954 4  94222224.37847  23010030.19147
  21822682.727 6 114679001.710 6  89360256.60047  21822689.07847
  23306863.063 1 122478253.305 1                
  20377258.156 7 107083328.335 7  83441454.68149  20377266.55949
  24047322.547 5 126369522.532 5  98469787.73747  24047330.67647
 20  5 16  1 54 13.0000000  0  8G04G08G09G11G16G26G27G31             0.000433132
  21674876.719 6 113902242.940 6  88755020.70648  21674885.13748
  20619591.680 6 108356684.575 6  84433803.15449  20619601.52349
  22969808.297 5 120707154.865 5  94057561.70749  22969817.94149
  23009408.172 4 120915250.845 4  94219705.84847  23009415.29747
  21822938.602 6 114680347.123 6  89361304.97547  21822944.92247
  23307204.711 1 122480048.288 1  95439144.49855  23307214.09845
  20377478.539 6 107084488.583 6  83442358.77149  20377487.28549
  24047840.430 5 126372247.775 5  98471911.30347  24047849.00847
 20  5 16  1 54 14.0000000  0  8G04G08G09G11G16G26G27G31             0.000433176
  21675083.063 6 113903326.236 6  88755864.83148  21675090.84848
  20619404.281 6 108355698.712 6  84433034.94649  20619413.84049
  22969654.461 5 120706346.199 5  94056931.57549  22969663.73449
  23008793.563 5 120912019.284 5  94217187.75147  23008800.52747
  21823195.039 6 114681692.935 6  89362353.65747  21823201.01647
  23307546.016 1 122481843.594 1  95440543.47545  23307555.89845
  20377699.648 6 107085649.733 6  83443263.56149  20377708.34049
  24048359.031 5 126374973.587 5  98474035.31347  24048368.00847
 20  5 16  1 54 15.0000000  0  8G04G08G09G11G16G26G27G31             0.000433220
  21675289.508 6 113904410.624 6  88756709.80448  21675297.51648
  20619216.695 6 108354713.968 6  84432267.61749  20619226.18449
  22969501.086 5 120705538.673 5  94056302.33649  22969510.08249
  23008178.563 5 120908788.430 5  94214670.20047  23008185.71547
  21823451.227 6 114683039.333 6  89363402.79947  21823457.05147
  23307888.141 1 122483639.546 1  95441942.94445  23307897.45745
  20377920.547 6 107086811.935 6  83444169.17249  20377929.70749
  24048878.070 5 126377700.213 5  98476159.94747  24048886.61347
 20  5 16  1 54 16.0000000  0  8G04G08G09G11G16G26G27G31             0.000433264
  21675495.836 6 113905496.052 6  88757555.59148  21675504.14148
  20619029.297 6 108353730.251 6  84431501.08549  20619039.03549
  22969347.680 5 120704732.213 5  94055673.92349  22969356.94949
  23007563.242 5 120905558.203 5  94212153.13747  23007570.89147
  21823707.211 6 114684386.272 6  89364452.35947  21823713.60247
  23308228.750 1 122485435.878 1  95443342.66045  23308239.91445
  20378142.258 6 107087975.185 6  83445075.60149  20378151.01649
  24049397.109 5 126380427.542 5  98478285.13947  24049405.92647
 20  5 16  1 54 17.0000000  0  8G04G08G09G11G16G26G27G31             0.000433308
  21675702.961 6 113906582.354 6  88758402.05448  21675711.37148
  20618842.453 6 108352747.421 6  84430735.23849  20618852.13349
  22969194.531 5 120703926.643 5  94055046.20149  22969203.59049
  23006949.055 5 120902328.499 5  94209636.48247  23006956.50447
  21823963.906 6 114685733.573 6  89365502.20347  21823969.63747
  23308571.539 1 122487232.588 1  95444742.65245  23308581.71545
  20378363.781 6 107089139.293 6  83445982.70049  20378372.78549
  24049916.266 5 126383155.479 5  98480410.79947  24049925.33247
 20  5 16  1 54 18.0000000  0  8G04G08G09G11G16G26G27G31             0.000433352
  21675909.063 6 113907669.732 6  88759249.36648  21675918.14848
  20618655.781 6 108351765.679 6  84429970.24149  20618665.14149
  22969041.656 5 120703122.197 5  94054419.36449  22969050.43449
  23006334.750 5 120899099.451 5  94207120.34047  23006341.70347
  21824220.820 6 114687081.438 6  89366552.49247  21824226.48447
  23308914.000 1 122489029.775 1  95446143.01545  23308923.66845
  20378585.266 6 107090304.467 6  83446890.62849  20378594.36749
  24050435.117 5 126385884.136 5  98482537.02247  24050443.69547
 20  5 16  1 54 19.0000000  0  8G04G08G09G11G16G26G27G31             0.000433397
  21676116.477 6 113908758.220 6  88760097.53748  21676125.01248
  20618468.969 6 108350785.024 6  84429206.09449  20618478.94549
  22968888.391 5 120702318.850 5  94053793.38049  22968897.53149
  23005719.945 5 120895871.125 5  94204604.76247  23005727.08247
  21824476.984 6 114688429.864 6  89367603.21047  21824482.87947
  23309256.500 1 122490827.538 1  95447543.81445  23309265.95745
  20378807.617 6 107091470.727 6  83447799.40349  20378816.10949
  24050954.563 5 126388613.609 5  98484663.87947  24050963.28147
 20  5 16  1 54 20.0000000  0  8G04G08G09G11G16G26G27G31             0.000433441
  21676323.547 6 113909847.580 6  88760946.38648  21676332.07448
  20618282.758 6 108349805.264 6  84428442.64649  20618292.48049
  22968735.719 5 120701516.421 5  94053168.11149  22968744.92249
  23005106.117 5 120892643.266 5  94202089.54347  23005113.04347
  21824733.625 6 114689778.721 6  89368654.27247  21824739.80147
  23309598.156 1 122492625.632 1  95448944.93545  23309607.86345
  20379029.367 6 107092637.866 6  83448708.85849  20379037.93849
  24051474.031 5 126391343.633 5  98486791.17047  24051482.82447
 20  5 16  1 54 21.0000000  0  8G04G08G09G11G16G26G27G31             0.000433487
  21676531.125 6 113910937.958 6  88761796.02948  21676539.86348
  20618096.227 6 108348826.487 6  84427679.96649  20618106.28549
  22968583.492 5 120700715.011 5  94052543.63749  22968592.33649
  23004492.063 5 120889416.070 5  94199574.85047  23004498.78147
  21824990.836 6 114691128.038 6  89369705.68847  21824996.50447
  23309939.656 1 122494424.238 1  95450346.42945  23309949.84045
  20379251.984 6 107093805.983 6  83449619.08049  20379260.55949
  24051993.375 5 126394074.421 5  98488919.04647  24052002.64147
 20  5 16  1 54 22.0000000  0  8G04G08G09G11G16G26G27G31             0.000433533
  21676738.805 6 113912029.523 6  88762646.60048  21676747.05548
  20617910.539 6 108347848.895 6  84426918.20349  20617919.88749
  22968431.039 5 120699914.841 5  94051920.12749  22968440.32449
  23003877.563 5 120886189.642 5  94197060.74947  23003884.73447
  21825247.266 6 114692478.035 6  89370757.62747  21825253.13747
  23310281.430 1 122496223.414 1  95451748.37745  23310292.57845
  20379474.375 7 107094975.284 7  83450530.22649  20379483.22349
  24052513.672 5 126396806.009 5  98491047.55347  24052522.59447
 20  5 16  1 54 23.0000000  0  8G04G08G09G11G16G26G27G31             0.000433578
  21676946.672 6 113913122.240 6  88763498.06748  21676955.15648
  20617724.055 6 108346872.465 6  84426157.34949  20617734.12949
  22968278.727 5 120699115.790 5  94051297.49249  22968287.77749
  23003263.797 5 120882963.989 5  94194547.25347  23003271.09047
  21825504.797 6 114693828.680 6  89371810.07647  21825510.30547
  23310624.125 1 122498023.157 1  95453150.81145  23310634.63745
  20379696.953 7 107096145.703 7  83451442.23649  20379705.55149
  24053033.586 5 126399538.450 5  98493176.72147  24053042.67647
 20  5 16  1 54 24.0000000  0  8G04G08G09G11G16G26G27G31             0.000433624
  21677155.133 6 113914215.901 6  88764350.26448  21677163.27748
  20617538.945 6 108345897.004 6  84425397.24649  20617548.81649
  22968127.148 5 120698317.811 5  94050675.69249  22968136.27049
  23002649.969 5 120879738.904 5  94192034.19347  23002657.48047
  21825761.398 6 114695179.781 6  89372862.87947  21825767.77047
  23310967.445 1 122499823.364 1  95454553.60045  23310977.51245
  20379919.680 6 107097317.104 6  83452355.02149  20379928.69549
  24053553.016 5 126402271.594 5  98495306.43447  24053562.12947
 20  5 16  1 54 25.0000000  0  8G04G08G09G11G16G26G27G31             0.000433670
  21677363.023 6 113915310.778 6  88765203.40948  21677371.20348
  20617353.273 6 108344922.720 6  84424638.06849  20617363.05149
  22967975.563 5 120697520.973 5  94050054.78049  22967985.02049
  23002036.375 5 120876514.578 5  94189521.73447  23002043.71947
  21826018.547 6 114696531.526 6  89373916.19147  21826024.56647
  23311309.828 1 122501624.178 1  95455956.84645  23311320.47345
  20380142.828 7 107098489.653 7  83453268.69249  20380151.61749
  24054073.828 5 126405005.555 5  98497436.79047  24054082.68447
 20  5 16  1 54 26.0000000  0  8G04G08G09G11G16G26G27G31             0.000433718
  21677572.117 6 113916406.769 6  88766057.42048  21677579.99248
  20617168.352 6 108343949.612 6  84423879.80649  20617178.18449
  22967823.711 5 120696725.338 5  94049434.81149  22967833.37149
  23001423.281 5 120873291.032 5  94187009.89147  23001430.14147
  21826275.906 6 114697883.923 6  89374970.00747  21826282.39547
  23311651.711 1 122503425.592 1  95457360.52345  23311662.84045
  20380366.063 6 107099663.313 6  83454183.23649  20380375.07049
  24054594.398 5 126407740.390 5  98499567.82647  24054603.18447
 20  5 16  1 54 27.0000000  0  8G04G08G09G11G16G26G27G31             0.000433765
  21677780.945 6 113917503.898 6  88766912.32548  21677788.93448
  20616983.195 6 108342977.608 6  84423122.40149  20616993.24249
  22967672.664 6 120695930.810 6  94048815.69449  22967682.27349
  23000810.117 5 120870068.256 5  94184498.63247  23000817.52747
  21826533.109 6 114699236.914 6  89376024.28347  21826539.18047
  23311994.789 1 122505227.593 1  95458764.65145  23312005.82045
  20380589.719 7 107100838.090 7  83455098.65049  20380599.00049
  24055115.102 5 126410476.034 5  98501699.50147  24055123.51247
 20  5 16  1 54 28.0000000  0  8G04G08G09G11G16G26G27G31             0.000433811
  21677990.055 6 113918602.222 6  88767768.16248  21677997.82448
  20616798.523 6 108342006.781 6  84422365.91349  20616808.38349
  22967521.820 6 120695137.531 6  94048197.56149  22967530.87149
  23000196.219 5 120866846.221 5  94181987.96747  23000204.27347
  21826791.438 6 114700590.605 6  89377079.10447  21826797.18447
  23312337.773 1 122507030.167 1  95460169.25445  23312348.70345
  20380813.797 7 107102014.074 7  83456014.99749  20380822.51649
  24055635.117 5 126413212.502 5  98503831.81147  24055644.02747
 20  5 16  1 54 29.0000000  0  8G04G08G09G11G16G26G27G31             0.000433859
  21678198.875 6 113919701.549 6  88768624.78148  21678206.77348
  20616614.133 6 108341036.989 6  84421610.22949  20616623.92249
  22967370.844 5 120694345.293 5  94047580.23249  22967380.47749
  22999584.125 5 120863624.861 5  94179477.81747  22999591.41847
  21827048.852 6 114701944.796 6  89378134.32547  21827054.88347
  23312681.398 1 122508833.320 1  95461574.33045  23312691.98445
  20381037.797 7 107103191.042 7  83456932.11149  20381046.50449
  24056156.875 5 126415949.731 5  98505964.71247  24056165.18047
 20  5 16  1 54 30.0000000  0  8G04G08G09G11G16G26G27G31             0.000433908
  21678408.773 6 113920802.009 6  88769482.27948  21678416.32848
  20616429.828 6 108340068.338 6  84420855.43249  20616439.38749
  22967221.016 5 120693554.237 5  94046963.82549  22967229.91849
  22998970.625 5 120860404.212 5  94176968.21847  22998978.08247
  21827306.555 6 114703299.636 6  89379190.03947  21827312.75447
  23313024.648 1 122510637.004 1  95462979.80445  23313034.97345
  20381261.656 7 107104369.149 7  83457850.11949  20381270.55949
  24056677.977 5 126418687.739 5  98508098.22247  24056686.18447
 20  5 16  1 54 31.0000000  0  8G04G08G09G11G16G26G27G31             0.000433956
  21678618.078 6 113921903.570 6  88770340.64048  21678626.07448
  20616245.703 6 108339100.782 6  84420101.49149  20616255.26649
  22967070.477 5 120692764.274 5  94046348.26249  22967079.76249
  22998358.063 5 120857184.282 5  94174459.17847  22998365.28547
  21827564.648 6 114704655.044 6  89380246.20247  21827570.36347
  23313368.188 1 122512441.192 1  95464385.69445  23313378.45345
  20381486.203 7 107105548.315 7  83458768.94649  20381494.96149
  24057199.063 5 126421426.614 5  98510232.40047  24057207.21547
 20  5 16  1 54 32.0000000  0  8G04G08G09G11G16G26G27G31             0.000434006
  21678828.117 6 113923006.141 6  88771199.78548  21678836.10948
  20616061.820 6 108338134.246 6  84419348.34849  20616071.57049
  22966920.430 5 120691975.366 5  94045733.52949  22966929.22349
  22997745.211 5 120853964.986 5  94171950.63847  22997752.84047
  21827822.453 6 114706010.961 6  89381302.75847  21827828.70747
  23313711.453 1 122514245.902 1  95465791.96245  23313722.00845
  20381710.531 6 107106728.485 6  83459688.56349  20381719.57849
  24057719.984 5 126424166.116 5  98512367.07147  24057728.79747
 20  5 16  1 54 33.0000000  0  8G04G08G09G11G16G26G27G31             0.000434053
  21679037.906 6 113924109.989 6  88772059.92848  21679046.28548
  20615878.008 6 108337168.985 6  84418596.20349  20615887.70749
  22966770.422 6 120691187.755 6  94045119.80249  22966779.71149
  22997132.867 5 120850746.575 5  94169442.78447  22997140.29747
  21828080.781 6 114707367.612 6  89382359.88847  21828086.87547
  23314054.281 1 122516051.309 1  95467198.72245  23314065.60545
  20381935.445 6 107107909.932 6  83460609.17149  20381944.62149
  24058242.031 5 126426906.622 5  98514502.52847  24058250.19147
 20  5 16  1 54 34.0000000  0  8G04G08G09G11G16G26G27G31             0.000434103
  21679248.047 6 113925214.948 6  88772920.93448  21679256.12148
  20615694.398 6 108336204.826 6  84417844.90749  20615704.57449
  22966621.000 6 120690401.252 6  94044506.94249  22966629.70749
  22996520.305 5 120847528.866 5  94166935.48047  22996527.49247
  21828339.266 6 114708724.869 6  89383417.49247  21828345.23447
  23314398.742 1 122517857.255 1  95468605.95445  23314409.11745
  20382160.633 6 107109092.442 6  83461530.60649  20382169.36749
  24058763.133 5 126429647.886 5  98516638.57147  24058772.04347
 20  5 16  1 54 35.0000000  0  8G04G08G09G11G16G26G27G31             0.000434153
  21679458.539 6 113926321.088 6  88773782.85748  21679466.53548
  20615511.305 6 108335241.896 6  84417094.57349  20615520.75849
  22966471.391 6 120689616.007 6  94043895.06249  22966480.61749
  22995908.094 5 120844311.993 5  94164428.83047  22995915.65247
  21828597.594 6 114710082.853 6  89384475.65647  21828604.02047
  23314742.117 1 122519663.873 1  95470013.73545  23314752.82845
  20382385.523 6 107110276.183 6  83462453.00249  20382394.54349
  24059284.789 5 126432390.105 5  98518775.36447  24059293.70747
 20  5 16  1 54 36.0000000  0  8G04G08G09G11G16G26G27G31             0.000434204
  21679669.188 6 113927428.463 6  88774645.75048  21679677.00848
  20615328.102 6 108334280.182 6  84416345.17849  20615337.98049
  22966322.055 6 120688831.982 6  94043284.13249  22966331.25849
  22995296.398 5 120841095.968 5  94161922.83347  22995303.67247
  21828856.016 6 114711441.516 6  89385534.35447  21828862.22747
  23315085.195 1 122521471.115 1  95471421.99145  23315096.66845
  20382611.180 6 107111461.085 6  83463376.30049  20382620.09049
  24059807.242 5 126435133.210 5  98520912.84547  24059815.56647
 20  5 16  1 54 37.0000000  0  8G04G08G09G11G16G26G27G31             0.000434254
  21679880.391 6 113928536.834 6  88775509.41648  21679888.05948
  20615145.289 6 108333319.436 6  84415596.55049  20615155.02349
  22966172.922 6 120688048.973 6  94042673.99849  22966182.09849
  22994684.406 5 120837880.505 5  94159417.28247  22994691.92247
  21829114.578 6 114712800.647 6  89386593.42047  21829120.58247
  23315430.063 1 122523278.839 1  95472830.63645  23315441.04345
  20382836.766 6 107112646.972 6  83464300.36549  20382845.87949
  24060329.477 5 126437876.976 5  98523050.83547  24060338.00047
 20  5 16  1 54 38.0000000  0  8G04G08G09G11G16G26G27G31             0.000434305
  21680091.438 6 113929646.466 6  88776374.06548  21680099.12148
  20614962.852 6 108332360.008 6  84414848.94249  20614972.24649
  22966024.133 6 120687267.295 6  94042064.89449  22966033.70749
  22994072.711 5 120834665.952 5  94156912.43847  22994080.08247
  21829372.781 6 114714160.567 6  89387653.09147  21829379.21947
  23315774.242 1 122525087.313 1  95474239.80345  23315785.09845
  20383062.750 6 107113834.123 6  83465225.42149  20383071.96549
  24060852.109 5 126440621.719 5  98525189.58847  24060860.28147
 20  5 16  1 54 39.0000000  0  8G04G08G09G11G16G26G27G31             0.000434357
  21680302.602 6 113930757.261 6  88777239.61848  21680310.57048
  20614780.242 7 108331401.727 7  84414102.22949  20614790.11349
  22965875.695 6 120686486.789 6  94041456.70849  22965885.16449
  22993461.164 5 120831452.177 5  94154408.20347  22993468.90647
  21829632.203 6 114715521.122 6  89388713.26847  21829638.61347
  23316118.359 1 122526896.376 1  95475649.44545  23316129.11345
  20383289.000 6 107115022.423 6  83466151.37149  20383298.06649
  24061374.797 5 126443367.293 5  98527328.99947  24061382.54747
 20  5 16  1 54 40.0000000  0  8G04G08G09G11G16G26G27G31             0.000434408
  21680514.430 6 113931869.225 6  88778106.07948  21680522.18048
  20614597.922 7 108330444.609 7  84413356.42449  20614607.76249
  22965727.078 6 120685707.443 6  94040849.42749  22965736.63749
  22992848.992 5 120828239.151 5  94151904.55147  22992857.29747
  21829891.633 6 114716882.322 6  89389773.94347  21829897.48447
  23316462.531 1 122528705.982 1  95477059.46945  23316473.63745
  20383515.094 7 107116211.870 7  83467078.21549  20383524.63349
  24061897.438 5 126446113.727 5  98529469.07147  24061905.19547
 20  5 16  1 54 41.0000000  0  8G04G08G09G11G16G26G27G31             0.000434460
  21680726.523 6 113932982.356 6  88778973.44848  21680734.06348
  20614416.375 6 108329488.684 6  84412611.54449  20614426.14849
  22965579.656 6 120684929.349 6  94040243.11849  22965588.84049
  22992238.602 5 120825026.925 5  94149401.51947  22992246.08247
  21830150.867 6 114718244.201 6  89390835.14647  21830156.76647
  23316806.969 1 122530516.358 1  95478470.17045  23316817.64545
  20383741.797 6 107117402.495 6  83468005.97749  20383750.85249
  24062419.547 5 126448861.035 5  98531609.82847  24062427.93447
 20  5 16  1 54 42.0000000  0  8G04G08G09G11G16G26G27G31             0.000434513
  21680938.211 6 113934096.675 6  88779841.74348  21680946.23448
  20614234.906 6 108328533.890 6  84411867.55049  20614244.46949
  22965431.188 6 120684152.409 6  94039637.71449  22965440.57449
  22991627.547 5 120821815.471 5  94146899.08447  22991634.88747
  21830409.859 6 114719606.729 6  89391896.85947  21830415.87947
  23317151.758 1 122532327.227 1  95479881.24445  23317163.07445
  20383968.930 6 107118594.260 6  83468934.62349  20383977.62949
  24062942.695 5 126451609.212 5  98533751.26147  24062951.37147
 20  5 16  1 54 43.0000000  0  8G04G08G09G11G16G26G27G31             0.000434566
  21681151.008 6 113935212.192 6  88780710.97648  21681158.79348
  20614053.250 6 108327580.355 6  84411124.53249  20614062.88349
  22965284.234 6 120683376.712 6  94039033.26849  22965293.24249
  22991016.391 5 120818604.859 5  94144397.30247  22991023.87547
  21830669.125 6 114720969.975 6  89392959.13147  21830675.34847
  23317496.242 1 122534138.805 1  95481292.89445  23317507.04745
  20384196.039 6 107119787.224 6  83469864.20249  20384204.66449
  24063466.359 5 126454358.280 5  98535893.38747  24063474.72747
 20  5 16  1 54 44.0000000  0  8G04G08G09G11G16G26G27G31             0.000434620
  21681363.469 6 113936328.777 6  88781581.04348  21681370.60248
  20613871.945 7 108326627.864 7  84410382.33449  20613881.50049
  22965136.875 6 120682602.139 6  94038429.70449  22965145.69549
  22990405.031 5 120815394.950 5  94141896.07847  22990412.88747
  21830928.992 6 114722333.791 6  89394021.84047  21830934.84447
  23317842.203 1 122535950.868 1  95482704.87945  23317852.53145
  20384423.008 7 107120981.253 7  83470794.61549  20384431.84049
  24063989.047 5 126457108.100 5  98538036.10747  24063997.34847
 20  5 16  1 54 45.0000000  0  8G04G08G09G11G16G26G27G31             0.000434673
  21681576.203 6 113937446.523 6  88782452.02048  21681583.22748
  20613690.734 7 108325676.535 7  84409641.03749  20613700.56649
  22964989.445 6 120681828.771 6  94037827.08449  22964998.68049
  22989794.383 5 120812185.807 5  94139395.44747  22989802.49247
  21831188.477 6 114723698.228 6  89395085.02947  21831194.67247
  23318186.352 1 122537763.645 1  95484117.46045  23318196.84045
  20384650.133 6 107122176.437 6  83471725.92149  20384658.94949
  24064512.563 5 126459858.763 5  98540179.48147  24064520.76247
 20  5 16  1 54 46.0000000  0  8G04G08G09G11G16G26G27G31             0.000434727
  21681788.992 6 113938565.541 6  88783323.97748  21681796.65648
  20613510.031 7 108324726.488 7  84408900.74649  20613519.70749
  22964842.563 6 120681056.653 6  94037225.43749  22964851.72749
  22989184.250 5 120808977.494 5  94136895.46547  22989191.45747
  21831448.203 6 114725063.437 6  89396148.83247  21831454.54747
  23318530.867 1 122539577.030 1  95485530.48845  23318541.93445
  20384878.109 6 107123372.866 6  83472658.20549  20384887.10249
  24065036.359 5 126462610.427 5  98542323.63347  24065045.06647
 20  5 16  1 54 47.0000000  0  8G04G08G09G11G16G26G27G31             0.000434782
  21682001.781 6 113939685.722 6  88784196.84548  21682009.68048
  20613329.820 7 108323777.588 7  84408161.34249  20613339.19549
  22964695.703 6 120680285.715 6  94036624.70249  22964704.80149
  22988573.945 5 120805769.992 5  94134396.11847  22988581.53947
  21831708.336 6 114726429.271 6  89397213.12247  21831714.28547
  23318877.344 1 122541391.021 1  95486943.98445  23318887.68045
  20385105.844 6 107124570.412 6  83473591.35949  20385114.78549
  24065559.750 5 126465362.876 5  98544468.39247  24065568.45347
 20  5 16  1 54 48.0000000  0  8G04G08G09G11G16G26G27G31             0.000434837
  21682215.242 6 113940807.088 6  88785070.63748  21682223.26648
  20613149.242 7 108322829.910 7  84407422.89149  20613159.03549
  22964549.891 6 120679516.042 6  94036024.95849  22964558.15249
  22987963.375 5 120802563.322 5  94131897.41747  22987971.14147
  21831968.234 6 114727795.839 6  89398277.97947  21831974.28947
  23319221.797 1 122543205.730 1  95488358.01745  23319232.80145
  20385334.297 6 107125769.188 6  83474525.46849  20385343.14149
  24066083.609 5 126468116.266 5  98546613.88147  24066092.44947
 20  5 16  1 54 49.0000000  0  8G04G08G09G11G16G26G27G31             0.000434893
  21682429.164 6 113941929.646 6  88785945.35848  21682436.79348
  20612969.484 6 108321883.417 6  84406685.35649  20612978.43849
  22964403.563 6 120678747.554 6  94035426.13849  22964412.09049
  22987353.445 5 120799357.453 5  94129399.34247  22987361.23447
  21832228.203 6 114729163.055 6  89399343.34347  21832234.37147
  23319567.086 1 122545021.076 1  95489772.58545  23319577.93045
  20385562.305 6 107126969.110 6  83475460.47249  20385571.49649
  24066608.148 5 126470870.518 5  98548760.05147  24066616.67647
 20  5 16  1 54 50.0000000  0  8G04G08G09G11G16G26G27G31             0.000434948
  21682642.813 6 113943053.285 6  88786820.92048  21682650.22748
  20612789.477 7 108320938.033 7  84405948.69449  20612799.10249
  22964257.008 6 120677980.198 6  94034828.19549  22964265.98849
  22986743.477 5 120796152.280 5  94126901.81247  22986751.13347
  21832488.227 6 114730530.849 6  89400409.15047  21832494.79747
  23319911.539 1 122546836.844 1  95491187.48945  23319923.91845
  20385790.570 6 107128170.128 6  83476396.33049  20385799.79749
  24067132.031 5 126473625.570 5  98550906.83947  24067140.79747
 20  5 16  1 54 51.0000000  0  8G04G08G09G11G16G26G27G31             0.000435003
  21682857.070 6 113944178.073 6  88787697.38048  21682864.53548
  20612609.484 6 108319993.775 6  84405212.90349  20612619.32849
  22964111.070 6 120677213.984 6  94034231.14449  22964120.11349
  22986133.828 5 120792947.846 5  94124404.84947  22986141.21147
  21832748.742 6 114731899.264 6  89401475.45247  21832755.32447
  23320256.313 1 122548653.345 1  95492602.94445  23320269.46145
  20386019.813 6 107129372.249 6  83477333.04749  20386028.65249
  24067656.992 5 126476381.426 5  98553054.25747  24067664.95347
 20  5 16  1 54 52.0000000  0  8G04G08G09G11G16G26G27G31             0.000435061
  21683071.352 6 113945304.034 6  88788574.75248  21683079.17248
  20612430.523 6 108319050.716 6  84404478.05249  20612439.63749
  22963965.664 6 120676448.984 6  94033635.04149  22963974.93449
  22985523.992 5 120789744.239 5  94121908.52947  22985531.99247
  21833009.297 6 114733268.364 6  89402542.28347  21833015.84447
  23320603.195 1 122550470.408 1  95494018.77145  23320615.46945
  20386248.320 6 107130575.547 6  83478270.67949  20386257.44549
  24068180.734 5 126479138.174 5  98555202.37247  24068189.98847
 20  5 16  1 54 53.0000000  0  8G04G08G09G11G16G26G27G31             0.000435116
  21683285.414 6 113946431.175 6  88789453.04547  21683293.16847
  20612250.727 7 108318108.842 7  84403744.12349  20612260.93849
  22963820.422 6 120675685.215 6  94033039.89449  22963829.38749
  22984915.070 5 120786541.416 5  94119412.82647  22984922.54747
  21833269.781 6 114734638.103 6  89403609.61147  21833276.36347
  23320948.711 1 122552288.097 1  95495435.14945  23320961.51645
  20386477.797 6 107131779.984 6  83479209.19849  20386487.02049
  24068705.961 5 126481895.769 5  98557351.14047  24068714.63747
 20  5 16  1 54 54.0000000  0  8G04G08G09G11G16G26G27G31             0.000435173
  21683500.234 6 113947559.433 6  88790332.21048  21683508.03948
  20612072.016 7 108317168.086 7  84403011.06649  20612081.35549
  22963675.125 6 120674922.561 6  94032445.61849  22963684.12149
  22984305.094 5 120783339.306 5  94116917.67247  22984312.86347
  21833530.523 6 114736008.455 6  89404677.41847  21833537.50047
  23321295.102 1 122554106.335 1  95496851.97745  23321307.02745
  20386707.313 6 107132985.525 6  83480148.58249  20386716.18449
  24069230.922 5 126484654.183 5  98559500.54847  24069239.64547
 20  5 16  1 54 55.0000000  0  8G04G08G09G11G16G26G27G31             0.000435232
  21683715.305 6 113948688.854 6  88791212.27548  21683723.03948
  20611893.211 6 108316228.506 6  84402278.92749  20611902.48449
  22963530.242 6 120674161.100 6  94031852.27149  22963539.51649
  22983696.031 5 120780137.984 5  94114423.13947  22983703.67647
  21833791.734 6 114737379.496 6  89405745.75947  21833798.29747
  23321642.719 1 122555925.22611  95498269.28255  23321653.41445
  20386936.797 6 107134192.236 6  83481088.87549  20386946.20749
  24069755.734 5 126487413.438 5  98561650.61847  24069764.64147
 20  5 16  1 54 56.0000000  0  8G04G08G09G11G16G26G27G31             0.000435289
  21683930.211 6 113949819.524 6  88792093.31648  21683938.19948
  20611714.469 6 108315290.186 6  84401547.77149  20611723.97749
  22963385.984 6 120673400.937 6  94031259.93549  22963395.10249
  22983087.156 5 120776937.518 5  94111929.27147  22983094.85947
  21834052.719 6 114738751.249 6  89406814.66147  21834059.18047
  23321987.969 1 122557744.848 1  95499687.17645  23321999.60545
  20387166.844 6 107135400.183 6  83482030.13649  20387175.59049
  24070281.102 5 126490173.656 5  98563801.43647  24070290.06347
 20  5 16  1 54 57.0000000  0  8G04G08G09G11G16G26G27G31             0.000435349
  21684145.531 6 113950951.471 6  88792975.35048  21684153.64848
  20611536.273 6 108314353.110 6  84400817.58249  20611545.92649
  22963241.445 6 120672642.053 6  94030668.59849  22963250.13749
  22982477.945 5 120773737.974 5  94109436.11847  22982485.44947
  21834314.031 6 114740123.762 6  89407884.15147  21834320.17247
  23322334.297 1 122559565.108 1  95501105.57545  23322346.10945
  20387396.586 6 107136609.374 6  83482972.35749  20387405.92649
  24070806.047 5 126492934.823 5  98565952.98447  24070814.97747
 20  5 16  1 54 58.0000000  0  8G04G08G09G11G16G26G27G31             0.000435406
  21684361.625 6 113952084.446 6  88793858.18848  21684368.81348
  20611358.594 6 108313417.122 6  84400088.24449  20611367.59049
  22963096.852 6 120671884.232 6  94030078.08249  22963106.04749
  22981869.367 5 120770539.062 5  94106943.46347  22981876.87147
  21834575.203 6 114741496.810 6  89408954.06047  21834581.49647
  23322680.281 1 122561385.938 1  95502524.43145  23322692.50445
  20387627.000 6 107137819.594 6  83483915.38549  20387636.02049
  24071332.477 5 126495696.732 5  98568105.11647  24071340.96547
 20  5 16  1 54 59.0000000  0  8G04G08G09G11G16G26G27G31             0.000435465
  21684577.109 6 113953218.614 6  88794741.94848  21684584.96148
  20611180.313 6 108312482.312 6  84399359.82149  20611189.93449
  22962952.867 6 120671127.637 6  94029488.53249  22962961.95749
  22981260.906 5 120767340.941 5  94104451.42247  22981268.60547
  21834836.742 6 114742870.543 6  89410024.50247  21834842.86747
  23323026.797 1 122563207.340 1  95503943.71445  23323038.84445
  20387857.859 6 107139030.983 6  83484859.32849  20387866.69149
  24071857.445 5 126498459.480 5  98570257.90847  24071866.98447
 20  5 16  1 55  0.0000000  0  8G04G08G09G11G16G26G27G31             0.000435526
  21684793.125 6 113954353.934 6  88795626.61048  21684801.18048
  20611002.875 6 108311548.685 6  84398632.31549  20611012.15649
  22962809.766 6 120670372.229 6  94028899.89949  22962818.58649
  22980652.711 5 120764143.634 5  94101960.01347  22980660.07447
  21835098.109 6 114744244.941 6  89411095.45347  21835104.33247
  23323373.719 1 122565029.438 1  95505363.50045  23323385.88345
  20388088.367 6 107140243.542 6  83485804.18049  20388097.76249
  24072384.211 5 126501223.161 5  98572411.42847  24072392.92247
 20  5 16  1 55  1.0000000  0  8G04G08G09G11G16G26G27G31             0.000435585
  21685009.875 6 113955490.409 6  88796512.18248  21685017.82048
  20610825.648 6 108310616.146 6  84397905.66749  20610834.52049
  22962665.531 6 120669617.987 6  94028312.17349  22962674.75049
  22980043.797 5 120760947.032 5  94099469.15547  22980051.93447
  21835359.492 6 114745619.947 6  89412166.88847  21835366.26247
  23323720.523 1 122566852.039 1  95506783.69545  23323732.57045
  20388319.227 6 107141457.181 6  83486749.87449  20388328.46949
  24072909.703 5 126503987.596 5  98574565.52647  24072919.09847
 20  5 16  1 55  2.0000000  0  8G04G08G09G11G16G26G27G31             0.000435644
  21685225.914 6 113956627.914 6  88797398.54348  21685233.89848
  20610648.117 6 108309684.688 6  84397179.85349  20610657.31349
  22962522.500 6 120668864.845 6  94027725.30949  22962531.43849
  22979436.039 5 120757751.143 5  94096978.85247  22979443.80947
  21835621.281 6 114746995.515 6  89413238.75647  21835628.10247
  23324067.828 1 122568675.156 1  95508204.26545  23324079.58245
  20388550.242 6 107142671.908 6  83487696.41049  20388559.43049
  24073435.992 5 126506752.821 5  98576720.24047  24073444.84447
 20  5 16  1 55  3.0000000  0  8G04G08G09G11G16G26G27G31             0.000435705
  21685443.141 6 113957766.730 6  88798285.93348  21685450.71148
  20610471.336 6 108308754.556 6  84396455.07349  20610480.68049
  22962379.641 6 120668112.989 6  94027139.44449  22962388.43449
  22978827.625 5 120754556.138 5  94094489.24047  22978835.44147
  21835883.445 6 114748371.850 6  89414311.22747  21835889.71947
  23324415.180 1 122570499.019 1  95509625.46445  23324426.69945
  20388781.977 6 107143887.887 6  83488643.93049  20388791.01249
  24073961.922 5 126509518.977 5  98578875.68447  24073971.48047
 20  5 16  1 55  4.0000000  0  8G04G08G09G11G16G26G27G31             0.000435766
  21685659.609 6 113958906.692 6  88799174.22248  21685667.60248
  20610294.430 6 108307825.564 6  84395731.18249  20610303.44949
  22962236.805 6 120667362.311 6  94026554.50049  22962245.91049
  22978219.844 5 120751361.929 5  94092000.24447  22978227.77347
  21836146.117 6 114749748.840 6  89415384.20347  21836152.32047
  23324762.625 1 122572323.551 1  95511047.16645  23324773.85245
  20389013.570 6 107145104.991 6  83489592.32149  20389022.55949
  24074489.281 5 126512286.037 5  98581031.83547  24074497.87947
 20  5 16  1 55  5.0000000  0  8G04G08G09G11G16G26G27G31             0.000435827
  21685877.258 6 113960047.759 6  88800063.36448  21685884.93448
  20610117.734 6 108306897.704 6  84395008.17649  20610126.94549
  22962093.992 6 120666612.824 6  94025970.48349  22962103.10549
  22977611.953 5 120748168.449 5  94089511.81647  22977619.85247
  21836407.680 6 114751126.425 6  89416457.65047  21836414.16447
  23325109.039 1 122574148.543 1  95512469.26445  23325120.96945
  20389245.234 6 107146323.227 6  83490541.59949  20389254.25049
  24075015.195 5 126515053.869 5  98583188.58147  24075024.47347
 20  5 16  1 55  6.0000000  0  8G04G08G09G11G16G26G27G31             0.000435890
  21686094.156 6 113961189.882 6  88800953.33148  21686102.07448
  20609941.281 6 108305970.873 6  84394285.96749  20609950.80149
  22961951.773 6 120665864.375 6  94025387.27949  22961960.98049
  22977004.414 5 120744975.617 5  94087023.89847  22977012.00047
  21836669.602 6 114752504.540 6  89417531.50747  21836676.39547
  23325456.859 1 122575974.144 1  95513891.80345  23325468.49645
  20389477.844 6 107147542.462 6  83491491.65149  20389486.50849
  24075542.258 5 126517822.457 5  98585345.92547  24075551.41047
 20  5 16  1 55  7.0000000  0  8G04G08G09G11G16G26G27G31             0.000435951
  21686311.719 6 113962333.206 6  88801844.22948  21686319.79348
  20609765.500 6 108305045.249 6  84393564.70549  20609774.66449
  22961809.586 6 120665117.148 6  94024805.02449  22961818.33249
  22976397.422 5 120741783.629 5  94084536.63947  22976405.40247
  21836932.797 6 114753883.362 6  89418605.91347  21836938.67247
  23325803.297 1 122577800.340 1  95515314.82745  23325815.93045
  20389709.719 6 107148762.911 6  83492442.64449  20389718.71949
  24076069.758 5 126520591.942 5  98587503.96847  24076078.63747
 20  5 16  1 55  8.0000000  0  8G04G08G09G11G16G26G27G31             0.000436014
  21686528.992 6 113963477.789 6  88802736.11248  21686537.55948
  20609589.133 6 108304120.861 6  84392844.40449  20609598.58249
  22961667.289 6 120664371.224 6  94024223.78249  22961676.75049
  22975789.617 5 120738592.486 5  94082050.04147  22975797.62947
  21837194.891 6 114755262.930 6  89419680.90247  21837201.50847
  23326151.672 1 122579627.200 1  95516738.37645  23326163.25045
  20389942.094 6 107149984.590 6  83493394.60449  20389951.08249
  24076596.906 5 126523362.353 5  98589662.72347  24076606.07447
 20  5 16  1 55  9.0000000  0  8G04G08G09G11G16G26G27G31             0.000436077
  21686747.398 6 113964623.412 6  88803628.80548  21686755.63748
  20609413.961 6 108303197.539 6  84392124.93049  20609422.78549
  22961525.406 6 120663626.361 6  94023643.36449  22961534.62549
  22975182.484 5 120735402.025 5  94079563.96947  22975190.67647
  21837457.875 6 114756643.011 6  89420756.29347  21837464.05147
  23326498.984 1                                
  20390174.695 6 107151207.296 6  83494347.36049  20390183.52349
  24077123.680 5 126526133.500 5  98591822.05147  24077133.13347
 20  5 16  1 55 10.0000000  0  8G04G08G09G11G16G26G27G31             0.000436140
  21686965.898 6 113965770.313 6  88804522.49248  21686973.82048
  20609238.141 6 108302275.521 6  84391406.46949  20609247.50049
  22961383.883 6 120662882.830 6  94023063.99349  22961393.55149
  22974575.688 5 120732212.489 5  94077078.61747  22974583.66447
  21837720.078 6 114758023.898 6  89421832.30447  21837726.56647
  23326848.242 1 122583282.72911  95519586.78755  23326859.12145
  20390407.797 7 107152431.299 7  83495301.13049  20390416.60549
  24077651.078 5 126528905.642 5  98593982.16147  24077661.03947
 20  5 16  1 55 11.0000000  0  8G04G08G09G11G16G26G27G31             0.000436205
  21687184.188 6 113966918.248 6  88805416.98248  21687192.43448
  20609063.156 6 108301354.448 6  84390688.75449  20609072.26249
  22961242.648 6 120662140.298 6  94022485.39249  22961252.45749
  22973968.984 5 120729023.519 5  94074593.71247  22973976.83247
  21837982.906 6 114759405.269 6  89422908.69247  21837989.27047
  23327196.734 1 122585111.308 1  95521011.65645  23327206.96145
  20390640.789 6 107153656.248 6  83496255.63249  20390650.17249
  24078178.828 5 126531678.473 5  98596142.80247  24078188.18847
 20  5 16  1 55 12.0000000  0  8G04G08G09G11G16G26G27G31             0.000436268
  21687402.477 6 113968067.313 6  88806312.35648  21687411.31348
  20608888.297 6 108300434.591 6  84389971.97749  20608897.16849
  22961101.375 6 120661398.986 6  94021907.74249  22961111.10549
  22973362.781 5 120725835.355 5  94072109.43147  22973370.48447
  21838246.172 6 114760787.295 6  89423985.59547  21838252.79747
  23327544.359 1 122586940.549 1  95522437.03545  23327555.21945
  20390874.000 6 107154882.375 6  83497211.05649  20390883.19949
  24078706.609 5 126534452.158 5  98598304.10647  24078716.28547
 20  5 16  1 55 13.0000000  0  8G04G08G09G11G16G26G27G31             0.000436333
  21687621.758 6 113969217.531 6  88807208.62948  21687630.00048
  20608713.109 6 108299515.851 6  84389256.07949  20608722.41449
  22960960.641 6 120660658.823 6  94021330.99349  22960970.15649
  22972755.883 5 120722647.953 5  94069625.74347  22972763.54747
  21838508.969 6 114762169.940 6  89425062.98347  21838515.62547
  23327892.617 1 122588770.291 1  95523862.83045  23327902.97745
  20391107.883 6 107156109.612 6  83498167.34549  20391116.71549
  24079234.992 5 126537226.632 5  98600466.03447  24079244.36747
 20  5 16  1 55 14.0000000  0  8G04G08G09G11G16G26G27G31             0.000436398
  21687841.156 6 113970368.827 6  88808105.74248  21687848.86748
  20608538.273 6 108298598.229 6  84388541.04549  20608547.44149
  22960820.031 6 120659919.783 6  94020755.11649  22960829.53149
  22972149.375 5 120719461.250 5  94067142.59947  22972157.27747
  21838772.156 6 114763553.195 6  89426140.84147  21838778.51647
  23328240.875 1 122590600.624 1  95525289.08845  23328251.51645
  20391341.188 6 107157337.914 6  83499124.46149  20391350.46549
  24079763.656 5 126540001.881 5  98602628.56347  24079772.51647
 20  5 16  1 55 15.0000000  0  8G04G08G09G11G16G26G27G31             0.000436462
  21688060.219 6 113971521.195 6  88809003.69548  21688068.35548
  20608364.008 6 108297681.679 6  84387826.85449  20608373.09849
  22960679.430 6 120659181.879 6  94020180.12249  22960689.32049
  22971543.305 5 120716275.258 5  94064660.00447  22971551.06347
  21839035.414 6 114764937.004 6  89427219.13947  21839041.72747
  23328588.891 1 122592431.565 1  95526715.78745  23328600.33245
  20391575.219 7 107158567.311 7  83500082.43449  20391584.58249
  24080291.844 5 126542777.973 5  98604791.74847  24080300.64547
 20  5 16  1 55 16.0000000  0  8G04G08G09G11G16G26G27G31             0.000436527
  21688279.305 6 113972674.696 6  88809902.52248  21688287.53148
  20608189.750 6 108296766.299 6  84387113.57149  20608198.98049
  22960539.352 6 120658445.133 6  94019606.03349  22960548.97349
  22970937.266 5 120713090.045 5  94062178.02247  22970944.75447
  21839299.172 6 114766321.443 6  89428297.92647  21839305.84447
  23328938.086 1 122594262.974 1  95528142.84545  23328948.04745
  20391809.852 6 107159797.811 6  83501041.26349  20391818.63349
  24080820.156 5 126545554.856 5  98606955.55947  24080828.85547
 20  5 16  1 55 17.0000000  0  8G04G08G09G11G16G26G27G31             0.000436594
  21688499.320 6 113973829.284 6  88810802.19848  21688507.53948
  20608015.648 6 108295851.978 6  84386401.10849  20608025.23449
  22960399.320 6 120657709.445 6  94019032.76349  22960409.06649
  22970330.852 5 120709905.466 5  94059696.53547  22970338.87147
  21839562.359 6 114767706.428 6  89429377.13247  21839568.96947
  23329287.242 1 122596094.932 1  95529570.38345  23329297.48845
  20392043.945 6 107161029.354 6  83502000.90449  20392053.25049
  24081348.328 5 126548332.471 5  98609119.93147  24081357.84047
 20  5 16  1 55 18.0000000  0  8G04G08G09G11G16G26G27G31             0.000436659
  21688719.359 6 113974985.080 6  88811702.81948  21688727.50848
  20607842.078 6 108294938.907 6  84385689.62949  20607851.21549
  22960260.172 6 120656975.014 6  94018460.47949  22960269.49249
  22969725.172 5 120706721.773 5  94057215.74047  22969732.77047
  21839826.289 6 114769092.156 6  89430456.91847  21839832.81647
  23329635.805 1 122597927.603 1  95530998.43145  23329646.25845
  20392278.500 6 107162262.111 6  83502961.49249  20392287.49649
  24081877.617 5 126551111.021 5  98611285.02647  24081886.13347
 20  5 16  1 55 19.0000000  0  8G04G08G09G11G16G26G27G31             0.000436726
  21688939.234 6 113976141.865 6  88812604.20848  21688947.82848
  20607668.281 6 108294026.820 6  84384978.90949  20607677.59849
  22960120.602 6 120656241.628 6  94017889.00549  22960129.84849
  22969119.219 5 120703538.666 5  94054735.39947  22969127.28547
  21840089.516 6 114770478.341 6  89431537.06347  21840096.34047
  23329984.828 1 122599760.691 1  95532426.81445  23329994.62945
  20392513.313 7 107163495.859 7  83503922.85449  20392522.41849
  24082406.258 5 126553890.247 5  98613450.64947  24082415.66047
 20  5 16  1 55 20.0000000  0  8G04G08G09G11G16G26G27G31             0.000436792
  21689159.633 6 113977299.844 6  88813506.52848  21689167.99648
  20607495.469 6 108293115.918 6  84384269.11349  20607504.68449
  22959980.781 6 120655509.459 6  94017318.48749  22959990.29349
  22968513.695 5 120700356.379 5  94052255.69847  22968521.69147
  21840354.148 6 114771865.225 6  89432617.75247  21840360.59047
  23330333.438 1 122601594.390 1  95533855.67145  23330343.58245
  20392748.234 6 107164730.763 6  83504885.11949  20392757.31349
  24082934.969 5 126556670.354 5  98615616.96347  24082944.41447
 20  5 16  1 55 21.0000000  0  8G04G08G09G11G16G26G27G31             0.000436859
  21689380.484 6 113978458.898 6  88814409.68648  21689388.67648
  20607322.070 6 108292206.097 6  84383560.15949  20607330.83249
  22959841.711 6 120654778.371 6  94016748.80949  22959851.08649
  22967908.844 5 120697174.758 5  94049776.50547  22967916.28547
  21840618.508 6 114773252.653 6  89433698.85947  21840624.63347
  23330682.586 1 122603428.653 1  95535284.94345  23330692.87545
  20392983.344 7 107165966.731 7  83505848.21049  20392992.53549
  24083464.266 5 126559451.217 5  98617783.86847  24083473.23447
 20  5 16  1 55 22.0000000  0  8G04G08G09G11G16G26G27G31             0.000436928
  21689600.891 6 113979619.087 6  88815313.73248  21689609.03948
  20607149.203 6 108291297.438 6  84382852.11449  20607158.48849
  22959703.172 6 120654048.439 6  94016180.02849  22959712.16049
  22967302.992 5 120693993.929 5  94047297.93847  22967311.05947
  21840882.117 6 114774640.722 6  89434780.47047  21840888.99247
  23331031.820 1 122605263.478 1  95536714.66145  23331042.11345
  20393218.680 7 107167203.817 7  83506812.17349  20393228.09849
  24083993.648 5 126562232.941 5  98619951.44647  24084002.61347
 20  5 16  1 55 23.0000000  0  8G04G08G09G11G16G26G27G31             0.000436995
  21689821.945 6 113980780.404 6  88816218.65348  21689830.24248
  20606976.367 6 108290389.910 6  84382144.94949  20606985.88349
  22959564.203 5 120653319.710 5  94015612.18849  22959573.65649
  22966697.805 5 120690813.838 5  94044819.95347  22966705.90247
  21841146.578 6 114776029.408 6  89435862.55947  21841152.57447
  23331380.836 1 122607098.916 1  95538144.83345  23331391.18045
  20393454.406 7 107168442.028 7  83507777.01549  20393463.42649
  24084523.297 5 126565015.458 5  98622119.63747  24084532.25447
 20  5 16  1 55 24.0000000  0  8G04G08G09G11G16G26G27G31             0.000437063
  21690043.102 6 113981942.771 6  88817124.38748  21690051.14848
  20606803.813 6 108289483.427 6  84381438.59649  20606813.32849
  22959425.539 6 120652592.021 6  94015045.15849  22959435.29749
  22966092.867 5 120687634.414 5  94042342.47547  22966100.78947
  21841410.922 6 114777418.641 6  89436945.07447  21841417.07447
  23331729.531 1 122608934.791 1  95539575.37045  23331740.66445
  20393690.445 7 107169681.275 7  83508742.66249  20393699.44549
  24085052.750 5 126567798.728 5  98624288.41247  24085062.24247
 20  5 16  1 55 25.0000000  0  8G04G08G09G11G16G26G27G31             0.000437132
  21690264.211 6 113983106.271 6  88818031.01348  21690272.71548
  20606631.727 6 108288578.061 6  84380733.12149  20606641.15249
  22959287.102 6 120651865.471 6  94014479.01549  22959297.18049
  22965488.086 5 120684455.743 5  94039865.58947  22965495.47747
  21841675.688 6 114778808.475 6  89438028.06447  21841681.57447
  23332078.445 1 122610771.314 1  95541006.48245  23332090.00445
  20393926.109 6 107170921.618 6  83509709.15849  20393935.37549
  24085582.273 5 126570582.821 5  98626457.84147  24085591.73047
 20  5 16  1 55 26.0000000  0  8G04G08G09G11G16G26G27G31             0.000437201
  21690486.461 6 113984270.876 6  88818938.49248  21690494.45348
  20606459.891 6 108287673.834 6  84380028.52549  20606469.52349
  22959149.156 6 120651140.146 6  94013913.82649  22959158.89149
  22964883.836 5 120681277.805 5  94037389.27247  22964891.06647
  21841939.914 6 114780198.929 6  89439111.53247  21841946.15247
  23332428.328 1 122612608.478 1  95542438.04745  23332439.54345
  20394162.625 6 107172163.069 6  83510676.52549  20394171.80549
  24086112.219 5 126573367.707 5  98628627.88047  24086121.79347
 20  5 16  1 55 27.0000000  0  8G04G08G09G11G16G26G27G31             0.000437269
  21690707.914 6 113985436.674 6  88819846.90548  21690716.14148
  20606287.859 6 108286770.777 6  84379324.84749  20606296.95349
  22959011.336 6 120650415.983 6  94013349.54349  22959021.18449
  22964278.773 5 120678100.671 5  94034913.58347  22964286.73447
  21842204.859 6 114781590.066 6  89440195.53547  21842211.40247
  23332778.773 1 122614446.147 1  95543870.01545  23332789.30145
  20394399.180 7 107173405.692 7  83511644.80349  20394408.38749
  24086642.938 5 126576153.465 5  98630798.59347  24086651.80547
 20  5 16  1 55 28.0000000  0  8G04G08G09G11G16G26G27G31             0.000437340
  21690930.180 6 113986603.451 6  88820756.08748  21690938.53548
  20606116.375 6 108285868.741 6  84378621.95849  20606125.46549
  22958873.992 6 120649692.828 6  94012786.04449  22958883.43449
  22963674.109 5 120674924.163 5  94032438.37747  22963682.28147
  21842469.172 6 114782981.688 6  89441279.91247  21842475.97347
  23333128.375 1 122616284.231 1  95545302.26245  23333138.78145
  20394635.789 7 107174649.275 7  83512613.82549  20394644.76649
  24087173.008 5 126578939.900 5  98632969.83147  24087182.42247
 20  5 16  1 55 29.0000000  0  8G04G08G09G11G16G26G27G31             0.000437410
  21691152.211 6 113987771.304 6  88821666.09848  21691160.27348
  20605944.773 6 108284967.778 6  84377919.91149  20605953.94949
  22958736.719 5 120648970.792 5  94012223.41749  22958746.27349
  22963070.297 5 120671748.323 5  94029963.69247  22963077.88747
  21842734.570 6 114784373.843 6  89442364.70847  21842741.26647
  23333478.352 1 122618122.993 1  95546735.06045  23333489.07445
  20394872.578 7 107175893.932 7  83513583.68849  20394881.77049
  24087703.211 5 126581727.139 5  98635141.71147  24087712.68447
 20  5 16  1 55 30.0000000  0  8G04G08G09G11G16G26G27G31             0.000437479
  21691374.820 6 113988940.258 6  88822576.97248  21691382.89548
  20605773.625 6 108284067.934 6  84377218.72849  20605782.69949
  22958599.297 5 120648249.894 5  94011661.67849  22958608.74649
  22962465.930 5 120668573.239 5  94027489.60447  22962473.94547
  21842999.742 6 114785766.612 6  89443449.98447  21843005.80947
  23333828.617 1 122619962.169 1  95548168.13045  23333839.12945
  20395109.508 7 107177139.675 7  83514554.40149  20395118.47749
  24088234.172 5 126584515.128 5  98637314.15647  24088242.96147
 20  5 16  1 55 31.0000000  0  8G04G08G09G11G16G26G27G31             0.000437550
  21691597.539 6 113990110.194 6  88823488.60648  21691605.77348
  20605602.430 6 108283169.057 6  84376518.30549  20605611.97349
  22958461.688 5 120647530.024 5  94011100.74049  22958471.88349
  22961861.773 5 120665398.740 5  94025015.97447  22961869.36347
  21843264.367 6 114787159.859 6  89444535.63647  21843271.16447
  23334178.523 1 122621801.885 1  95549601.70545  23334189.19145
  20395346.938 7 107178386.395 7  83515525.86749  20395356.03949
  24088764.570 5 126587303.833 5  98639487.17947  24088774.05547
 20  5 16  1 55 32.0000000  0  8G04G08G09G11G16G26G27G31             0.000437622
  21691820.258 6 113991281.285 6  88824401.14148  21691828.52348
  20605431.563 6 108282271.364 6  84375818.80649  20605440.82449
  22958325.609 5 120646811.316 5  94010540.70649  22958335.00449
  22961258.359 5 120662225.023 5  94022542.95047  22961265.41047
  21843529.773 6 114788553.763 6  89445621.78647  21843536.06647
  23334528.727 1 122623642.196 1  95551035.78445  23334539.29345
  20395584.664 7 107179634.232 7  83516498.21249  20395593.19149
  24089295.148 5 126590093.353 5  98641660.82747  24089304.72747
 20  5 16  1 55 33.0000000  0  8G04G08G09G11G16G26G27G31             0.000437693
  21692043.531 6 113992453.376 6  88825314.45948  21692051.55548
  20605261.211 6 108281374.648 6  84375120.06749  20605270.23049
  22958188.906 5 120646093.645 5  94009981.47849  22958198.63749
  22960653.977 5 120659051.923 5  94020070.40547  22960661.65247
  21843794.945 6 114789948.148 6  89446708.32247  21843801.60547
  23334878.992 1 122625482.880 1  95552470.06845  23334889.39145
  20395822.250 7 107180883.061 7  83517471.32449  20395830.74649
  24089826.813 5 126592883.560 5  98643835.01747  24089835.46147
 20  5 16  1 55 34.0000000  0  8G04G08G09G11G16G26G27G31             0.000437763
  21692266.930 6 113993626.636 6  88826228.68648  21692274.87548
  20605090.789 6 108280479.124 6  84374422.25249  20605100.12949
  22958052.125 5 120645377.176 5  94009423.19549  22958061.99249
  22960050.508 5 120655879.610 5  94017598.47347  22960057.85247
  21844060.844 6 114791343.198 6  89447795.37447  21844067.18847
  23335228.781 1 122627324.264 1  95553904.88645  23335239.78545
  20396059.695 7 107182133.074 7  83518445.35349  20396068.58249
  24090357.719 5 126595674.648 5  98646009.89147  24090366.74247
 20  5 16  1 55 35.0000000  0  8G04G08G09G11G16G26G27G31             0.000437836
  21692490.352 6 113994800.977 6  88827143.75448  21692498.14148
  20604920.742 6 108279584.703 6  84373725.30949  20604929.71949
  22957916.578 5 120644661.804 5  94008865.75449  22957926.08249
  22959447.016 5 120652708.029 5  94015127.11247  22959454.24647
  21844325.898 6 114792738.823 6  89448882.87447  21844332.70347
  23335579.688 1 122629166.167 1  95555340.11945  23335590.38745
  20396297.813 7 107183384.130 7  83519420.20149  20396307.30549
  24090888.875 5 126598466.523 5  98648185.37647  24090898.05947
 20  5 16  1 55 36.0000000  0  8G04G08G09G11G16G26G27G31             0.000437908
  21692713.570 6 113995976.368 6  88828059.64348  21692721.80148
  20604750.023 6 108278691.310 6  84373029.15449  20604759.52749
  22957780.648 5 120643947.514 5  94008309.16649  22957790.06649
  22958843.664 5 120649537.103 5  94012656.26047  22958850.89847
  21844591.703 6 114794134.968 6  89449970.78147  21844598.39547
  23335931.039 1 122631008.555 1  95556775.73745  23335941.05545
  20396536.469 7 107184636.206 7  83520395.84649  20396545.15649
  24091420.555 5 126601259.143 5  98650361.43847  24091429.39847
 20  5 16  1 55 37.0000000  0  8G04G08G09G11G16G26G27G31             0.000437981
  21692937.586 6 113997152.906 6  88828976.43248  21692945.69148
  20604580.750 6 108277799.102 6  84372333.92549  20604589.94549
  22957644.891 5 120643234.394 5  94007753.48749  22957654.48849
  22958240.836 5 120646366.944 5  94010186.01047  22958248.13347
  21844858.000 6 114795531.775 6  89451059.21047  21844864.25847
  23336281.586 1 122632851.541 1  95558211.82945  23336291.86345
  20396774.773 7 107185889.444 7  83521372.39349  20396783.70749
  24091951.711 5 126604052.572 5  98652538.12847  24091960.85947
 20  5 16  1 55 38.0000000  0  8G04G08G09G11G16G26G27G31             0.000438053
  21693161.758 6 113998330.353 6  88829893.92248  21693169.46948
  20604411.016 6 108276907.824 6  84371639.42549  20604420.17249
  22957509.719 5 120642522.271 5  94007198.58349  22957519.07449
  22957637.594 5 120643197.321 5  94007716.17947  22957645.10247
  21845123.813 6 114796928.987 6  89452147.94547  21845130.23047
  23336632.117 1 122634694.936 1  95559648.23645  23336642.49245
  20397013.094 7 107187143.579 7  83522349.64149  20397022.34449
  24092484.141 4 126606846.645 4  98654715.32247  24092492.39547
 20  5 16  1 55 39.0000000  0  8G04G08G09G11G16G26G27G31             0.000438126
  21693386.125 6 113999508.873 6  88830812.25348  21693393.93048
  20604241.656 6 108276017.590 6  84370945.73749  20604250.65649
  22957374.055 5 120641811.188 5  94006644.48349  22957383.66049
  22957034.516 5 120640028.389 5  94005246.87847  22957041.50447
  21845389.820 6 114798326.736 6  89453237.10147  21845395.82847
  23336983.570 1 122636538.803 1  95561085.01645  23336993.69545
  20397252.180 7 107188398.762 7  83523327.70749  20397261.18849
  24093015.781 4 126609641.422 4  98656893.06547  24093024.62947
 20  5 16  1 55 40.0000000  0  8G04G08G09G11G16G26G27G31             0.000438200
  21693610.688 6 114000688.488 6  88831731.42848  21693618.06648
  20604072.633 6 108275128.466 6  84370252.91449  20604081.96549
  22957239.414 5 120641101.233 5  94006091.27749  22957248.87149
  22956431.563 5 120636860.144 5  94002778.11647  22956438.77747
  21845655.766 6 114799725.094 6  89454326.72947  21845662.12147
  23337333.719 1 122638383.229 1  95562522.26745  23337344.12945
  20397491.328 7 107189654.988 7  83524306.58649  20397499.82049
  24093547.820 4 126612437.011 4  98659071.43847  24093556.21547
 20  5 16  1 55 41.0000000  0  8G04G08G09G11G16G26G27G31             0.000438274
  21693835.109 6 114001869.108 6  88832651.39848  21693843.03948
  20603903.430 6 108274240.341 6  84369560.86649  20603912.87949
  22957104.047 5 120640392.365 5  94005538.91249  22957113.70749
  22955829.156 5 120633692.618 5  94000309.91347  22955835.93447
  21845922.156 6 114801123.957 6  89455416.75047  21845928.02047
  23337685.156 1 122640228.133 1  95563959.88145  23337694.99245
  20397730.336 7 107190912.266 7  83525286.28449  20397739.85949
  24094079.875 4 126615233.293 4  98661250.35747  24094088.39147
 20  5 16  1 55 42.0000000  0  8G04G08G09G11G16G26G27G31             0.000438349
  21694060.023 6 114003050.848 6  88833572.23248  21694067.85948
  20603734.133 6 108273353.354 6  84368869.71149  20603743.85249
  22956969.570 5 120639684.630 5  94004987.43049  22956979.10249
  22955226.344 5 120630525.769 5  93997842.23647  22955233.35547
  21846188.539 6 114802523.441 6  89456507.25347  21846194.34447
  23338036.258 1 122642073.663 1  95565397.95045  23338046.68045
  20397969.922 7 107192170.631 7  83526266.82549  20397978.89549
  24094612.148 5 126618030.403 5  98663429.92347  24094620.51247
 20  5 16  1 55 43.0000000  0  8G04G08G09G11G16G26G27G31             0.000438423
  21694284.813 6 114004233.644 6  88834493.88848  21694292.77048
  20603565.969 7 108272467.404 7  84368179.35449  20603575.26249
  22956834.875 5 120638977.949 5  94004436.77249  22956844.75449
  22954623.953 5 120627359.585 5  93995375.08147  22954630.98447
  21846455.094 6 114803923.424 6  89457598.14947  21846460.90247
  23338387.680 1 122643919.565 1  95566836.29945  23338397.68845
  20398209.648 7 107193430.017 7  83527248.16349  20398218.66449
  24095144.492 5 126620828.219 5  98665610.04647  24095153.00047
 20  5 16  1 55 44.0000000  0  8G04G08G09G11G16G26G27G31             0.000438498
  21694509.852 6 114005417.535 6  88835416.39948  21694518.25048
  20603397.336 6 108271582.572 6  84367489.87649  20603406.98449
  22956700.992 5 120638272.392 5  94003886.98249  22956710.50449
  22954021.094 5 120624194.149 5  93992908.50347  22954028.56647
  21846721.289 6 114805324.017 6  89458689.52147  21846727.40647
  23338738.352 1 122645766.122 1  95568275.16045  23338749.12945
  20398449.305 7 107194690.468 7  83528230.33549  20398458.41849
  24095676.805 4 126623626.852 4  98667790.80347  24095685.18447
 20  5 16  1 55 45.0000000  0  8G04G08G09G11G16G26G27G31             0.000438572
  21694735.906 6 114006602.523 6  88836339.76948  21694743.65648
  20603229.289 6 108270698.843 6  84366801.25549  20603239.33649
  22956566.313 5 120637568.011 5  94003338.11049  22956576.62549
  22953419.148 5 120621029.440 5  93990442.49847  22953426.30147
  21846988.039 6 114806725.238 6  89459781.38147  21846994.43847
  23339089.984 1 122647613.232 1  95569714.46745  23339100.55945
  20398689.578 7 107195952.045 7  83529213.37949  20398698.98049
  24096210.547 4 126626426.300 4  98669972.18847  24096218.10247
 20  5 16  1 55 46.0000000  0  8G04G08G09G11G16G26G27G31             0.000438648
  21694961.578 6 114007788.562 6  88837263.94948  21694969.18848
  20603061.367 6 108269816.193 6  84366113.47649  20603071.03149
  22956432.438 6 120636864.676 6  94002790.06349  22956442.23049
  22952817.039 5 120617865.402 5  93987977.01247  22952823.94947
  21847254.531 6 114808126.948 6  89460873.62447  21847260.80547
  23339441.391 1 122649460.807 1  95571154.13045  23339452.18845
  20398929.727 7 107197214.641 7  83530197.22049  20398939.01649
  24096742.344 4 126629226.448 4  98672154.10647  24096751.09447
 20  5 16  1 55 47.0000000  0  8G04G08G09G11G16G26G27G31             0.000438723
  21695187.359 6 114008975.455 6  88838188.80148  21695195.08248
  20602893.477 6 108268934.378 6  84365426.35349  20602903.13749
  22956299.039 5 120636162.225 5  94002242.70449  22956308.82049
  22952215.453 5 120614701.847 5  93985511.91147  22952221.83647
  21847520.977 6 114809529.039 6  89461966.15847  21847527.99647
  23339793.414 1 122651308.621 1  95572593.97645  23339804.00445
  20399170.258 7 107198478.072 7  83531181.71649  20399179.28549
  24097275.594 4 126632027.148 4  98674336.46147  24097283.55147
 20  5 16  1 55 48.0000000  0  8G04G08G09G11G16G26G27G31             0.000438799
  21695413.570 6 114010163.432 6  88839114.49448  21695421.41448
  20602725.969 6 108268053.703 6  84364740.11549  20602735.34049
  22956165.398 5 120635460.887 5  94001696.20749  22956175.15249
  22951613.078 5 120611538.973 5  93983047.33147  22951620.42647
  21847787.539 6 114810931.676 6  89463059.12147  21847794.37147
  23340145.570 1 122653157.140 1  95574034.42045  23340155.77345
  20399410.836 6 107199742.554 6  83532167.02449  20399419.64549
  24097808.453 4 126634828.610 4  98676519.41347  24097816.50047
 20  5 16  1 55 49.0000000  0  8G04G08G09G11G16G26G27G31             0.000438875
  21695639.695 6 114011352.429 6  88840040.98748  21695647.34048
  20602558.750 6 108267174.063 6  84364054.68349  20602568.34049
  22956032.563 5 120634760.646 5  94001150.56649  22956042.19549
  22951011.836 5 120608376.788 5  93980583.28847  22951018.60547
  21848055.063 6 114812334.892 6  89464152.53447  21848061.64847
  23340497.852 1 122655006.066 1  95575475.09545  23340507.46145
  20399651.492 7 107201008.087 7  83533153.15349  20399660.56349
  24098342.375 4 126637630.853 4  98678702.97147  24098349.95347
 20  5 16  1 55 50.0000000  0  8G04G08G09G11G16G26G27G31             0.000438951
  21695866.016 6 114012542.391 6  88840968.23447  21695874.01247
  20602391.250 7 108266295.362 7  84363369.98049  20602401.24649
  22955899.609 5 120634061.375 5  94000605.67449  22955909.00049
  22950410.297 5 120605215.159 5  93978119.68647  22950416.62947
  21848322.297 6 114813738.523 6  89465246.27547  21848328.71947
  23340848.477 1 122656855.324 1  95576916.05845  23340859.37545
  20399892.398 7 107202274.543 7  83534140.00449  20399901.26249
  24098875.852 4 126640433.718 4  98680887.02146  24098883.16046
 20  5 16  1 55 51.0000000  0  8G04G08G09G11G16G26G27G31             0.000439030
  21696092.906 5 114013733.376 5  88841896.27547  21696100.79347
  20602223.961 7 108265417.705 7  84362686.09149  20602233.91049
  22955766.461 6 120633363.141 6  94000061.59349  22955775.82449
  22949808.906 5 120602054.201 5  93975656.59847  22949815.38347
  21848589.203 6 114815142.680 6  89466340.42047  21848595.90647
  23341200.453 1 122658705.190 1  95578357.53945  23341211.44145
  20400133.961 7 107203541.998 7  83535127.63749  20400143.02049
  24099408.852 4 126643237.308 4  98683071.64446  24099417.13746
 20  5 16  1 55 52.0000000  0  8G04G08G09G11G16G26G27G31             0.000439106
  21696320.031 5 114014925.440 5  88842825.15747  21696327.12547
  20602057.398 7 108264541.136 7  84362003.05049  20602067.17249
  22955633.680 6 120632666.046 6  93999518.40349  22955643.76249
  22949207.133 5 120598893.925 5  93973194.04247  22949213.63347
  21848856.648 6 114816547.399 6  89467435.01047  21848863.10547
  23341551.633 1 122660555.524 1  95579799.36245  23341563.67645
  20400375.320 7 107204810.533 7  83536116.10549  20400384.37149
  24099942.594 4 126646041.658 4  98685256.85246  24099950.36346
 20  5 16  1 55 53.0000000  0  8G04G08G09G11G16G26G27G31             0.000439184
  21696547.172 5 114016118.594 5  88843754.88147  21696554.34447
  20601890.875 7 108263665.668 7  84361320.86649  20601900.73849
  22955501.359 6 120631970.085 6  93998976.09649  22955510.84049
  22948605.945 5 120595734.381 5  93970732.06547  22948612.59447
  21849124.469 6 114817952.709 6  89468530.05647  21849130.61747
  23341904.023 1 122662406.372 1  95581241.57945  23341915.89545
  20400616.930 7 107206080.141 7  83537105.40749  20400626.28149
  24100476.180 5 126648846.778 5  98687442.66147  24100484.20347
 20  5 16  1 55 54.0000000  0  8G04G08G09G11G16G26G27G31             0.000439262
  21696774.359 5 114017312.782 5  88844685.41747  21696781.89147
  20601724.414 6 108262791.237 6  84360639.48749  20601734.12149
  22955368.742 6 120631275.129 6  93998434.57049  22955379.07049
  22948004.984 5 120592575.474 5  93968270.58147  22948011.47347
  21849391.703 6 114819358.544 6  89469625.51547  21849398.14547
  23342256.109 1 122664257.785 1  95582684.23845  23342267.96145
  20400858.477 7 107207350.770 7  83538095.50749  20400867.77749
  24101009.930 5 126651652.645 5  98689629.04247  24101017.77047
 20  5 16  1 55 55.0000000  0  8G04G08G09G11G16G26G27G31             0.000439339
  21697001.750 5 114018507.920 5  88845616.69347  21697008.79747
  20601558.023 6 108261917.797 6  84359958.88349  20601567.89849
  22955236.906 6 120630581.231 6  93997893.87549  22955246.60249
  22947404.164 5 120589417.180 5  93965809.56447  22947410.71947
  21849659.648 6 114820764.844 6  89470721.32147  21849665.79747
  23342608.391 1 122666109.529 1  95584127.16545  23342620.54345
  20401100.750 7 107208622.389 7  83539086.38149  20401109.65649
  24101544.758 4 126654459.184 4  98691815.95747  24101551.94547
 20  5 16  1 55 56.0000000  0  8G04G08G09G11G16G26G27G31             0.000439419
  21697229.195 5 114019704.118 5  88846548.80048  21697236.72348
  20601392.328 6 108261045.377 6  84359279.07549  20601401.91449
  22955105.563 6 120629888.389 6  93997354.00049  22955115.00049
  22946803.508 5 120586259.552 5  93963349.06847  22946809.49647
  21849927.188 6 114822171.659 6  89471817.53747  21849933.57047
  23342960.703 1 122667961.846 1  95585570.52845  23342972.70345
  20401342.852 7 107209894.955 7  83540077.98649  20401351.49249
  24102078.375 5 126657266.409 5  98694003.39947  24102086.23047
 20  5 16  1 55 57.0000000  0  8G04G08G09G11G16G26G27G31             0.000439497
  21697457.023 5 114020901.302 5  88847481.66848  21697464.53948
  20601226.211 6 108260173.955 6  84358600.04349  20601236.43849
  22954973.375 6 120629196.568 6  93996814.92049  22954983.29349
  22946202.625 5 120583102.540 5  93960889.05947  22946208.99247
  21850195.219 6 114823578.957 6  89472914.13147  21850201.25847
  23343312.781 1 122669814.596 1  95587014.22645  23343325.05145
  20401585.195 7 107211168.563 7  83541070.40949  20401594.32449
  24102613.164 5 126660074.374 5  98696191.42547  24102620.41047
 20  5 16  1 55 58.0000000  0  8G04G08G09G11G16G26G27G31             0.000439575
  21697685.227 5 114022099.573 5  88848415.38647  21697692.37547
  20601060.875 6 108259303.629 6  84357921.86749  20601070.53549
  22954842.453 6 120628505.814 6  93996276.66549  22954851.81349
  22945601.953 5 120579946.230 5  93958429.59847  22945608.27347
  21850463.180 6 114824986.844 6  89474011.18247  21850469.41447
  23343665.148 1 122671667.930 1  95588458.36245  23343677.69545
  20401827.727 7 107212443.171 7  83542063.61649  20401837.02749
  24103147.000 4 126662883.064 4  98698380.00146  24103154.87946
 20  5 16  1 55 59.0000000  0  8G04G08G09G11G16G26G27G31             0.000439655
  21697913.555 5 114023298.873 5  88849349.90648  21697920.80948
  20600895.484 6 108258434.384 6  84357244.53449  20600905.13349
  22954710.727 5 120627816.195 5  93995739.29749  22954720.50849
  22945001.141 5 120576790.592 5  93955970.66347  22945008.09447
  21850730.516 6 114826395.266 6  89475108.65347  21850737.14547
  23344018.461 1 122673521.712 1  95589902.88845  23344030.76245
  20402070.227 7 107213718.843 7  83543057.64249  20402079.65649
  24103681.648 4 126665692.505 4  98700569.17346  24103689.55146
 20  5 16  1 56  0.0000000  0  8G04G08G09G11G16G26G27G31             0.000439735
  21698142.133 5 114024499.282 5  88850285.29247  21698148.76247
  20600730.336 6 108257566.203 6  84356568.02749  20600739.74649
  22954579.914 6 120627127.691 6  93995202.80349  22954589.45349
  22944401.156 5 120573635.707 5  93953512.31947  22944407.46147
  21850999.125 6 114827804.282 6  89476206.58647  21851005.35547
  23344371.250 1                                
  20402313.414 7 107214995.604 7  83544052.52449  20402322.57849
  24104215.930 4 126668502.752 4  98702758.97846  24104223.94946
 20  5 16  1 56  1.0000000  0  8G04G08G09G11G16G26G27G31             0.000439814
  21698370.180 5 114025700.626 5  88851221.40347  21698378.07447
  20600564.969 6 108256698.977 6  84355892.26649  20600574.84849
  22954448.898 5 120626440.184 5  93994667.07849  22954458.64849
  22943800.867 4 120570481.368 4  93951054.39447  22943807.23447
  21851267.281 6 114829213.747 6  89477304.86447  21851273.67247
  23344724.773 1 122677230.75111  95592793.09155  23344736.77045
  20402556.555 7 107216273.303 7  83545048.13049  20402565.71949
  24104751.047 4 126671313.627 4  98704949.27146  24104758.85546
 20  5 16  1 56  2.0000000  0  8G04G08G09G11G16G26G27G31             0.000439894
  21698599.305 5 114026902.921 5  88852158.25047  21698606.71147
  20600400.148 7 108255832.711 7  84355217.25749  20600410.62149
  22954318.750 5 120625753.604 5  93994132.08849  22954328.21949
  22943200.883 5 120567327.600 5  93948596.90747  22943206.89847
  21851535.492 6 114830623.612 6  89478403.46647  21851541.89847
  23345077.016 1 122679085.901 1  95594238.66045  23345089.88745
  20402799.836 7 107217551.911 7  83546044.44349  20402809.10249
  24105286.539 3 126674125.153 3  98707140.06846  24105293.46546
 20  5 16  1 56  3.0000000  0  8G04G08G09G11G16G26G27G31             0.000439976
  21698828.227 5 114028106.186 5  88853095.85747  21698835.68847
  20600235.602 6 108254967.437 6  84354543.02349  20600245.32049
  22954188.055 5 120625068.058 5  93993597.89649  22954197.48849
  22942601.008 5 120564174.455 5  93946139.90747  22942606.72347
  21851803.617 6 114832033.965 6  89479502.44447  21851810.03147
  23345431.508 1 122680941.430 1  95595684.56045  23345443.44145
  20403043.359 7 107218831.488 7  83547041.51749  20403052.15249
  24105822.211 4 126676937.346 4  98709331.37447  24105828.62547
 20  5 16  1 56  4.0000000  0  8G04G08G09G11G16G26G27G31             0.000440056
  21699056.961 5 114029310.386 5  88854034.20047  21699064.81647
  20600071.109 7 108254103.138 7  84353869.54149  20600080.90249
  22954057.922 5 120624383.525 5  93993064.49549  22954067.27749
  22942000.805 5 120561021.868 5  93943683.35047  22942007.19147
  21852072.406 6 114833444.786 6  89480601.78847  21852078.79747
  23345783.813 1 122682797.429 1  95597130.77245  23345796.15645
  20403286.789 7 107220111.996 7  83548039.31949  20403296.26649
  24106356.719 4 126679750.145 4  98711523.14446  24106364.40246
 20  5 16  1 56  5.0000000  0  8G04G08G09G11G16G26G27G31             0.000440136
  21699286.758 5 114030515.735 5  88854973.43247  21699294.35247
  20599906.594 6 108253239.927 6  84353196.90949  20599916.42649
  22953927.844 6 120623700.096 6  93992531.95549  22953937.39849
  22941401.117 5 120557870.042 5  93941227.37047  22941406.91847
  21852341.031 6 114834856.205 6  89481701.59547  21852347.60547
  23346136.891 1 122684653.998 1  95598577.42745  23346149.58245
  20403530.797 7 107221393.637 7  83549038.00249  20403539.59049
  24106893.102 4 126682563.829 4  98713715.61646  24106899.61746
 20  5 16  1 56  6.0000000  0  8G04G08G09G11G16G26G27G31             0.000440218
  21699516.023 5 114031721.987 5  88855913.36348  21699523.84448
  20599742.875 6 108252377.654 6  84352525.00749  20599752.28949
  22953797.359 5 120623017.655 5  93992000.17349  22953807.24249
  22940801.453 5 120554718.772 5  93938771.84447  22940807.43047
  21852609.492 6 114836268.045 6  89482801.73347  21852615.96147
  23346490.313 1 122686510.914 1  95600024.35345  23346502.65245
  20403774.758 7 107222676.148 7  83550037.36349  20403783.67249
  24107428.344 4 126685378.081 4  98715908.52747  24107434.96547
 20  5 16  1 56  7.0000000  0  8G04G08G09G11G16G26G27G31             0.000440300
  21699745.867 6 114032929.221 6  88856854.06847  21699753.55147
  20599578.914 6 108251516.358 6  84351853.87249  20599588.62949
  22953668.063 6 120622336.171 6  93991469.14149  22953677.60949
  22940201.766 5 120551568.080 5  93936316.76447  22940208.25447
  21852878.516 6 114837680.319 6  89483902.20247  21852884.80147
  23346843.367 1 122688368.256 1  95601471.64545  23346856.11745
  20404019.000 7 107223959.615 7  83551037.46949  20404028.05949
  24107963.766 4 126688192.986 4  98718101.95446  24107970.53946
 20  5 16  1 56  8.0000000  0  8G04G08G09G11G16G26G27G31             0.000440382
  21699975.586 6 114034137.490 6  88857795.57847  21699983.60247
  20599415.094 6 108250656.098 6  84351183.53549  20599424.89149
  22953538.758 6 120621655.811 6  93990938.99249  22953548.50049
  22939601.891 5 120548418.052 5  93933862.19047  22939608.21547
  21853147.375 6 114839093.147 6  89485003.10447  21853153.60247
  23347196.766 1 122690226.104 1  95602919.29045  23347209.80945
  20404263.492 7 107225244.102 7  83552038.36449  20404272.60949
  24108500.219 5 126691008.626 5  98720295.95547  24108506.29347
 20  5 16  1 56  9.0000000  0  8G04G08G09G11G16G26G27G31             0.000440464
  21700205.766 5 114035346.680 5  88858737.79947  21700213.46147
  20599251.594 7 108249796.791 7  84350513.94249  20599261.50449
  22953409.047 6 120620976.394 6  93990409.57649  22953419.18449
  22939002.547 5 120545268.598 5  93931408.06247  22939009.03947
  21853416.430 6 114840506.406 6  89486104.34247  21853422.43047
  23347550.508 1                                
  20404508.203 7 107226529.543 7  83553040.00549  20404517.35549
  24109035.891 5 126693824.924 5  98722490.46546  24109042.56646
 20  5 16  1 56 10.0000000  0  8G04G08G09G11G16G26G27G31             0.000440546
  21700436.188 5 114036556.842 5  88859680.77748  21700444.09848
  20599088.438 6 108248938.445 6  84349845.11049  20599098.07849
  22953279.867 6 120620297.988 6  93989880.95049  22953289.99649
  22938403.813 5 120542119.736 5  93928954.40747  22938409.81647
  21853685.648 6 114841920.121 6  89487205.93747  21853691.25447
  23347905.117 1 122693943.01611  95605815.55855  23347916.98845
  20404752.703 7 107227815.906 7  83554042.36749  20404762.12149
  24109571.773 5 126696641.839 5  98724685.45546  24109578.16046
 20  5 16  1 56 11.0000000  0  8G04G08G09G11G16G26G27G31             0.000440628
  21700666.930 5 114037768.017 5  88860624.55147  21700674.87147
  20598925.289 7 108248081.113 7  84349177.06049  20598934.82449
  22953150.680 6 120619620.606 6  93989353.11949  22953160.71549
  22937804.469 5 120538971.479 5  93926501.21747  22937810.93447
  21853954.227 6 114843334.335 6  89488307.91947  21853960.39847
  23348259.570 1 122695802.145 1  95607264.22945  23348270.68045
  20404997.945 7 107229103.254 7  83555045.49849  20405006.59449
  24110107.914 5 126699459.485 5  98726881.02747  24110114.62947
 20  5 16  1 56 12.0000000  0  8G04G08G09G11G16G26G27G31             0.000440712
  21700897.539 6 114038980.191 6  88861569.10448  21700905.22348
  20598762.352 7 108247224.831 7  84348509.82949  20598772.11749
  22953022.352 6 120618944.278 6  93988826.10849  22953031.85249
  22937205.930 5 120535823.921 5  93924048.57647  22937212.05947
  21854223.648 6 114844749.070 6  89489410.30547  21854229.81347
  23348613.703 1 122697661.770 1  95608713.30645  23348624.28545
  20405243.047 7 107230391.630 7  83556049.42649  20405252.10549
  24110643.594 5 126702277.826 5  98729077.13346  24110650.19146
 20  5 16  1 56 13.0000000  0  8G04G08G09G11G16G26G27G31             0.000440794
  21701128.102 5 114040193.477 5  88862514.51948  21701136.28548
  20598599.336 6 108246369.652 6  84347843.45649  20598609.20349
  22952894.398 5 120618269.108 5  93988300.00649  22952903.89149
  22936607.117 5 120532677.063 5  93921596.48447  22936612.63347
  21854493.289 6 114846164.417 6  89490513.17547  21854499.29747
  23348967.805 1 122699521.916 1  95610162.78045  23348978.91445
  20405488.531 6 107231681.071 6  83557054.18049  20405497.43449
  24111180.195 4 126705096.963 4  98731273.86346  24111186.91446
 20  5 16  1 56 14.0000000  0  8G04G08G09G11G16G26G27G31             0.000440878
  21701359.188 6 114041407.636 6  88863460.61248  21701367.09048
  20598436.313 6 108245515.345 6  84347177.76849  20598446.73049
  22952765.852 6 120617594.806 6  93987774.57649  22952775.26249
  22936008.500 5 120529530.717 5  93919144.78947  22936014.40247
  21854762.523 6 114847580.113 6  89491616.31347  21854768.58247
  23349321.742 1 122701382.381 1  95611612.46945  23349332.96945
  20405734.117 6 107232971.384 6  83558059.62049  20405742.94949
  24111717.094 4 126707916.684 4  98733471.04446  24111723.37946
 20  5 16  1 56 15.0000000  0  8G04G08G09G11G16G26G27G31             0.000440962
  21701590.688 6 114042622.796 6  88864407.48848  21701598.60248
  20598274.313 6 108244662.065 6  84346512.86949  20598284.22349
  22952637.898 6 120616921.573 6  93987249.97849  22952647.26249
  22935409.422 5 120526384.983 5  93916693.56247  22935415.60947
  21855031.719 6 114848996.292 6  89492719.83047  21855038.03547
  23349676.570 1 122703243.273 1  95613062.52145  23349687.15245
  20405979.805 6 107234262.658 6  83559065.80649  20405988.62949
  24112254.008 4 126710737.088 4  98735668.75546  24112260.31346
 20  5 16  1 56 16.0000000  0  8G04G08G09G11G16G26G27G31             0.000441046
  21701822.195 6 114043838.919 6  88865355.12248  21701830.07848
  20598112.320 6 108243809.732 6  84345848.71649  20598121.90249
  22952509.758 6 120616249.282 6  93986726.11049  22952519.36349
  22934810.797 5 120523239.825 5  93914242.78247  22934817.17647
  21855301.383 6 114850412.904 6  89493823.68847  21855307.82447
  23350030.273 1 122705104.668 1  95614512.99845  23350041.37145
  20406225.492 6 107235554.886 6  83560072.73549  20406234.94149
  24112790.391 4 126713558.114 4  98737866.95046  24112797.24246
 20  5 16  1 56 17.0000000  0  8G04G08G09G11G16G26G27G31             0.000441130
  21702053.609 6 114045056.040 6  88866303.52347  21702061.50847
  20597950.336 6 108242958.457 6  84345185.38249  20597959.93449
  22952382.711 6 120615578.084 6  93986203.09849  22952391.82449
  22934212.781 5 120520095.354 5  93911792.54647  22934219.06347
  21855571.195 6 114851830.053 6  89494927.95947  21855577.06647
  23350385.383 1 122706966.479 1  95615963.77245  23350395.29345
  20406471.633 6 107236848.127 6  83561080.45649  20406480.52349
  24113327.195 4 126716379.911 4  98740065.74546  24113333.85246
 20  5 16  1 56 18.0000000  0  8G04G08G09G11G16G26G27G31             0.000441214
  21702285.109 6 114046274.123 6  88867252.67347  21702293.58647
  20597788.250 6 108242108.121 6  84344522.77849  20597797.59449
  22952254.672 6 120614907.847 6  93985680.83249  22952263.77749
  22933614.617 5 120516951.416 5  93909342.71847  22933620.49247
  21855840.602 6 114853247.641 6  89496032.57147  21855847.22347
  23350740.375 1                                
  20406717.859 7 107238142.292 7  83562088.89849  20406727.29349
  24113865.109 4 126719202.302 4  98742265.00446  24113871.11746
 20  5 16  1 56 19.0000000  0  8G04G08G09G11G16G26G27G31             0.000441299
  21702517.047 6 114047493.080 6  88868202.51548  21702525.16848
  20597626.609 6 108241258.709 6  84343860.89649  20597636.16849
  22952127.328 6 120614238.562 6  93985159.31649  22952136.45349
  22933016.406 5 120513808.036 5  93906893.33147  22933022.44147
  21856110.586 6 114854665.627 6  89497137.49247  21856117.14847
  23351094.313 1 122710691.34711  95618866.23355  23351104.37545
  20406964.289 7 107239437.358 7  83563098.04249  20406973.58249
  24114401.813 5 126722025.303 5  98744464.74246  24114408.45746
 20  5 16  1 56 20.0000000  0  8G04G08G09G11G16G26G27G31             0.000441385
  21702749.391 6 114048713.025 6  88869153.13048  21702757.60548
  20597465.563 6 108240410.279 6  84343199.78349  20597475.11749
  22952000.453 6 120613570.271 6  93984638.57049  22952009.58649
  22932418.242 5 120510665.237 5  93904444.39947  22932424.16847
  21856380.586 6 114856084.057 6  89498242.76647  21856386.96947
  23351450.531 1 122712554.299 1  95620317.81145  23351458.81345
  20407210.680 7 107240733.333 7  83564107.89949  20407219.98049
  24114938.773 4 126724848.954 4  98746664.98846  24114945.21946
 20  5 16  1 56 21.0000000  0  8G04G08G09G11G16G26G27G31             0.000441469
  21702981.586 6 114049933.945 6  88870104.49748  21702989.68848
  20597304.008 6 108239562.834 6  84342539.43749  20597313.63349
  22951873.195 5 120612902.997 5  93984118.61249  22951882.53949
  22931820.234 5 120507523.077 5  93901995.97147  22931825.98447
  21856650.664 6 114857503.000 6  89499348.44347  21856656.67647
  23351804.773 1 122714417.783 1  95621769.85745  23351813.74245
  20407457.508 7 107242030.308 7  83565118.52549  20407466.76649
  24115476.039 5 126727673.276 5  98748865.76546  24115482.91846
 20  5 16  1 56 22.0000000  0  8G04G08G09G11G16G26G27G31             0.000441555
  21703214.008 5 114051155.754 5  88871056.55848  21703222.39148
  20597143.039 6 108238716.253 6  84341879.76249  20597152.64549
  22951746.438 6 120612236.614 6  93983599.35349  22951755.33649
  22931222.000 5 120504381.398 5  93899547.91147  22931228.27347
  21856920.539 6 114858922.267 6  89500454.36947  21856926.86347
  23352158.781 1 122716281.565 1  95623222.20145  23352168.12545
  20407704.742 7 107243328.131 7  83566129.82149  20407714.07849
  24116014.117 5 126730498.169 5  98751066.97446  24116020.74646
 20  5 16  1 56 23.0000000  0  8G04G08G09G11G16G26G27G31             0.000441641
  21703446.656 6 114052378.547 6  88872009.38048  21703454.72348
  20596981.883 6 108237870.692 6  84341220.88349  20596991.62549
  22951619.523 6 120611571.282 6  93983080.91649  22951629.60549
  22930624.320 5 120501240.363 5  93897100.35047  22930630.31347
  21857190.680 6 114860342.060 6  89501560.70147  21857197.14847
  23352515.352 1 122718145.787 1  95624674.82845  23352522.72345
  20407951.711 7 107244626.930 7  83567141.87149  20407960.99249
  24116552.016 4 126733323.747 4  98753268.70446  24116558.78946
 20  5 16  1 56 24.0000000  0  8G04G08G09G11G16G26G27G31             0.000441727
  21703679.656 6 114053602.366 6  88872963.00548  21703687.63348
  20596821.422 6 108237026.183 6  84340562.82449  20596831.34449
  22951493.328 6 120610907.014 6  93982563.30549  22951502.59849
  22930027.102 5 120498099.991 5  93894653.30747  22930033.00047
  21857461.031 6 114861762.385 6  89502667.43847  21857467.41047
  23352868.211 1 122720010.451 1  95626127.79945  23352878.13745
  20408199.359 7 107245926.765 7  83568154.72549  20408208.32849
  24117089.305 4 126736150.097 4  98755471.06046  24117096.01646
 20  5 16  1 56 25.0000000  0  8G04G08G09G11G16G26G27G31             0.000441813
  21703912.188 6 114054827.251 6  88873917.45748  21703920.82848
  20596660.938 6 108236182.716 6  84339905.58549  20596670.43849
  22951367.695 6 120610243.817 6  93982046.53049  22951376.55949
  22929429.141 5 120494960.288 5  93892206.78747  22929435.42647
  21857731.461 6 114863183.219 6  89503774.56847  21857737.71947
  23353223.648 1 122721875.754 1  95627581.30845  23353232.94145
  20408446.992 7 107247227.628 7  83569168.39049  20408455.94949
  24117627.141 4 126738977.149 4  98757673.95546  24117634.21146
 20  5 16  1 56 26.0000000  0  8G04G08G09G11G16G26G27G31             0.000441900
  21704145.953 6 114056052.949 6  88874872.54348  21704154.20348
  20596500.273 6 108235340.105 6  84339249.00149  20596510.22749
  22951240.930 6 120609581.498 6  93981530.43749  22951250.28949
  22928832.234 5 120491821.069 5  93889760.64447  22928838.27047
  21858001.828 6 114864604.400 6  89504881.97747  21858008.14847
  23353577.844 1 122723741.221 1  95629034.92245  23353587.89845
  20408694.516 7 107248529.296 7  83570182.67449  20408703.43049
  24118165.570 4 126741804.746 4  98759877.26646  24118172.29746
 20  5 16  1 56 27.0000000  0  8G04G08G09G11G16G26G27G31             0.000441986
  21704379.406 6 114057279.600 6  88875828.36847  21704387.62547
  20596340.289 6 108234498.457 6  84338593.17749  20596349.91849
  22951115.133 6 120608920.169 6  93981015.11249  22951124.73849
  22928234.836 5 120488682.400 5  93887314.92447  22928240.71147
  21858272.188 6 114866026.026 6  89505989.74047  21858278.83247
  23353932.523 1 122725607.155 1  95630488.88845  23353943.24245
  20408942.313 7 107249831.910 7  83571197.69549  20408951.53549
  24118703.438 4 126744632.949 4  98762081.05946  24118710.45346
 20  5 16  1 56 28.0000000  0  8G04G08G09G11G16G26G27G31             0.000442074
  21704613.070 6 114058507.205 6  88876784.94348  21704621.27348
  20596180.477 6 108233657.755 6  84337938.07649  20596190.20349
  22950989.289 6 120608259.796 6  93980500.53649  22950999.29749
  22927637.594 5 120485544.322 5  93884869.67547  22927643.62547
  21858542.773 6 114867448.115 6  89507097.86247  21858549.17647
  23354287.438 1 122727473.510 1  95631943.21045  23354297.95345
  20409190.633 7 107251135.425 7  83572213.42549  20409199.37149
  24119241.602 4 126747461.813 4  98764285.36046  24119249.13746
 20  5 16  1 56 29.0000000  0  8G04G08G09G11G16G26G27G31             0.000442162
  21704847.164 6 114059735.770 6  88877742.26447  21704855.00447
  20596020.570 6 108232818.021 6  84337283.74249  20596030.15249
  22950864.570 6 120607600.442 6  93979986.75249  22950873.34849
  22927040.375 5 120482406.847 5  93882424.88847  22927046.68847
  21858813.500 6 114868870.657 6  89508206.34147  21858819.88347
  23354643.453 1 122729340.245 1  95633397.81345  23354653.36745
  20409438.578 7 107252439.917 7  83573229.91449  20409447.94549
  24119779.750 4 126750291.336 4  98766490.17846  24119787.13746
 20  5 16  1 56 30.0000000  0  8G04G08G09G11G16G26G27G31             0.000442249
  21705080.664 6 114060965.312 6  88878700.34548  21705089.33248
  20595861.109 6 108231979.240 6  84336630.14649  20595870.69549
  22950738.742 5 120606942.073 5  93979473.73949  22950748.33249
  22926443.672 5 120479269.975 5  93879980.57347  22926449.59447
  21859084.477 6 114870293.669 6  89509315.17047  21859090.72347
  23354998.000 1 122731207.391 1  95634852.74545  23355008.78145
  20409686.805 6 107253745.347 6  83574247.12649  20409695.94549
  24120318.930 4 126753121.503 4  98768695.49546  24120326.19946
 20  5 16  1 56 31.0000000  0  8G04G08G09G11G16G26G27G31             0.000442337
  21705314.625 6 114062195.769 6  88879659.14747  21705322.85247
  20595701.930 6 108231141.405 6  84335977.28849  20595710.94149
  22950613.797 5 120606284.661 5  93978961.46849  22950623.27049
  22925846.844 5 120476133.640 5  93877536.67247  22925852.86747
  21859355.578 6 114871717.089 6  89510424.33147  21859362.07847
  23355352.930 1 122733074.989 1  95636308.02445  23355363.82045
  20409935.477 6 107255051.671 6  83575265.04649  20409944.60249
  24120857.336 4 126755952.334 4  98770901.34146  24120865.18446
 20  5 16  1 56 32.0000000  0  8G04G08G09G11G16G26G27G31             0.000442425
  21705549.383 6 114063427.145 6  88880618.66048  21705557.01648
  20595542.250 6 108230304.525 6  84335325.17549  20595551.90249
  22950488.906 6 120605628.228 6  93978449.95849  22950498.15649
  22925249.961 5 120472997.869 5  93875093.21847  22925256.10247
  21859626.594 6 114873140.940 6  89511533.82947  21859632.40247
  23355708.453 1 122734942.964 1  95637763.59945  23355719.92245
  20410184.375 7 107256358.963 7  83576283.71149  20410193.74649
  24121395.703 4 126758783.757 4  98773107.63946  24121403.77746
 20  5 16  1 56 33.0000000  0  8G04G08G09G11G16G26G27G31             0.000442513
  21705783.859 6 114064659.414 6  88881578.87247  21705792.11747
  20595383.305 6 108229468.538 6  84334673.75449  20595392.69549
  22950364.219 6 120604972.722 6  93977939.17249  22950373.65249
  22924652.977 5 120469862.630 5  93872650.17847  22924659.47747
  21859897.109 6 114874565.182 6  89512643.62847  21859903.68447
  23356064.891 1 122736811.230 1  95639219.36345  23356075.65245
  20410433.328 7 107257667.105 7  83577303.03949  20410442.51649
  24121934.922 5 126761615.784 5  98775314.40347  24121942.22747
 20  5 16  1 56 34.0000000  0  8G04G08G09G11G16G26G27G31             0.000442602
  21706018.500 6 114065892.659 6  88882539.83848  21706026.32048
  20595224.391 6 108228633.506 6  84334023.07949  20595234.16849
  22950239.938 6 120604318.234 6  93977429.18249  22950249.02349
  22924056.680 5 120466727.995 5  93870207.60547  22924062.94547
  21860168.484 6 114875989.887 6  89513753.79147  21860174.73847
  23356419.594 1 122738680.007 1  95640675.53445  23356430.94145
  20410682.281 7 107258976.188 7  83578323.10449  20410691.35549
  24122474.234 4 126764448.455 4  98777521.67646  24122481.66846
 20  5 16  1 56 35.0000000  0  8G04G08G09G11G16G26G27G31             0.000442690
  21706253.211 6 114067126.881 6  88883501.56948  21706261.08648
  20595065.711 6 108227799.486 6  84333373.19349  20595075.12549
  22950115.367 6 120603664.725 6  93976919.94849  22950124.58249
  22923460.797 5 120463593.948 5  93867765.49447  22923466.45347
  21860439.734 6 114877415.055 6  89514864.30848  21860445.87548
  23356775.172 1 122740549.140 1  95642132.00645  23356786.46145
  20410931.680 7 107260286.244 7  83579343.92349  20410940.69549
  24123013.438 4 126767281.789 4  98779729.45647  24123020.62147
 20  5 16  1 56 36.0000000  0  8G04G08G09G11G16G26G27G31             0.000442780
  21706488.461 6 114068362.070 6  88884464.05448  21706496.40648
  20594906.711 6 108226966.436 6  84332724.06149  20594916.21949
  22949990.961 6 120603012.244 6  93976411.52149  22950000.06349
  22922864.305 5 120460460.534 5  93865323.87747  22922870.32847
  21860711.063 6 114878840.696 6  89515975.20048  21860717.19948
  23357130.383 1 122742418.672 1  95643588.77645  23357142.25445
  20411180.875 7 107261597.254 7  83580365.49349  20411190.32849
  24123552.305 4 126770115.818 4  98781937.78346  24123560.00046
 20  5 16  1 56 37.0000000  0  8G04G08G09G11G16G26G27G31             0.000442869
  21706723.852 6 114069598.220 6  88885427.28948  21706731.78148
  20594749.031 6 108226134.368 6  84332075.70249  20594758.28549
  22949867.016 6 120602360.751 6  93975903.86149  22949876.30149
  22922268.117 5 120457327.694 5  93862882.70547  22922274.33247
  21860982.289 6 114880266.777 6  89517086.42747  21860989.06347
  23357485.234 1 122744288.743 1  95645045.94045  23357497.80945
  20411430.859 7 107262909.219 7  83581387.80149  20411439.88349
  24124091.625 4 126772950.482 4  98784146.60946  24124099.55546
 20  5 16  1 56 38.0000000  0  8G04G08G09G11G16G26G27G31             0.000442959
  21706959.320 6 114070835.228 6  88886391.19048  21706966.77748
  20594591.070 6 108225303.217 6  84331428.05249  20594600.25049
  22949743.281 6 120601710.183 6  93975396.92949  22949752.77049
  22921671.977 5 120454195.374 5  93860441.93647  22921678.76247
  21861253.906 6 114881693.225 6  89518197.94047  21861260.06647
  23357841.945 1 122746159.081 1  95646503.34145  23357854.22745
  20411680.945 7 107264222.010 7  83582410.75849  20411690.05949
  24124631.945 4 126775785.691 4  98786355.86947  24124639.67247
 20  5 16  1 56 39.0000000  0  8G04G08G09G11G16G26G27G31             0.000443048
  21707194.398 6 114072073.306 6  88887355.93048  21707202.52348
  20594432.602 6 108224473.124 6  84330781.22949  20594441.95749
  22949619.656 6 120601060.688 6  93974890.82849  22949629.28949
  22921076.008 5 120451063.738 5  93858001.69947  22921081.81647
  21861525.578 6 114883120.246 6  89519309.90747  21861531.63347
  23358197.703 1 122748029.958 1  95647961.22945  23358209.86745
  20411930.648 7 107265535.859 7  83583434.53449  20411939.92649
  24125170.719 4 126778621.681 4  98788565.72447  24125178.82447
 20  5 16  1 56 40.0000000  0  8G04G08G09G11G16G26G27G31             0.000443138
  21707430.094 5 114073312.282 5  88888321.38147  21707438.29747
  20594274.945 6 108223643.933 6  84330135.10549  20594284.34049
  22949496.445 6 120600412.105 6  93974385.44849  22949505.68449
  22920479.953 5 120447932.645 5  93855561.90047  22920485.74647
  21861797.219 6 114884547.631 6  89520422.14747  21861803.40647
  23358552.789 1 122749901.23211  95649419.38855  23358566.00845
  20412180.758 6 107266850.588 6  83584459.00349  20412189.76649
  24125711.055 3 126781458.232 3  98790776.03246  24125719.15646
 20  5 16  1 56 41.0000000  0  8G04G08G09G11G16G26G27G31             0.000443228
  21707665.867 6 114074552.106 6  88889287.47347  21707674.23447
  20594117.328 6 108222815.575 6  84329489.63049  20594126.47349
  22949372.906 6 120599764.458 6  93973880.80449  22949382.15649
  22919884.352 5 120444802.013 5  93853122.46247  22919890.08247
  21862068.930 6 114885975.385 6  89521534.68947  21862074.80947
  23358907.969 1 122751772.64011  95650877.64155  23358922.35945
  20412431.195 7 107268166.165 7  83585484.12749  20412440.31349
  24126250.680 3 126784295.375 3  98792986.81246  24126258.85946
 20  5 16  1 56 42.0000000  0  8G04G08G09G11G16G26G27G31             0.000443319
  21707902.172 6 114075792.907 6  88890254.32448  21707910.14848
  20593959.992 6 108221988.231 6  84328844.94549  20593969.16049
  22949249.766 6 120599117.808 6  93973376.89849  22949259.10249
  22919288.531 5 120441672.020 5  93850683.50547  22919294.52747
  21862340.664 6 114887403.581 6  89522647.55747  21862346.89847
  23359264.984 1 122753644.610 1  95652336.36245  23359279.19945
  20412681.828 7 107269482.683 7  83586509.98249  20412691.18849
  24126790.875 3 126787133.147 3  98795198.07046  24126798.91446
 20  5 16  1 56 43.0000000  0  8G04G08G09G11G16G26G27G31             0.000443409
  21708138.586 6 114077034.654 6  88891221.91948  21708146.61348
  20593802.766 6 108221161.842 6  84328201.00549  20593812.29349
  22949126.844 6 120598472.118 6  93972873.74949  22949136.30949
  22918692.805 5 120438542.606 5  93848244.99047  22918699.27347
  21862612.477 6 114888832.273 6  89523760.81348  21862618.87548
  23359620.367 1 122755516.892 1  95653795.27545  23359634.64145
  20412932.352 6 107270800.138 6  83587536.56749  20412941.75449
  24127331.383 4 126789971.615 4  98797409.85846  24127339.10246
 20  5 16  1 56 44.0000000  0  8G04G08G09G11G16G26G27G31             0.000443501
  21708375.281 6 114078277.356 6  88892190.24948  21708383.13348
  20593645.406 6 108220336.383 6  84327557.78849  20593654.71549
  22949004.125 6 120597827.404 6  93972371.37249  22949013.31349
  22918097.344 5 120435413.732 5  93845806.90747  22918103.99647
  21862884.430 5 114890261.370 5  89524874.39447  21862890.55947
  23359977.023 1 122757389.871 1  95655254.67245  23359990.71145
  20413183.344 7 107272118.532 7  83588563.89049  20413192.71149
  24127871.258 1 126792810.701 1  98799622.11346  24127879.82846
 20  5 16  1 56 45.0000000  0  8G04G08G09G11G16G26G27G31             0.000443592
  21708611.711 6 114079520.888 6  88893159.22748  21708619.50048
  20593488.703 6 108219511.811 6  84326915.25649  20593497.88349
  22948881.617 6 120597183.624 6  93971869.72249  22948891.14849
  22917502.719 5 120432285.394 5  93843369.23247  22917508.76247
  21863156.375 5 114891690.843 5  89525988.29047  21863162.63747
  23360333.617 1                                
  20413434.227 6 107273437.775 6  83589591.87549  20413443.66849
  24128411.766 1 126795650.365 1  98801834.80446  24128419.90246
 20  5 16  1 56 46.0000000  0  8G04G08G09G11G16G26G27G31             0.000443684
  21708848.805 6 114080765.386 6  88894128.96448  21708856.88348
  20593332.047 6 108218688.162 6  84326273.44649  20593341.23849
  22948759.688 6 120596540.728 6  93971368.75649  22948769.12949
  22916907.078 6 120429157.546 6  93840931.94647  22916913.52047
  21863428.930 5 114893120.688 5  89527102.45647  21863434.80147
  23360689.164 1                                
  20413685.633 6 107274757.897 6  83590620.54649  20413694.71549
  24128952.070 2 126798490.540 2  98804047.92446  24128960.50046
 20  5 16  1 56 47.0000000  0  7G04G08G09G11G16G27G31                0.000443775
  21709085.586 6 114082010.799 6  88895099.40647  21709093.54347
  20593175.148 6 108217865.513 6  84325632.42049  20593185.07849
  22948637.313 6 120595898.865 6  93970868.63049  22948646.58649
  22916311.898 5 120426030.361 5  93838495.18647  22916318.66047
  21863700.773 5 114894550.983 5  89528216.97947  21863706.99247
  20413936.859 7 107276078.952 7  83591649.93249  20413945.98849
  24129492.195 1 126801331.448 1  98806261.63146  24129501.32846
 20  5 16  1 56 48.0000000  0  7G04G08G09G11G16G27G31                0.000443867
  21709323.055 6 114083257.093 6  88896070.54248  21709330.87148
  20593019.031 6 108217043.697 6  84324992.04149  20593028.90649
  22948515.086 6 120595257.938 6  93970369.22649  22948524.90249
  22915716.625 6 120422903.631 6  93836058.77747  22915723.41447
  21863972.992 5 114895981.675 5  89529331.79847  21863978.87147
  20414188.680 6 107277400.893 6  83592680.01149  20414197.84449
  24130032.523 1 126804172.888 1  98808475.75146  24130042.42246
 20  5 16  1 56 49.0000000  0  7G04G08G09G11G16G27G31                0.000443958
  21709559.477 6 114084504.180 6  88897042.30348  21709568.21548
  20592862.461 6 108216222.761 6  84324352.35549  20592872.48849
  22948393.570 6 120594617.832 6  93969870.41949  22948402.37149
  22915121.711 6 120419777.378 6  93833622.75347  22915128.39847
  21864245.500 5 114897412.780 5  89530446.93347  21864251.59847
  20414440.203 6 107278723.653 6  83593710.74649  20414449.75449
  24130575.281 2 126807014.848 2  98810690.29446  24130582.87146
 20  5 16  1 56 50.0000000  0  7G04G08G09G11G16G27G31                0.000444052
  21709797.438 6 114085752.243 6  88898014.83847  21709805.73447
  20592706.906 6 108215402.764 6  84323713.41549  20592716.44549
  22948272.242 6 120593978.711 6  93969372.38648  22948280.93048
  22914527.055 6 120416651.718 6  93831187.16147  22914533.93047
  21864517.672 5 114898844.234 5  89531562.35547  21864523.68847
  20414692.227 6 107280047.322 6  83594742.19649  20414701.45749
  24131116.375 3 126809857.459 3  98812905.33746  24131123.79346
 20  5 16  1 56 51.0000000  0  7G04G08G09G11G16G27G31                0.000444143
  21710035.484 6 114087001.321 6  88898988.15547  21710043.76647
  20592550.852 6 108214583.794 6  84323075.27149  20592560.58649
  22948150.695 6 120593340.651 6  93968875.18748  22948159.12148
  22913932.188 6 120413526.701 6  93828752.07647  22913939.26247
  21864790.023 5 114900276.211 5  89532678.19847  21864796.36747
  20414943.953 6 107281372.012 6  83595774.42949  20414953.59849
  24131657.898 2 126812700.805 2  98815120.93446  24131664.87146
 20  5 16  1 56 52.0000000  0  7G04G08G09G11G16G27G31                0.000444237
  21710273.219 6 114088251.314 6  88899962.17347  21710281.59447
  20592395.500 6 108213765.756 6  84322437.84349  20592405.08249
  22948029.313 6 120592703.557 6  93968378.75248  22948038.08648
  22913338.211 6 120410402.253 6  93826317.43347  22913344.88747
  21865063.133 5 114901708.571 5  89533794.33447  21865068.90647
  20415196.641 6 107282697.581 6  83596807.34749  20415206.01249
  24132197.734 2 126815544.743 2  98817337.00546  24132206.09846
 20  5 16  1 56 53.0000000  0  7G04G08G09G11G16G27G31                0.000444330
  21710511.438 6 114089502.412 6  88900937.04947  21710519.58247
  20592239.945 6 108212948.828 6  84321801.27949  20592249.73849
  22947908.484 6 120592067.577 6  93967883.18548  22947916.97348
  22912743.445 6 120407278.508 6  93823883.34447  22912750.50047
  21865335.797 5 114903141.541 5  89534910.94447  21865341.44147
  20415449.273 6 107284024.238 6  83597841.10649  20415458.27749
  24132739.078 2 126818389.473 2  98819553.66945  24132747.60245
 20  5 16  1 56 54.0000000  0  7G04G08G09G11G16G27G31                0.000444424
  21710749.047 6 114090754.431 6  88901912.64547  21710757.91847
  20592084.461 6 108212132.824 6  84321165.42349  20592093.84049
  22947787.617 6 120591432.574 6  93967388.38048  22947796.45348
  22912148.883 6 120404155.329 6  93821449.70447  22912156.25047
  21865608.508 5 114904574.938 5  89536027.87947  21865614.21147
  20415701.711 6 107285351.782 6  83598875.55249  20415710.80149
  24133281.117 2 126821234.834 2  98821770.80745  24133288.68445
 20  5 16  1 56 55.0000000  0  7G04G08G09G11G16G27G31                0.000444517
  21710988.000 6 114092007.196 6  88902888.82348  21710995.98048
  20591929.250 6 108211317.625 6  84320530.20049  20591939.02049
  22947667.156 6 120590798.383 6  93966894.20249  22947675.57849
  22911554.922 6 120401032.567 6  93819016.38247  22911561.86347
  21865881.000 5 114906008.562 5  89537144.97947  21865887.33247
  20415954.328 6 107286680.093 6  83599910.59349  20415964.00049
  24133821.930 1 126824080.691 1  98823988.36345  24133830.47745
 20  5 16  1 56 56.0000000  0  7G04G08G09G11G16G27G31                0.000444611
  21711226.359 6 114093261.005 6  88903865.81348  21711234.75448
  20591774.188 6 108210503.438 6  84319895.76049  20591784.24649
  22947546.133 6 120590165.228 6  93966400.82849  22947554.89149
  22910960.719 6 120397910.449 6  93816583.56147  22910967.37147
  21866153.836 5 114907442.698 5  89538262.49047  21866159.91047
  20416207.445 6 107288009.395 6  83600946.41649  20416216.75449
  24134361.805 1 126826927.166 1  98826206.40145  24134372.35545
 20  5 16  1 56 57.0000000  0  7G04G08G09G11G16G27G31                0.000444704
  21711465.195 6 114094515.618 6  88904843.43848  21711473.75048
  20591619.703 6 108209690.124 6  84319262.01249  20591628.95749
  22947426.109 6 120589532.943 6  93965908.13148  22947434.69548
  22910366.719 6 120394788.793 6  93814151.10547  22910373.61347
  21866427.359 5 114908877.192 5  89539380.27547  21866432.66847
  20416460.453 6 107289339.509 6  83601982.87349  20416469.90649
  24134904.680 1                                
 20  5 16  1 56 58.0000000  0  7G04G08G09G11G16G27G31                0.000444799
  21711704.227 6 114095771.239 6  88905821.83848  21711712.53148
  20591464.859 6 108208877.809 6  84318629.03949  20591474.50449
  22947305.789 6 120588901.700 6  93965416.25449  22947314.31349
  22909773.016 6 120391667.765 6  93811719.13847  22909779.94147
  21866700.211 5 114910312.194 5  89540498.46547  21866706.53947
  20416713.680 6 107290670.628 6  83603020.10549  20416723.31649
  24135446.633 1                                
 20  5 16  1 56 59.0000000  0  7G04G08G09G11G16G27G31                0.000444893
  21711942.727 5 114097027.716 5  88906800.92347  21711951.72347
  20591310.930 6 108208066.379 6  84317996.75949  20591320.22749
  22947186.094 6 120588271.363 6  93964925.07549  22947194.73849
  22909179.469 6 120388547.275 6  93809287.58947  22909185.78147
  21866973.695 6 114911747.634 6  89541616.96547  21866979.15647
  20416967.109 6 107292002.627 6  83604058.02249  20416976.32049
  24135988.680 3                                
 20  5 16  1 57  0.0000000  0  7G04G08G09G11G16G27G31                0.000444988
  21712182.398 5 114098285.139 5  88907780.76047  21712190.81647
  20591156.703 6 108207255.874 6  84317365.19449  20591166.28949
  22947066.398 5 120587642.003 5  93964434.65248  22947075.48048
  22908585.672 6 120385427.320 6  93806856.46247  22908592.71547
  21867246.688 5 114913183.380 5  89542735.71047  21867252.36347
  20417220.844 6 107293335.490 6  83605096.60349  20417230.48049
  24136532.008 2                                
 20  5 16  1 57  1.0000000  0  7G04G08G09G11G16G27G31                0.000445084
  21712421.547 5 114099543.400 5  88908761.22947  21712429.99647
  20591002.367 6 108206446.210 6  84316734.28549  20591012.45749
  22946946.633 5 120587013.479 5  93963944.88548  22946955.27048
  22907991.609 6 120382307.837 6  93804425.69548  22907998.60248
  21867520.117 5 114914619.483 5  89543854.74847  21867525.93447
  20417474.617 6 107294669.180 6  83606135.83849  20417483.95349
  24137074.117 2 126841168.56812  98837303.57855  24137082.04345
 20  5 16  1 57  2.0000000  0  7G04G08G09G11G16G27G31                0.000445179
  21712661.508 6 114100802.611 6  88909742.42947  21712670.07847
  20590848.641 6 108205637.537 6  84316104.15149  20590858.52749
  22946827.602 6 120586385.951 6  93963455.90349  22946836.11749
  22907398.633 6 120379188.976 6  93801995.41747  22907405.35947
  21867793.188 5 114916056.043 5  89544974.13747  21867799.08647
  20417728.852 6 107296003.816 6  83607175.81949  20417738.37949
  24137615.617 2 126844018.769 2  98839524.50045  24137624.35245
 20  5 16  1 57  3.0000000  0  7G04G08G09G11G16G27G31                0.000445274
  21712901.109 6 114102062.782 6  88910724.37447  21712909.89847
  20590694.859 6 108204829.834 6  84315474.77049  20590704.71949
  22946707.602 6 120585759.462 6  93962967.74149  22946716.83649
  22906805.281 6 120376070.693 6  93799565.57947  22906812.32047
  21868066.297 5 114917493.075 5  89546093.91647  21868072.47747
  20417982.820 6 107297339.399 6  83608216.53049  20417992.11349
  24138158.500 1 126846869.574 1  98841745.88845  24138166.99245
 20  5 16  1 57  4.0000000  0  7G04G08G09G11G16G27G31                0.000445370
  21713141.102 6 114103323.854 6  88911707.02048  21713149.73848
  20590541.156 6 108204023.046 6  84314846.10449  20590551.09449
  22946589.102 6 120585133.876 6  93962480.28549  22946598.06349
  22906211.695 6 120372952.945 6  93797136.15748  22906218.80948
  21868339.633 5 114918930.488 5  89547213.98847  21868346.14847
  20418237.328 6 107298675.861 6  83609257.92849  20418246.56649
  24138702.070 1 126849720.863 1  98843967.67545  24138709.50845
 20  5 16  1 57  5.0000000  0  7G04G08G09G11G16G27G31                0.000445465
  21713381.430 6 114104585.838 6  88912690.38247  21713389.87147
  20590388.023 6 108203217.189 6  84314218.16049  20590397.46949
  22946469.938 6 120584509.244 6  93961993.56348  22946478.85948
  22905618.430 6 120369835.737 6  93794707.16747  22905625.34847
  21868613.766 5 114920368.314 5  89548334.36847  21868619.52047
  20418491.508 6 107300013.217 6  83610300.03149  20418500.86349
  24139244.516 1 126852572.878 1  98846190.03045  24139252.57045
 20  5 16  1 57  6.0000000  0  7G04G08G09G11G16G27G31                0.000445562
  21713621.797 6 114105848.571 6  88913674.32448  21713630.42248
  20590235.016 6 108202412.063 6  84313590.79049  20590245.05549
  22946351.227 6 120583885.412 6  93961507.45148  22946360.25048
  22905025.188 6 120366718.924 6  93792278.48948  22905032.35548
  21868887.297 5 114921806.355 5  89549454.91847  21868893.39547
  20418746.375 6 107301351.304 6  83611342.70249  20418755.87549
  24139787.055 1 126855425.257 1  98848412.66345  24139795.11745
 20  5 16  1 57  7.0000000  0  7G04G08G09G11G16G27G31                0.000445658
  21713861.789 6 114107112.213 6  88914658.97347  21713870.28947
  20590081.664 6 108201607.869 6  84312964.15049  20590092.01649
  22946232.844 6 120583262.479 6  93961022.03448  22946241.82848
  22904432.156 6 120363602.630 6  93789850.21147  22904439.64547
  21869161.109 5 114923244.812 5  89550575.79547  21869167.07447
  20419001.094 6 107302690.290 6  83612386.06549  20419010.72749
  24140330.172 1 126858278.241 1  98850635.78845  24140338.08645
 20  5 16  1 57  8.0000000  0  7G04G08G09G11G16G27G31                0.000445755
  21714103.180 6 114108376.931 6  88915644.45848  21714111.34448
  20589928.781 6 108200804.807 6  84312338.38249  20589939.07049
  22946114.961 6 120582640.726 6  93960537.54648  22946123.71148
  22903839.164 6 120360487.101 6  93787422.52748  22903846.68448
  21869435.102 5 114924683.864 5  89551697.14247  21869441.03547
  20419256.047 6 107304030.344 6  83613430.25649  20419265.56649
  24140873.203 1 126861132.018 1  98852859.51845  24140881.39845
 20  5 16  1 57  9.0000000  0  7G04G08G09G11G16G27G31                0.000445852
  21714343.563 6 114109642.556 6  88916630.65647  21714352.03547
  20589776.109 6 108200002.616 6  84311713.29949  20589786.13749
  22945996.500 6 120582019.891 6  93960053.77948  22946005.50048
  22903246.086 6 120357372.080 6  93784995.23548  22903253.77748
  21869709.000 5 114926123.300 5  89552818.78847  21869715.07447
  20419511.219 6 107305371.246 6  83614475.11049  20419520.71949
  24141416.156 1 126863986.447 1  98855083.73645  24141424.54345
 20  5 16  1 57 10.0000000  0  7G04G08G09G11G16G27G31                0.000445948
  21714584.977 6 114110909.039 6  88917617.52748  21714593.40648
  20589623.875 6 108199201.305 6  84311088.89549  20589633.84049
  22945878.273 6 120581399.926 6  93959570.69148  22945887.66048
  22902653.711 6 120354257.568 6  93782568.34748  22902661.59448
  21869983.039 6 114927563.107 6  89553940.72447  21869988.80947
  20419766.703 6 107306713.035 6  83615520.66349  20419775.98449
  24141959.742 1 126866841.354 1  98857308.33145  24141967.70345
 20  5 16  1 57 11.0000000  0  7G04G08G09G11G16G27G31                0.000446045
  21714826.180 6 114112176.412 6  88918605.08848  21714834.39548
  20589471.672 6 108198400.880 6  84310465.19049  20589481.32849
  22945760.367 6 120580780.916 6  93959088.35648  22945769.54748
  22902061.195 6 120351143.571 6  93780141.84848  22902068.66448
  21870256.766 5 114929003.277 5  89555062.94147  21870263.37147
  20420021.820 6 107308055.674 6  83616566.86649  20420031.81349
  24142502.148 1 126869696.864 1  98859533.37945  24142510.78545
 20  5 16  1 57 12.0000000  0  7G04G08G09G11G16G27G31                0.000446144
  21715067.438 6 114113444.707 6  88919593.36848  21715075.69948
  20589319.273 6 108197601.453 6  84309842.26149  20589329.28949
  22945642.430 6 120580162.897 6  93958606.77548  22945652.13348
  22901468.797 6 120348030.162 6  93777715.81648  22901476.62948
  21870531.391 5 114930443.933 5  89556185.52547  21870537.31347
  20420277.195 6 107309399.243 6  83617613.81349  20420286.95749
  24143045.914 1 126872553.060 1  98861758.96945  24143054.23845
 20  5 16  1 57 13.0000000  0  7G04G08G09G11G16G27G31                0.000446241
  21715308.219 6 114114713.856 6  88920582.31848  21715316.75048
  20589167.508 6 108196802.876 6  84309219.99449  20589176.68849
  22945525.313 6 120579545.729 6  93958125.85949  22945534.53149
  22900876.445 6 120344917.241 6  93775290.16748  22900883.49648
  21870805.398 6 114931884.934 6  89557308.36347  21870811.43047
  20420533.438 6 107310743.669 6  83618661.42349  20420542.28149
  24143589.320 1 126875409.772 1  98863984.97945  24143598.08245
 20  5 16  1 57 14.0000000  0  7G04G08G09G11G16G27G31                0.000446339
  21715550.297 6 114115983.872 6  88921571.93948  21715558.47348
  20589015.500 6 108196005.171 6  84308598.40649  20589025.49249
  22945408.273 6 120578929.477 6  93957645.66048  22945416.97348
  22900283.977 6 120341804.846 6  93772864.92948  22900291.14148
  21871079.867 6 114933326.261 6  89558431.46147  21871085.71147
  20420789.453 6 107312088.923 6  83619709.67549  20420798.61749
  24144132.445 1                                
 20  5 16  1 57 15.0000000  0  7G04G08G09G11G16G27G31                0.000446436
  21715792.023 6 114117254.785 6  88922562.25848  21715800.33248
  20588863.977 6 108195208.337 6  84307977.50449  20588873.62149
  22945291.086 6 120578314.162 6  93957166.19048  22945300.21148
  22899692.039 6 120338692.947 6  93770440.07348  22899699.16848
  21871353.586 6 114934767.993 6  89559554.88547  21871360.08247
  20421045.656 6 107313435.025 6  83620758.58949  20421055.15649
  24144677.242 1 126881124.88211  98868438.28555  24144685.16445
 20  5 16  1 57 16.0000000  0  7G04G08G09G11G16G27G31                0.000446535
  21716034.188 6 114118526.617 6  88923553.29348  21716042.44948
  20588712.984 6 108194412.487 6  84307357.36049  20588722.23049
  22945174.219 5 120577699.840 5  93956687.49848  22945183.23048
  22899099.953 6 120335581.645 6  93768015.67847  22899107.16447
  21871628.320 6 114936210.165 6  89560678.65447  21871634.39547
  20421301.805 6 107314782.111 6  83621808.26349  20421311.05149
  24145222.156 2 126883983.393 2  98870665.68746  24145229.23446
 20  5 16  1 57 17.0000000  0  7G04G08G09G11G16G27G31                0.000446634
  21716275.984 6 114119799.424 6  88924545.08648  21716284.76248
  20588561.273 6 108193617.583 6  84306737.94849  20588571.02349
  22945056.969 5 120577086.471 5  93956209.55448  22945066.50048
  22898507.844 6 120332470.940 6  93765591.74647  22898515.24247
  21871902.469 6 114937652.788 6  89561802.77247  21871908.78147
  20421558.727 6 107316130.077 6  83622858.62349  20421568.01249
  24145766.102 2 126886842.497 2  98872893.56246  24145773.26646
 20  5 16  1 57 18.0000000  0  7G04G08G09G11G16G27G31                0.000446733
  21716518.719 6 114121073.088 6  88925537.55248  21716527.12148
  20588410.344 6 108192823.528 6  84306119.20649  20588419.68449
  22944940.844 5 120576474.001 5  93955732.31249  22944950.17249
  22897916.164 6 120329360.716 6  93763168.19248  22897923.14848
  21872177.516 6 114939095.781 6  89562927.18847  21872183.52347
  20421815.430 6 107317478.907 6  83623909.65349  20421824.60549
  24146310.094 2 126889702.147 2  98875121.85646  24146317.55146
 20  5 16  1 57 19.0000000  0  7G04G08G09G11G16G27G31                0.000446833
  21716761.313 6 114122347.482 6  88926530.59248  21716769.37548
  20588258.875 6 108192030.293 6  84305501.09749  20588268.82449
  22944824.477 5 120575862.335 5  93955255.69849  22944833.52049
  22897324.750 6 120326250.908 6  93760744.97947  22897331.59047
  21872451.984 5 114940539.053 5  89564051.80147  21872458.13347
  20422072.523 6 107318828.527 6  83624961.30249  20422081.14849
  24146851.617 1 126892562.177 1  98877350.44246  24146862.26646
 20  5 16  1 57 20.0000000  0  7G04G08G09G11G16G27G31                0.000446930
  21717004.039 6 114123622.861 6  88927524.39148  21717011.86348
  20588108.219 6 108191238.012 6  84304883.74849  20588118.07049
  22944707.688 6 120575251.690 6  93954779.86749  22944717.46949
  22896732.445 6 120323141.709 6  93758322.24747  22896740.15647
  21872727.000 6 114941982.755 6  89565176.76747  21872732.74647
  20422329.117 6 107320179.048 6  83626013.65849  20422338.09449
  24147396.250 1 126895422.955 1  98879579.61245  24147406.19145
 20  5 16  1 57 21.0000000  0  7G04G08G09G11G16G27G31                0.000447031
  21717247.016 6 114124899.097 6  88928518.86048  21717255.29748
  20587957.898 6 108190446.595 6  84304267.06349  20587967.80149
  22944591.789 6 120574641.904 6  93954304.70748  22944601.40248
  22896141.094 6 120320032.970 6  93755899.85747  22896148.67247
  21873001.227 5 114943426.723 5  89566301.95346  21873007.37146
  20422586.617 6 107321530.403 6  83627066.66249  20422595.53149
  24147940.508 1                                
 20  5 16  1 57 22.0000000  0  7G04G08G09G11G16G27G31                0.000447130
  21717490.289 6 114126176.331 6  88929514.09948  21717498.46148
  20587807.148 6 108189656.214 6  84303651.18849  20587817.34049
  22944476.375 6 120574033.182 6  93953830.37448  22944485.68048
  22895549.383 6 120316924.889 6  93753477.97547  22895557.03147
  21873276.625 5 114944871.284 5  89567427.59647  21873282.21147
  20422843.820 6 107322882.728 6  83628120.42749  20422852.73449
  24148484.320 1                                
 20  5 16  1 57 23.0000000  0  7G04G08G09G11G16G27G31                0.000447229
  21717733.336 6 114127454.434 6  88930510.02148  21717741.33648
  20587657.063 6 108188866.711 6  84303035.98549  20587667.04349
  22944360.383 5 120573425.356 5  93953356.73648  22944369.87948
  22894958.008 6 120313817.313 6  93751056.47647  22894965.88747
  21873551.625 5 114946316.169 5  89568553.49046  21873557.19946
  20423101.000 6 107324235.938 6  83629174.88449  20423110.19549
  24149030.617 1                                
 20  5 16  1 57 24.0000000  0  7G04G08G09G11G16G27G31                0.000447330
  21717977.258 6 114128733.457 6  88931506.66048  21717984.80948
  20587507.047 6 108188078.141 6  84302421.51349  20587516.97749
  22944245.320 5 120572818.514 5  93952883.87048  22944254.46948
  22894367.125 6 120310710.332 6  93748635.43948  22894374.40648
  21873825.891 5 114947761.532 5  89569679.74547  21873832.53147
  20423358.742 6 107325590.035 6  83630230.02049  20423367.74649
  24149574.406 1                                
 20  5 16  1 57 25.0000000  0  7G04G08G09G11G16G27G31                0.000447430
  21718220.328 6 114130013.394 6  88932504.01348  21718228.65248
  20587357.203 6 108187290.493 6  84301807.76249  20587366.78149
  22944129.625 5 120572212.636 5  93952411.76048  22944139.02748
  22893776.305 6 120307603.851 6  93746214.79848  22893783.43848
  21874101.625 5 114949207.277 5  89570806.29347  21874107.81347
  20423616.430 6 107326945.064 6  83631285.89349  20423625.87949
  24150120.359 1 126909736.16111  98890732.69955  24150129.73445
 20  5 16  1 57 26.0000000  0  7G04G08G09G11G16G27G31                0.000447531
  21718464.164 6 114131294.323 6  88933502.14148  21718472.07448
  20587207.352 6 108186503.830 6  84301194.77149  20587217.44949
  22944014.813 5 120571607.747 5  93951940.41948  22944023.91448
  22893184.852 6 120304498.049 6  93743794.69648  22893192.29748
  21874376.852 5 114950653.482 5  89571933.19746  21874382.96146
  20423874.680 6 107328301.023 6  83632342.48149  20423883.77349
  24150665.359 1 126912600.661 1  98892964.78645  24150674.94145
 20  5 16  1 57 27.0000000  0  7G04G08G09G11G16G27G31                0.000447632
  21718707.813 6 114132576.160 6  88934500.96948  21718716.27348
  20587057.930 6 108185718.104 6  84300582.51949  20587067.59849
  22943899.828 6 120571003.824 6  93951469.83248  22943908.71148
  22892593.633 6 120301392.769 6  93741375.00047  22892601.47347
  21874651.875 6 114952100.105 6  89573060.42447  21874657.79747
  20424133.055 6 107329657.878 6  83633399.77049  20424142.07049
  24151212.133 2 126915465.808 2  98895197.35646  24151220.51646
 20  5 16  1 57 28.0000000  0  7G04G08G09G11G16G27G31                0.000447733
  21718952.484 6 114133858.861 6  88935500.46748  21718960.72748
  20586908.797 6 108184933.252 6  84299970.94449  20586918.53149
  22943785.063 6 120570400.792 6  93950999.93848  22943793.85248
  22892002.844 6 120298288.019 6  93738955.71047  22892010.62947
  21874927.227 6 114953547.104 6  89574187.94947  21874933.32047
  20424391.227 6 107331015.618 6  83634457.74449  20424399.77049
  24151758.148 2 126918331.480 2  98897430.35646  24151765.23446
 20  5 16  1 57 29.0000000  0  7G04G08G09G11G16G27G31                0.000447834
  21719196.109 6 114135142.398 6  88936500.62248  21719204.57448
  20586759.227 6 108184149.248 6  84299360.03249  20586768.79749
  22943670.773 6 120569798.671 6  93950530.75748  22943679.32048
  22891412.273 6 120295183.727 6  93736536.78247  22891420.00447
  21875202.766 6 114954994.441 6  89575315.75247  21875208.84047
  20424649.695 6 107332374.179 6  83635516.35949  20424658.94149
  24152304.070 3 126921197.714 3  98899663.79046  24152310.53946
 20  5 16  1 57 30.0000000  0  7G04G08G09G11G16G27G31                0.000447935
  21719440.688 6 114136426.755 6  88937501.41848  21719449.13348
  20586610.344 6 108183366.086 6  84298749.77649  20586620.07849
  22943556.039 6 120569197.375 6  93950062.22648  22943564.79348
  22890822.094 6 120292079.892 6  93734118.20347  22890829.57047
  21875477.906 6 114956442.101 6  89576443.79947  21875483.95347
  20424908.469 6 107333733.483 6  83636575.55549  20424917.22349
  24152849.383 3 126924064.455 3  98901897.60946  24152856.44946
 20  5 16  1 57 31.0000000  0  7G04G08G09G11G16G27G31                0.000448036
  21719685.188 6 114137711.967 6  88938502.89048  21719694.00448
  20586461.328 6 108182583.796 6  84298140.19949  20586471.14149
  22943442.016 5 120568596.978 5  93949594.39048  22943450.82048
  22890231.234 6 120288976.552 6  93731700.01747  22890238.81347
  21875753.391 6 114957890.097 6  89577572.10547  21875759.90247
  20425167.086 6 107335093.676 6  83637635.44349  20425176.27049
  24153394.938 3 126926931.745 3  98904131.87646  24153402.04746
 20  5 16  1 57 32.0000000  0  7G04G08G09G11G16G27G31                0.000448139
  21719929.938 6 114138997.934 6  88939504.94548  21719938.46548
  20586312.844 6 108181802.318 6  84297531.25449  20586322.69549
  22943327.320 6 120567997.419 6  93949127.20948  22943336.68048
  22889640.766 6 120285873.639 6  93729282.15747  22889648.68847
  21876029.258 6 114959338.390 6  89578700.64247  21876035.30147
  20425426.508 6 107336454.627 6  83638695.92849  20425435.44949
  24153940.688 4 126929799.492 4  98906366.47346  24153947.83246
 20  5 16  1 57 33.0000000  0  7G04G08G09G11G16G27G31                0.000448240
  21720174.578 6 114140284.764 6  88940507.66448  21720183.37148
  20586164.039 6 108181021.667 6  84296922.95849  20586173.53149
  22943214.109 5 120567398.720 5  93948660.69349  22943222.65649
  22889050.531 6 120282771.242 6  93726864.71547  22889057.73847
  21876304.828 6 114960787.032 6  89579829.44847  21876311.48847
  20425685.188 6 107337816.406 6  83639757.05449  20425694.23049
  24154486.375 3 126932667.761 3  98908601.48346  24154493.80946
 20  5 16  1 57 34.0000000  0  7G04G08G09G11G16G27G31                0.000448343
  21720419.477 6 114141572.511 6  88941511.11247  21720428.39847
  20586015.680 6 108180241.984 6  84296315.42149  20586025.28949
  22943099.875 6 120566800.962 6  93948194.90848  22943109.19148
  22888460.594 6 120279669.380 6  93724447.70547  22888467.55147
  21876581.148 5 114962236.164 5  89580958.62247  21876586.62147
  20425944.680 6 107339179.124 6  83640818.91049  20425953.73449
  24155030.672 1 126935536.613 1  98910836.93046  24155039.44546
 20  5 16  1 57 35.0000000  0  7G04G08G09G11G16G27G31                0.000448444
  21720665.188 6 114142861.225 6  88942515.30548  21720673.48048
  20585867.547 6 108179463.264 6  84295708.63749  20585877.44549
  22942986.602 6 120566204.210 6  93947729.90848  22942995.52348
  22887869.969 6 120276568.135 6  93722031.17747  22887877.63747
  21876856.781 5 114963685.652 5  89582088.09347  21876863.10247
  20426204.188 6 107340542.743 6  83641881.47449  20426213.50449
  24155575.922 1 126938406.272 1  98913073.04146  24155585.84046
 20  5 16  1 57 36.0000000  0  7G04G08G09G11G16G27G31                0.000448547
  21720910.570 6 114144150.713 6  88943520.10148  21720918.96548
  20585719.422 6 108178685.347 6  84295102.47249  20585729.67249
  22942873.156 6 120565608.333 6  93947265.59348  22942882.02748
  22887279.641 6 120273467.293 6  93719614.94947  22887287.26247
  21877132.789 5 114965135.413 5  89583217.79247  21877138.47747
  20426464.031 6 107341907.114 6  83642944.62549  20426473.03549
  24156121.547 1 126941276.328 1  98915309.42945  24156131.35245
 20  5 16  1 57 37.0000000  0  7G04G08G09G11G16G27G31                0.000448650
  21721155.945 6 114145441.017 6  88944525.53148  21721164.57848
  20585571.594 6 108177908.234 6  84294496.93249  20585581.67249
  22942759.922 6 120565013.247 6  93946801.88748  22942768.56348
  22886689.602 6 120270366.913 6  93717199.05847  22886697.52747
  21877408.016 5 114966585.499 5  89584347.73647  21877414.41047
  20426723.734 6 107343272.306 6  83644008.41149  20426732.89849
  24156668.813 1 126944146.879 1  98917546.22645  24156677.36345
 20  5 16  1 57 38.0000000  0  7G04G08G09G11G16G27G31                0.000448753
  21721402.039 6 114146732.114 6  88945531.57848  21721410.47748
  20585423.883 6 108177131.928 6  84293892.01149  20585433.89549
  22942646.313 6 120564419.054 6  93946338.87848  22942655.51648
  22886100.117 6 120267266.973 6  93714783.50347  22886107.59847
  21877684.250 5 114968035.895 5  89585477.92747  21877690.58247
  20426983.367 6 107344638.257 6  83645072.79349  20426992.44149
  24157215.906 2 126947017.927 2  98919783.39445  24157224.11345
 20  5 16  1 57 39.0000000  0  7G04G08G09G11G16G27G31                0.000448856
  21721647.727 6 114148024.070 6  88946538.29048  21721656.46948
  20585276.367 6 108176356.492 6  84293287.77449  20585286.66049
  22942533.367 6 120563825.729 6  93945876.54848  22942542.52348
  22885510.063 6 120264167.527 6  93712368.34147  22885517.52047
  21877960.484 5 114969486.609 5  89586608.35747  21877966.85947
  20427243.539 6 107346005.058 6  83646137.83749  20427252.85249
  24157763.508 2 126949889.571 2  98922021.03545  24157770.74645
 20  5 16  1 57 40.0000000  0  7G04G08G09G11G16G27G31                0.000448959
  21721893.906 6 114149316.943 6  88947545.72448  21721902.44948
  20585129.102 6 108175581.995 6  84292684.26949  20585138.92649
  22942420.875 6 120563233.338 6  93945414.94748  22942430.07048
  22884920.797 6 120261068.637 6  93709953.61647  22884927.60547
  21878236.555 6 114970937.771 6  89587739.12947  21878242.91847
  20427503.906 6 107347372.759 6  83647203.57549  20427513.20349
  24158310.000 2 126952761.751 2  98924259.11046  24158316.86346
 20  5 16  1 57 41.0000000  0  7G04G08G09G11G16G27G31                0.000449064
  21722139.969 6 114150610.598 6  88948553.76348  21722148.81348
  20584981.461 6 108174808.280 6  84292081.36649  20584991.74649
  22942308.164 6 120562641.821 6  93944954.02548  22942316.99248
  22884330.961 6 120257970.185 6  93707539.23447  22884338.68047
  21878512.680 6 114972389.209 6  89588870.12647  21878519.23447
  20427764.625 6 107348741.214 6  83648269.90149  20427773.38749
  24158856.117 2 126955634.460 2  98926497.60146  24158863.36746
 20  5 16  1 57 42.0000000  0  7G04G08G09G11G16G27G31                0.000449167
  21722386.375 6 114151905.086 6  88949562.45448  21722394.95748
  20584834.781 6 108174035.431 6  84291479.14949  20584844.75849
  22942196.055 5 120562051.145 5  93944493.75948  22942204.85948
  22883740.883 6 120254872.201 6  93705125.22247  22883748.78947
  21878789.086 6 114973840.992 6  89590001.37347  21878795.51247
  20428024.984 6 107350110.503 6  83649336.87549  20428033.79349
  24159402.961 3 126958507.677 3  98928736.47346  24159410.14846
 20  5 16  1 57 43.0000000  0  7G04G08G09G11G16G27G31                0.000449270
  21722632.891 6 114153200.595 6  88950571.94348  21722641.39848
  20584687.656 6 108173263.623 6  84290877.73749  20584697.59049
  22942083.758 5 120561461.577 5  93944034.36348  22942092.62548
  22883151.844 6 120251774.900 6  93702711.73847  22883159.57447
  21879065.539 6 114975293.314 6  89591133.04447  21879071.66047
  20428285.258 6 107351480.805 6  83650404.64049  20428294.38749
  24159950.734 4 126961381.652 4  98930975.93646  24159957.15646
 20  5 16  1 57 44.0000000  0  7G04G08G09G11G16G27G31                0.000449375
  21722879.898 6 114154496.984 6  88951582.11947  21722888.14147
  20584540.781 6 108172492.695 6  84290277.01149  20584550.82049
  22941971.883 5 120560872.854 5  93943575.62448  22941981.08248
  22882562.469 6 120248678.119 6  93700298.67547  22882569.93047
  21879341.797 5 114976746.088 5  89592265.06347  21879348.30547
  20428546.484 6 107352852.002 6  83651473.09749  20428555.82849
  24160496.445 1 126964256.125 1  98933215.73046  24160503.99646
 20  5 16  1 57 45.0000000  0  7G04G08G09G11G16G27G31                0.000449480
  21723126.383 6 114155794.142 6  88952592.90047  21723134.72347
  20584394.438 6 108171722.587 6  84289676.93949  20584404.36349
  22941860.086 6 120560285.012 6  93943117.58048  22941869.16048
  22881973.250 6 120245581.772 6  93697885.95647  22881980.89147
  21879618.414 6 114978199.030 6  89593397.22947  21879624.57447
  20428807.320 6 107354223.920 6  83652542.13549  20428816.64849
  24161043.516 2 126967131.130 2  98935455.96146  24161050.59846
 20  5 16  1 57 46.0000000  0  7G04G08G09G11G16G27G31                0.000449585
  21723373.047 6 114157092.138 6  88953604.33448  21723381.95748
  20584248.109 6 108170953.253 6  84289077.45749  20584257.72349
  22941748.398 5 120559698.002 5  93942660.17748  22941757.48448
  22881384.602 6 120242485.855 6  93695473.55647  22881391.88747
  21879894.500 6 114979652.286 6  89594529.63347  21879901.02047
  20429068.711 6 107355596.622 6  83653611.77049  20429078.59049
  24161590.906 3 126970006.657 3  98937696.64045  24161598.35245
 20  5 16  1 57 47.0000000  0  7G04G08G09G11G16G27G31                0.000449688
  21723620.719 6 114158390.947 6  88954616.38748  21723629.16448
  20584101.938 6 108170184.799 6  84288478.66049  20584111.80549
  22941636.258 6 120559111.848 6  93942203.42548  22941645.53948
  22880795.352 6 120239390.418 6  93693061.51948  22880802.95748
  21880171.320 6 114981105.864 6  89595662.29447  21880178.03147
  20429330.422 6 107356970.121 6  83654682.03749  20429339.48049
  24162138.320 3 126972882.706 3  98939937.74346  24162145.44946
 20  5 16  1 57 48.0000000  0  7G04G08G09G11G16G27G31                0.000449793
  21723867.781 6 114159690.704 6  88955629.17848  21723876.40248
  20583955.672 7 108169417.343 7  84287880.63949  20583965.47349
  22941525.313 5 120558526.711 5  93941747.46948  22941534.30148
  22880206.383 6 120236295.591 6  93690649.96247  22880214.08647
  21880448.023 6 114982559.929 6  89596795.33447  21880454.52347
  20429591.555 6 107358344.610 6  83655753.06449  20429600.96949
  24162685.727 3 126975759.413 3  98942179.35246  24162692.60946
 20  5 16  1 57 49.0000000  0  7G04G08G09G11G16G27G31                0.000449900
  21724115.383 6 114160991.316 6  88956642.63148  21724123.90648
  20583810.023 6 108168650.744 6  84287283.28749  20583819.65649
  22941414.336 6 120557942.449 6  93941292.19248  22941423.46948
  22879617.656 6 120233201.241 6  93688238.77447  22879625.34847
  21880724.336 6 114984014.323 6  89597928.62547  21880731.17247
  20429853.414 6 107359719.911 6  83656824.72549  20429862.68449
  24163234.000 3 126978636.660 3  98944421.37046  24163240.15646
 20  5 16  1 57 50.0000000  0  7G04G08G09G11G16G27G31                0.000450005
  21724362.953 6 114162292.898 6  88957656.84548  21724371.49248
  20583664.016 7 108167885.099 7  84286686.68149  20583673.91849
  22941303.063 5 120557359.178 5  93940837.68548  22941312.35248
  22879029.039 6 120230107.520 6  93685828.07747  22879036.24247
  21881001.172 6 114985469.192 6  89599062.29447  21881008.13347
  20430115.477 6 107361096.159 6  83657897.12349  20430125.00449
  24163780.797 4 126981514.513 4  98946663.84246  24163787.72746
 20  5 16  1 57 51.0000000  0  7G04G08G09G11G16G27G31                0.000450109
  21724610.531 6 114163595.279 6  88958671.67948  21724619.43848
  20583518.555 7 108167120.295 7  84286090.72949  20583528.50049
  22941192.266 6 120556776.813 6  93940383.90048  22941201.18848
  22878440.375 6 120227014.234 6  93683417.72147  22878447.81347
  21881278.375 6 114986924.380 6  89600196.19747  21881285.40247
  20430377.461 6 107362473.227 6  83658970.15549  20430386.52049
  24164329.109 4 126984392.952 4  98948906.78446  24164335.16846
 20  5 16  1 57 52.0000000  0  7G04G08G09G11G16G27G31                0.000450216
  21724858.570 6 114164898.507 6  88959687.17448  21724867.35248
  20583372.977 6 108166356.325 6  84285495.43549  20583383.18849
  22941081.352 5 120556195.292 5  93939930.77348  22941090.84048
  22877852.094 6 120223921.425 6  93681007.74247  22877859.34047
  21881555.320 6 114988379.906 6  89601330.36547  21881562.26247
  20430639.547 6 107363851.069 6  83660043.79049  20430648.73049
  24164876.609 5 126987271.900 5  98951150.10646  24164883.24646
 20  5 16  1 57 53.0000000  0  7G04G08G09G11G16G27G31                0.000450321
  21725107.148 6 114166202.451 6  88960703.23548  21725115.96148
  20583227.953 7 108165593.094 7  84284900.70549  20583237.95749
  22940971.523 5 120555614.513 5  93939478.22448  22940980.30148
  22877263.234 6 120220828.980 6  93678598.04647  22877270.97747
  21881832.359 6 114989835.657 6  89602464.70747  21881839.44147
  20430901.891 6 107365229.642 6  83661118.00649  20430910.96549
  24165424.859 5 126990151.234 5  98953393.72046  24165431.44946
 20  5 16  1 57 54.0000000  0  7G04G08G09G11G16G27G31                0.000450428
  21725355.406 6 114167507.243 6  88961719.95948  21725364.17248
  20583082.953 7 108164830.741 7  84284306.66249  20583092.88749
  22940860.828 5 120555034.663 5  93939026.39348  22940869.76648
  22876674.453 6 120217737.046 6  93676188.75247  22876682.57047
  21882109.039 6 114991291.751 6  89603599.32347  21882116.32447
  20431164.586 6 107366609.025 6  83662192.84949  20431173.66449
  24165972.633 5 126993031.146 5  98955637.79946  24165979.44546
 20  5 16  1 57 55.0000000  0  7G04G08G09G11G16G27G31                0.000450533
  21725603.766 6 114168812.903 6  88962737.35748  21725612.30148
  20582938.078 7 108164069.276 7  84283713.31849  20582947.75849
  22940750.453 5 120554455.711 5  93938575.25948  22940759.71148
  22876086.773 6 120214645.627 6  93673779.85247  22876093.95347
  21882386.914 6 114992748.230 6  89604734.24347  21882393.91447
  20431427.234 6 107367989.297 6  83663268.38449  20431435.98049
  24166520.891 5 126995911.602 5  98957882.31046  24166527.16446
 20  5 16  1 57 56.0000000  0  7G04G08G09G11G16G27G31                0.000450640
  21725852.492 6 114170119.446 6  88963755.44348  21725860.75048
  20582793.133 7 108163308.682 7  84283120.64649  20582802.83249
  22940640.797 5 120553877.678 5  93938124.84148  22940649.99248
  22875498.094 6 120211554.746 6  93671371.37047  22875505.99247
  21882664.430 6 114994205.101 6  89605869.46447  21882670.80147
  20431689.906 6 107369370.418 6  83664344.58249  20431699.01649
  24167068.867 5 126998792.583 5  98960127.22846  24167075.75046
 20  5 16  1 57 57.0000000  0  7G04G08G09G11G16G27G31                0.000450747
  21726100.977 6 114171426.866 6  88964774.21548  21726109.80148
  20582648.898 7 108162548.982 7  84282528.66649  20582658.19949
  22940531.453 5 120553300.544 5  93937675.12049  22940539.82849
  22874910.180 6 120208464.373 6  93668963.30147  22874917.50047
  21882941.570 6 114995662.324 6  89607004.96747  21882947.94947
  20431952.766 6 107370752.402 6  83665421.45149  20431962.05149
  24167617.414 3 127001674.146 3  98962372.57246  24167623.71946
 20  5 16  1 57 58.0000000  0  7G04G08G09G11G16G27G31                0.000450853
  21726349.797 6 114172735.194 6  88965793.69947  21726358.40247
  20582504.555 6 108161790.229 6  84281937.42449  20582513.87949
  22940421.234 5 120552724.335 5  93937226.11549  22940431.06349
  22874321.742 6 120205374.570 6  93666555.68247  22874329.59047
  21883218.664 5 114997119.982 5  89608140.77547  21883226.02747
  20432216.133 6 107372135.281 6  83666499.02049  20432224.67249
  24168167.227 3 127004556.360 3  98964618.47546  24168172.62546
 20  5 16  1 57 59.0000000  0  7G04G08G09G11G16G27G31                0.000450960
  21726599.289 5 114174044.404 5  88966813.88847  21726607.77747
  20582359.984 6 108161032.392 6  84281346.90549  20582369.82049
  22940311.758 5 120552149.122 5  93936777.90849  22940322.04749
  22873734.242 6 120202285.294 6  93664148.47747  22873741.53147
  21883495.820 5 114998577.992 5  89609276.86946  21883502.88346
  20432479.211 6 107373519.039 6  83667577.27449  20432487.85249
  24168716.102 3 127007439.186 3  98966864.84945  24168721.31345
 20  5 16  1 58  0.0000000  0  7G04G08G09G11G16G27G31                0.000451069
  21726848.813 6 114175354.568 6  88967834.80647  21726857.04747
  20582215.844 6 108160275.515 6  84280757.13149  20582225.77749
  22940202.305 5 120551574.892 5  93936330.45249  22940212.75049
  22873146.234 6 120199196.616 6  93661741.72448  22873153.47348
  21883773.000 5 115000036.455 5  89610413.32647  21883779.94547
  20432742.898 6 107374903.721 6  83668656.25249  20432751.76249
  24169264.617 4 127010322.647 4  98969111.71545  24169269.80545
 20  5 16  1 58  1.0000000  0  7G04G08G09G11G16G27G31                0.000451176
  21727098.398 6 114176665.562 6  88968856.36048  21727106.28948
  20582072.438 6 108159519.436 6  84280167.98249  20582081.88349
  22940092.977 5 120551001.499 5  93935883.64249  22940103.44149
  22872558.570 6 120196108.387 6  93659335.30448  22872566.05148
  21884051.625 5 115001495.252 5  89611550.04946  21884057.96946
  20433005.805 6 107376289.208 6  83669735.86249  20433015.03549
  24169813.703 4 127013206.623 4  98971358.94145  24169818.73045
 20  5 16  1 58  2.0000000  0  7G04G08G09G11G16G27G31                0.000451284
  21727347.898 6 114177977.491 6  88969878.63647  21727355.98047
  20581928.398 6 108158764.355 6  84279579.60849  20581938.10249
  22939984.164 5 120550429.119 5  93935437.62349  22939994.27349
  22871970.922 6 120193020.751 6  93656929.34048  22871978.31348
  21884329.438 5 115002954.475 5  89612687.10946  21884335.29346
  20433269.641 6 107377675.604 6  83670816.17349  20433279.07849
  24170363.461 4 127016091.242 4  98973606.67845  24170368.03545
 20  5 16  1 58  3.0000000  0  7G04G08G09G11G16G27G31                0.000451391
  21727597.203 6 114179290.177 6  88970901.50148  21727606.05548
  20581785.156 6 108158010.064 6  84278991.84649  20581794.73849
  22939875.328 5 120549857.560 5  93934992.24249  22939885.80949
  22871383.172 6 120189933.559 6  93654523.72848  22871391.21948
  21884606.945 5 115004414.004 5  89613824.40947  21884613.09047
  20433533.969 6 107379062.788 6  83671897.09549  20433542.87149
  24170911.711 4 127018976.294 4  98975854.76345  24170917.05945
 20  5 16  1 58  4.0000000  0  7G04G08G09G11G16G27G31                0.000451500
  21727847.430 6 114180603.653 6  88971924.98748  21727855.74648
  20581641.656 6 108157256.556 6  84278404.69449  20581651.27049
  22939767.195 5 120549286.764 5  93934547.46649  22939777.31349
  22870796.359 6 120186846.770 6  93652118.43348  22870803.68848
  21884884.766 5 115005873.786 5  89614961.89447  21884891.13747
  20433798.320 6 107380450.719 6  83672978.59849  20433807.30149
  24171460.797 5 127021861.856 5  98978103.25345  24171465.98845
 20  5 16  1 58  5.0000000  0  7G04G08G09G11G16G27G31                0.000451609
  21728097.664 6 114181917.956 6  88972949.11348  21728105.80948
  20581498.297 6 108156503.904 6  84277818.21349  20581507.87149
  22939658.711 5 120548716.884 5  93934103.40449  22939668.85249
  22870208.898 6 120183760.466 6  93649713.52548  22870216.40248
  21885162.547 5 115007333.898 5  89616099.64947  21885168.78147
  20434062.703 6 107381839.469 6  83674060.73449  20434071.46549
  24172009.875 5 127024747.972 5  98980352.17846  24172014.98046
 20  5 16  1 58  6.0000000  0  7G04G08G09G11G16G27G31                0.000451715
  21728348.086 6 114183233.075 6  88973973.87748  21728356.14848
  20581355.266 6 108155752.013 6  84277232.32849  20581365.05549
  22939550.609 5 120548147.830 5  93933659.98549  22939560.52349
  22869621.555 6 120180674.600 6  93647308.95548  22869629.27348
  21885440.188 5 115008794.289 5  89617237.61846  21885446.87146
  20434326.844 6 107383228.979 6  83675143.46749  20434335.72349
  24172559.023 5 127027634.485 5  98982601.42445  24172564.70745
 20  5 16  1 58  7.0000000  0  7G04G08G09G11G16G27G31                0.000451824
  21728597.992 6 114184549.142 6  88974999.37948  21728606.78148
  20581212.344 6 108155001.187 6  84276647.27049  20581221.93849
  22939442.398 5 120547579.790 5  93933217.34949  22939452.34049
  22869034.477 6 120177589.340 6  93644904.86448  22869042.56348
  21885718.289 5 115010255.200 5  89618375.99447  21885724.47747
  20434591.594 6 107384619.449 6  83676226.95849  20434600.47349
  24173109.031 4 127030521.717 4  98984851.23546  24173113.97346
 20  5 16  1 58  8.0000000  0  7G04G08G09G11G16G27G31                0.000451935
  21728849.141 6 114185866.036 6  88976025.53648  21728857.90248
  20581069.875 6 108154251.180 6  84276062.84549  20581079.44149
  22939334.273 5 120547012.612 5  93932775.39449  22939344.52349
  22868447.492 6 120174504.568 6  93642501.15448  22868455.37148
  21885997.000 5 115011716.421 5  89619514.61247  21886002.52347
  20434856.289 6 107386010.740 6  83677311.08449  20434865.01649
  24173658.148 4 127033409.490 4  98987101.42546  24173664.29346
 20  5 16  1 58  9.0000000  0  7G04G08G09G11G16G27G31                0.000452044
  21729099.578 6 114187183.792 6  88977052.36448  21729108.05948
  20580927.234 6 108153502.052 6  84275479.11349  20580936.75049
  22939226.609 6 120546446.368 6  93932334.15649  22939236.62949
  22867860.258 6 120171420.324 6  93640097.84148  22867868.15248
  21886274.930 5 115013177.961 5  89620653.47747  21886280.64847
  20435121.359 6 107387402.857 6  83678395.85149  20435130.14149
  24174207.875 4 127036297.812 4  98989352.06445  24174213.62945
 20  5 16  1 58 10.0000000  0  7G04G08G09G11G16G27G31                0.000452152
  21729350.875 6 114188502.346 6  88978079.80248  21729358.81648
  20580784.578 6 108152753.729 6  84274896.00749  20580794.14549
  22939118.898 6 120545880.907 6  93931893.52949  22939128.92249
  22867273.750 6 120168336.482 6  93637694.84348  22867281.68048
  21886553.156 5 115014639.796 5  89621792.58147  21886558.68447
  20435385.922 6 107388795.758 6  83679481.22849  20435394.89149
  24174756.852 4 127039186.578 4  98991603.05346  24174763.04346
 20  5 16  1 58 11.0000000  0  7G04G08G09G11G16G27G31                0.000452261
  21729601.750 6 114189821.747 6  88979107.91048  21729610.30948
  20580642.711 6 108152006.308 6  84274313.60249  20580651.96949
  22939011.563 6 120545316.386 6  93931453.64049  22939021.24249
  22866687.055 6 120165253.171 6  93635292.25548  22866694.93048
  21886831.414 5 115016102.045 5  89622931.99946  21886836.90646
  20435651.609 6 107390189.514 6  83680567.26949  20435660.36349
  24175306.258 4 127042075.992 4  98993854.55346  24175313.09446
 20  5 16  1 58 12.0000000  0  7G04G08G09G11G16G27G31                0.000452372
  21729852.961 6 114191141.972 6  88980136.65348  21729861.19148
  20580500.531 6 108151259.698 6  84273731.82949  20580510.00849
  22938904.648 6 120544752.715 6  93931014.41649  22938913.96549
  22866100.617 6 120162170.348 6  93632890.05748  22866108.30148
  21887109.328 5 115017564.574 5  89624071.63447  21887115.28147
  20435916.883 6 107391584.068 6  83681653.93549  20435925.93849
  24175856.766 4 127044965.871 4  98996106.42546  24175863.05946
 20  5 16  1 58 13.0000000  0  7G04G08G09G11G16G27G31                0.000452480
  21730104.094 6 114192463.025 6  88981166.04748  21730112.58648
  20580358.781 6 108150513.938 6  84273150.72049  20580367.66049
  22938797.477 6 120544189.907 6  93930575.87049  22938806.98049
  22865513.977 6 120159087.966 6  93630488.20448  22865521.25448
  21887387.688 5 115019027.460 5  89625211.54647  21887393.71547
  20436182.297 6 107392979.434 6  83682741.23349  20436191.57449
  24176406.367 4 127047856.286 4  98998358.69746  24176413.04746
 20  5 16  1 58 14.0000000  0  7G04G08G09G11G16G27G31                0.000452591
  21730355.719 6 114193784.819 6  88982196.01748  21730364.03148
  20580216.859 6 108149768.938 6  84272570.19949  20580226.28549
  22938691.000 6 120543627.896 6  93930137.93849  22938700.01649
  22864927.859 6 120156005.974 6  93628086.64648  22864935.16048
  21887666.352 5 115020490.563 5  89626351.61446  21887672.30546
  20436448.031 6 107394375.508 6  83683829.08549  20436457.25449
  24176956.773 4 127050747.135 4  99000611.30046  24176963.01646
 20  5 16  1 58 15.0000000  0  7G04G08G09G11G16G27G31                0.000452702
  21730607.664 6 114195107.383 6  88983226.58648  21730616.30948
  20580074.836 6 108149024.729 6  84271990.28949  20580084.81349
  22938583.961 6 120543066.690 6  93929700.63449  22938593.53149
  22864340.727 6 120152924.446 6  93625685.45548  22864348.85548
  21887944.719 5 115021953.947 5  89627491.91247  21887950.79347
  20436713.594 6 107395772.356 6  83684917.53949  20436723.03149
  24177506.672 4 127053638.497 4  99002864.30146  24177512.96946
 20  5 16  1 58 16.0000000  0  7G04G08G09G11G16G27G31                0.000452812
  21730859.000 6 114196430.809 6  88984257.83048  21730867.69948
  20579933.844 6 108148281.375 6  84271411.05049  20579943.65249
  22938476.883 5 120542506.396 5  93929264.05349  22938486.31649
  22863754.594 6 120149843.408 6  93623284.64748  22863762.47748
  21888223.000 5 115023417.765 5  89628632.55347  21888228.87547
  20436979.711 6 107397170.063 6  83686006.65749  20436988.42249
  24178056.391 3 127056530.348 3  99005117.67446  24178063.47346
 20  5 16  1 58 17.0000000  0  7G04G08G09G11G16G27G31                0.000452923
  21731110.945 6 114197755.129 6  88985289.76948  21731119.67248
  20579792.383 6 108147538.923 6  84270832.51149  20579801.62949
  22938370.484 6 120541947.018 6  93928828.18249  22938380.45349
  22863168.500 6 120146762.896 6  93620884.26347  22863176.16047
  21888502.094 5 115024881.898 5  89629773.42347  21888507.78147
  20437246.141 6 107398568.631 6  83687096.44449  20437254.67649
  24178606.523 4 127059422.770 4  99007371.50846  24178613.92246
 20  5 16  1 58 18.0000000  0  7G04G08G09G11G16G27G31                0.000453033
  21731363.109 6 114199080.233 6  88986322.31948  21731371.87948
  20579651.375 6 108146797.306 6  84270254.62849  20579660.88749
  22938264.414 6 120541388.496 6  93928392.97449  22938273.55549
  22862582.391 6 120143682.819 6  93618484.21847  22862590.14147
  21888780.992 5 115026346.329 5  89630914.52846  21888786.64546
  20437512.359 6 107399967.946 6  83688186.82149  20437521.07049
  24179157.281 4 127062315.759 4  99009625.77746  24179164.97746
 20  5 16  1 58 19.0000000  0  7G04G08G09G11G16G27G31                0.000453144
  21731615.859 6 114200406.215 6  88987355.54748  21731624.39148
  20579510.344 6 108146056.553 6  84269677.41549  20579520.00449
  22938158.359 6 120540830.893 6  93927958.47449  22938167.39549
  22861996.398 6 120140603.274 6  93616084.58248  22862003.90648
  21889059.008 5 115027811.132 5  89632055.94747  21889065.46547
  20437778.359 6 107401368.141 6  83689277.88449  20437787.65649
  24179708.297 4 127065209.268 4  99011880.46745  24179715.35545
 20  5 16  1 58 20.0000000  0  7G04G08G09G11G16G27G31                0.000453255
  21731868.359 6 114201733.010 6  88988389.41748  21731876.94948
  20579369.406 6 108145316.627 6  84269100.85249  20579379.10249
  22938052.516 6 120540274.129 6  93927524.62549  22938061.82049
  22861410.766 6 120137524.213 6  93613685.30547  22861418.63747
  21889338.406 5 115029276.255 5  89633197.60946  21889343.71946
  20438045.227 6 107402769.124 6  83690369.56349  20438054.09049
  24180258.516 3 127068103.297 3  99014135.57645  24180266.17645
 20  5 16  1 58 21.0000000  0  7G04G08G09G11G16G27G31                0.000453365
  21732120.789 6 114203060.589 6  88989423.89048  21732129.48048
  20579229.109 6 108144577.527 6  84268524.93549  20579238.62549
  22937946.500 5 120539718.205 5  93927091.43149  22937956.07849
  22860824.805 6 120134445.596 6  93611286.37847  22860832.46547
  21889616.656 5 115030741.676 5  89634339.50747  21889622.64847
  20438311.945 6 107404170.920 6  83691461.87749  20438321.12149
  24180809.656 3 127070997.864 3  99016391.07846  24180816.76646
 20  5 16  1 58 22.0000000  0  7G04G08G09G11G16G27G31                0.000453478
  21732373.352 6 114204389.104 6  88990459.09848  21732382.12948
  20579088.828 6 108143839.345 6  84267949.73349  20579097.92249
  22937840.539 6 120539163.269 6  93926659.00749  22937850.05549
  22860238.844 6 120131367.514 6  93608887.86848  22860246.74248
  21889896.070 5 115032207.488 5  89635481.71047  21889901.72347
  20438578.805 6 107405573.565 6  83692554.84749  20438587.98849
  24181362.234 3 127073892.992 3  99018647.01846  24181367.90646
 20  5 16  1 58 23.0000000  0  7G04G08G09G11G16G27G31                0.000453590
  21732626.625 6 114205718.445 6  88991494.94848  21732635.33248
  20578948.289 6 108143102.026 6  84267375.20349  20578957.71149
  22937735.500 5 120538609.154 5  93926227.23149  22937745.03549
  22859653.297 6 120128289.937 6  93606489.74248  22859661.12148
  21890175.242 5 115033673.653 5  89636624.17847  21890180.87147
  20438845.820 6 107406977.037 6  83693648.45749  20438854.89849
  24181912.477 3 127076788.700 3  99020903.39846  24181918.87146
 20  5 16  1 58 24.0000000  0  7G04G08G09G11G16G27G31                0.000453701
  21732879.883 6 114207048.682 6  88992531.49148  21732888.22748
  20578807.977 6 108142365.609 6  84266801.37349  20578817.54349
  22937630.305 6 120538056.010 6  93925796.20549  22937639.67249
  22859067.898 6 120125212.890 6  93604092.03448  22859075.62148
  21890453.922 5 115035140.229 5  89637766.96847  21890459.89547
  20439113.102 6 107408381.389 6  83694742.76149  20439122.16849
  24182463.922 3 127079684.938 3  99023160.18846  24182469.93446
 20  5 16  1 58 25.0000000  0  7G04G08G09G11G16G27G31                0.000453814
  21733133.133 6 114208379.666 6  88993568.61848  21733141.70748
  20578668.391 7 108141629.975 7  84266228.15449  20578677.68049
  22937524.547 5 120537503.704 5  93925365.83649  22937534.27049
  22858481.969 6 120122136.292 6  93601694.68547  22858490.16047
  21890733.328 6 115036607.051 6  89638909.95047  21890738.91047
  20439380.469 6 107409786.492 6  83695837.64549  20439390.02049
  24183015.484 3 127082581.706 3  99025417.40246  24183021.57446
 20  5 16  1 58 26.0000000  0  7G04G08G09G11G16G27G31                0.000453926
  21733386.672 6 114209711.526 6  88994606.42848  21733395.10248
  20578528.258 7 108140895.220 7  84265655.61349  20578538.25449
  22937419.945 5 120536952.271 5  93924936.14649  22937429.51649
  22857896.930 6 120119060.193 6  93599297.72248  22857904.52048
  21891012.313 5 115038074.262 5  89640053.23147  21891018.06647
  20439648.172 6 107411192.453 6  83696933.19949  20439657.46149
  24183566.078 3 127085479.011 3  99027675.02646  24183573.13346
 20  5 16  1 58 27.0000000  0  7G04G08G09G11G16G27G31                0.000454039
  21733639.930 6 114211044.155 6  88995644.83948  21733648.62948
  20578388.578 7 108140161.239 7  84265083.68349  20578398.13749
  22937315.477 5 120536401.648 5  93924507.09049  22937324.75049
  22857311.688 6 120115984.508 6  93596901.08948  22857319.21148
  21891291.641 5 115039541.749 5  89641196.72547  21891297.76647
  20439915.609 6 107412599.174 6  83698029.34349  20439925.06649
  24184117.031 3 127088376.756 3  99029933.00946  24184123.98046
 20  5 16  1 58 28.0000000  0  7G04G08G09G11G16G27G31                0.000454151
  21733894.070 6 114212377.587 6  88996683.87848  21733902.69548
  20578248.758 6 108139428.123 6  84264512.41649  20578258.33649
  22937210.164 5 120535851.846 5  93924078.68049  22937220.51649
  22856726.086 6 120112909.283 6  93594504.82247  22856733.91447
  21891571.211 5 115041009.590 5  89642340.48047  21891576.43847
  20440183.633 6 107414006.669 6  83699126.08949  20440192.73049
  24184668.914 3 127091274.951 3  99032191.33046  24184676.12946
 20  5 16  1 58 29.0000000  0  7G04G08G09G11G16G27G31                0.000454264
  21734147.516 6 114213711.721 6  88997723.46348  21734156.00848
  20578109.797 6 108138695.736 6  84263941.71549  20578118.82849
  22937105.914 5 120535302.856 5  93923650.90749  22937115.73049
  22856141.008 6 120109834.454 6  93592108.87847  22856148.99647
  21891850.617 5 115042477.619 5  89643484.37347  21891856.22747
  20440451.852 6 107415414.872 6  83700223.38049  20440460.65249
  24185220.531 3 127094173.649 3  99034450.06946  24185227.65246
 20  5 16  1 58 30.0000000  0  7G04G08G09G11G16G27G31                0.000454376
  21734401.953 6 114215046.919 6  88998763.87248  21734410.16848
  20577970.656 6 108137964.394 6  84263371.83449  20577980.08649
  22937002.117 6 120534754.931 6  93923223.95749  22937011.56349
  22855555.898 6 120106760.285 6  93589713.43547  22855563.71947
  21892129.258 5 115043946.127 5  89644628.65447  21892135.57847
  20440720.000 6 107416824.097 6  83701321.47649  20440728.65649
  24185772.422 3 127097073.072 3  99036709.35946  24185779.42646
 20  5 16  1 58 31.0000000  0  7G04G08G09G11G16G27G31                0.000454491
  21734655.766 6 114216382.982 6  88999804.96048  21734664.44948
  20577831.922 6 108137233.975 6  84262802.67549  20577841.02749
  22936898.367 6 120534207.957 6  93922797.73749  22936907.71549
  22854970.859 6 120103686.673 6  93587318.41448  22854979.12148
  21892409.141 5 115045415.032 5  89645773.26647  21892415.21147
  20440988.320 6 107418234.155 6  83702420.21949  20440996.85549
  24186324.227 3 127099973.097 3  99038969.13146  24186331.09046
 20  5 16  1 58 32.0000000  0  7G04G08G09G11G16G27G31                0.000454603
  21734910.336 6 114217719.873 6  89000846.69048  21734918.61348
  20577692.742 6 108136504.383 6  84262234.16549  20577702.25449
  22936793.961 5 120533661.812 5  93922372.15849  22936803.45749
  22854386.242 6 120100613.537 6  93584923.75448  22854394.03948
  21892688.977 5 115046884.269 5  89646918.12847  21892694.40647
  20441256.688 6 107419645.063 6  83703519.63349  20441265.81349
  24186875.680 3 127102873.611 3  99041229.27246  24186883.35246
 20  5 16  1 58 33.0000000  0  7G04G08G09G11G16G27G31                0.000454718
  21735165.133 6 114219057.531 6  89001889.02248  21735173.42648
  20577554.531 6 108135775.588 6  84261666.28049  20577563.35949
  22936690.367 5 120533116.514 5  93921947.24249  22936699.73049
  22853801.945 6 120097540.812 6  93582529.40348  22853809.50048
  21892968.391 5 115048353.791 5  89648063.23047  21892974.21947
  20441525.211 6 107421056.708 6  83704619.62149  20441534.19549
  24187427.742 4 127105774.647 4  99043489.80946  24187435.35246
 20  5 16  1 58 34.0000000  0  7G04G08G09G11G16G27G31                0.000454830
  21735419.852 6 114220395.927 6  89002931.92848  21735428.13348
  20577415.195 6 108135047.545 6  84261098.97749  20577425.13349
  22936586.773 6 120532571.971 6  93921522.91449  22936596.01249
  22853217.219 6 120094468.471 6  93580135.36448  22853224.81648
  21893247.789 6 115049823.527 6  89649208.48547  21893253.82847
  20441794.047 6 107422469.054 6  83705720.15249  20441803.25849
  24187980.133 4 127108676.046 4  99045750.62646  24187987.59046
 20  5 16  1 58 35.0000000  0  7G04G08G09G11G16G27G31                0.000454945
  21735674.734 6 114221735.142 6  89003975.46948  21735683.05148
  20577277.117 6 108134320.308 6  84260532.30049  20577286.88749
  22936483.320 5 120532028.278 5  93921099.25449  22936492.69949
  22852632.445 6 120091396.584 6  93577741.68548  22852640.15248
  21893527.664 6 115051293.592 6  89650353.99647  21893533.71547
  20442063.125 6 107423882.212 6  83706821.31749  20442072.52049
  24188532.453 4 127111578.000 4  99048011.89046  24188539.82846
 20  5 16  1 58 36.0000000  0  7G04G08G09G11G16G27G31                0.000455059
  21735929.414 6 114223075.206 6  89005019.66548  21735937.84848
  20577138.500 6 108133593.948 6  84259966.31449  20577148.76649
  22936379.633 5 120531485.524 5  93920676.33149  22936389.47749
  22852048.078 6 120088325.231 6  93575348.41748  22852055.80148
  21893807.797 6 115052764.011 6  89651499.77947  21893813.35947
  20442331.820 6 107425296.212 6  83707923.13149  20442341.53549
  24189084.563 4 127114480.526 4  99050273.60046  24189091.98846
 20  5 16  1 58 37.0000000  0  7G04G08G09G11G16G27G31                0.000455172
  21736184.414 6 114224416.106 6  89006064.52248  21736192.84448
  20577000.992 7 108132868.454 7  84259400.99349  20577010.71549
  22936276.898 5 120530943.629 5  93920254.08449  22936286.14549
  22851464.016 6 120085254.363 6  93572955.52947  22851471.07447
  21894088.086 5 115054234.791 5  89652645.84347  21894093.43847
  20442601.086 6 107426711.054 6  83709025.60649  20442610.59849
  24189637.172 3 127117383.527 3  99052535.68046  24189644.72746
 20  5 16  1 58 38.0000000  0  7G04G08G09G11G16G27G31                0.000455286
  21736440.086 6 114225757.890 6  89007110.06448  21736448.24248
  20576862.977 7 108132143.861 7  84258836.37249  20576872.32449
  22936173.461 5 120530402.662 5  93919832.58349  22936183.28549
  22850879.930 6 120082184.047 6  93570563.09247  22850887.11747
  21894367.625 6 115055705.971 6  89653792.20648  21894373.29348
  20442871.070 6 107428126.723 6  83710128.71049  20442880.43449
  24190188.461 5 127120287.054 5  99054798.14347  24190197.27047
 20  5 16  1 58 39.0000000  0  7G04G08G09G11G16G27G31                0.000455402
  21736695.555 6 114227100.575 6  89008156.29548  21736703.67248
  20576725.148 7 108131420.192 7  84258272.47449  20576734.54349
  22936071.133 5 120529862.646 5  93919411.82449  22936080.60549
  22850296.039 6 120079114.249 6  93568171.05247  22850302.77747
  21894647.648 6 115057177.531 6  89654938.86347  21894653.93447
  20443140.586 6 107429543.263 6  83711232.49049  20443149.64849
  24190740.500 5 127123191.294 5  99057061.14447  24190749.35247
 20  5 16  1 58 40.0000000  0  7G04G08G09G11G16G27G31                0.000455517
  21736951.008 6 114228444.097 6  89009203.18748  21736959.11348
  20576587.648 7 108130697.410 7  84257709.26149  20576596.87949
  22935968.758 5 120529323.496 5  93918991.72149  22935978.00449
  22849711.320 6 120076045.002 6  93565779.43647  22849718.44947
  21894927.156 6 115058649.451 6  89656085.80647  21894933.99247
  20443410.195 6 107430960.668 6  83712336.95549  20443418.34449
  24191293.758 5 127126096.064 5  99059324.57647  24191302.06347
 20  5 16  1 58 41.0000000  0  7G04G08G09G11G16G27G31                0.000455631
  21737207.211 6 114229788.417 6  89010250.69848  21737215.60248
  20576450.586 6 108129975.402 6  84257146.65849  20576459.83249
  22935865.742 5 120528785.205 5  93918572.28149  22935875.34049
  22849127.672 6 120072976.129 6  93563388.09947  22849134.94547
  21895207.305 6 115060121.668 6  89657232.98347  21895213.84447
  20443680.180 6 107432378.854 6  83713442.03249  20443689.11349
  24191847.102 5 127129001.314 5  99061588.39747  24191855.05947
 20  5 16  1 58 42.0000000  0  7G04G08G09G11G16G27G31                0.000455746
  21737462.867 6 114231133.613 6  89011298.90148  21737471.26248
  20576313.102 6 108129254.274 6  84256584.74249  20576322.45349
  22935763.508 5 120528247.822 5  93918153.53749  22935773.41049
  22848543.258 6 120069907.834 6  93560997.22347  22848551.02047
  21895487.734 6 115061594.228 6  89658380.43548  21895494.09848
  20443950.141 6 107433797.861 6  83714547.75749  20443958.93449
  24192399.563 5 127131907.106 5  99063852.65347  24192407.83247
 20  5 16  1 58 43.0000000  0  7G04G08G09G11G16G27G31                0.000455862
  21737719.133 6 114232479.555 6  89012347.69148  21737727.41048
  20576176.008 6 108128533.929 6  84256023.43749  20576185.41049
  22935661.766 5 120527711.254 5  93917735.41349  22935671.16449
  22847959.406 6 120066839.903 6  93558606.62847  22847966.83647
  21895768.109 6 115063067.061 6  89659528.10447  21895774.05547
  20444220.016 6 107435217.628 6  83715654.07749  20444229.16449
  24192953.070 5 127134813.396 5  99066117.30147  24192960.54347
 20  5 16  1 58 44.0000000  0  7G04G08G09G11G16G27G31                0.000455976
  21737975.250 6 114233826.266 6  89013397.07948  21737983.55948
  20576039.023 6 108127814.388 6  84255462.75749  20576048.62549
  22935559.680 5 120527175.508 5  93917317.94249  22935569.09449
  22847375.633 6 120063772.468 6  93556216.42047  22847382.88347
  21896048.930 6 115064540.188 6  89660675.99947  21896054.84447
  20444490.422 7 107436638.155 7  83716760.97949  20444499.46549
  24193506.195 5 127137720.150 5  99068382.31447  24193513.98847
 20  5 16  1 58 45.0000000  0  7G04G08G09G11G16G27G31                0.000456093
  21738231.875 6 114235173.870 6  89014447.16148  21738239.89148
  20575902.336 6 108127095.740 6  84254902.77049  20575911.77049
  22935457.500 5 120526640.667 5  93916901.18249  22935467.68849
  22846792.047 6 120060705.538 6  93553826.60747  22846799.56647
  21896329.141 6 115066013.688 6  89661824.17747  21896334.74647
  20444761.055 6 107438059.545 6  83717868.56049  20444769.98449
  24194059.523 5 127140627.473 5  99070647.75547  24194066.98847
 20  5 16  1 58 46.0000000  0  7G04G08G09G11G16G27G31                0.000456207
  21738488.508 6 114236522.303 6  89015497.89248  21738496.21548
  20575765.703 6 108126377.979 6  84254343.47649  20575774.92649
  22935356.031 5 120526106.714 5  93916485.11449  22935365.91049
  22846208.539 6 120057639.102 6  93551437.18347  22846215.99647
  21896609.406 6 115067487.551 6  89662972.64548  21896615.60248
  20445031.445 6 107439481.764 6  83718976.78049  20445040.68049
  24194612.258 5 127143535.356 5  99072913.64247  24194620.52747
 20  5 16  1 58 47.0000000  0  7G04G08G09G11G16G27G31                0.000456324
  21738745.180 6 114237871.591 6  89016549.27748  21738753.03148
  20575629.516 6 108125661.068 6  84253784.84549  20575638.60249
  22935254.398 5 120525573.635 5  93916069.73349  22935264.62949
  22845625.617 6 120054573.128 6  93549048.11247  22845632.61347
  21896890.000 6 115068961.733 6  89664121.36348  21896895.96148
  20445302.234 6 107440904.785 6  83720085.62649  20445311.19149
  24195166.680 5 127146443.768 5  99075179.92547  24195174.03147
 20  5 16  1 58 48.0000000  0  7G04G08G09G11G16G27G31                0.000456440
  21739001.898 6 114239221.677 6  89017601.28848  21739010.24248
  20575493.133 6 108124944.977 6  84253226.85449  20575502.44549
  22935153.320 5 120525041.420 5  93915655.01849  22935163.09049
  22845042.094 6 120051507.651 6  93546659.43247  22845049.19547
  21897170.445 6 115070436.208 6  89665270.30148  21897176.51248
  20445573.445 6 107442328.605 6  83721195.09249  20445582.68049
  24195719.633 5 127149352.661 5  99077446.60147  24195727.77347
 20  5 16  1 58 49.0000000  0  7G04G08G09G11G16G27G31                0.000456556
  21739259.219 6 114240572.549 6  89018653.91648  21739267.43448
  20575356.758 6 108124229.720 6  84252669.50649  20575366.25849
  22935052.414 5 120524510.057 5  93915240.97249  22935062.34049
  22844458.039 6 120048442.632 6  93544271.10647  22844465.80947
  21897451.430 6 115071911.023 6  89666419.50648  21897457.29748
  20445844.266 7 107443753.215 7  83722305.18349  20445853.52749
  24196273.391 5 127152262.050 5  99079713.65747  24196281.44547
 20  5 16  1 58 50.0000000  0  7G04G08G09G11G16G27G31                0.000456673
  21739516.281 6 114241924.290 6  89019707.22448  21739524.26648
  20575221.078 6 108123515.305 6  84252112.81949  20575230.33649
  22934951.070 5 120523979.599 5  93914827.62449  22934961.21149
  22843875.117 6 120045378.104 6  93541883.15947  22843882.95747
  21897731.594 6 115073386.171 6  89667568.97347  21897738.02047
  20446115.531 6 107445178.629 6  83723415.89949  20446124.17249
  24196826.703 5 127155171.969 5  99081981.12146  24196834.57846
 20  5 16  1 58 51.0000000  0  7G04G08G09G11G16G27G31                0.000456789
  21739773.641 6 114243276.893 6  89020761.20948  21739781.82048
  20575084.961 6 108122801.805 6  84251556.84149  20575094.60949
  22934850.680 5 120523450.000 5  93914414.94749  22934860.50449
  22843292.008 6 120042314.120 6  93539495.63947  22843299.85547
  21898012.984 5 115074861.744 5  89668718.74947  21898018.96147
  20446387.180 6 107446605.005 6  83724527.36149  20446395.76249
  24197380.438 4 127158082.491 4  99084249.07946  24197388.96146
 20  5 16  1 58 52.0000000  0  7G04G08G09G11G16G27G31                0.000456905
  21740030.922 6 114244630.204 6  89021815.76047  21740039.49647
  20574949.500 6 108122089.036 6  84251001.43649  20574958.76249
  22934749.430 5 120522921.211 5  93914002.89748  22934759.87148
  22842709.266 6 120039250.492 6  93537108.39547  22842716.96147
  21898293.523 5 115076337.488 5  89669868.67047  21898299.51247
  20446658.922 6 107448032.005 6  83725639.30749  20446667.71549
  24197934.406 5 127160993.456 5  99086517.35446  24197942.73846
 20  5 16  1 58 53.0000000  0  7G04G08G09G11G16G27G31                0.000457024
  21740289.063 6 114245984.379 6  89022870.97448  21740297.35548
  20574813.961 6 108121377.109 6  84250446.68749  20574823.90249
  22934649.117 5 120522393.313 5  93913591.54648  22934659.65248
  22842126.414 6 120036187.393 6  93534721.56448  22842133.65248
  21898574.695 4 115077813.568 4  89671018.86347  21898580.39147
  20446930.531 6 107449459.819 6  83726751.89549  20446939.29349
  24198488.906 4 127163904.949 4  99088786.05646  24198496.93446
 20  5 16  1 58 54.0000000  0  7G04G08G09G11G16G27G31                0.000457140
  21740546.695 6 114247339.187 6  89023926.67148  21740554.74648
  20574678.617 6 108120665.861 6  84249892.47449  20574688.16049
  22934548.477 5 120521866.102 5  93913180.73148  22934558.64148
  22841543.664 6 120033124.573 6  93532334.94848  22841551.25448
  21898855.469 5 115079289.806 5  89672169.18347  21898861.12947
  20447202.313 6 107450888.280 6  83727864.98649  20447211.01249
  24199042.992 4 127166816.788 4  99091054.99945  24199050.75045
 20  5 16  1 58 55.0000000  0  7G04G08G09G11G16G27G31                0.000457258
  21740804.320 6 114248694.877 6  89024983.04447  21740812.81647
  20574543.727 6 108119955.506 6  84249338.95449  20574552.89849
  22934448.461 5 120521339.830 5  93912770.65448  22934458.77348
  22840960.789 6 120030062.256 6  93529948.72548  22840968.14548
  21899136.094 5 115080766.394 5  89673319.78647  21899142.62147
  20447474.063 6 107452317.576 6  83728978.72249  20447483.30949
  24199596.758 4 127169729.177 4  99093324.41445  24199604.86745
 20  5 16  1 58 56.0000000  0  7G04G08G09G11G16G27G31                0.000457375
  21741062.797 6 114250051.370 6  89026040.04648  21741070.87948
  20574408.359 6 108119245.986 6  84248786.08349  20574418.19149
  22934347.813 5 120520814.385 5  93912361.23048  22934358.55948
  22840378.117 6 120027000.450 6  93527562.89648  22840385.99248
  21899417.680 5 115082243.349 5  89674470.67647  21899423.72747
  20447746.383 6 107453747.677 6  83730093.08949  20447755.36749
  24200152.039 3 127172642.094 3  99095594.25045  24200159.08645
 20  5 16  1 58 57.0000000  0  7G04G08G09G11G16G27G31                0.000457493
  21741320.977 6 114251408.764 6  89027097.76348  21741329.40248
  20574273.594 7 108118537.390 7  84248233.93449  20574283.07449
  22934248.266 5 120520289.894 5  93911952.55448  22934258.92648
  22839795.773 6 120023939.184 6  93525177.49548  22839803.23448
  21899697.664 5 115083720.677 5  89675621.85447  21899704.52047
  20448018.305 6 107455178.679 6  83731208.15649  20448027.60549
  24200706.219 3 127175555.601 3  99097864.52245  24200713.32045
 20  5 16  1 58 58.0000000  0  7G04G08G09G11G16G27G31                0.000457611
  21741579.648 6 114252766.909 6  89028156.05548  21741587.95348
  20574139.141 7 108117829.523 7  84247682.35249  20574148.62949
  22934148.695 5 120519766.225 5  93911544.50648  22934159.26648
  22839212.938 6 120020878.319 6  93522792.40648  22839220.92248
  21899980.039 5 115085198.271 5  89676773.21847  21899985.89847
  20448290.609 6 107456610.366 6  83732323.76149  20448299.70749
  24201260.711 3 127178469.577 3  99100135.19445  24201267.86345
 20  5 16  1 58 59.0000000  0  7G04G08G09G11G16G27G31                0.000457727
  21741838.422 6 114254125.779 6  89029214.91248  21741846.51248
  20574004.633 6 108117122.439 6  84247131.37249  20574013.93049
  22934049.063 5 120519243.300 5  93911137.01748  22934059.37148
  22838630.672 6 120017817.800 6  93520407.59148  22838638.89548
  21900260.773 5 115086676.057 5  89677924.73547  21900267.26247
  20448563.328 6 107458042.776 6  83733439.92449  20448572.51649
  24201815.805 2 127181383.955 2  99102406.18645  24201822.55545
 20  5 16  1 59  0.0000000  0  7G04G08G09G11G16G27G31                0.000457846
  21742097.070 6 114255485.572 6  89030274.48548  21742105.16448
  20573869.961 6 108116416.316 6  84246581.15249  20573879.44549
  22933949.711 5 120518721.380 5  93910730.30548  22933960.31348
  22838048.508 6 120014757.919 6  93518023.26248  22838056.42648
  21900542.234 5 115088154.300 5  89679076.62247  21900548.32047
  20448836.195 6 107459476.118 6  83734556.81749  20448845.49649
  24202370.469 2 127184299.016 2  99104677.63545  24202377.17645
 20  5 16  1 59  1.0000000  0  7G04G08G09G11G16G27G31                0.000457964
  21742355.883 6 114256846.231 6  89031334.73148  21742364.30548
  20573735.898 6 108115711.080 6  84246031.61949  20573745.54749
  22933851.273 5 120518200.344 5  93910324.29148  22933860.96548
  22837466.461 6 120011698.540 6  93515639.33048  22837474.18848
  21900823.539 5 115089632.931 5  89680228.78447  21900829.81647
  20449109.688 6 107460910.287 6  83735674.35249  20449118.28549
  24202925.438 2 127187214.581 2  99106949.49745  24202931.87545
 20  5 16  1 59  2.0000000  0  7G04G08G09G11G16G27G31                0.000458084
  21742615.617 6 114258207.788 6  89032395.68048  21742623.43848
  20573601.906 6 108115006.761 6  84245482.79349  20573611.38349
  22933751.820 5 120517680.246 5  93909919.01848  22933762.28148
  22836884.289 6 120008639.696 6  93513255.81548  22836892.47348
  21901105.141 5 115091111.949 5  89681381.25947  21901111.27747
  20449382.625 6 107462345.379 6  83736792.60749  20449391.39549
  24203479.602 3 127190130.761 3  99109221.84045  24203486.71945
 20  5 16  1 59  3.0000000  0  7G04G08G09G11G16G27G31                0.000458202
  21742874.469 6 114259570.064 6  89033457.19848  21742882.76248
  20573468.008 6 108114303.134 6  84244934.51949  20573477.13749
  22933653.039 5 120517160.934 5  93909514.36248  22933663.28148
  22836302.281 6 120005581.246 6  93510872.61148  22836309.98048
  21901386.047 5 115092591.185 5  89682533.91246  21901392.34846
  20449655.695 6 107463781.112 6  83737911.36349  20449664.83649
  24204035.414 3 127193047.289 3  99111494.47045  24204041.94945
 20  5 16  1 59  4.0000000  0  7G04G08G09G11G16G27G31                0.000458321
  21743133.539 6 114260933.062 6  89034519.27548  21743142.15248
  20573334.227 6 108113600.297 6  84244386.84849  20573343.86749
  22933554.695 5 120516642.385 5  93909110.31048  22933564.40648
  22835719.969 6 120002523.203 6  93508489.72648  22835728.47348
  21901668.438 5 115094070.698 5  89683686.77146  21901674.21946
  20449928.734 6 107465217.612 6  83739030.70849  20449937.61349
  24204589.336 4 127195964.307 4  99113767.42446  24204596.68846
 20  5 16  1 59  5.0000000  0  7G04G08G09G11G16G27G31                0.000458441
  21743392.781 6 114262296.916 6  89035582.03048  21743401.90248
  20573200.719 7 108112898.323 7  84243839.85449  20573209.88349
  22933456.320 5 120516124.739 5  93908706.95648  22933466.09848
  22835138.727 6 119999465.664 6  93506107.24247  22835146.12947
  21901949.586 5 115095550.554 5  89684839.89747  21901955.85247
  20450202.633 6 107466654.933 6  83740150.69249  20450211.31349
  24205144.898 5 127198881.855 5  99116040.78146  24205152.32046
 20  5 16  1 59  6.0000000  0  7G04G08G09G11G16G27G31                0.000458559
  21743652.586 6 114263661.493 6  89036645.33748  21743661.72348
  20573067.297 6 108112197.073 6  84243293.42049  20573076.35249
  22933358.227 5 120515607.848 5  93908304.17848  22933367.71148
  22834557.070 6 119996408.487 6  93503725.03148  22834564.64848
  21902231.352 5 115097030.650 5  89685993.19747  21902237.75847
  20450476.266 6 107468092.953 6  83741271.22249  20450485.09449
  24205700.070 5 127201799.868 5  99118314.49046  24205707.63346
 20  5 16  1 59  7.0000000  0  7G04G08G09G11G16G27G31                0.000458677
  21743912.422 6 114265026.963 6  89037709.33548  21743921.55148
  20572934.016 6 108111496.732 6  84242747.70149  20572943.23849
  22933259.813 5 120515091.914 5  93907902.14048  22933269.46148
  22833975.492 6 119993351.840 6  93501343.22848  22833983.30948
  21902512.836 5 115098511.025 5  89687146.73747  21902519.39147
  20450750.086 6 107469531.846 6  83742392.43049  20450758.41449
  24206255.078 4 127204718.411 4  99120588.64746  24206262.91446
 20  5 16  1 59  8.0000000  0  7G04G08G09G11G16G27G31                0.000458797
  21744172.766 6 114266393.210 6  89038773.94448  21744181.43048
  20572800.797 6 108110797.211 6  84242202.62349  20572810.83649
  22933161.344 5 120514576.820 5  93907500.76548  22933171.75848
  22833393.781 6 119990295.655 6  93498961.78048  22833401.60948
  21902794.383 5 115099991.760 5  89688300.56447  21902800.85947
  20451024.164 6 107470971.513 6  83743514.25449  20451032.79349
  24206810.195 3 127207637.535 3  99122863.33346  24206818.30146
 20  5 16  1 59  9.0000000  0  7G04G08G09G11G16G27G31                0.000458918
  21744433.000 6 114267760.318 6  89039839.22648  21744441.38748
  20572667.633 6 108110098.509 6  84241658.18649  20572677.30149
  22933063.305 5 120514062.583 5  93907100.06348  22933073.16048
  22832812.367 6 119987239.938 6  93496580.69448  22832820.38348
  21903076.258 5 115101472.825 5  89689454.67047  21903082.86347
  20451298.242 6 107472411.970 6  83744636.69849  20451306.84049
  24207366.367 2 127210557.121 2  99125138.40746  24207373.95746
 20  5 16  1 59 10.0000000  0  7G04G08G09G11G16G27G31                0.000459038
  21744692.914 6 114269128.174 6  89040905.08748  21744701.59048
  20572535.047 6 108109400.656 6  84241114.41149  20572544.84449
  22932965.805 4 120513549.204 4  93906700.03748  22932975.87148
  22832230.906 6 119984184.712 6  93494199.99448  22832238.64848
  21903358.828 5 115102954.205 5  89690609.00647  21903364.68447
  20451572.242 6 107473853.224 6  83745759.76149  20451581.37949
  24207922.000 2 127213477.250 2  99127413.87245  24207930.02045
 20  5 16  1 59 11.0000000  0  7G04G08G09G11G16G27G31                0.000459158
  21744953.922 6 114270496.935 6  89041971.65448  21744962.27048
  20572402.391 7 108108703.690 7  84240571.32249  20572412.50849
  22932868.609 4 120513036.716 4  93906300.70148  22932878.23048
  22831649.609 6 119981129.999 6  93491819.69748  22831657.37548
  21903640.508 6 115104435.921 6  89691763.59047  21903646.73047
  20451846.930 6 107475295.334 6  83746883.48649  20451855.71949
  24208478.406 1 127216397.924 1  99129689.72145  24208485.66045
 20  5 16  1 59 12.0000000  0  7G04G08G09G11G16G27G31                0.000459278
  21745214.391 6 114271866.462 6  89043038.81448  21745223.15248
  20572270.180 7 108108007.491 7  84240028.82149  20572279.44949
  22932770.023 4 120512525.045 4  93905902.00648  22932780.83248
  22831068.039 6 119978075.706 6  93489439.73048  22831076.21948
  21903922.375 6 115105917.945 6  89692918.40147  21903928.80147
  20452121.602 6 107476738.190 6  83748007.78549  20452130.35249
  24209033.813 1 127219319.087 1  99131965.94645  24209041.55945
 20  5 16  1 59 13.0000000  0  7G04G08G09G11G16G27G31                0.000459398
  21745475.234 6 114273236.784 6  89044106.59248  21745483.46148
  20572137.297 6 108107312.149 6  84239486.99949  20572147.34049
  22932673.430 5 120512014.243 5  93905503.99148  22932683.75448
  22830487.320 6 119975021.930 6  93487060.16448  22830495.25048
  21904204.789 5 115107400.386 5  89694073.53947  21904210.93447
  20452396.391 6 107478181.866 6  83749132.72549  20452404.91849
  24209589.742 2 127222240.660 2  99134242.50145  24209597.18045
 20  5 16  1 59 14.0000000  0  7G04G08G09G11G16G27G31                0.000459518
  21745735.742 6 114274607.878 6  89045174.98448  21745744.48848
  20572005.391 7 108106617.590 7  84238945.78849  20572015.10549
  22932576.563 5 120511504.290 5  93905106.63548  22932586.84448
  22829905.617 6 119971968.559 6  93484680.92247  22829913.84447
  21904486.641 5 115108883.006 5  89695228.81747  21904492.87947
  20452670.891 6 107479626.286 6  83750258.23849  20452679.87549
  24210145.492 4 127225162.794 4  99136519.44145  24210153.68445
 20  5 16  1 59 15.0000000  0  7G04G08G09G11G16G27G31                0.000459639
  21745997.094 6 114275979.965 6  89046244.14648  21746005.84048
  20571873.531 7 108105924.059 7  84238405.36649  20571882.59849
  22932479.391 5 120510995.363 5  93904710.05148  22932489.85948
  22829325.320 6 119968915.817 6  93482302.17148  22829333.14148
  21904768.914 5 115110366.073 5  89696384.44747  21904774.97347
  20452946.047 6 107481071.660 6  83751384.49749  20452954.68449
  24210701.688 5 127228085.591 5  99138796.85946  24210709.52346
 20  5 16  1 59 16.0000000  0  7G04G08G09G11G16G27G31                0.000459761
  21746258.305 6 114277352.769 6  89047313.86148  21746266.96948
  20571741.570 7 108105231.235 7  84237865.50349  20571750.89549
  22932382.484 5 120510487.165 5  93904314.03649  22932392.91049
  22828744.547 6 119965863.420 6  93479923.68647  22828752.25847
  21905050.906 6 115111849.344 6  89697540.23647  21905057.52347
  20453221.281 7 107482517.683 7  83752511.27049  20453229.75049
  24211257.672 4 127231008.855 4  99141074.70645  24211265.90645
 20  5 16  1 59 17.0000000  0  7G04G08G09G11G16G27G31                0.000459881
  21746519.758 6 114278726.380 6  89048384.19048  21746528.53548
  20571610.039 7 108104539.299 7  84237326.32649  20571619.64149
  22932286.422 5 120509979.864 5  93903918.75648  22932296.28948
  22828163.820 6 119962811.522 6  93477545.59047  22828171.73847
  21905333.664 6 115113333.045 6  89698696.37948  21905339.55148
  20453496.781 7 107483964.577 7  83753638.70549  20453505.08649
  24211813.539 5 127233932.637 5  99143352.98047  24211822.20747
 20  5 16  1 59 18.0000000  0  7G04G08G09G11G16G27G31                0.000460003
  21746781.367 6 114280100.860 6  89049455.20148  21746789.95748
  20571478.531 6 108103848.181 6  84236787.78949  20571488.09449
  22932190.055 4 120509473.474 4  93903524.17948  22932200.09048
  22827583.070 6 119959760.163 6  93475167.89947  22827590.70747
  21905615.836 6 115114817.042 6  89699852.75247  21905622.09047
  20453771.961 7 107485412.283 7  83754766.78249  20453780.98849
  24212370.352 5 127236856.908 5  99145631.63147  24212379.41047
 20  5 16  1 59 19.0000000  0  8G04G08G09G11G16G26G27G31             0.000460123
  21747042.727 6 114281476.022 6  89050526.74848  21747051.39548
  20571347.000 6 108103157.809 6  84236249.83449  20571356.61749
  22932094.664 5 120508967.835 5  93903130.18048  22932103.93848
  22827002.813 6 119956709.136 6  93472790.47247  22827010.72347
  21905897.992 6 115116301.291 6  89701009.30448  21905904.55148
  23415997.922 1 123051762.24511                
  20454047.453 7 107486860.697 7  83755895.41749  20454056.37949
  24212926.719 5 127239781.628 5  99147910.63847  24212935.68847
 20  5 16  1 59 20.0000000  0  8G04G08G09G11G16G26G27G31             0.000460245
  21747304.781 6 114282852.027 6  89051598.96348  21747313.31348
  20571216.156 6 108102468.249 6  84235712.51949  20571225.65249
  22931998.219 5 120508463.016 5  93902736.81048  22932008.12148
  22826422.234 6 119953658.622 6  93470413.44647  22826429.66847
  21906181.125 6 115117785.839 6  89702166.08648  21906187.23848
  23416364.406 1 123053685.095 1                
  20454323.547 7 107488309.901 7  83757024.66349  20454332.52049
  24213484.281 5 127242706.843 5  99150190.02247  24213492.52747
 20  5 16  1 59 21.0000000  0  8G04G08G09G11G16G26G27G31             0.000460365
  21747566.922 6 114284228.906 6  89052671.86648  21747575.48048
  20571084.859 7 108101779.605 7  84235175.92049  20571094.35949
  22931902.320 5 120507959.146 5  93902344.18448  22931912.25448
  22825841.609 6 119950608.656 6  93468036.84247  22825849.28147
  21906463.070 6 115119270.771 6  89703323.17148  21906469.43448
  23416731.195 1 123055608.241 1                
  20454599.367 6 107489759.954 6  83758154.58049  20454608.46949
  24214040.578 5 127245632.646 5  99152469.86747  24214049.53547
 20  5 16  1 59 22.0000000  0  8G04G08G09G11G16G26G27G31             0.000460487
  21747828.891 6 114285606.360 6  89053745.21148  21747837.61348
  20570953.703 6 108101091.543 6  84234639.76749  20570963.27349
  22931806.117 5 120507455.901 5  93901952.05148  22931816.14148
  22825261.102 6 119947558.910 6  93465660.41647  22825268.92247
  21906746.063 6 115120755.799 6  89704480.33647  21906752.00847
  23417097.000 1 123057531.484 1                
  20454875.547 6 107491210.588 6  83759284.94349  20454883.91049
  24214597.539 5 127248558.731 5  99154749.93347  24214606.44947
 20  5 16  1 59 23.0000000  0  8G04G08G09G11G16G26G27G31             0.000460609
  21748091.211 6 114286984.665 6  89054819.21248  21748099.39848
  20570823.297 7 108100404.381 7  84234104.31449  20570832.71549
  22931710.461 5 120506953.565 5  93901560.62048  22931720.65248
  22824680.945 6 119944509.648 6  93463284.37447  22824688.63747
  21907028.727 6 115122241.172 6  89705637.76648  21907035.27048
  23417463.453 1 123059455.074 1                
  20455151.898 6 107492662.042 6  83760415.94949  20455160.81349
  24215154.484 5 127251485.347 5  99157030.40447  24215163.25447
 20  5 16  1 59 24.0000000  0  8G04G08G09G11G16G26G27G31             0.000460732
  21748353.383 6 114288363.683 6  89055893.77748  21748362.02048
  20570692.617 7 108099717.928 7  84233569.41449  20570702.25849
  22931614.867 5 120506452.010 5  93901169.79848  22931624.95748
  22824100.656 6 119941460.802 6  93460908.65047  22824108.62947
  21907311.297 6 115123726.778 6  89706795.37647  21907317.89147
  23417828.852 1 123061378.818 1                
  20455427.820 6 107494114.211 6  83761547.51249  20455436.51249
  24215711.367 5 127254412.405 5  99159311.22247  24215720.23447
 20  5 16  1 59 25.0000000  0  8G04G08G09G11G16G26G27G31             0.000460852
  21748616.156 6 114289743.482 6  89056968.94548  21748624.66848
  20570562.148 7 108099032.302 7  84233035.16149  20570571.43049
  22931520.219 5 120505951.269 5  93900779.60948  22931529.87548
  22823521.172 6 119938412.405 6  93458533.28747  22823528.32847
  21907593.945 6 115125212.682 6  89707953.22347  21907600.55147
  23418195.117 1 123063302.795 1                
  20455704.758 6 107495567.155 6  83762679.67949  20455713.39549
  24216268.148 5 127257339.943 5  99161592.41247  24216277.50847
 20  5 16  1 59 26.0000000  0  8G04G08G09G11G16G26G27G31             0.000460976
  21748878.633 6 114291124.253 6  89058044.87048  21748887.53148
  20570431.852 7 108098347.659 7  84232501.67649  20570440.89149
  22931425.047 5 120505451.533 5  93900390.20548  22931434.69548
  22822940.805 6 119935364.623 6  93456158.39347  22822948.80547
  21907876.922 6 115126699.022 6  89709111.41147  21907883.70347
  23418560.477 1 123065227.297 1                
  20455980.805 7 107497021.001 7  83763812.54649  20455990.05949
  24216825.500 5 127260268.128 5  99163874.11447  24216834.28547
 20  5 16  1 59 27.0000000  0  8G04G08G09G11G16G26G27G31             0.000461098
  21749141.844 6 114292505.850 6  89059121.44048  21749150.35248
  20570301.672 7 108097663.881 7  84231968.85449  20570311.09449
  22931330.383 5 120504952.683 5  93900001.49148  22931339.73048
  22822360.945 6 119932317.305 6  93453783.86147  22822368.56647
  21908159.938 6 115128185.730 6  89710269.89248  21908165.89548
  23418927.023 1                                
  20456257.781 6 107498475.726 6  83764946.09149  20456266.60549
  24217383.094 5 127263196.878 5  99166156.25847  24217391.96547
 20  5 16  1 59 28.0000000  0  8G04G08G09G11G16G26G27G31             0.000461220
  21749404.531 6 114293888.225 6  89060198.61848  21749413.25848
  20570171.820 7 108096980.899 7  84231436.66549  20570181.10549
  22931235.133 5 120504454.636 5  93899613.40848  22931245.34048
  22821781.609 6 119929270.486 6  93451409.72247  22821789.17647
  21908443.023 6 115129672.695 6  89711428.56147  21908449.18047
  23419293.578 1                                
  20456534.953 6 107499931.158 6  83766080.19549  20456543.84449
  24217941.070 5 127266126.070 5  99168438.74047  24217949.19147
 20  5 16  1 59 29.0000000  0  8G04G08G09G11G16G26G27G31             0.000461344
  21749667.648 6 114295271.397 6  89061276.40848  21749676.36348
  20570041.977 7 108096298.745 7  84230905.11749  20570051.55549
  22931140.891 5 120503957.456 5  93899225.99848  22931150.57048
  22821200.875 6 119926224.052 6  93449035.86647  22821209.14147
  21908725.742 6 115131159.997 6  89712587.50247  21908732.18047
  23419659.641 1                                
  20456812.156 7 107501387.388 7  83767214.91849  20456820.98449
  24218498.602 5 127269055.773 5  99170721.62247  24218506.61747
 20  5 16  1 59 30.0000000  0  8G04G08G09G11G16G26G27G31             0.000461466
  21749931.172 6 114296655.361 6  89062354.82448  21749939.87948
  20569912.344 7 108095617.373 7  84230374.18049  20569921.68849
  22931045.875 5 120503461.113 5  93898839.23348  22931055.96548
  22820621.781 6 119923178.104 6  93446662.40047  22820629.79747
  21909009.117 6 115132647.541 6  89713746.62647  21909014.89547
  23420025.609 1                                
  20457089.063 7 107502844.362 7  83768350.22149  20457097.57049
  24219056.258 5 127271985.943 5  99173004.87447  24219064.57447
 20  5 16  1 59 31.0000000  0  8G04G08G09G11G16G26G27G31             0.000461590
  21750194.781 6 114298039.950 6  89063433.71748  21750203.14548
  20569782.492 6 108094936.679 6  84229843.76549  20569791.94949
  22930951.828 5 120502965.466 5  93898453.00948  22930961.77048
  22820042.203 6 119920132.446 6  93444289.15847  22820049.93047
  21909292.063 6 115134135.263 6  89714905.88947  21909298.30547
  23420392.828 1 123074853.41011  95902641.38555  23420404.86745
  20457366.625 6 107504301.985 6  83769486.03949  20457375.21549
  24219613.477 5 127274916.477 5  99175288.40247  24219621.82447
 20  5 16  1 59 32.0000000  0  8G04G08G09G11G16G26G27G31             0.000461712
  21750458.648 6 114299425.326 6  89064513.22748  21750466.78948
  20569653.398 6 108094256.797 6  84229313.99049  20569662.77749
  22930858.047 5 120502470.628 5  93898067.42048  22930867.53548
  22819462.477 6 119917087.245 6  93441916.27547  22819470.52747
  21909575.469 6 115135623.252 6  89716065.35247  21909581.41447
  23420759.406 1 123076779.341 1  95904142.13245  23420771.27345
  20457644.156 7 107505760.376 7  83770622.44549  20457653.02049
  24220171.305 5 127277847.474 5  99177572.30247  24220179.65247
 20  5 16  1 59 33.0000000  0  8G04G08G09G11G16G26G27G31             0.000461836
  21750721.844 6 114300811.632 6  89065593.47048  21750730.74248
  20569523.766 6 108093577.877 6  84228784.96149  20569533.72749
  22930763.984 5 120501976.783 5  93897682.60648  22930773.63748
  22818883.523 6 119914042.625 6  93439543.84747  22818891.36747
  21909858.406 6 115137111.726 6  89717225.19547  21909864.50447
  23421125.734 1 123078705.663 1  95905643.21045  23421137.66045
  20457921.930 7 107507219.690 7  83771759.57449  20457930.85949
  24220729.156 5 127280779.144 5  99179856.72647  24220737.49247
 20  5 16  1 59 34.0000000  0  8G04G08G09G11G16G26G27G31             0.000461960
  21750986.070 6 114302198.599 6  89066674.22648  21750994.56648
  20569395.055 6 108092899.619 6  84228256.45249  20569404.86749
  22930669.508 5 120501483.652 5  93897298.34748  22930679.84848
  22818303.836 6 119910998.323 6  93437171.66547  22818311.87147
  21910141.805 6 115138600.320 6  89718385.14647  21910147.73847
  23421492.086 1 123080632.127 1  95907144.33245  23421504.53945
  20458199.727 7 107508679.615 7  83772897.18049  20458208.62149
  24221287.141 5 127283711.120 5  99182141.37047  24221295.58247
 20  5 16  1 59 35.0000000  0  8G04G08G09G11G16G26G27G31             0.000462084
  21751250.016 6 114303586.243 6  89067755.51048  21751258.32448
  20569266.219 6 108092222.047 6  84227728.47349  20569275.39149
  22930575.758 5 120500991.246 5  93896914.65948  22930585.76248
  22817724.930 6 119907954.390 6  93434799.76747  22817732.24647
  21910425.063 6 115140089.093 6  89719545.23047  21910431.21947
  23421859.875 1 123082558.698 1  95908645.58345  23421870.86745
  20458477.383 7 107510140.218 7  83774035.31449  20458486.36749
  24221845.289 5 127286643.506 5  99184426.33947  24221853.22347
 20  5 16  1 59 36.0000000  0  8G04G08G09G11G16G26G27G31             0.000462208
  21751514.688 6 114304974.712 6  89068837.43448  21751522.64848
  20569137.617 7 108091545.354 7  84227201.17949  20569146.83249
  22930482.859 5 120500499.703 5  93896531.64648  22930492.56348
  22817146.180 6 119904910.932 6  93432428.24747  22817153.76247
  21910708.297 6 115141578.229 6  89720705.60147  21910714.56647
  23422226.273 1 123084485.616 1  95910147.05945  23422237.67645
  20458755.906 7 107511601.641 7  83775174.08249  20458764.54749
  24222402.891 5 127289576.421 5  99186711.71747  24222411.14847
 20  5 16  1 59 37.0000000  0  8G04G08G09G11G16G26G27G31             0.000462332
  21751778.914 6 114306364.091 6  89069920.07248  21751786.79748
  20569008.883 7 108090869.577 7  84226674.60149  20569018.66449
  22930389.219 5 120500009.147 5  93896149.39248  22930399.08248
  22816566.641 6 119901868.016 6  93430057.13947  22816574.44147
  21910991.477 6 115143067.769 6  89721866.28148  21910997.99648
  23422593.234 1 123086412.855 1  95911648.76845  23422604.05145
  20459034.336 7 107513063.921 7  83776313.52149  20459042.60249
  24222961.508 5 127292509.917 5  99188997.54947  24222969.89847
 20  5 16  1 59 38.0000000  0  8G04G08G09G11G16G26G27G31             0.000462456
  21752043.367 6 114307754.222 6  89071003.28748  21752051.49648
  20568880.453 7 108090194.575 7  84226148.62649  20568889.98049
  22930296.086 5 120499519.349 5  93895767.73348  22930305.84448
  22815988.031 6 119898825.522 6  93427686.36747  22815995.36347
  21911275.484 6 115144557.562 6  89723027.16147  21911281.66847
  23422960.938 1 123088340.461 1  95913150.74945  23422970.76645
  20459312.398 7 107514526.930 7  83777453.53349  20459320.97349
  24223519.602 5 127295443.907 5  99191283.77547  24223527.83647
 20  5 16  1 59 39.0000000  0  8G04G08G09G11G16G26G27G31             0.000462580
  21752308.180 6 114309145.050 6  89072087.04648  21752315.98048
  20568752.266 7 108089520.341 7  84225623.25449  20568761.82049
  22930203.148 5 120499030.353 5  93895386.69648  22930212.62548
  22815408.688 6 119895783.438 6  93425315.91647  22815416.64147
  21911558.570 6 115146047.540 6  89724188.18247  21911565.25047
  23423327.094 1 123090268.061 1  95914652.76145  23423337.54345
  20459590.719 7 107515990.670 7  83778594.11249  20459599.84449
  24224078.211 5 127298378.268 5  99193570.28647  24224086.21147
 20  5 16  1 59 40.0000000  0  8G04G08G09G11G16G26G27G31             0.000462704
  21752572.945 6 114310536.717 6  89073171.46048  21752581.12148
  20568623.891 7 108088846.934 7  84225098.51749  20568633.59449
  22930110.461 5 120498542.200 5  93895006.31048  22930119.87948
  22814830.141 6 119892741.811 6  93422945.81947  22814837.89847
  21911842.742 6 115147537.884 6  89725349.47947  21911848.78147
  23423693.750 1 123092196.086 1  95916155.11645  23423704.55545
  20459869.703 7 107517455.215 7  83779735.30949  20459878.42249
  24224636.922 5 127301313.171 5  99195857.22447  24224644.62547
 20  5 16  1 59 41.0000000  0  8G04G08G09G11G16G26G27G31             0.000462830
  21752837.648 6 114311929.165 6  89074256.48248  21752846.00448
  20568495.859 7 108088174.360 7  84224574.43449  20568505.57449
  22930017.742 5 120498054.897 5  93894626.59148  22930027.26648
  22814251.953 6 119889700.644 6  93420576.08447  22814259.22347
  21912126.008 6 115149028.513 6  89726511.00047  21912132.19547
  23424060.539 1 123094124.272 1  95917657.59145  23424071.28945
  20460148.375 7 107518920.526 7  83780877.10249  20460157.19149
  24225195.367 5 127304248.580 5  99198144.55547  24225203.50047
 20  5 16  1 59 42.0000000  0  8G04G08G09G11G16G26G27G31             0.000462954
  21753102.570 6 114313322.391 6  89075342.10548  21753111.21948
  20568368.039 7 108087502.556 7  84224050.94749  20568377.23049
  22929925.453 5 120497568.407 5  93894247.50148  22929935.06348
  22813673.047 6 119886659.891 6  93418206.66447  22813680.66447
  21912409.672 6 115150519.421 6  89727672.75147  21912416.10547
  23424427.875 1                                
  20460427.211 7 107520386.583 7  83782019.48349  20460436.18849
  24225754.055 5 127307184.442 5  99200432.24947  24225762.26647
 20  5 16  1 59 43.0000000  0  8G04G08G09G11G16G26G27G31             0.000463079
  21753368.078 6 114314716.573 6  89076428.47748  21753376.30148
  20568240.570 7 108086831.727 7  84223528.22149  20568250.37149
  22929833.453 5 120497082.932 5  93893869.20349  22929842.69549
  22813094.453 6 119883619.786 6  93415837.74747  22813102.15247
  21912693.617 6 115152010.793 6  89728834.85347  21912700.05947
  23424795.938 1 123097981.74511  95920663.48155  23424805.57845
  20460706.438 7 107521853.595 7  83783162.61049  20460715.52049
  24226313.344 5 127310120.963 5  99202720.45047  24226320.88747
 20  5 16  1 59 44.0000000  0  8G04G08G09G11G16G26G27G31             0.000463205
  21753633.344 6 114316111.527 6  89077515.45448  21753641.99248
  20568112.789 7 108086161.709 7  84223006.13549  20568122.45749
  22929740.992 5 120496598.291 5  93893491.55649  22929750.04349
  22812515.758 6 119880580.158 6  93413469.20447  22812523.86347
  21912977.320 6 115153502.455 6  89729997.18548  21912983.93448
  23425162.820 1 123099910.974 1  95922166.76145  23425172.10945
  20460986.000 7 107523321.350 7  83784306.31749  20460994.64549
  24226871.289 5 127313057.969 5  99205009.02447  24226879.99647
 20  5 16  1 59 45.0000000  0  8G04G08G09G11G16G26G27G31             0.000463331
  21753899.430 6 114317507.216 6  89078603.00248  21753907.37948
  20567985.531 7 108085492.459 7  84222484.64649  20567995.19549
  22929649.016 5 120496114.449 5  93893114.54049  22929658.04749
  22811937.641 6 119877540.873 6  93411100.91847  22811945.61747
  21913261.156 6 115154994.351 6  89731159.70548  21913267.81648
  23425529.461 1 123101840.337 1  95923670.15245  23425539.80945
  20461265.531 7 107524789.851 7  83785450.60649  20461274.22349
  24227430.781 5 127315995.433 5  99207297.93147  24227438.73847
 20  5 16  1 59 46.0000000  0  8G04G08G09G11G16G26G27G31             0.000463455
  21754165.086 6 114318903.749 6  89079691.20948  21754173.08248
  20567858.344 7 108084824.036 7  84221963.78949  20567867.92249
  22929556.727 5 120495631.455 5  93892738.18949  22929566.27049
  22811359.508 6 119874502.127 6  93408733.06047  22811367.17647
  21913545.438 6 115156486.600 6  89732322.49947  21913551.59847
  23425896.305 1 123103770.040 1  95925173.84245  23425906.67245
  20461544.625 7 107526259.134 7  83786595.50749  20461553.63349
  24227989.664 5 127318933.387 5  99209587.22347  24227997.89547
 20  5 16  1 59 47.0000000  0  8G04G08G09G11G16G26G27G31             0.000463581
  21754431.031 6 114320301.057 6  89080780.01848  21754439.16848
  20567731.477 7 108084156.447 7  84221443.59649  20567740.76649
  22929464.383 5 120495149.313 5  93892362.50249  22929474.54749
  22810781.469 6 119871463.788 6  93406365.53447  22810788.99247
  21913829.563 6 115157979.121 6  89733485.51047  21913835.97747
  23426262.563 1 123105699.961 1  95926677.67245  23426273.89845
  20461824.664 7 107527729.199 7  83787741.01049  20461833.46949
  24228548.867 5 127321871.867 5  99211876.93747  24228557.23447
 20  5 16  1 59 48.0000000  0  8G04G08G09G11G16G26G27G31             0.000463707
  21754697.164 6 114321699.139 6  89081869.43148  21754704.92648
  20567604.477 7 108083489.627 7  84220923.99049  20567613.98849
  22929373.703 5 120494667.983 5  93891987.43649  22929382.69549
  22810203.195 6 119868425.924 6  93403998.36747  22810210.91847
  21914113.523 6 115159471.938 6  89734648.74348  21914119.56648
  23426630.664 1 123107630.184 1  95928181.69945  23426641.57445
  20462104.547 7 107529200.002 7  83788887.08749  20462113.02349
  24229108.516 5 127324810.803 5  99214167.02147  24229116.39547
 20  5 16  1 59 49.0000000  0  8G04G08G09G11G16G26G27G31             0.000463835
  21754962.984 6 114323097.988 6  89082959.44748  21754971.31348
  20567477.773 7 108082823.596 7  84220405.00549  20567487.35949
  22929281.781 5 120494187.500 5  93891613.03449  22929291.39849
  22809625.211 6 119865388.467 6  93401631.52147  22809633.15647
  21914397.664 6 115160965.039 6  89735812.18847  21914404.00447
  23426997.250 1 123109560.678 1  95929685.95145  23427008.50045
  20462384.492 7 107530671.580 7  83790033.77549  20462393.41449
  24229667.945 5 127327750.210 5  99216457.49047  24229675.64547
 20  5 16  1 59 50.0000000  0  8G04G08G09G11G16G26G27G31             0.000463961
  21755229.547 6 114324497.694 6  89084050.13348  21755237.65248
  20567351.195 7 108082158.443 7  84219886.70349  20567360.78949
  22929191.008 5 120493707.911 5  93891239.32849  22929200.21149
  22809047.391 6 119862351.551 6  93399265.09247  22809055.16047
  21914681.734 6 115162458.497 6  89736975.92247  21914687.70747
  23427365.242 1 123111491.451 1  95931190.43245  23427376.13345
  20462665.000 7 107532144.000 7  83791181.11149  20462673.90249
  24230227.297 5 127330690.182 5  99218748.38047  24230234.94947
 20  5 16  1 59 51.0000000  0  8G04G08G09G11G16G26G27G31             0.000464087
  21755496.125 6 114325898.159 6  89085141.40248  21755504.21548
  20567224.922 7 108081494.044 7  84219368.99149  20567234.32049
  22929100.039 5 120493229.114 5  93890866.23649  22929109.08249
  22808468.914 6 119859315.032 6  93396898.97247  22808477.11347
  21914965.883 6 115163952.179 6  89738139.82647  21914972.27047
  23427732.633 1 123113422.479 1  95932695.17245  23427743.69545
  20462945.281 7 107533617.143 7  83792329.01449  20462954.31349
  24230786.578 5 127333630.598 5  99221039.61547  24230794.84847
 20  5 16  1 59 52.0000000  0  8G04G08G09G11G16G26G27G31             0.000464214
  21755762.445 6 114327299.504 6  89086233.36148  21755770.83648
  20567098.398 7 108080830.583 7  84218852.01749  20567108.30549
  22929009.117 5 120492751.244 5  93890493.86649  22929018.44149
  22807891.531 6 119856279.073 6  93394533.28947  22807899.71947
  21915250.789 6 115165446.271 6  89739304.05947  21915256.85547
  23428100.336 1 123115353.865 1  95934200.16845  23428111.12145
  20463225.539 7 107535091.148 7  83793477.59449  20463234.45349
  24231346.633 5 127336571.597 5  99223331.29347  24231354.08247
 20  5 16  1 59 53.0000000  0  8G04G08G09G11G16G26G27G31             0.000464340
  21756029.461 6 114328701.470 6  89087325.79448  21756037.49648
  20566972.227 7 108080167.785 7  84218335.54849  20566982.05549
  22928918.031 5 120492274.057 5  93890122.03849  22928927.19549
  22807313.492 6 119853243.411 6  93392167.83847  22807321.84047
  21915534.859 6 115166940.514 6  89740468.39747  21915540.88747
  23428467.742 1 123117285.321 1  95935705.22145  23428478.41845
  20463506.070 7 107536565.767 7  83794626.64449  20463515.34449
  24231905.602 5 127339512.914 5  99225623.22647  24231914.05947
 20  5 16  1 59 54.0000000  0  8G04G08G09G11G16G26G27G31             0.000464466
  21756296.227 6 114330104.258 6  89088418.87048  21756304.80148
  20566846.344 7 108079505.793 7  84217819.70649  20566855.84049
  22928826.828 5 120491797.751 5  93889750.89349  22928836.53149
  22806736.367 6 119850208.209 6  93389802.75147  22806744.25847
  21915819.453 6 115168435.058 6  89741632.97948  21915825.55548
  23428835.555 1 123119217.064 1  95937210.46345  23428846.35545
  20463787.000 7 107538041.167 7  83795776.30549  20463795.88749
  24232465.891 5 127342454.777 5  99227915.57447  24232473.80947
 20  5 16  1 59 55.0000000  0  8G04G08G09G11G16G26G27G31             0.000464594
  21756562.883 6 114331507.877 6  89089512.59848  21756571.53148
  20566720.523 7 108078844.686 7  84217304.56449  20566729.80549
  22928736.336 5 120491322.298 5  93889380.41149  22928746.42249
  22806158.141 6 119847173.546 6  93387438.08947  22806166.86347
  21916103.703 6 115169929.948 6  89742797.83047  21916109.88347
  23429201.742 1 123121149.11311  95938715.96255  23429214.07445
  20464067.836 7 107539517.424 7  83796926.63649  20464076.73849
  24233026.055 5 127345397.163 5  99230208.33247  24233033.64147
 20  5 16  1 59 56.0000000  0  8G04G08G09G11G16G26G27G31             0.000464722
  21756830.797 6 114332912.157 6  89090606.84448  21756838.84448
  20566594.719 7 108078184.265 7  84216789.94449  20566604.36349
  22928646.320 5 120490847.596 5  93889010.51349  22928656.10949
  22805580.461 6 119844139.174 6  93385073.64347  22805589.24247
  21916387.969 6 115171425.019 6  89743962.81847  21916393.92647
  23429571.391 1 123123081.408 1  95940221.61445  23429581.02745
  20464348.617 7 107540994.291 7  83798077.44449  20464357.85249
  24233585.813 5 127348339.941 5  99232501.40247  24233593.87147
 20  5 16  1 59 57.0000000  0  8G04G08G09G11G16G26G27G31             0.000464849
  21757098.047 6 114334317.095 6  89091701.59448  21757106.32848
  20566469.617 7 108077524.537 7  84216275.87549  20566478.85549
  22928556.258 5 120490373.595 5  93888641.15549  22928565.78149
  22805004.320 6 119841105.119 6  93382709.44547  22805011.93847
  21916672.836 6 115172920.254 6  89745127.93448  21916679.10948
  23429937.930 1 123125013.699 1  95941727.29345  23429949.09445
  20464629.969 7 107542471.808 7  83799228.75949  20464638.84849
  24234146.141 5 127351283.019 5  99234794.71547  24234153.37547
 20  5 16  1 59 58.0000000  0  8G04G08G09G11G16G26G27G31             0.000464975
  21757365.625 6 114335722.821 6  89092796.96748  21757373.66448
  20566343.648 7 108076865.629 7  84215762.43949  20566353.57849
  22928466.578 5 120489900.421 5  93888272.44849  22928475.51649
  22804426.977 6 119838071.565 6  93380345.63547  22804434.53547
  21916957.398 6 115174415.783 6  89746293.28447  21916963.84047
  23430305.805 1 123126946.352 1  95943233.23645  23430317.43845
  20464911.492 7 107543950.113 7  83800380.68549  20464920.43849
  24234706.109 5 127354226.622 5  99237088.42747  24234713.67647
 20  5 16  1 59 59.0000000  0  8G04G08G09G11G16G26G27G31             0.000465103
  21757632.867 6 114337129.361 6  89093892.96848  21757641.37948
  20566218.656 7 108076207.510 7  84215249.62249  20566228.43049
  22928376.000 5 120489428.116 5  93887904.41849  22928385.94149
  22803849.641 6 119835038.460 6  93377982.17647  22803857.50847
  21917242.133 6 115175911.633 6  89747458.87347  21917248.59047
  23430671.516 1 123128879.218 1  95944739.37045  23430684.96945
  20465192.664 7 107545429.208 7  83801533.22249  20465201.82849
  24235266.211 5 127357170.734 5  99239382.53947  24235274.28947
 20  5 16  2  0  0.0000000  0  8G04G08G09G11G16G26G27G31             0.000465231
  21757900.891 6 114338536.636 6  89094989.54648  21757908.96548
  20566093.383 7 108075550.181 7  84214737.41649  20566102.68449
  22928286.414 5 120488956.616 5  93887537.01849  22928296.15249
  22803272.852 6 119832005.781 6  93375619.05147  22803280.58247
  21917526.602 6 115177407.717 6  89748624.65748  21917532.82448
  23431039.508 1 123130812.337 1  95946245.72545  23431052.25845
  20465474.539 7 107546909.020 7  83802686.32449  20465483.39549
  24235826.867 5 127360115.291 5  99241676.98947  24235834.36747
 20  5 16  2  0  1.0000000  0  8G04G08G09G11G16G26G27G31             0.000465359
  21758169.117 6 114339944.739 6  89096086.76848  21758177.02748
  20565968.633 7 108074893.679 7  84214225.85749  20565978.52749
  22928196.984 5 120488485.971 5  93887170.28049  22928206.60949
  22802695.563 6 119828973.584 6  93373256.29647  22802703.55547
  21917811.063 6 115178904.127 6  89749790.68847  21917817.61347
  23431407.938 1 123132745.760 1  95947752.34545  23431420.39545
  20465756.008 7 107548389.627 7  83803840.04649  20465765.19549
  24236387.219 5 127363060.385 5  99243971.86347  24236395.00847
 20  5 16  2  0  2.0000000  0  8G04G08G09G11G16G26G27G31             0.000465487
  21758437.359 6 114341353.550 6  89097184.54048  21758445.35948
  20565843.844 7 108074237.930 7  84213714.88849  20565853.75049
  22928107.648 5 120488016.092 5  93886804.14249  22928117.01249
  22802118.867 6 119825941.765 6  93370893.84547  22802126.58647
  21918095.836 6 115180400.778 6  89750956.91347  21918102.65247
  23431776.883 1 123134679.430 1  95949259.11545  23431788.34445
  20466038.094 7 107549870.936 7  83804994.31249  20466047.06649
  24236947.859 5 127366005.853 5  99246267.02647  24236955.40247
 20  5 16  2  0  3.0000000  0  8G04G08G09G11G16G26G27G31             0.000465616
  21758704.867 6 114342763.152 6  89098282.93248  21758713.84048
  20565719.508 7 108073582.984 7  84213204.54449  20565729.12149
  22928018.273 5 120487547.041 5  93886438.64549  22928027.91049
  22801541.797 6 119822910.404 6  93368531.74847  22801549.85247
  21918380.750 6 115181897.710 6  89752123.34747  21918387.19547
  23432144.805 1 123136613.257 1  95950765.97345  23432156.38345
  20466320.203 7 107551353.004 7  83806149.16549  20466328.97749
  24237508.180 5 127368951.843 5  99248562.59747  24237516.21947
 20  5 16  2  0  4.0000000  0  8G04G08G09G11G16G26G27G31             0.000465744
  21758973.508 6 114344173.504 6  89099381.91048  21758982.07848
  20565594.492 7 108072928.859 7  84212694.83449  20565604.09849
  22927929.141 5 120487078.830 5  93886073.80349  22927938.86749
  22800964.828 6 119819879.474 6  93366169.98747  22800973.06347
  21918665.383 6 115183394.944 6  89753290.02147  21918672.19947
  23432512.680 1 123138547.346 1  95952273.05145  23432524.25845
  20466602.063 7 107552835.847 7  83807304.63049  20466610.78149
  24238068.734 5 127371898.273 5  99250858.51047  24238076.68447
 20  5 16  2  0  5.0000000  0  8G04G08G09G11G16G26G27G31             0.000465872
  21759242.281 6 114345584.632 6  89100481.48648  21759250.64848
  20565470.266 7 108072275.487 7  84212185.71249  20565480.10549
  22927839.836 5 120486611.422 5  93885709.59449  22927849.78549
  22800387.656 6 119816848.938 6  93363808.53447  22800396.48447
  21918950.445 6 115184892.376 6  89754456.85447  21918957.17647
  23432882.250 1 123140481.725 1  95953780.35845  23432892.59845
  20466884.602 7 107554319.383 7  83808460.63149  20466893.77049
  24238629.781 5 127374845.161 5  99253154.78747  24238637.30547
 20  5 16  2  0  6.0000000  0  8G04G08G09G11G16G26G27G31             0.000466002
  21759510.367 6 114346996.513 6  89101581.64948  21759518.84848
  20565345.883 7 108071622.941 7  84211677.23949  20565355.52349
  22927751.117 5 120486144.814 5  93885346.00149  22927761.14149
  22799811.422 6 119813818.893 6  93361447.46347  22799819.86347
  21919235.617 6 115186390.126 6  89755623.92847  21919242.07447
  23433249.156 1 123142416.346 1  95955287.81545  23433261.02745
  20467167.117 7 107555803.708 7  83809617.25049  20467176.02349
  24239190.297 5 127377792.542 5  99255451.44547  24239198.69547
 20  5 16  2  0  7.0000000  0  8G04G08G09G11G16G26G27G31             0.000466129
  21759779.625 6 114348409.267 6  89102682.50048  21759788.33248
  20565222.031 7 108070971.237 7  84211169.41349  20565231.69149
  22927662.422 5 120485679.144 5  93884983.14149  22927672.43049
  22799234.805 6 119810789.340 6  93359086.77247  22799243.05147
  21919520.695 6 115187888.251 6  89756791.29947  21919527.21947
  23433616.906 1 123144351.250 1  95956795.54045  23433628.89545
  20467449.719 7 107557288.868 7  83810774.51149  20467458.28149
  24239751.914 5 127380740.498 5  99257748.55847  24239759.59447
 20  5 16  2  0  8.0000000  0  8G04G08G09G11G16G26G27G31             0.000466259
  21760048.430 6 114349822.807 6  89103783.95948  21760057.43048
  20565098.250 7 108070320.368 7  84210662.24449  20565107.59049
  22927574.523 5 120485214.291 5  93884620.91649  22927584.00449
  22798658.328 6 119807760.277 6  93356726.46247  22798666.92247
  21919805.906 6 115189386.668 6  89757958.90348  21919812.52348
  23433985.102 1 123146286.412 1  95958303.34945  23433997.44145
  20467732.141 7 107558774.812 7  83811932.39049  20467741.27749
  24240312.695 5 127383688.939 5  99260046.03547  24240320.63347
 20  5 16  2  0  9.0000000  0  8G04G08G09G11G16G26G27G31             0.000466387
  21760317.438 6 114351237.113 6  89104886.01548  21760326.45348
  20564974.484 7 108069670.274 7  84210155.67849  20564984.14149
  22927486.555 5 120484750.265 5  93884259.33549  22927495.72749
  22798082.352 6 119804731.611 6  93354366.46447  22798090.39147
  21920091.211 6 115190885.338 6  89759126.69248  21920097.33648
  23434353.898 1 123148221.837 1  95959811.51745  23434365.88745
  20468015.234 7 107560261.477 7  83813090.82749  20468024.18449
  24240874.039 5 127386637.827 5  99262343.86147  24240882.11347
 20  5 16  2  0 10.0000000  0  8G04G08G09G11G16G26G27G31             0.000466516
  21760586.734 6 114352652.126 6  89105988.61748  21760595.61748
  20564850.695 7 108069020.932 7  84209649.70049  20564860.50449
  22927398.078 5 120484287.027 5  93883898.36749  22927407.64849
  22797505.891 6 119801703.356 6  93352006.78147  22797514.42647
  21920376.750 6 115192384.255 6  89760294.67947  21920382.82447
  23434721.766 1 123150157.504 1  95961319.83745  23434733.98845
  20468298.258 7 107561748.864 7  83814249.83149  20468307.32049
  24241435.500 5 127389587.157 5  99264642.04147  24241443.08247
 20  5 16  2  0 11.0000000  0  8G04G08G09G11G16G26G27G31             0.000466646
  21760856.453 6 114354067.900 6  89107091.81748  21760864.93848
  20564727.719 7 108068372.380 7  84209144.33349  20564737.17649
  22927310.117 5 120483824.604 5  93883538.04149  22927319.21949
  22796929.328 6 119798675.515 6  93349647.42947  22796937.66847
  21920662.000 6 115193883.428 6  89761462.86847  21920668.05547
  23435089.227 1 123152093.432 1  95962828.38945  23435102.56345
  20468581.273 7 107563236.976 7  83815409.40149  20468590.01249
  24241996.031 5 127392536.935 5  99266940.56347  24242004.41047
 20  5 16  2  0 12.0000000  0  8G04G08G09G11G16G26G27G31             0.000466776
  21761125.500 6 114355484.434 6  89108195.60648  21761134.51648
  20564604.023 7 108067724.609 7  84208639.57749  20564614.12949
  22927222.336 5 120483362.933 5  93883178.29349  22927231.59049
  22796353.477 6 119795648.106 6  93347288.41247  22796361.53547
  21920947.039 6 115195382.864 6  89762631.25448  21920953.18448
  23435458.359 1 123154029.496 1  95964337.04745  23435470.93445
  20468864.938 7 107564725.839 7  83816569.55349  20468873.92249
  24242557.516 5 127395487.173 5  99269239.44747  24242565.97747
 20  5 16  2  0 13.0000000  0  8G04G08G09G11G16G26G27G31             0.000466906
  21761395.688 6 114356901.759 6  89109300.01548  21761404.37148
  20564481.000 7 108067077.667 7  84208135.47049  20564490.98449
  22927134.250 5 120482902.173 5  93882819.25949  22927143.77349
  22795776.914 6 119792621.152 6  93344929.75347  22795785.50047
  21921232.375 6 115196882.623 6  89763799.90047  21921238.84847
  23435826.289 1 123155965.901 1  95965845.96445  23435839.68445
  20469148.156 7 107566215.491 7  83817730.32249  20469157.33249
  24243119.328 5 127398437.932 5  99271538.73547  24243127.72347
 20  5 16  2  0 14.0000000  0  8G04G08G09G11G16G26G27G31             0.000467035
  21761665.320 6 114358319.770 6  89110404.96248  21761674.37148
  20564357.969 7 108066431.432 7  84207631.90649  20564367.66049
  22927046.414 5 120482442.095 5  93882460.75549  22927056.23849
  22795201.688 6 119789594.553 6  93342571.36247  22795209.85247
  21921518.008 6 115198382.548 6  89764968.67847  21921524.57447
  23436194.633 1                                
  20469431.945 7 107567705.777 7  83818891.58349  20469440.95749
  24243681.078 5 127401389.021 5  99273838.27947  24243689.45347
 20  5 16  2  0 15.0000000  0  8G04G08G09G11G16G26G27G31             0.000467165
  21761935.453 6 114359738.694 6  89111510.61148  21761944.38348
  20564235.234 7 108065786.121 7  84207129.07349  20564245.16049
  22926959.453 5 120481983.018 5  93882103.03049  22926968.99249
  22794625.656 6 119786568.521 6  93340213.41647  22794633.94147
  21921803.258 6 115199882.922 6  89766137.79947  21921809.95347
  23436563.359 1                                
  20469715.500 7 107569196.980 7  83820053.56049  20469724.72349
  24244242.773 5 127404340.757 5  99276138.33547  24244250.47347
 20  5 16  2  0 16.0000000  0  8G04G08G09G11G16G26G27G31             0.000467295
  21762205.602 6 114361158.375 6  89112616.85648  21762214.68848
  20564112.813 7 108065141.592 7  84206626.84349  20564122.70349
  22926872.211 5 120481524.762 5  93881745.94749  22926881.84849
  22794049.914 6 119783542.957 6  93337855.83447  22794058.18847
  21922088.781 6 115201383.548 6  89767307.11447  21922095.51647
  23436932.492 1                                
  20469999.391 7 107570688.928 7  83821216.11049  20470008.58249
  24244804.523 5 127407292.954 5  99278438.73747  24244812.59847
 20  5 16  2  0 17.0000000  0  8G04G08G09G11G16G26G27G31             0.000467424
  21762476.359 6 114362578.831 6  89113723.70348  21762484.90248
  20563990.219 6 108064497.875 6  84206125.24649  20564000.05549
  22926785.148 5 120481067.304 5  93881389.48449  22926794.88749
  22793474.016 6 119780517.835 6  93335498.60147  22793482.31647
  21922374.445 6 115202884.473 6  89768476.66647  21922381.08647
  23437303.156 1                                
  20470283.789 7 107572181.636 7  83822379.26449  20470292.98449
  24245366.328 5 127410245.638 5  99280739.52547  24245374.69147
 20  5 16  2  0 18.0000000  0  8G04G08G09G11G16G26G27G31             0.000467556
  21762746.383 6 114364000.082 6  89114831.17448  21762755.31648
  20563867.828 6 108063854.948 6  84205624.26149  20563877.57449
  22926698.578 5 120480610.688 5  93881033.68349  22926707.86749
  22792898.445 6 119777493.160 6  93333141.71547  22792906.85247
  21922659.961 6 115204385.672 6  89769646.42848  21922666.78548
  23437670.211 1                                
  20470567.484 7 107573675.089 7  83823542.99149  20470576.50449
  24245928.391 5 127413198.777 5  99283040.67247  24245936.33647
 20  5 16  2  0 19.0000000  0  8G04G08G09G11G16G26G27G31             0.000467686
  21763016.969 6 114365422.252 6  89115939.35448  21763026.03548
  20563745.773 6 108063212.982 6  84205124.02749  20563755.71149
  22926611.430 5 120480155.104 5  93880678.68549  22926621.00049
  22792322.898 6 119774469.065 6  93330785.27347  22792331.27047
  21922946.102 6 115205887.345 6  89770816.57247  21922952.41447
  23438039.148 1 123167589.73211  95974903.41855  23438051.37145
  20470851.727 7 107575169.473 7  83824707.44949  20470861.16449
  24246489.891 5 127416152.613 5  99285342.36347  24246498.54747
 20  5 16  2  0 20.0000000  0  8G04G08G09G11G16G26G27G31             0.000467817
  21763288.000 6 114366845.088 6  89117048.05948  21763297.17248
  20563623.398 6 108062571.717 6  84204624.34649  20563633.06349
  22926525.172 5 120479700.149 5  93880324.17549  22926534.94149
  22791747.555 6 119771445.335 6  93328429.11547  22791755.87147
  21923231.789 6 115207389.159 6  89771986.80848  21923238.34448
  23438408.875 1 123169527.918 1  95976413.69445  23438420.21945
  20471136.469 7 107576664.497 7  83825872.39849  20471145.85949
  24247052.719 5 127419106.758 5  99287644.28447  24247060.92247
 20  5 16  2  0 21.0000000  0  8G04G08G09G11G16G26G27G31             0.000467947
  21763558.695 6 114368268.426 6  89118157.14748  21763567.67648
  20563501.859 6 108061930.951 6  84204125.04449  20563511.57449
  22926439.063 5 120479245.799 5  93879970.13149  22926448.09849
  22791172.578 6 119768421.777 6  93326073.10347  22791180.50047
  21923517.195 6 115208890.998 6  89773157.08047  21923524.11347
  23438778.219 1                                
  20471421.242 7 107578160.006 7  83827037.73549  20471430.59849
  24247614.922 5 127422061.116 5  99289946.38347  24247623.36347
 20  5 16  2  0 22.0000000  0  8G04G08G09G11G16G26G27G31             0.000468079
  21763829.648 6 114369692.622 6  89119266.91548  21763838.71948
  20563380.078 6 108061291.078 6  84203626.44949  20563389.83649
  22926351.953 5 120478792.359 5  93879616.80149  22926361.93049
  22790596.969 6 119765398.707 6  93323717.46447  22790605.12547
  21923803.125 6 115210393.189 6  89774327.61148  21923809.68848
  23439147.852 1                                
  20471705.820 7 107579656.343 7  83828203.71249  20471715.06649
  24248177.219 5 127425016.025 5  99292248.90447  24248185.87947
 20  5 16  2  0 23.0000000  0  8G04G08G09G11G16G26G27G31             0.000468210
  21764101.172 6 114371117.549 6  89120377.24948  21764109.84448
  20563258.625 7 108060651.967 7  84203128.43749  20563268.23049
  22926266.656 5 120478339.704 5  93879264.08049  22926276.34449
  22790022.203 6 119762376.082 6  93321362.18047  22790029.84447
  21924089.508 6 115211895.626 6  89775498.34048  21924095.72748
  23439517.258 1                                
  20471990.875 7 107581153.438 7  83829370.27949  20472000.39849
  24248739.297 5 127427971.392 5  99294551.78347  24248747.96147
 20  5 16  2  0 24.0000000  0  8G04G08G09G11G16G26G27G31             0.000468340
  21764372.555 6 114372543.279 6  89121488.20948  21764381.20348
  20563136.680 7 108060013.681 7  84202631.07149  20563146.64549
  22926180.281 5 120477887.881 5  93878912.01449  22926189.49649
  22789446.672 6 119759353.903 6  93319007.23847  22789454.92247
  21924375.438 6 115213398.354 6  89776669.29448  21924382.22348
  23439885.672 1                                
  20472276.070 7 107582651.257 7  83830537.41149  20472284.86749
  24249301.844 5 127430927.242 5  99296855.03847  24249310.65247
 20  5 16  2  0 25.0000000  0  8G04G08G09G11G16G26G27G31             0.000468472
  21764643.789 6 114373969.600 6  89122599.62448  21764652.69948
  20563015.961 7 108059376.044 7  84202134.21449  20563025.55549
  22926094.344 5 120477436.733 5  93878560.46949  22926103.82449
  22788871.703 6 119756332.001 6  93316652.51147  22788879.87147
  21924661.484 6 115214901.207 6  89777840.35248  21924667.60548
  23440253.758 1 123179221.63511  95983967.25755  23440265.51245
  20472560.914 7 107584149.694 7  83831705.02149  20472569.91449
  24249864.438 5 127433883.373 5  99299158.51047  24249872.69947
 20  5 16  2  0 26.0000000  0  8G04G08G09G11G16G26G27G31             0.000468603
  21764915.586 6 114375396.686 6  89123711.64148  21764924.09848
  20562894.555 6 108058739.159 6  84201637.93749  20562904.00049
  22926008.500 5 120476986.370 5  93878209.54149  22926018.19149
  22788296.688 6 119753310.537 6  93314298.12347  22788305.08247
  21924947.195 6 115216404.323 6  89779011.61048  21924953.70348
  23440622.984 1 123181160.994 1  95985478.46145  23440633.80145
  20472846.109 7 107585648.854 7  83832873.19549  20472855.30949
  24250427.570 5 127436840.016 5  99301462.38847  24250435.79347
 20  5 16  2  0 27.0000000  0  8G04G08G09G11G16G26G27G31             0.000468735
  21765186.758 6 114376824.563 6  89124824.27148  21765195.61348
  20562773.195 6 108058103.117 6  84201142.32249  20562783.19949
  22925923.195 5 120476536.902 5  93877859.30849  22925932.25449
  22787721.422 6 119750289.546 6  93311944.10347  22787730.12147
  21925233.195 6 115217907.750 6  89780183.12248  21925239.73848
  23440991.977 1 123183100.613 1  95986989.86945  23441003.53545
  20473131.336 7 107587148.812 7  83834041.98949  20473140.58649
  24250989.852 5 127439797.155 5  99303766.65247  24250998.25447
 20  5 16  2  0 28.0000000  0  8G04G08G09G11G16G26G27G31             0.000468866
  21765458.805 6 114378253.199 6  89125937.50248  21765467.95748
  20562652.586 6 108057467.863 6  84200647.31949  20562662.19949
  22925837.852 5 120476088.223 5  93877509.68748  22925846.98048
  22787146.945 6 119747268.982 6  93309590.41847  22787154.98047
  21925519.219 6 115219411.438 6  89781354.82747  21925525.73047
  23441361.273 1 123185040.482 1  95988501.41245  23441372.82045
  20473417.313 7 107588649.491 7  83835211.35049  20473426.21949
  24251552.836 5 127442754.726 5  99306071.24747  24251561.29347
 20  5 16  2  0 29.0000000  0  8G04G08G09G11G16G26G27G31             0.000468998
  21765730.891 6 114379682.590 6  89127051.30948  21765740.11748
  20562531.953 7 108056833.363 7  84200152.89849  20562541.49249
  22925753.016 5 120475640.334 5  93877160.67849  22925762.20749
  22786572.383 6 119744248.853 6  93307237.07147  22786580.55947
  21925805.563 6 115220915.388 6  89782526.71448  21925812.43048
  23441730.961 1 123186980.557 1  95990013.12645  23441741.69545
  20473702.875 7 107590150.938 7  83836381.31349  20473712.02349
  24252115.656 5 127445712.758 5  99308376.20347  24252124.32447
 20  5 16  2  0 30.0000000  0  8G04G08G09G11G16G26G27G31             0.000469130
  21766002.570 6 114381112.702 6  89128165.68248  21766012.14148
  20562411.250 7 108056199.615 7  84199659.07249  20562420.69549
  22925667.109 5 120475193.234 5  93876812.29249  22925677.10549
  22785997.477 6 119741229.110 6  93304884.02947  22786006.07447
  21926092.078 6 115222419.567 6  89783698.82147  21926097.98447
  23442100.133 1 123188920.864 1  95991525.10545  23442111.03145
  20473988.906 7 107591653.033 7  83837551.77549  20473998.16449
  24252678.750 5 127448671.216 5  99310681.49247  24252687.29347
 20  5 16  2  0 31.0000000  0  8G04G08G09G11G16G26G27G31             0.000469263
  21766275.383 6 114382543.544 6  89129280.62748  21766284.53948
  20562290.766 7 108055566.643 7  84199165.84349  20562300.52749
  22925582.156 5 120474746.925 5  93876464.51949  22925591.54349
  22785422.945 6 119738209.773 6  93302531.29947  22785430.97747
  21926378.070 6 115223924.009 6  89784871.09548  21926384.71548
  23442468.992 1 123190861.364 1  95993037.17745  23442480.67645
  20474274.594 7 107593155.889 7  83838722.83549  20474284.00449
  24253241.703 5 127451630.117 5  99312987.12947  24253249.98047
 20  5 16  2  0 32.0000000  0  8G04G08G09G11G16G26G27G31             0.000469395
  21766547.633 6 114383975.146 6  89130396.16148  21766556.64148
  20562170.156 7 108054934.430 7  84198673.20949  20562179.97749
  22925497.961 5 120474301.437 5  93876117.38149  22925507.26649
  22784848.758 6 119735190.848 6  93300178.88947  22784856.63747
  21926665.219 6 115225428.688 6  89786043.56548  21926671.15248
  23442839.391 1 123192802.104 1  95994549.43545  23442849.98045
  20474561.063 7 107594659.475 7  83839894.45249  20474570.31649
  24253804.570 5 127454589.462 5  99315293.11547  24253813.60247
 20  5 16  2  0 33.0000000  0  8G04G08G09G11G16G26G27G31             0.000469526
  21766820.383 6 114385407.495 6  89131512.27148  21766829.12148
  20562050.063 7 108054302.977 7  84198181.17249  20562060.08249
  22925412.852 5 120473856.702 5  93875770.83649  22925422.32449
  22784274.000 6 119732172.351 6  93297826.81547  22784282.22347
  21926950.938 6 115226933.627 6  89787216.26947  21926957.49247
  23443208.656 1 123194743.101 1  95996061.90445  23443219.12945
  20474846.938 7 107596163.768 7  83841066.62949  20474856.14849
  24254368.172 5 127457549.228 5  99317599.42547  24254376.69947
 20  5 16  2  0 34.0000000  0  8G04G08G09G11G16G26G27G31             0.000469660
  21767092.875 6 114386840.482 6  89132628.88648  21767102.00448
  20561930.336 7 108053672.216 7  84197689.67049  20561939.90249
  22925328.328 5 120473412.707 5  93875424.86349  22925337.89549
  22783700.203 6 119729154.186 6  93295475.00147  22783708.12947
  21927237.531 6 115228438.747 6  89788389.14048  21927243.68848
  23443577.813 1 123196684.210 1  95997574.43545  23443588.65645
  20475133.648 7 107597668.717 7  83842239.31949  20475142.81649
  24254930.945 5 127460509.394 5  99319906.03647  24254940.11747
 20  5 16  2  0 35.0000000  0  8G04G08G09G11G16G26G27G31             0.000469791
  21767365.922 6 114388274.319 6  89133746.16348  21767374.70348
  20561810.594 7 108053042.320 7  84197198.84049  20561819.89149
  22925243.992 5 120472969.617 5  93875079.60049  22925253.92649
  22783124.984 6 119726136.552 6  93293123.59947  22783133.45347
  21927524.094 6 115229944.209 6  89789562.26848  21927530.51648
  23443946.922 1 123198625.580 1  95999087.21445  23443958.44945
  20475420.273 7 107599174.492 7  83843412.65049  20475429.33249
  24255494.609 5 127463470.109 5  99322213.08847  24255503.23047
 20  5 16  2  0 36.0000000  0  8G04G08G09G11G16G26G27G31             0.000469925
  21767638.352 6 114389708.873 6  89134863.99348  21767647.77748
  20561690.594 6 108052413.177 6  84196708.59849  20561700.27049
  22925159.805 5 120472527.313 5  93874734.94549  22925169.58649
  22782551.633 6 119723119.293 6  93290772.49147  22782559.79747
  21927810.219 6 115231449.915 6  89790735.50948  21927817.11748
  23444315.742 1 123200567.218 1  96000600.16045  23444327.59845
  20475707.031 7 107600680.961 7  83844586.51949  20475716.07049
  24256057.898 5 127466431.238 5  99324520.45847  24256066.85247
 20  5 16  2  0 37.0000000  0  8G04G08G09G11G16G26G27G31             0.000470057
  21767911.773 6 114391144.304 6  89135982.51648  21767920.74648
  20561571.281 6 108051784.920 6  84196219.04949  20561580.98449
  22925075.656 5 120472085.901 5  93874390.99048  22925085.44548
  22781977.367 6 119720102.568 6  93288421.79247  22781985.51247
  21928096.930 6 115232955.980 6  89791909.01148  21928104.04348
  23444685.328 1 123202509.244 1  96002113.43945  23444697.23045
  20475993.688 7 107602188.272 7  83845761.04949  20476002.73449
  24256621.820 5 127469392.917 5  99326828.26447  24256630.62147
 20  5 16  2  0 38.0000000  0  8G04G08G09G11G16G26G27G31             0.000470190
  21768185.430 6 114392580.480 6  89137101.61248  21768194.35948
  20561451.789 6 108051157.431 6  84195730.09649  20561461.18849
  22924992.336 5 120471645.295 5  93874047.66049  22925001.96949
  22781403.570 6 119717086.266 6  93286071.42847  22781411.22747
  21928383.188 6 115234462.306 6  89793082.71147  21928390.31647
  23445054.727 1 123204451.439 1  96003626.83545  23445066.79745
  20476280.539 7 107603696.328 7  83846936.15349  20476289.57049
  24257184.750 5 127472355.082 5  99329136.44047  24257193.99647
 20  5 16  2  0 39.0000000  0  8G04G08G09G11G16G26G27G31             0.000470324
  21768458.625 6 114394017.359 6  89138221.25948  21768467.68848
  20561332.430 6 108050530.687 6  84195241.72449  20561341.79749
  22924908.383 5 120471205.445 5  93873704.91748  22924917.85248
  22780829.188 6 119714070.358 6  93283721.36647  22780837.15247
  21928670.328 6 115235968.883 6  89794256.68848  21928677.21548
  23445424.164 1 123206393.855 1  96005140.40345  23445436.36345
  20476567.594 7 107605205.069 7  83848111.79449  20476576.54749
  24257748.727 5 127475317.670 5  99331444.95147  24257757.64147
 20  5 16  2  0 40.0000000  0  8G04G08G09G11G16G26G27G31             0.000470457
  21768732.234 6 114395455.025 6  89139341.51748  21768741.35248
  20561213.422 6 108049904.747 6  84194753.97849  20561222.82449
  22924825.070 5 120470766.436 5  93873362.83148  22924834.42248
  22780255.789 6 119711054.900 6  93281371.65547  22780264.08647
  21928956.977 6 115237475.729 6  89795430.84547  21928963.43047
  23445793.938 1 123208336.521 1  96006654.19145  23445806.32445
  20476854.672 7 107606714.586 7  83849288.03949  20476863.78149
  24258312.617 5 127478280.689 5  99333753.79347  24258321.51647
 20  5 16  2  0 41.0000000  0  8G04G08G09G11G16G26G27G31             0.000470591
  21769005.828 6 114396893.266 6  89140462.22948  21769014.66048
  20561094.258 6 108049279.403 6  84194266.70149  20561104.00849
  22924741.523 5 120470328.049 5  93873021.23548  22924750.61348
  22779681.977 6 119708039.693 6  93279022.15047  22779689.95747
  21929243.859 6 115238982.662 6  89796605.10248  21929250.34448
  23446162.695 1 123210279.168 1  96008167.96145  23446175.65245
  20477142.063 7 107608224.646 7  83850464.70849  20477151.37949
  24258876.742 5 127481244.025 5  99336062.88647  24258885.89847
 20  5 16  2  0 42.0000000  0  8G04G08G09G11G16G26G27G31             0.000470724
  21769279.789 6 114398332.244 6  89141583.50848  21769288.93848
  20560975.563 6 108048654.842 6  84193780.02849  20560985.02749
  22924657.555 5 120469890.508 5  93872680.29548  22924667.53548
  22779108.453 6 119705024.915 6  93276672.97147  22779116.09847
  21929530.797 6 115240489.852 6  89797779.54148  21929537.08648
  23446532.922 1 123212222.099 1  96009681.91445  23446545.06645
  20477429.805 7 107609735.428 7  83851641.94349  20477439.07849
  24259440.867 5 127484207.799 5  99338372.31047  24259449.77747
 20  5 16  2  0 43.0000000  0  8G04G08G09G11G16G26G27G31             0.000470858
  21769553.617 6 114399771.946 6  89142705.36148  21769562.60948
  20560857.000 7 108048031.011 7  84193293.92949  20560866.23049
  22924575.250 5 120469453.671 5  93872339.90648  22924584.54748
  22778534.758 6 119702010.486 6  93274324.05747  22778542.59847
  21929817.641 6 115241997.251 6  89798954.14048  21929823.80948
  23446902.523 1 123214165.251 1  96011196.03945  23446915.22345
  20477717.352 7 107611246.903 7  83852819.71549  20477726.35949
  24260004.781 5 127487171.997 5  99340682.06747  24260013.74247
 20  5 16  2  0 44.0000000  0  8G04G08G09G11G16G26G27G31             0.000470991
  21769827.227 6 114401212.242 6  89143827.66848  21769836.63748
  20560738.422 7 108047407.828 7  84192808.32849  20560748.12949
  22924491.586 5 120469017.521 5  93872000.04848  22924501.46948
  22777961.102 6 119698996.376 6  93271975.39947  22777968.68047
  21930104.688 6 115243504.769 6  89800128.83148  21930110.93448
  23447271.734 1 123216108.480 1  96012710.24645  23447284.82045
  20478005.047 7 107612758.982 7  83853997.95649  20478014.07049
  24260568.844 5 127490136.467 5  99342992.04547  24260577.61747
 20  5 16  2  0 45.0000000  0  8G04G08G09G11G16G26G27G31             0.000471125
  21770101.719 6 114402653.307 6  89144950.57048  21770110.72748
  20560619.594 7 108046785.435 7  84192323.34649  20560629.41849
  22924409.195 5 120468582.188 5  93871660.82348  22924418.85948
  22777387.523 6 119695982.689 6  93269627.07947  22777395.45347
  21930391.008 6 115245012.563 6  89801303.73448  21930397.71548
  23447641.133 1 123218051.965 1  96014224.65645  23447654.79345
  20478293.234 7 107614271.792 7  83855176.77149  20478302.03949
  24261132.961 5 127493101.434 5  99345302.40447  24261141.94547
 20  5 16  2  0 46.0000000  0  8G04G08G09G11G16G26G27G31             0.000471260
  21770376.156 6 114404095.256 6  89146074.16648  21770385.35948
  20560501.625 7 108046163.943 7  84191839.07249  20560511.11349
  22924326.500 5 120468147.770 5  93871322.31948  22924335.94548
  22776813.992 6 119692969.568 6  93267279.19847  22776821.66047
  21930678.430 6 115246520.758 6  89802478.94848  21930684.69148
  23448010.734 1 123219995.759 1  96015739.32545  23448024.44145
  20478580.883 7 107615785.503 7  83856356.28649  20478590.13349
  24261697.578 5 127496067.017 5  99347613.24547  24261706.44547
 20  5 16  2  0 47.0000000  0  8G04G08G09G11G16G26G27G31             0.000471394
  21770650.719 6 114405537.844 6  89147198.25648  21770659.51648
  20560383.234 7 108045543.137 7  84191355.32749  20560392.73849
  22924244.313 5 120467714.107 5  93870984.40149  22924253.54749
  22776241.109 6 119689956.753 6  93264931.54847  22776248.48047
  21930965.383 6 115248029.125 6  89803654.29147  21930971.75847
  23448381.477 1 123221939.740 1  96017254.10945  23448394.47345
  20478869.438 7 107617299.817 7  83857536.27149  20478878.49249
  24262262.109 5 127499032.913 5  99349924.33147  24262270.61747
 20  5 16  2  0 48.0000000  0  8G04G08G09G11G16G26G27G31             0.000471527
  21770925.844 6 114406981.156 6  89148322.91748  21770934.37148
  20560265.594 7 108044923.054 7  84190872.14149  20560275.19949
  22924161.375 5 120467281.169 5  93870647.04548  22924171.27048
  22775667.586 6 119686944.342 6  93262584.21747  22775675.45347
  21931252.227 6 115249537.698 6  89804829.80948  21931258.98448
  23448750.883 1                                
  20479157.625 7 107618814.810 7  83858716.78449  20479166.63749
  24262826.797 5 127501999.255 5  99352235.75147  24262835.68047
 20  5 16  2  0 49.0000000  0  8G04G08G09G11G16G26G27G31             0.000471663
  21771200.375 6 114408425.284 6  89149448.21248  21771209.44548
  20560147.563 7 108044303.812 7  84190389.61749  20560157.25449
  22924079.391 5 120466849.094 5  93870310.36248  22924088.57848
  22775094.953 6 119683932.413 6  93260237.26047  22775102.53147
  21931539.508 6 115251046.604 6  89806005.57247  21931545.94947
  23449120.469 1 123225828.28311  96020284.14255  23449134.33645
  20479445.844 7 107620330.629 7  83859897.93849  20479455.18449
  24263391.031 5 127504966.134 5  99354547.60547  24263400.32047
 20  5 16  2  0 50.0000000  0  8G04G08G09G11G16G26G27G31             0.000471796
  21771475.484 6 114409870.252 6  89150574.15548  21771484.40648
  20560030.250 7 108043685.472 7  84189907.79549  20560039.38349
  22923997.891 5 120466417.939 5  93869974.40448  22924007.13348
  22774521.703 6 119680920.953 6  93257890.66847  22774529.11347
  21931826.805 6 115252555.850 6  89807181.61148  21931833.26648
  23449492.063 1 123227773.097 1  96021799.53345  23449504.40645
  20479734.633 7 107621847.253 7  83861079.72749  20479743.74649
  24263955.813 5 127507933.492 5  99356859.82747  24263964.75847
 20  5 16  2  0 51.0000000  0  8G04G08G09G11G16G26G27G31             0.000471931
  21771750.781 6 114411315.981 6  89151700.70248  21771759.13348
  20559912.398 7 108043067.914 7  84189426.58349  20559921.94549
  22923916.063 5 120465987.624 5  93869639.09148  22923925.23848
  22773948.727 6 119677910.045 6  93255544.50147  22773956.06647
  21932113.539 6 115254065.378 6  89808357.86748  21932120.35248
  23449862.625 1 123229718.134 1  96023315.15345  23449874.73045
  20480023.297 7 107623364.652 7  83862262.11749  20480032.43449
  24264520.391 5 127510901.370 5  99359172.45347  24264529.41047
 20  5 16  2  0 52.0000000  0  8G04G08G09G11G16G26G27G31             0.000472067
  21772026.180 6 114412762.430 6  89152827.80548  21772034.38348
  20559795.094 7 108042451.079 7  84188945.93049  20559804.58249
  22923833.602 5 120465558.043 5  93869304.35248  22923843.28548
  22773375.398 6 119674899.433 6  93253198.56447  22773383.16447
  21932401.508 6 115255575.125 6  89809534.29247  21932407.76647
  23450232.938 1 123231663.269 1  96024830.76645  23450244.92645
  20480312.328 7 107624882.699 7  83863445.00849  20480321.31349
  24265085.625 5 127513869.646 5  99361485.39647  24265094.21947
 20  5 16  2  0 53.0000000  0  8G04G08G09G11G16G26G27G31             0.000472202
  21772301.094 6 114414209.620 6  89153955.47948  21772309.74248
  20559677.930 7 108041835.041 7  84188465.89649  20559687.57049
  22923752.180 5 120465129.282 5  93868970.25948  22923761.53148
  22772802.797 6 119671889.257 6  93250852.97447  22772810.45347
  21932688.617 6 115257085.151 6  89810710.93547  21932695.22747
  23450602.633 1 123233608.747 1  96026346.77745  23450615.09045
  20480601.273 7 107626401.514 7  83864628.50149  20480610.22749
  24265650.422 5 127516838.366 5  99363798.68247  24265659.16447
 20  5 16  2  0 54.0000000  0  8G04G08G09G11G16G26G27G31             0.000472336
  21772576.648 6 114415657.644 6  89155083.81348  21772585.33248
  20559560.555 6 108041219.846 6  84187986.52349  20559570.29749
  22923670.453 5 120464701.408 5  93868636.84648  22923680.29748
  22772230.000 6 119668879.635 6  93248507.81347  22772237.57847
  21932975.938 6 115258595.505 6  89811887.83047  21932982.53547
  23450973.148 1 123235554.494 1  96027862.96645  23450984.78545
  20480890.508 7 107627921.140 7  83865812.62149  20480899.05949
  24266215.828 5 127519807.635 5  99366112.39647  24266223.94947
 20  5 16  2  0 55.0000000  0  8G04G08G09G11G16G26G27G31             0.000472471
  21772852.070 6 114417106.382 6  89156212.69948  21772860.87148
  20559443.734 6 108040605.409 6  84187507.74049  20559453.16049
  22923589.836 5 120464274.321 5  93868304.05448  22923598.96548
  22771657.438 6 119665870.368 6  93246162.93747  22771665.25047
  21933263.750 6 115260106.104 6  89813064.92148  21933270.17248
  23451343.117 1 123237500.465 1  96029379.31145  23451354.81345
  20481180.203 7 107629441.467 7  83866997.29249  20481188.90649
  24266780.352 5 127522777.361 5  99368426.46547  24266789.02347
 20  5 16  2  0 56.0000000  0  8G04G08G09G11G16G26G27G31             0.000472607
  21773128.250 6 114418555.830 6  89157342.13848  21773136.73048
  20559326.922 6 108039991.682 6  84187029.50949  20559336.66849
  22923508.242 5 120463847.959 5  93867971.82348  22923517.90648
  22771085.063 6 119662861.517 6  93243818.37247  22771092.43447
  21933551.195 6 115261616.915 6  89814242.17748  21933557.23448
  23451713.820 1 123239446.573 1  96030895.79345  23451725.57445
  20481469.227 7 107630962.487 7  83868182.50749  20481478.30549
  24267345.797 5 127525747.449 5  99370740.81347  24267354.08247
 20  5 16  2  0 57.0000000  0  8G04G08G09G11G16G26G27G31             0.000472744
  21773403.852 6 114420005.948 6  89158472.10448  21773412.82848
  20559210.398 7 108039378.661 7  84186551.83649  20559219.63749
  22923426.992 5 120463422.330 5  93867640.17148  22923436.68848
  22770512.273 6 119659852.976 6  93241474.05847  22770520.31347
  21933838.383 6 115263127.884 6  89815419.55347  21933844.84047
  23452084.648 1 123241392.854 1  96032412.37245  23452095.99245
  20481758.813 7 107632484.133 7  83869368.20649  20481767.56349
  24267911.414 5 127528717.932 5  99373055.47247  24267919.19147
 20  5 16  2  0 58.0000000  0  8G04G08G09G11G16G26G27G31             0.000472879
  21773679.719 6 114421456.718 6  89159602.56848  21773688.57448
  20559093.961 7 108038766.333 7  84186074.69949  20559103.62949
  22923346.070 5 120462997.434 5  93867309.08548  22923356.03548
  22769940.070 6 119656844.794 6  93239130.02147  22769947.46547
  21934126.445 6 115264639.023 6  89816597.05848  21934132.59048
  23452454.797 1 123243339.313 1  96033929.02945  23452466.49245
  20482048.555 7 107634006.419 7  83870554.39749  20482057.75049
  24268476.141 5 127531688.735 5  99375370.38747  24268484.68447
 20  5 16  2  0 59.0000000  0  8G04G08G09G11G16G26G27G31             0.000473015
  21773956.281 6 114422908.251 6  89160733.63748  21773964.74248
  20558977.539 7 108038154.811 7  84185598.18249  20558987.07449
  22923265.633 5 120462573.352 5  93866978.63048  22923275.19548
  22769367.961 6 119653837.040 6  93236786.31547  22769375.34847
  21934413.945 6 115266150.459 6  89817774.80447  21934420.43047
  23452825.391 1 123245285.912 1  96035445.83945  23452836.38345
  20482338.234 7 107635529.473 7  83871741.19149  20482347.50049
  24269042.008 5 127534660.071 5  99377685.70847  24269050.58247
 20  5 16  2  1  0.0000000  0  8G04G08G09G11G16G26G27G31             0.000473150
  21774232.758 6 114424360.639 6  89161865.36048  21774241.43848
  20558861.195 6 108037544.138 6  84185122.33449  20558870.67649
  22923184.883 5 120462150.150 5  93866648.86748  22923194.71548
  22768795.281 6 119650829.817 6  93234443.01747  22768802.83247
  21934701.383 6 115267662.225 6  89818952.79948  21934707.92648
  23453196.039 1 123247232.944 1  96036962.97744  23453207.32444
  20482628.469 7 107637053.354 7  83872928.63549  20482637.32049
  24269607.211 5 127537631.909 5  99380001.42247  24269615.47747
 20  5 16  2  1  1.0000000  0  8G04G08G09G11G16G26G27G31             0.000473286
  21774509.102 6 114425813.752 6  89162997.66048  21774518.10948
  20558745.234 6 108036934.217 6  84184647.07549  20558754.22749
  22923104.586 5 120461727.770 5  93866319.73848  22923114.40248
  22768223.828 6 119647822.978 6  93232100.03147  22768231.14147
  21934989.219 6 115269174.236 6  89820130.99448  21934995.47348
  23453565.125 1 123249180.187 1  96038480.33644  23453577.93444
  20482918.594 7 107638577.920 7  83874116.60649  20482927.25049
  24270173.133 5 127540604.169 5  99382317.46947  24270181.28947
 20  5 16  2  1  2.0000000  0  8G04G08G09G11G16G26G27G31             0.000473423
  21774786.148 6 114427267.557 6  89164130.49448  21774794.19948
  20558629.047 7 108036325.040 7  84184172.39049  20558638.63749
  22923024.461 5 120461306.124 5  93865991.18448  22923034.08248
  22767651.234 6 119644816.534 6  93229757.34947  22767658.62147
  21935277.172 6 115270686.467 6  89821309.35248  21935283.76648
  23453936.711 1 123251127.528 1  96039997.73845  23453948.23045
  20483208.711 7 107640103.187 7  83875305.12949  20483217.96149
  24270738.383 5 127543576.871 5  99384633.86547  24270747.15247
 20  5 16  2  1  3.0000000  0  8G04G08G09G11G16G26G27G31             0.000473558
  21775062.875 6 114428722.094 6  89165263.89748  21775071.01248
  20558513.328 7 108035716.640 7  84183698.30949  20558522.77749
  22922944.141 5 120460885.296 5  93865663.26448  22922953.73048
  22767079.789 6 119641810.519 6  93227414.99847  22767086.87947
  21935565.023 6 115272198.964 6  89822487.92247  21935571.10247
  23454308.820 1 123253075.192 1  96041515.42245  23454319.16845
  20483499.086 7 107641629.191 7  83876494.21949  20483508.39149
  24271304.531 5 127546550.034 5  99386950.60947  24271312.53147
 20  5 16  2  1  4.0000000  0  8G04G08G09G11G16G26G27G31             0.000473696
  21775339.711 6 114430177.372 6  89166397.87948  21775347.91448
  20558397.547 7 108035108.977 7  84183224.80849  20558407.23449
  22922864.117 5 120460465.222 5  93865335.93448  22922873.84848
  22766507.711 6 119638804.883 6  93225072.94447  22766514.81347
  21935852.586 6 115273711.674 6  89823666.66048  21935858.89148
  23454677.734 1 123255023.042 1  96043033.25845  23454689.74245
  20483789.719 7 107643155.873 7  83877683.84449  20483798.65249
  24271870.578 5 127549523.583 5  99389267.65847  24271878.82047
 20  5 16  2  1  5.0000000  0  8G04G08G09G11G16G26G27G31             0.000473831
  21775617.039 6 114431633.272 6  89167532.34648  21775625.19148
  20558282.164 7 108034501.983 7  84182751.82849  20558291.69149
  22922785.484 5 120460045.832 5  93865009.13748  22922794.19948
  22765935.867 6 119635799.570 6  93222731.14347  22765943.02747
  21936140.430 6 115275224.535 6  89824845.51248  21936146.51248
  23455048.281 1 123256970.928 1  96044551.07845  23455060.78945
  20484080.453 7 107644683.166 7  83878873.94649  20484089.18449
  24272435.883 5 127552497.461 5  99391584.96247  24272444.48847
 20  5 16  2  1  6.0000000  0  8G04G08G09G11G16G26G27G31             0.000473969
  21775894.117 6 114433089.865 6  89168667.35048  21775902.42248
  20558167.094 7 108033895.691 7  84182279.39449  20558176.09049
  22922705.359 5 120459627.211 5  93864682.94348  22922714.49248
  22765363.414 6 119632794.617 6  93220389.62047  22765370.79347
  21936428.273 6 115276737.587 6  89826024.51748  21936434.80148
  23455418.984 1 123258919.022 1  96046069.06945  23455431.12545
  20484370.977 7 107646211.152 7  83880064.57849  20484379.78949
  24273002.063 5 127555471.742 5  99393902.58347  24273010.36747
 20  5 16  2  1  7.0000000  0  8G04G08G09G11G16G26G27G31             0.000474106
  21776171.320 6 114434547.170 6  89169802.91148  21776179.81348
  20558051.500 7 108033290.144 7  84181807.53249  20558060.87149
  22922625.203 5 120459209.327 5  93864357.31548  22922634.73048
  22764792.188 6 119629790.060 6  93218048.40547  22764799.26647
  21936716.531 6 115278250.859 6  89827203.69047  21936722.82047
  23455790.922 1 123260867.320 1  96047587.21645  23455802.05545
  20484662.008 7 107647739.816 7  83881255.74649  20484671.13749
  24273568.305 5 127558446.459 5  99396220.53947  24273576.29347
 20  5 16  2  1  8.0000000  0  8G04G08G09G11G16G26G27G31             0.000474241
  21776448.688 6 114436005.313 6  89170939.12948  21776457.35948
  20557936.695 7 108032685.468 7  84181336.36449  20557946.08649
  22922546.172 5 120458792.361 5  93864032.40649  22922555.43049
  22764220.328 6 119626786.006 6  93215707.58347  22764227.51247
  21937004.406 6 115279764.507 6  89828383.15148  21937011.05548
  23456161.281 1 123262815.985 1  96049105.64745  23456172.87545
  20484952.883 7 107649269.322 7  83882447.56949  20484962.25449
  24274134.063 5 127561421.700 5  99398538.90447  24274142.27747
 20  5 16  2  1  9.0000000  0  8G04G08G09G11G16G26G27G31             0.000474379
  21776726.273 6 114437464.190 6  89172075.91248  21776734.64148
  20557821.836 7 108032081.545 7  84180865.76949  20557831.19949
  22922467.078 5 120458376.214 5  93863708.13649  22922476.46949
  22763648.789 6 119623782.390 6  93213367.10447  22763655.93847
  21937292.461 6 115281278.389 6  89829562.79948  21937299.02348
  23456532.469 1 123264764.832 1  96050624.26445  23456543.93845
  20485244.141 7 107650799.528 7  83883639.94449  20485253.10949
  24274700.391 5 127564397.399 5  99400857.63047  24274708.31347
 20  5 16  2  1 10.0000000  0  8G04G08G09G11G16G26G27G31             0.000474516
  21777004.023 6 114438923.710 6  89173213.20248  21777012.48448
  20557706.672 7 108031478.284 7  84180395.69549  20557716.16849
  22922387.984 5 120457960.708 5  93863384.36149  22922397.19549
  22763077.102 6 119620779.089 6  93211026.87447  22763084.34847
  21937580.742 6 115282792.427 6  89830742.56747  21937587.03147
  23456903.359 1 123266713.716 1  96052142.87445  23456914.53545
  20485535.250 7 107652330.361 7  83884832.79649  20485544.23449
  24275266.414 5 127567373.434 5  99403176.60947  24275275.13347
 20  5 16  2  1 11.0000000  0  8G04G08G09G11G16G26G27G31             0.000474653
  21777282.008 6 114440383.893 6  89174351.00648  21777290.47348
  20557592.352 7 108030875.732 7  84179926.18149  20557601.74649
  22922309.086 5 120457545.940 5  93863061.16849  22922318.26649
  22762505.664 6 119617776.133 6  93208686.90847  22762512.79747
  21937868.875 6 115284306.642 6  89831922.47648  21937874.71948
  23457274.141 1 123268662.880 1  96053661.74445  23457285.37145
  20485826.961 7 107653861.849 7  83886026.16149  20485836.12949
  24275832.539 5 127570349.878 5  99405495.91247  24275841.48447
 20  5 16  2  1 12.0000000  0  8G04G08G09G11G16G26G27G31             0.000474791
  21777559.781 6 114441844.836 6  89175489.40048  21777568.24248
  20557477.375 6 108030273.947 6  84179457.25549  20557487.21949
  22922229.867 5 120457132.004 5  93862738.62049  22922239.60249
  22761934.383 6 119614773.608 6  93206347.28547  22761941.40647
  21938156.891 6 115285821.119 6  89833102.58648  21938163.15648
  23457645.641 1 123270612.243 1  96055180.67345  23457656.34045
  20486118.570 7 107655394.045 7  83887220.07949  20486127.60949
  24276399.492 5 127573326.729 5  99407815.54147  24276407.86347
 20  5 16  2  1 13.0000000  0  8G04G08G09G11G16G26G27G31             0.000474928
  21777837.688 6 114443306.464 6  89176628.33748  21777846.52748
  20557363.102 6 108029672.930 6  84178988.93349  20557372.76649
  22922151.984 5 120456718.816 5  93862416.65848  22922160.91448
  22761363.461 6 119611771.422 6  93204007.92047  22761370.15247
  21938445.281 6 115287335.825 6  89834282.87448  21938451.44548
  23458017.180 1 123272561.783 1  96056699.76845  23458027.41045
  20486410.141 7 107656926.940 7  83888414.54849  20486419.25449
  24276966.484 5 127576304.004 5  99410135.48647  24276974.19947
 20  5 16  2  1 14.0000000  0  8G04G08G09G11G16G26G27G31             0.000475067
  21778116.133 6 114444768.844 6  89177767.85448  21778124.91048
  20557248.961 6 108029072.657 6  84178521.19149  20557258.75449
  22922072.961 5 120456306.440 5  93862095.32849  22922082.40249
  22760792.180 6 119608769.724 6  93201668.93447  22760798.84047
  21938733.547 6 115288850.772 6  89835463.35147  21938740.07047
  23458387.758 1 123274511.572 1  96058219.08145  23458398.51645
  20486702.461 7 107658460.589 7  83889609.59749  20486710.83649
  24277533.094 5 127579281.713 5  99412455.78147  24277540.78947
 20  5 16  2  1 15.0000000  0  8G04G08G09G11G16G26G27G31             0.000475204
  21778394.313 6 114446232.045 6  89178908.00648  21778403.41848
  20557135.141 7 108028473.234 7  84178054.10649  20557144.39149
  22921994.875 5 120455894.915 5  93861774.65849  22922003.89849
  22760221.695 6 119605768.523 6  93199330.33147  22760228.14547
  21939021.695 6 115290366.053 6  89836644.09347  21939028.34447
  23458758.766 1 123276461.574 1  96059738.53645  23458769.99245
  20486993.922 7 107659994.990 7  83890805.23549  20487003.37149
  24278099.859 5 127582259.959 5  99414776.48347  24278107.57847
 20  5 16  2  1 16.0000000  0  8G04G08G09G11G16G26G27G31             0.000475342
  21778672.906 6 114447695.812 6  89180048.60448  21778681.60548
  20557021.141 7 108027874.415 7  84177587.49749  20557030.74249
  22921916.375 5 120455484.027 5  93861454.48448  22921926.07448
  22759649.945 6 119602767.539 6  93196991.90047  22759657.16047
  21939310.414 6 115291881.431 6  89837824.90247  21939316.86747
  23459129.148 1 123278411.763 1  96061258.16345  23459140.72745
  20487285.984 7 107661529.973 7  83892001.32849  20487295.09849
  24278666.445 5 127585238.469 5  99417097.39546  24278674.54746
 20  5 16  2  1 17.0000000  0  8G04G08G09G11G16G26G27G31             0.000475479
  21778951.555 6 114449160.299 6  89181189.76148  21778960.66048
  20556907.227 7 108027276.348 7  84177121.47049  20556916.64149
  22921838.602 5 120455073.913 5  93861134.91849  22921848.21549
  22759079.547 6 119599766.965 6  93194653.78747  22759085.80547
  21939598.734 6 115293397.027 6  89839005.88748  21939605.21948
  23459500.625 1 123280362.073 1  96062777.92845  23459512.02745
  20487578.195 7 107663065.647 7  83893197.95749  20487587.37549
  24279233.594 4 127588217.395 4  99419418.63447  24279240.96547
 20  5 16  2  1 18.0000000  0  8G04G08G09G11G16G26G27G31             0.000475618
  21779230.695 6 114450625.475 6  89182331.45548  21779239.36348
  20556793.938 7 108026679.011 7  84176656.00949  20556803.33649
  22921760.969 5 120454664.541 5  93860815.92449  22921769.93449
  22758507.891 6 119596766.756 6  93192315.96547  22758515.35547
  21939887.117 6 115294912.828 6  89840187.03048  21939893.64148
  23459872.008 1 123282312.555 1  96064297.80345  23459883.23445
  20487870.828 7 107664601.993 7  83894395.10749  20487879.67249
  24279800.445 4 127591196.723 4  99421740.18747  24279808.05147
 20  5 16  2  1 19.0000000  0  8G04G08G09G11G16G26G27G31             0.000475756
  21779509.578 6 114452091.455 6  89183473.77648  21779517.95348
  20556679.977 7 108026082.472 7  84176191.17349  20556689.26249
  22921683.070 5 120454256.026 5  93860497.59948  22921692.33248
  22757937.695 6 119593767.014 6  93189978.51347  22757944.88747
  21940175.766 6 115296428.923 6  89841368.39547  21940182.05947
  23460243.305 1 123284263.290 1  96065817.85745  23460254.35545
  20488163.328 7 107666139.106 7  83895592.86249  20488172.03149
  24280366.813 5 127594176.568 5  99424062.14047  24280374.73847
 20  5 16  2  1 20.0000000  0  8G04G08G09G11G16G26G27G31             0.000475895
  21779788.727 6 114453558.162 6  89184616.66048  21779797.30548
  20556566.836 6 108025486.699 6  84175726.94049  20556576.25049
  22921605.328 5 120453848.320 5  93860179.91149  22921614.85949
  22757366.289 6 119590767.706 6  93187641.38447  22757373.53147
  21940463.922 6 115297945.284 6  89842549.97148  21940470.32848
  23460613.820 1 123286214.313 1  96067338.20745  23460625.51645
  20488455.906 7 107667676.964 7  83896791.18949  20488464.89849
  24280934.328 4 127597156.850 4  99426384.43547  24280942.28147
 20  5 16  2  1 21.0000000  0  8G04G08G09G11G16G26G27G31             0.000476032
  21780067.531 6 114455025.560 6  89185760.08448  21780076.69548
  20556453.359 7 108024891.642 7  84175263.25349  20556462.74649
  22921527.641 5 120453441.352 5  93859862.79249  22921537.13349
  22756796.039 6 119587768.788 6  93185304.56447  22756802.86347
  21940752.617 6 115299461.841 6  89843731.70648  21940758.89848
  23460985.289 1 123288165.502 1  96068858.58245  23460996.39845
  20488748.125 7 107669215.479 7  83897990.03249  20488757.39849
  24281501.414 5 127600137.528 5  99428707.03747  24281509.57447
 20  5 16  2  1 22.0000000  0  8G04G08G09G11G16G26G27G31             0.000476171
  21780346.883 6 114456493.735 6  89186904.12348  21780355.81348
  20556340.016 7 108024297.397 7  84174800.20549  20556350.14849
  22921451.063 5 120453035.193 5  93859546.30549  22921460.18849
  22756225.578 6 119584770.306 6  93182968.08847  22756232.46947
  21941041.086 6 115300978.693 6  89844913.67148  21941047.79748
  23461357.094 1 123290116.945 1  96070379.14045  23461367.91045
  20489041.500 7 107670754.767 7  83899189.47849  20489051.10949
  24282068.617 5 127603118.683 5  99431030.01747  24282076.36747
 20  5 16  2  1 23.0000000  0  8G04G08G09G11G16G26G27G31             0.000476311
  21780626.906 6 114457962.659 6  89188048.73148  21780635.55148
  20556227.180 7 108023703.935 7  84174337.76949  20556237.02749
  22921373.977 5 120452629.870 5  93859230.47149  22921383.18049
  22755654.875 6 119581772.262 6  93180631.94247  22755661.64147
  21941330.008 6 115302495.801 6  89846095.83148  21941336.33248
  23461727.500 1 123292068.548 1  96071899.83445  23461739.54745
  20489334.469 7 107672294.785 7  83900389.49649  20489343.41849
  24282636.297 5 127606100.318 5  99433353.36647  24282643.90247
 20  5 16  2  1 24.0000000  0  8G04G08G09G11G16G26G27G31             0.000476448
  21780906.328 6 114459432.146 6  89189193.79148  21780915.12148
  20556114.539 7 108023111.039 7  84173875.77249  20556124.75049
  22921295.984 5 120452225.154 5  93858915.11049  22921305.99649
  22755084.117 6 119578774.432 6  93178295.97847  22755091.35947
  21941618.867 6 115304012.975 6  89847278.04348  21941625.23848
  23462098.680 1 123294020.291 1  96073420.58045  23462110.72745
  20489627.609 7 107673835.312 7  83901589.90349  20489636.69549
  24283203.711 5 127609082.219 5  99435676.92947  24283211.10247
 20  5 16  2  1 25.0000000  0  8G04G08G09G11G16G26G27G31             0.000476587
  21781186.117 6 114460902.505 6  89190339.52248  21781194.47748
  20556001.727 7 108022519.014 7  84173414.45349  20556011.32849
  22921219.555 5 120451821.343 5  93858600.44749  22921229.46949
  22754513.883 6 119575777.156 6  93175960.43347  22754520.90247
  21941907.055 6 115305530.526 6  89848460.55047  21941913.81347
  23462470.508 1 123295972.309 1  96074941.67245  23462482.08645
  20489920.883 7 107675376.701 7  83902790.98849  20489929.91449
  24283771.688 4 127612064.653 4  99438000.88347  24283778.94547
 20  5 16  2  1 26.0000000  0  8G04G08G09G11G16G26G27G31             0.000476727
  21781466.453 6 114462373.581 6  89191485.81348  21781475.14848
  20555889.445 7 108021927.779 7  84172953.75349  20555899.28549
  22921142.992 5 120451418.384 5  93858286.44849  22921152.25849
  22753943.898 6 119572780.337 6  93173625.25547  22753951.15247
  21942196.031 6 115307048.342 6  89849643.26148  21942202.36348
  23462841.398 1 123297924.574 1  96076462.99645  23462853.85545
  20490214.492 7 107676918.843 7  83903992.65349  20490223.48849
  24284339.125 4 127615047.501 4  99440325.18247  24284346.12147
 20  5 16  2  1 27.0000000  0  8G04G08G09G11G16G26G27G31             0.000476866
  21781746.516 6 114463845.438 6  89192632.71348  21781755.23848
  20555777.063 7 108021337.349 7  84172493.67949  20555786.78149
  22921066.297 5 120451016.209 5  93857973.07049  22921075.77049
  22753373.430 6 119569783.933 6  93171290.39647  22753380.30147
  21942485.031 6 115308566.426 6  89850826.18147  21942491.58247
  23463213.422 1 123299877.157 1  96077984.50045  23463225.17645
  20490507.906 7 107678461.700 7  83905194.87849  20490517.23849
  24284906.820 4 127618030.852 4  99442649.86447  24284913.97347
 20  5 16  2  1 28.0000000  0  8G04G08G09G11G16G26G27G31             0.000477005
  21782026.563 6 114465318.051 6  89193780.19948  21782035.27748
  20555664.719 7 108020747.731 7  84172034.23749  20555674.75449
  22920990.242 5 120450614.853 5  93857660.32248  22920999.31348
  22752803.258 6 119566787.976 6  93168955.88947  22752810.44147
  21942774.313 6 115310084.785 6  89852009.31647  21942780.66047
  23463584.828 1 123301829.875 1  96079506.12745  23463596.93445
  20490801.867 7 107680005.296 7  83906397.67749  20490810.74649
  24285474.461 4 127621014.673 4  99444974.92147  24285481.76647
 20  5 16  2  1 29.0000000  0  8G04G08G09G11G16G26G27G31             0.000477144
  21782306.672 6 114466791.285 6  89194928.17348  21782315.83648
  20555552.789 7 108020158.769 7  84171575.30349  20555562.36749
  22920913.430 5 120450214.196 5  93857348.12449  22920923.50449
  22752233.594 6 119563792.333 6  93166621.62047  22752240.05947
  21943063.156 6 115311603.320 6  89853192.59047  21943069.58247
  23463955.969 1 123303782.790 1  96081027.88445  23463968.36745
  20491095.625 7 107681549.517 7  83907600.96749  20491104.41849
  24286042.766 4 127623998.821 4  99447300.23346  24286049.62146
 20  5 16  2  1 30.0000000  0  8G04G08G09G11G16G26G27G31             0.000477283
  21782587.016 6 114468265.236 6  89196076.70548  21782596.35948
  20555440.609 7 108019570.544 7  84171116.94849  20555450.55949
  22920838.086 5 120449814.274 5  93857036.49949  22920847.18449
  22751663.578 6 119560797.059 6  93164287.64547  22751670.35947
  21943351.828 6 115313122.047 6  89854376.01147  21943358.32847
  23464327.359 1 123305735.902 1  96082549.77245  23464340.05145
  20491389.563 7 107683094.423 7  83908804.79349  20491398.87149
  24286610.898 4 127626983.385 4  99449625.86447  24286617.50847
 20  5 16  2  1 31.0000000  0  8G04G08G09G11G16G26G27G31             0.000477423
  21782867.523 6 114469739.815 6  89197225.73148  21782876.75048
  20555328.883 7 108018982.952 7  84170659.08749  20555338.57049
  22920761.789 5 120449415.072 5  93856725.43349  22920771.20349
  22751093.453 6 119557802.110 6  93161953.91347  22751100.42247
  21943641.195 6 115314640.911 6  89855559.54047  21943647.41447
  23464699.695 1 123307689.063 1  96084071.67245  23464711.21545
  20491683.844 7 107684639.933 7  83910009.08949  20491692.96549
  24287178.523 5 127629968.277 5  99451951.74347  24287185.37947
 20  5 16  2  1 32.0000000  0  8G04G08G09G11G16G26G27G31             0.000477564
  21783148.656 6 114471215.204 6  89198375.38348  21783157.44148
  20555217.336 7 108018396.247 7  84170201.91049  20555227.28549
  22920685.430 5 120449016.748 5  93856415.05249  22920695.28149
  22750523.719 6 119554807.683 6  93159620.59047  22750530.97347
  21943930.344 6 115316160.148 6  89856743.36148  21943936.94548
  23465071.828 1 123309642.487 1  96085593.82345  23465083.40645
  20491977.883 7 107686186.276 7  83911214.03249  20491986.91449
  24287746.375 5 127632953.729 5  99454278.06746  24287753.56346
 20  5 16  2  1 33.0000000  0  8G04G08G09G11G16G26G27G31             0.000477703
  21783429.828 6 114472691.366 6  89199525.64148  21783438.55148
  20555105.719 7 108017810.295 7  84169745.32349  20555115.70749
  22920610.813 5 120448619.228 5  93856105.29449  22920619.72349
  22749953.844 6 119551813.655 6  93157287.58147  22749960.83647
  21944219.375 6 115317679.603 6  89857927.35348  21944225.95748
  23465443.688 1                                
  20492272.328 7 107687733.307 7  83912419.51349  20492281.55149
  24288314.836 5 127635939.602 5  99456604.71446  24288321.98446
 20  5 16  2  1 34.0000000  0  8G04G08G09G11G16G26G27G31             0.000477842
  21783710.641 6 114474168.211 6  89200676.42748  21783719.67648
  20554994.547 7 108017225.050 7  84169289.29449  20555004.32849
  22920534.836 5 120448222.448 5  93855796.11149  22920544.50449
  22749384.258 6 119548820.005 6  93154954.87247  22749391.34447
  21944508.859 6 115319199.294 6  89859111.52947  21944514.93847
  23465816.109 1                                
  20492566.820 7 107689281.037 7  83913625.53049  20492576.01649
  24288883.336 5 127638925.884 5  99458931.68346  24288890.11346
 20  5 16  2  1 35.0000000  0  8G04G08G09G11G16G26G27G31             0.000477983
  21783991.703 6 114475645.659 6  89201827.68348  21784000.95348
  20554883.273 7 108016640.469 7  84168833.77149  20554893.40249
  22920459.555 5 120447826.362 5  93855487.47449  22920468.96949
  22748814.266 6 119545826.680 6  93152622.42247  22748821.79347
  21944797.609 6 115320719.112 6  89860295.80447  21944804.30147
  23466188.250 1                                
  20492861.703 7 107690829.370 7  83914832.03149  20492870.45349
  24289451.367 5 127641912.488 5  99461258.89746  24289458.00846
 20  5 16  2  1 36.0000000  0  8G04G08G09G11G16G26G27G31             0.000478123
  21784273.141 6 114477123.887 6  89202979.54648  21784282.08248
  20554772.188 7 108016056.662 7  84168378.86049  20554782.01249
  22920384.148 5 120447431.074 5  93855179.45749  22920394.08249
  22748244.891 6 119542833.775 6  93150290.28747  22748252.53947
  21945087.219 6 115322239.172 6  89861480.26848  21945093.34448
  23466558.789 1                                
  20493156.453 7 107692378.419 7  83916039.07649  20493165.23849
  24290019.836 5 127644899.544 5  99463586.47347  24290026.57847
 20  5 16  2  1 37.0000000  0  8G04G08G09G11G16G26G27G31             0.000478264
  21784554.398 6 114478602.723 6  89204131.89048  21784563.73848
  20554660.984 7 108015473.526 7  84167924.47149  20554670.95349
  22920309.023 5 120447036.487 5  93854871.98249  22920318.42649
  22747675.234 6 119539841.210 6  93147958.41247  22747682.80547
  21945376.336 6 115323759.397 6  89862664.85347  21945382.68447
  23466930.820 1 123319412.81611  96093207.05055  23466942.45745
  20493451.352 7 107693928.116 7  83917246.63549  20493460.59849
  24290588.367 5 127647886.952 5  99465914.31847  24290594.96547
 20  5 16  2  1 38.0000000  0  8G04G08G09G11G16G26G27G31             0.000478403
  21784835.828 6 114480082.359 6  89205284.85048  21784845.13748
  20554550.211 7 108014891.217 7  84167470.72249  20554560.27349
  22920234.195 5 120446642.728 5  93854565.15949  22920243.98049
  22747106.078 6 119536849.082 6  93145626.89147  22747113.74647
  21945665.766 6 115325279.896 6  89863849.65947  21945672.32047
  23467302.852 1 123321367.434 1  96094730.15245  23467314.60545
  20493746.164 7 107695478.543 7  83918454.76149  20493755.29749
  24291156.961 5 127650874.859 5  99468242.55246  24291163.32446
 20  5 16  2  1 39.0000000  0  8G04G08G09G11G16G26G27G31             0.000478544
  21785117.820 6 114481562.675 6  89206438.33848  21785127.01248
  20554439.555 7 108014309.631 7  84167017.53949  20554449.61349
  22920159.594 5 120446249.733 5  93854258.93049  22920169.01649
  22746536.906 6 119533857.367 6  93143295.68547  22746543.92647
  21945955.305 6 115326800.639 6  89865034.65048  21945961.64548
  23467674.844 1 123323322.304 1  96096253.42645  23467686.24645
  20494041.258 7 107697029.656 7  83919663.42349  20494050.66049
  24291725.148 5 127653863.128 5  99470571.06447  24291732.31647
 20  5 16  2  1 40.0000000  0  8G04G08G09G11G16G26G27G31             0.000478685
  21785399.422 6 114483043.711 6  89207592.39448  21785408.74248
  20554328.680 7 108013728.797 7  84166564.93849  20554338.84849
  22920084.648 5 120445857.522 5  93853953.30849  22920094.23049
  22745967.211 6 119530866.052 6  93140964.78847  22745974.37947
  21946244.281 6 115328321.613 6  89866219.82647  21946250.89847
  23468048.086 1 123325277.359 1  96097776.79545  23468058.72745
  20494336.969 7 107698581.499 7  83920872.65049  20494345.85549
  24292294.188 5 127656851.892 5  99472899.97346  24292300.90646
 20  5 16  2  1 41.0000000  0  8G04G08G09G11G16G26G27G31             0.000478827
  21785681.859 6 114484525.383 6  89208746.94748  21785690.89148
  20554218.672 7 108013148.634 7  84166112.86449  20554228.74249
  22920010.172 5 120445465.979 5  93853648.20949  22920019.81649
  22745397.547 6 119527875.034 6  93138634.12448  22745405.33648
  21946533.805 6 115329842.728 6  89867405.11347  21946540.44147
  23468420.602 1 123327232.499 1  96099300.28545  23468430.77045
  20494632.141 7 107700133.938 7  83922082.34149  20494641.39149
  24292862.734 5 127659840.925 5  99475229.08546  24292869.81346
 20  5 16  2  1 42.0000000  0  8G04G08G09G11G16G26G27G31             0.000478966
  21785963.867 6 114486007.848 6  89209902.11748  21785973.23048
  20554108.242 7 108012569.268 7  84165661.41049  20554117.94149
  22919935.844 5 120445075.299 5  93853343.78449  22919945.65649
  22744828.773 6 119524884.490 6  93136303.83147  22744836.24247
  21946823.242 6 115331364.126 6  89868590.61847  21946829.73847
  23468791.867 1 123329187.886 1  96100823.99245  23468802.77745
  20494927.586 7 107701687.145 7  83923292.63449  20494936.75449
  24293431.547 5 127662830.489 5  99477558.60347  24293438.93047
 20  5 16  2  1 43.0000000  0  8G04G08G09G11G16G26G27G31             0.000479107
  21786246.031 6 114487491.030 6  89211057.84748  21786255.05948
  20553998.164 7 108011990.699 7  84165210.57449  20554008.07849
  22919861.906 5 120444685.432 5  93853039.98949  22919871.54749
  22744259.945 6 119521894.372 6  93133973.87247  22744267.72347
  21947113.125 6 115332885.775 6  89869776.31448  21947119.56648
  23469163.969 1 123331143.489 1  96102347.82445  23469175.21945
  20495223.234 7 107703241.059 7  83924503.47249  20495232.57049
  24294000.492 5 127665820.507 5  99479888.46247  24294007.46947
 20  5 16  2  1 44.0000000  0  8G04G08G09G11G16G26G27G31             0.000479248
  21786528.195 6 114488974.944 6  89212214.14548  21786537.55948
  20553888.242 7 108011412.868 7  84164760.31949  20553898.32449
  22919787.703 5 120444296.298 5  93852736.76449  22919797.19149
  22743691.367 6 119518904.650 6  93131644.22047  22743699.18847
  21947402.773 6 115334407.668 6  89870962.20147  21947409.06347
  23469536.094 1 123333099.328 1  96103871.86545  23469547.04345
  20495519.234 7 107704795.665 7  83925714.85349  20495528.39549
  24294569.523 4 127668810.898 4  99482218.63647  24294576.84047
 20  5 16  2  1 45.0000000  0  8G04G08G09G11G16G26G27G31             0.000479389
  21786810.734 6 114490459.630 6  89213371.03648  21786820.04348
  20553778.844 7 108010835.849 7  84164310.69049  20553788.88749
  22919713.766 5 120443908.019 5  93852434.20649  22919723.74649
  22743122.406 6 119515915.372 6  93129314.92147  22743129.93847
  21947692.430 6 115335929.839 6  89872148.30648  21947698.91848
  23469908.328 1 123335055.460 1  96105396.15845  23469919.62545
  20495815.305 7 107706351.032 7  83926926.82349  20495824.47349
  24295138.195 5 127671801.801 5  99484549.22846  24295146.07446
 20  5 16  2  1 46.0000000  0  8G04G08G09G11G16G26G27G31             0.000479530
  21787093.773 6 114491945.027 6  89214528.49048  21787102.78948
  20553668.813 7 108010259.574 7  84163861.64449  20553678.76249
  22919640.352 5 120443520.534 5  93852132.27049  22919649.69949
  22742553.672 6 119512926.532 6  93126985.95847  22742561.11347
  21947981.766 6 115337452.228 6  89873334.58548  21947988.58248
  23470279.719 1 123337011.808 1  96106920.58945  23470291.71545
  20496111.078 7 107707907.100 7  83928139.34449  20496120.30149
  24295707.773 5 127674793.119 5  99486880.13547  24295715.03147
 20  5 16  2  1 47.0000000  0  8G04G08G09G11G16G26G27G31             0.000479673
  21787376.508 6 114493431.101 6  89215686.47048  21787385.45748
  20553559.359 7 108009683.993 7  84163413.14649  20553569.07849
  22919566.398 5 120443133.752 5  93851830.87949  22919576.07049
  22741984.469 6 119509938.030 6  93124657.26547  22741992.40647
  21948271.977 6 115338974.828 6  89874521.03048  21948278.36348
  23470653.352 1 123338968.210 1  96108445.06245  23470664.05545
  20496407.523 7 107709463.830 7  83929352.37949  20496416.50449
  24296277.563 5 127677784.836 5  99489211.34347  24296284.68047
 20  5 16  2  1 48.0000000  0  8G04G08G09G11G16G26G27G31             0.000479815
  21787659.273 6 114494918.016 6  89216845.10548  21787668.48048
  20553450.227 7 108009109.291 7  84162965.32849  20553459.98049
  22919493.117 5 120442747.892 5  93851530.20949  22919502.49649
  22741415.875 6 119506950.077 6  93122328.98947  22741423.93847
  21948561.539 6 115340497.783 6  89875707.74948  21948567.89148
  23471025.289 1 123340925.001 1  96109969.86945  23471036.28545
  20496704.070 7 107711021.372 7  83930566.04849  20496713.27749
  24296846.984 5 127680777.051 5  99491542.92346  24296853.94146
 20  5 16  2  1 49.0000000  0  8G04G08G09G11G16G26G27G31             0.000479956
  21787942.055 6 114496405.653 6  89218004.30148  21787951.41448
  20553340.719 7 108008535.334 7  84162518.08449  20553350.61349
  22919420.336 5 120442362.830 5  93851230.15449  22919429.64849
  22740847.797 6 119503962.492 6  93120000.99647  22740855.84847
  21948851.234 6 115342020.961 6  89876894.64548  21948857.32448
  23471396.781 1 123342882.00311  96111494.79755  23471409.18045
  20497000.484 7 107712579.630 7  83931780.27549  20497009.82849
  24297415.859 5 127683769.754 5  99493874.89747  24297423.60947
 20  5 16  2  1 50.0000000  0  8G04G08G09G11G16G26G27G31             0.000480099
  21788225.336 6 114497894.028 6  89219164.07548  21788234.66048
  20553231.750 7 108007962.159 7  84162071.45749  20553241.56649
  22919346.656 5 120441978.494 5  93850930.67449  22919355.82449
  22740279.078 6 119500975.384 6  93117673.37947  22740287.17247
  21949141.445 6 115343544.415 6  89878081.75247  21949147.48047
  23471770.141 1                                
  20497297.109 7 107714138.610 7  83932995.06949  20497306.49649
  24297985.508 5 127686762.858 5  99496207.18847  24297992.84047
 20  5 16  2  1 51.0000000  0  8G04G08G09G11G16G26G27G31             0.000480240
  21788508.844 6 114499383.068 6  89220324.36048  21788518.03948
  20553122.859 7 108007389.671 7  84161625.36049  20553132.95349
  22919273.648 5 120441594.956 5  93850631.81449  22919283.07849
  22739710.516 6 119497988.603 6  93115346.02047  22739718.62147
  21949430.938 6 115345068.049 6  89879268.99147  21949437.76647
  23472141.609 1                                
  20497594.000 7 107715698.232 7  83934210.36249  20497603.17649
  24298555.016 5 127689756.323 5  99498539.75447  24298562.60947
 20  5 16  2  1 52.0000000  0  8G04G08G09G11G16G26G27G31             0.000480383
  21788792.195 6 114500872.904 6  89221485.26848  21788801.76248
  20553014.141 7 108006817.986 7  84161179.89649  20553023.93049
  22919201.211 5 120441212.268 5  93850333.62349  22919210.39549
  22739142.430 6 119495002.294 6  93113019.02747  22739150.36747
  21949721.461 6 115346591.966 6  89880456.45747  21949727.39147
  23472513.336 1                                
  20497890.586 7 107717258.644 7  83935426.26649  20497899.93049
  24299124.609 5 127692750.340 5  99500872.74847  24299132.31647
 20  5 16  2  1 53.0000000  0  8G04G08G09G11G16G26G27G31             0.000480524
  21789076.234 6 114502363.410 6  89222646.69948  21789085.35548
  20552905.414 7 108006246.995 7  84160734.96149  20552915.31649
  22919128.211 5 120440830.281 5  93850035.97349  22919137.48049
  22738574.641 6 119492016.343 6  93110692.31947  22738582.08247
  21950011.609 6 115348116.091 6  89881644.09047  21950017.73047
  23472885.789 1                                
  20498187.969 7 107718819.694 7  83936642.66949  20498197.13349
  24299694.539 5 127695744.701 5  99503206.01247  24299701.91047
 20  5 16  2  1 54.0000000  0  8G04G08G09G11G16G26G27G31             0.000480667
  21789359.531 6 114503854.668 6  89223808.71648  21789369.14548
  20552796.984 7 108005676.771 7  84160290.63049  20552806.85249
  22919055.625 5 120440449.092 5  93849738.94049  22919065.73849
  22738005.945 6 119489030.819 6  93108365.94147  22738013.98047
  21950301.453 6 115349640.442 6  89882831.89948  21950308.03548
  23473258.266 1                                
  20498485.047 7 107720381.454 7  83937859.62349  20498494.42249
  24300264.133 5 127698739.519 5  99505539.63647  24300272.44947
 20  5 16  2  1 55.0000000  0  8G04G08G09G11G16G26G27G31             0.000480810
  21789643.758 6 114505346.541 6  89224971.22148  21789652.93448
  20552688.484 7 108005107.231 7  84159846.83449  20552698.21149
  22918983.227 5 120440068.618 5  93849442.46349  22918993.02349
  22737437.984 6 119486045.650 6  93106039.83147  22737446.21947
  21950591.172 6 115351164.975 6  89884019.83947  21950597.98447
  23473631.078 1 123354628.42911  96120647.85355  23473644.41445
  20498782.281 7 107721943.854 7  83939077.07649  20498791.50849
  24300834.516 5 127701734.648 5  99507873.50447  24300842.28547
 20  5 16  2  1 56.0000000  0  8G04G08G09G11G16G26G27G31             0.000480953
  21789928.273 6 114506839.199 6  89226134.33448  21789937.13748
  20552580.328 7 108004538.497 7  84159403.66549  20552590.46549
  22918911.523 5 120439688.986 5  93849146.63849  22918920.65649
  22736869.922 6 119483060.891 6  93103714.03947  22736878.12547
  21950881.703 6 115352689.779 6  89885207.99547  21950887.87947
  23474004.516 1 123356586.787 1  96122173.76145  23474017.26645
  20499079.914 7 107723506.985 7  83940295.10449  20499089.00849
  24301404.648 5 127704730.289 5  99510207.77047  24301412.12547
 20  5 16  2  1 57.0000000  0  8G04G08G09G11G16G26G27G31             0.000481094
  21790211.656 6 114508332.499 6  89227297.94648  21790221.26648
  20552472.375 6 108003970.441 6  84158961.02549  20552482.23849
  22918838.883 5 120439310.032 5  93848851.35049  22918848.35549
  22736302.484 6 119480076.494 6  93101388.53447  22736310.35947
  21951171.898 6 115354214.759 6  89886396.29247  21951177.98047
  23474375.938 1 123358545.379 1  96123699.91345  23474389.85945
  20499377.141 7 107725070.757 7  83941513.62349  20499386.37949
  24301973.867 5 127707726.259 5  99512542.27647  24301982.60947
 20  5 16  2  1 58.0000000  0  8G04G08G09G11G16G26G27G31             0.000481237
  21790496.289 6 114509826.582 6  89228462.16448  21790505.34848
  20552364.102 6 108003403.205 6  84158519.02549  20552373.89149
  22918766.703 5 120438931.940 5  93848556.73449  22918776.86349
  22735734.164 6 119477092.563 6  93099063.39447  22735742.37947
  21951461.789 6 115355740.034 6  89887584.81448  21951468.12148
  23474749.258 1 123360504.205 1  96125226.29745  23474762.18445
  20499675.102 7 107726635.302 7  83942732.75349  20499684.42649
  24302544.273 5 127710722.729 5  99514877.18047  24302552.50847
 20  5 16  2  1 59.0000000  0  8G04G08G09G11G16G26G27G31             0.000481380
  21790780.602 6 114511321.433 6  89229626.98348  21790789.71548
  20552256.523 7 108002836.788 7  84158077.65949  20552266.78949
  22918694.992 5 120438554.679 5  93848262.76349  22918704.82049
  22735165.930 6 119474109.085 6  93096738.60647  22735174.57847
  21951751.891 6 115357265.603 6  89888773.56847  21951758.70747
  23475122.367 1 123362463.274 1  96126752.84245  23475135.29345
  20499972.773 7 107728200.578 7  83943952.44849  20499982.26249
  24303115.469 5 127713719.694 5  99517212.47247  24303123.22747
 20  5 16  2  2  0.0000000  0  8G04G08G09G11G16G26G27G31             0.000481524
  21791065.516 6 114512816.947 6  89230792.31248  21791074.48448
  20552148.844 7 108002271.063 7  84157636.83749  20552158.74649
  22918623.844 5 120438178.136 5  93847969.34949  22918633.38749
  22734598.953 6 119471125.968 6  93094414.11347  22734606.68847
  21952042.523 6 115358791.337 6  89889962.45447  21952049.21547
  23475495.438 1 123364422.519 1  96128279.50545  23475508.12945
  20500270.750 7 107729766.518 7  83945172.65949  20500280.32049
  24303685.406 5 127716717.004 5  99519548.03947  24303693.50847
 20  5 16  2  2  1.0000000  0  8G04G08G09G11G16G26G27G31             0.000481667
  21791350.250 6 114514313.086 6  89231958.13148  21791359.12948
  20552041.359 7 108001705.974 7  84157196.50749  20552051.16449
  22918552.211 5 120437802.270 5  93847676.46749  22918561.62949
  22734031.000 6 119468143.143 6  93092089.83947  22734039.04747
  21952332.891 6 115360317.199 6  89891151.43947  21952339.82447
  23475868.063 1 123366381.837 1  96129806.25945  23475881.04745
  20500569.133 7 107731333.053 7  83946393.33949  20500578.37149
  24304255.539 5 127719714.649 5  99521883.86246  24304263.88746
 20  5 16  2  2  2.0000000  0  8G04G08G09G11G16G26G27G31             0.000481810
  21791634.727 6 114515809.904 6  89233124.47948  21791643.80548
  20551933.828 7 108001141.649 7  84156756.77149  20551943.94149
  22918481.031 5 120437427.140 5  93847384.15949  22918490.50849
  22733463.914 6 119465160.726 6  93089765.87747  22733471.74647
  21952623.617 6 115361843.292 6  89892340.60347  21952629.66047
  23476241.688 1 123368341.397 1  96131333.22445  23476254.02745
  20500867.227 7 107732900.259 7  83947614.53249  20500876.74249
  24304826.594 5 127722712.687 5  99524219.99046  24304834.59446
 20  5 16  2  2  3.0000000  0  8G04G08G09G11G16G26G27G31             0.000481955
  21791919.813 6 114517307.428 6  89234291.39148  21791928.40648
  20551826.680 7 108000578.020 7  84156317.58149  20551836.69949
  22918410.352 5 120437052.785 5  93847092.45249  22918419.30549
  22732896.484 6 119462178.646 6  93087442.18447  22732904.26247
  21952913.906 6 115363369.570 6  89893529.91147  21952920.41047
  23476613.930 1                                
  20501165.875 7 107734468.150 7  83948836.27049  20501175.26249
  24305396.875 5 127725711.104 5  99526556.41946  24305405.16846
 20  5 16  2  2  4.0000000  0  8G04G08G09G11G16G26G27G31             0.000482098
  21792205.008 6 114518805.684 6  89235458.86448  21792213.75048
  20551719.430 7 108000015.179 7  84155879.00249  20551729.88349
  22918338.844 5 120436679.233 5  93846801.37149  22918347.82849
  22732329.000 6 119459197.017 6  93085118.83547  22732336.77747
  21953204.625 6 115364896.123 6  89894719.43347  21953211.17247
  23476987.547 1                                
  20501464.133 7 107736036.749 7  83950058.55949  20501473.77049
  24305967.008 5 127728709.985 5  99528893.20647  24305975.65247
 20  5 16  2  2  5.0000000  0  8G04G08G09G11G16G26G27G31             0.000482241
  21792490.445 6 114520304.617 6  89236626.86648  21792498.99648
  20551612.594 7 107999453.046 7  84155440.97449  20551622.45749
  22918267.445 5 120436306.434 5  93846510.88149  22918277.32849
  22731761.219 6 119456215.789 6  93082795.80747  22731769.29347
  21953494.922 6 115366422.888 6  89895909.11747  21953501.23847
  23477359.789 1                                
  20501762.750 7 107737606.034 7  83951281.37749  20501772.20749
  24306537.961 5 127731709.304 5  99531230.33546  24306546.80946
 20  5 16  2  2  6.0000000  0  8G04G08G09G11G16G26G27G31             0.000482386
  21792775.398 6 114521804.369 6  89237795.50848  21792784.93848
  20551505.570 7 107998891.703 7  84155003.56349  20551515.80949
  22918197.281 5 120435934.480 5  93846221.04149  22918206.51249
  22731194.516 6 119453235.006 6  93080473.11947  22731202.25047
  21953785.313 6 115367949.904 6  89897098.99647  21953792.13747
  23477734.172 1                                
  20502061.570 7 107739176.057 7  83952504.76949  20502070.98449
  24307109.125 5 127734709.058 5  99533567.78947  24307117.62547
 20  5 16  2  2  7.0000000  0  8G04G08G09G11G16G26G27G31             0.000482529
  21793061.289 6 114523304.798 6  89238964.67148  21793070.27748
  20551399.344 7 107998331.104 7  84154566.73449  20551408.90249
  22918126.719 5 120435563.287 5  93845931.80549  22918135.51649
  22730627.125 6 119450254.625 6  93078150.73947  22730635.00047
  21954075.898 6 115369477.166 6  89898289.07447  21954082.18847
  23478107.242 1 123378142.16311  96138970.20455  23478118.70345
  20502360.492 7 107740746.787 7  83953728.71249  20502369.75849
  24307679.930 5 127737709.202 5  99535905.56347  24307688.36347
 20  5 16  2  2  8.0000000  0  8G04G08G09G11G16G26G27G31             0.000482672
  21793346.430 6 114524805.865 6  89240134.32948  21793355.44948
  20551292.875 7 107997771.177 7  84154130.42849  20551302.30549
  22918055.609 5 120435192.756 5  93845643.07649  22918065.61749
  22730060.289 6 119447274.553 6  93075828.59947  22730067.87547
  21954366.758 6 115371004.576 6  89899479.26447  21954373.15247
  23478480.273 1 123380102.842 1  96140497.99745  23478492.43845
  20502659.414 7 107742318.143 7  83954953.14649  20502668.74649
  24308250.539 5 127740709.765 5  99538243.65747  24308259.62547
 20  5 16  2  2  9.0000000  0  8G04G08G09G11G16G26G27G31             0.000482817
  21793632.539 6 114526307.665 6  89241304.56448  21793640.99248
  20551186.266 7 107997211.995 7  84153694.70149  20551196.21149
  22917985.742 5 120434823.056 5  93845354.99749  22917994.82049
  22729492.828 6 119444294.895 6  93073506.78947  22729500.89547
  21954657.453 6 115372532.241 6  89900669.64447  21954663.73047
  23478853.430 1 123382063.792 1  96142025.99045  23478865.35945
  20502958.617 7 107743890.191 7  83956178.11749  20502967.79749
  24308821.641 5 127743710.713 5  99540582.06647  24308830.61747
 20  5 16  2  2 10.0000000  0  8G04G08G09G11G16G26G27G31             0.000482962
  21793918.641 6 114527810.243 6  89242475.40448  21793927.21548
  20551079.977 7 107996653.640 7  84153259.61649  20551090.05949
  22917915.352 5 120434454.203 5  93845067.58249  22917924.77349
  22728926.102 6 119441315.759 6  93071185.38347  22728934.04347
  21954947.984 6 115374060.195 6  89901860.25748  21954954.45748
  23479226.125 1 123384025.021 1  96143554.24345  23479238.87545
  20503258.148 7 107745463.015 7  83957403.69949  20503267.54349
  24309393.172 5 127746712.188 5  99542920.88047  24309401.90247
 20  5 16  2  2 11.0000000  0  8G04G08G09G11G16G26G27G31             0.000483105
  21794204.625 6 114529313.488 6  89243646.76648  21794213.22748
  20550973.969 7 107996095.984 7  84152825.08249  20550983.34049
  22917845.734 5 120434086.045 5  93844780.71049  22917854.39849
  22728359.727 6 119438336.957 6  93068864.24847  22728367.16447
  21955238.555 6 115375588.330 6  89903051.01547  21955245.24247
  23479599.852 1 123385986.351 1  96145082.51745  23479611.66445
  20503557.336 7 107747036.494 7  83958629.78849  20503566.48849
  24309964.219 5 127749714.013 5  99545259.96247  24309973.17647
 20  5 16  2  2 12.0000000  0  8G04G08G09G11G16G26G27G31             0.000483250
  21794490.531 6 114530817.561 6  89244818.77348  21794499.71948
  20550867.898 7 107995539.148 7  84152391.18249  20550877.64149
  22917775.617 5 120433718.771 5  93844494.51649  22917784.60549
  22727792.523 6 119435358.601 6  93066543.45047  22727800.72747
  21955529.594 6 115377116.791 6  89904242.01848  21955536.35248
  23479973.656 1 123387947.941 1  96146611.01745  23479985.17645
  20503857.055 7 107748610.711 7  83959856.45049  20503866.14549
  24310535.391 5 127752716.339 5  99547599.42547  24310544.63347
 20  5 16  2  2 13.0000000  0  8G04G08G09G11G16G26G27G31             0.000483395
  21794777.195 6 114532322.218 6  89245991.23248  21794785.91848
  20550761.969 7 107994982.991 7  84151957.81749  20550771.71149
  22917705.414 5 120433352.175 5  93844208.85649  22917715.41049
  22727225.961 6 119432380.595 6  93064222.92047  22727233.97347
  21955820.336 6 115378645.379 6  89905433.13247  21955826.91447
  23480345.930 1 123389909.700 1  96148139.67345  23480358.38745
  20504156.484 7 107750185.576 7  83961083.61249  20504165.91849
  24311107.250 5 127755718.986 5  99549939.14347  24311116.01647
 20  5 16  2  2 14.0000000  0  8G04G08G09G11G16G26G27G31             0.000483540
  21795063.336 6 114533827.613 6  89247164.26648  21795072.37548
  20550656.164 7 107994427.563 7  84151525.01249  20550666.20349
  22917636.531 5 120432986.344 5  93843923.79849  22917645.82849
  22726659.063 6 119429403.043 6  93061902.75647  22726667.02347
  21956111.820 6 115380174.232 6  89906624.44547  21956118.19547
  23480719.813 1 123391871.778 1  96149668.62045  23480731.80145
  20504456.406 6 107751761.164 6  83962311.34049  20504465.85549
  24311678.531 2 127758721.971 2  99552279.12746  24311687.66446
 20  5 16  2  2 15.0000000  0  8G04G08G09G11G16G26G27G31             0.000483685
  21795350.273 6 114535333.740 6  89248337.86048  21795359.18448
  20550550.727 6 107993872.904 6  84151092.81049  20550560.34849
  22917566.727 6 120432621.331 6  93843639.34349  22917576.44549
  22726092.563 6 119426425.858 6  93059582.84547  22726100.74647
  21956402.063 4 115381703.372 4  89907815.99846  21956408.90646
  23481096.492 1 123393834.044 1  96151197.59445  23481105.49245
  20504756.539 6 107753337.430 6  83963539.60449  20504765.43049
  24312252.398 3 127761725.507 3  99554619.54646  24312259.58246
 20  5 16  2  2 16.0000000  0  8G04G08G09G11G16G26G27G31             0.000483829
  21795636.766 6 114536840.699 6  89249512.12148  21795645.74248
  20550444.938 6 107993319.108 6  84150661.28549  20550455.28549
  22917497.578 5 120432257.193 5  93843355.58549  22917507.05949
  22725526.000 6 119423449.223 6  93057263.37147  22725534.16847
  21956693.469 4 115383232.812 4  89909007.76646  21956700.14846
  23481470.531 1 123395796.500 1  96152726.74645  23481478.82845
  20505056.555 6 107754914.522 6  83964768.50949  20505065.51649
  24312822.375 4 127764729.604 4  99556960.35645  24312831.47745
 20  5 16  2  2 17.0000000  0  8G04G08G09G11G16G26G27G31             0.000483974
  21795923.672 6 114538348.342 6  89250686.90348  21795932.94548
  20550339.984 7 107992766.006 7  84150230.29949  20550350.07049
  22917428.563 5 120431893.825 5  93843072.43849  22917438.07049
  22724960.297 6 119420472.928 6  93054944.17547  22724967.68447
  21956984.297 5 115384762.442 5  89910199.68246  21956991.22346
  23481843.844 1 123397759.222 1  96154256.21844  23481852.25844
  20505356.492 6 107756492.278 6  83965997.92949  20505365.64149
  24313393.797 4 127767734.071 4  99559301.46646  24313402.84046
 20  5 16  2  2 18.0000000  0  8G04G08G09G11G16G26G27G31             0.000484119
  21796211.047 6 114539856.706 6  89251862.25148  21796219.93848
  20550234.969 7 107992213.707 7  84149799.93749  20550245.04349
  22917359.430 5 120431531.231 5  93842789.90349  22917369.08249
  22724393.875 6 119417497.092 6  93052625.34447  22724401.14147
  21957275.609 5 115386292.326 5  89911391.78847  21957282.57847
  23482217.117 1 123399721.998 1  96155785.65345  23482226.46945
  20505657.023 6 107758070.742 6  83967227.89849  20505666.09449
  24313965.367 5 127770738.954 5  99561642.89646  24313974.51646
 20  5 16  2  2 19.0000000  0  8G04G08G09G11G16G26G27G31             0.000484264
  21796498.141 6 114541365.780 6  89253038.15048  21796506.68848
  20550129.734 7 107991662.147 7  84149370.15649  20550139.96149
  22917290.703 6 120431169.431 6  93842507.98149  22917300.10549
  22723827.875 6 119414521.621 6  93050306.80647  22723835.22347
  21957566.648 5 115387822.413 5  89912584.05947  21957573.06347
  23482589.633 1 123401685.188 1  96157315.40144  23482599.68844
  20505957.555 6 107759649.892 6  83968458.40649  20505966.80949
  24314538.031 5 127773744.305 5  99563984.74146  24314546.97346
 20  5 16  2  2 20.0000000  0  8G04G08G09G11G16G26G27G31             0.000484409
  21796785.547 6 114542875.541 6  89254214.59348  21796794.09448
  20550025.141 7 107991111.302 7  84148940.92049  20550034.87149
  22917221.023 6 120430808.368 6  93842226.62149  22917231.11349
  22723261.727 6 119411546.561 6  93047988.59947  22723269.11347
  21957858.195 5 115389352.691 5  89913776.49347  21957864.40247
  23482962.961 1 123403648.456 1  96158845.16544  23482973.19144
  20506258.313 6 107761229.688 6  83969689.41949  20506266.91049
  24315109.703 5 127776749.983 5  99566326.84546  24315118.84446
 20  5 16  2  2 21.0000000  0  8G04G08G09G11G16G26G27G31             0.000484556
  21797072.750 6 114544386.096 6  89255391.65448  21797081.87148
  20549920.227 7 107990561.276 7  84148512.33849  20549930.51249
  22917153.055 6 120430448.160 6  93841945.93349  22917163.25449
  22722695.250 6 119408571.949 6  93045670.73447  22722703.35547
  21958149.531 5 115390883.293 5  89914969.18647  21958155.48047
  23483335.922 1 123405611.999 1                
  20506559.164 6 107762810.276 6  83970921.05249  20506568.05549
  24315681.273 5 127779756.195 5  99568669.38246  24315690.56646
