     2.10           OBSERVATION DATA    GPS(GPS)            RINEX VERSION / TYPE
cnvtToRINEX 3.07.0  convertToRINEX OPR  19-May-20 12:30 UTC PGM / RUN BY / DATE 
----------------------------------------------------------- COMMENT             
G054                                                        MARKER NAME         
G054                                                        MARKER NUMBER       
GNSS Observer       Trimble                                 OBSERVER / AGENCY   
0220327801          5700                2.32                REC # / TYPE / VERS 
                    TRM39105.00                             ANT # / TYPE        
 -3048826.9850  4929231.7455  2653477.5806                  APPROX POSITION XYZ 
       -0.0460        0.0000        0.0000                  ANTENNA: DELTA H/E/N
     1     1     0                                          WAVELENGTH FACT L1/2
     4    C1    L1    L2    P2                              # / TYPES OF OBSERV 
  2020     5    16     5    20    9.0000000     GPS         TIME OF FIRST OBS   
  2020     5    16     6    22    0.0000000     GPS         TIME OF LAST OBS    
     0                                                      RCV CLOCK OFFS APPL 
    18                                                      LEAP SECONDS        
     8                                                      # OF SATELLITES     
   G01  3712  3712  3712  3712                              PRN / # OF OBS      
   G03  3712  3712  3712  3712                              PRN / # OF OBS      
   G07  3712  3712  3712  3712                              PRN / # OF OBS      
   G11  2806  2700  2363  2363                              PRN / # OF OBS      
   G17  3712  3712  3712  3712                              PRN / # OF OBS      
   G22  3712  3712  3712  3712                              PRN / # OF OBS      
   G28  3677  3677  3677  3677                              PRN / # OF OBS      
   G30  3684  3684  3684  3684                              PRN / # OF OBS      
CARRIER PHASE MEASUREMENTS: PHASE SHIFTS REMOVED            COMMENT             
                                                            END OF HEADER       
 20  5 16  5 20  9.0000000  0  5G01G03G07G17G22                      0.000304457
  20259010.10217    -10295.64517     -3687.61359  20259011.03959
  23277211.35215    -78627.24215    -20728.41459  23277214.01259
  21078962.60916     -1280.71916      -250.01559  21078958.47359
  24064077.35915    -40998.55915    -12933.73059  24064077.10559
  22633359.36716    -54336.86316    -28480.53558  22633355.87158
 20  5 16  5 20 10.0000000  0  5G01G03G07G17G22                      0.000303444
  20258859.961 7    -11084.727 7     -4302.49249  20258860.95749
  23276395.758 5    -82912.504 5    -24067.57449  23276399.23849
  21078910.141 6     -1557.820 6      -465.91049  21078905.33249
  24063508.016 5    -43990.172 5    -15264.85948  24063507.68448
  22632793.906 6    -57305.215 6    -30793.53548  22632791.37948
 20  5 16  5 20 11.0000000  0  5G01G03G07G17G22                      0.000302429
  20258709.609 7    -11876.191 7     -4919.22749  20258710.39549
  23275579.977 6    -87200.668 6    -27409.00049  23275582.46949
  21078856.852 6     -1837.340 6      -683.76549  21078851.59449
  24062938.125 5    -46984.672 5    -17598.22748  24062938.02048
  22632228.898 6    -60276.164 6    -33108.55948  22632225.92248
 20  5 16  5 20 12.0000000  0  5G01G03G07G17G22                      0.000301407
  20258558.438 7    -12670.152 7     -5537.88749  20258559.34049
  23274763.422 6    -91491.863 6    -30752.78549  23274766.29749
  21078803.320 6     -2119.418 6      -903.54749  21078797.55149
  24062367.617 5    -49982.215 5    -19933.96948  24062367.23048
  22631662.719 6    -63249.859 6    -35425.72748  22631660.09848
 20  5 16  5 20 13.0000000  0  5G01G03G07G17G22                      0.000300390
  20258406.945 7    -13466.480 7     -6158.39849  20258407.97349
  23273945.828 5    -95785.896 5    -34098.78849  23273949.14549
  21078748.992 6     -2403.902 6     -1125.23049  21078744.88749
  24061796.867 5    -52982.602 5    -22271.93048  24061796.48448
  22631096.656 6    -66226.137 6    -37744.90648  22631093.38748
 20  5 16  5 20 14.0000000  0  5G01G03G07G17G22                      0.000299368
  20258254.820 7    -14265.063 7     -6780.66049  20258256.41049
  23273128.250 5   -100082.781 5    -37447.00049  23273131.51249
  21078694.336 7     -2690.672 7     -1348.70349  21078692.46949
  24061225.172 5    -55985.797 5    -24612.09448  24061225.04348
  22630529.734 6    -69204.895 6    -40066.01648  22630526.93848
 20  5 16  5 20 15.0000000  0  5G01G03G07G17G22                      0.000298347
  20258102.695 7    -15065.758 7     -7404.57449  20258103.76649
  23272309.836 5   -104382.254 5    -40797.23049  23272313.37549
  21078639.195 7     -2979.621 7     -1573.86349  21078638.03549
  24060653.836 5    -58991.625 5    -26954.30148  24060652.73448
  22629962.219 6    -72186.000 6    -42388.96148  22629959.22748
 20  5 16  5 20 16.0000000  0  5G01G03G07G17G22                      0.000297323
  20257949.875 7    -15868.430 7     -8030.03949  20257950.75849
  23271491.758 5   -108684.211 5    -44149.40649  23271494.60249
  21078584.172 6     -3270.582 6     -1800.58649  21078582.32449
  24060081.453 5    -61999.926 5    -29298.42248  24060080.63348
  22629394.336 6    -75169.309 6    -44713.62148  22629391.42248
 20  5 16  5 20 17.0000000  0  5G01G03G07G17G22                      0.000296299
  20257796.516 7    -16673.008 7     -8656.98849  20257797.98449
  23270672.375 6   -112988.617 6    -47503.48849  23270675.64149
  21078528.109 6     -3563.492 6     -2028.83249  21078526.86349
  24059507.984 5    -65010.672 5    -31644.44948  24059507.35248
  22628826.336 6    -78154.734 6    -47039.92648  22628823.89548
 20  5 16  5 20 18.0000000  0  5G01G03G07G17G22                      0.000295273
  20257643.281 7    -17479.125 7     -9285.13749  20257644.39849
  23269852.703 6   -117295.090 6    -50859.18049  23269855.69549
  21078471.992 6     -3858.012 6     -2258.32849  21078470.93049
  24058934.758 5    -68023.473 5    -33992.08248  24058934.29748
  22628258.031 6    -81141.953 6    -49367.62948  22628255.33248
 20  5 16  5 20 19.0000000  0  5G01G03G07G17G22                      0.000294245
  20257489.625 7    -18286.734 7     -9914.44549  20257490.55549
  23269033.297 6   -121603.566 6    -54216.43049  23269036.16449
  21078416.000 6     -4154.047 6     -2488.99649  21078414.28949
  24058360.758 5    -71038.277 5    -36341.28148  24058360.14548
  22627689.672 6    -84130.867 6    -51696.64848  22627686.34448
 20  5 16  5 20 20.0000000  0  5G01G03G07G17G22                      0.000293215
  20257335.406 7    -19095.941 7    -10544.98849  20257336.61749
  23268213.203 6   -125914.121 6    -57575.30149  23268215.78549
  21078359.234 6     -4451.715 6     -2720.94949  21078357.51649
  24057786.875 5    -74055.207 5    -38692.13748  24057786.21148
  22627120.164 6    -87121.613 6    -54027.09848  22627117.28548
 20  5 16  5 20 21.0000000  0  5G01G03G07G17G22                      0.000292185
  20257181.352 7    -19906.383 7    -11176.50449  20257182.16049
  23267392.359 6   -130226.484 6    -60935.58249  23267395.35949
  21078302.047 6     -4750.684 6     -2953.90649  21078300.95749
  24057212.859 5    -77073.879 5    -41044.34448  24057211.92648
  22626550.523 6    -90113.836 6    -56358.69948  22626547.73048
 20  5 16  5 20 22.0000000  0  5G01G03G07G17G22                      0.000291153
  20257026.844 7    -20718.094 7    -11809.00849  20257027.82849
  23266571.273 6   -134540.609 6    -64297.23449  23266574.30549
  21078245.305 6     -5050.984 6     -3187.91449  21078243.74249
  24056638.102 5    -80094.387 5    -43397.98848  24056637.29748
  22625980.852 6    -93107.543 6    -58691.45748  22625978.12548
 20  5 16  5 20 23.0000000  0  5G01G03G07G17G22                      0.000290121
  20256872.305 7    -21530.824 7    -12442.30549  20256873.25849
  23265749.297 6   -138856.266 6    -67660.07849  23265752.68049
  21078187.789 6     -5352.340 6     -3422.73449  21078186.10249
  24056062.672 5    -83116.410 5    -45752.80548  24056061.81348
  22625411.023 6    -96102.523 6    -61025.21148  22625408.06348
 20  5 16  5 20 24.0000000  0  5G01G03G07G17G22                      0.000289087
  20256717.328 7    -22344.414 7    -13076.27349  20256718.47349
  23264928.648 6   -143173.363 6    -71024.05149  23264931.56649
  21078130.328 6     -5654.609 6     -3658.27049  21078128.56349
  24055487.672 5    -86139.848 5    -48108.72748  24055486.36748
  22624840.875 6    -99098.586 6    -63359.80548  22624837.94548
 20  5 16  5 20 25.0000000  0  5G01G03G07G17G22                      0.000288054
  20256562.445 7    -23158.879 7    -13710.91849  20256563.38349
  23264106.781 6   -147491.770 6    -74389.03949  23264109.47349
  21078072.383 6     -5957.781 6     -3894.50449  21078071.03149
  24054911.938 5    -89164.652 5    -50465.71148  24054911.01248
  22624270.797 6   -102095.730 6    -65695.24248  22624267.55148
 20  5 16  5 20 26.0000000  0  5G01G03G07G17G22                      0.000287018
  20256407.273 7    -23974.359 7    -14346.35949  20256408.29749
  23263284.953 6   -151811.754 6    -77755.26249  23263287.34049
  21078014.516 6     -6262.012 6     -4131.57449  21078013.03149
  24054336.320 6    -92190.965 6    -52823.86748  24054335.55548
  22623700.070 6   -105094.109 6    -68031.64548  22623697.06648
 20  5 16  5 20 27.0000000  0  5G01G03G07G17G22                      0.000285980
  20256252.000 7    -24790.723 7    -14982.48449  20256252.77349
  23262463.133 6   -156133.125 6    -81122.55949  23262465.04349
  21077956.648 6     -6567.172 6     -4369.36349  21077955.18449
  24053759.625 5    -95218.703 5    -55183.13748  24053758.88348
  22623129.242 6   -108093.605 6    -70368.91448  22623126.52348
 20  5 16  5 20 28.0000000  0  5G01G03G07G17G22                      0.000284943
  20256096.188 7    -25607.742 7    -15619.12549  20256097.29349
  23261639.641 6   -160455.691 6    -84490.78549  23261642.61749
  21077898.188 6     -6873.074 6     -4607.73049  21077897.01249
  24053183.164 6    -98247.656 6    -57543.36348  24053182.36748
  22622558.008 6   -111094.020 6    -72706.90248  22622555.19148
 20  5 16  5 20 29.0000000  0  5G01G03G07G17G22                      0.000283905
  20255940.813 7    -26425.199 7    -16256.10549  20255941.73449
  23260817.195 6   -164779.184 6    -87859.73849  23260819.80549
  21077840.117 6     -7179.414 6     -4846.44149  21077838.91449
  24052606.930 6   -101277.523 6    -59904.29748  24052605.98048
  22621987.289 6   -114095.070 6    -75045.38348  22621984.13348
 20  5 16  5 20 30.0000000  0  5G01G03G07G17G22                      0.000282866
  20255785.023 7    -27243.230 7    -16893.53549  20255786.26249
  23259994.422 6   -169103.793 6    -91229.55549  23259996.93849
  21077781.859 6     -7486.406 6     -5085.65649  21077779.88349
  24052030.719 6   -104308.488 6    -62266.09448  24052029.71148
  22621415.859 6   -117096.945 6    -77384.50848  22621412.75848
 20  5 16  5 20 31.0000000  0  5G01G03G07G17G22                      0.000281826
  20255629.281 7    -28062.055 7    -17531.57449  20255630.44949
  23259171.258 6   -173429.652 6    -94600.35949  23259174.31349
  21077723.500 6     -7794.176 6     -5325.48449  21077721.23449
  24051453.984 6   -107340.777 6    -64628.90648  24051452.73048
  22620844.992 6   -120099.797 6    -79724.39148  22620841.50848
 20  5 16  5 20 32.0000000  0  5G01G03G07G17G22                      0.000280787
  20255473.430 7    -28881.293 7    -18169.94949  20255474.28149
  23258347.820 6   -177756.543 6    -97971.96549  23258350.36349
  21077664.367 6     -8102.469 6     -5565.71549  21077662.91849
  24050876.203 5   -110374.016 5    -66992.46948  24050875.10248
  22620272.938 6   -123103.320 6    -82064.79748  22620269.85248
 20  5 16  5 20 33.0000000  0  5G01G03G07G17G22                      0.000279745
  20255317.094 7    -29700.949 7    -18808.64549  20255318.07449
  23257524.922 6   -182084.297 6   -101344.23849  23257526.98449
  21077605.375 6     -8411.215 6     -5806.29349  21077603.74249
  24050298.727 5   -113408.168 5    -69356.73848  24050297.44948
  22619701.320 6   -126107.492 6    -84405.71548  22619698.00048
 20  5 16  5 20 34.0000000  0  5G01G03G07G17G22                      0.000278704
  20255161.484 7    -30520.926 7    -19447.58649  20255162.34449
  23256700.766 6   -186412.930 6   -104717.19949  23256702.95349
  21077547.055 6     -8720.324 6     -6047.15649  21077545.21549
  24049720.820 5   -116443.195 5    -71721.69948  24049719.94948
  22619129.742 6   -129112.191 6    -86747.04348  22619126.40248
 20  5 16  5 20 35.0000000  0  5G01G03G07G17G22                      0.000277662
  20255005.008 7    -31341.152 7    -20086.72349  20255006.25849
  23255876.469 6   -190742.305 6   -108090.73049  23255878.91849
  21077487.820 6     -9029.742 6     -6288.25849  21077486.35249
  24049143.711 5   -119478.977 5    -74087.23848  24049142.39848
  22618557.766 6   -132117.383 6    -89088.75448  22618554.18048
 20  5 16  5 20 36.0000000  0  5G01G03G07G17G22                      0.000276619
  20254849.203 7    -32161.852 7    -20726.23049  20254850.02749
  23255052.641 6   -195072.699 6   -111465.06349  23255054.83649
  21077428.992 6     -9339.641 6     -6529.74249  21077427.32849
  24048565.094 5   -122515.727 5    -76453.53548  24048564.46148
  22617985.703 6   -135123.262 6    -91430.99648  22617982.10548
 20  5 16  5 20 37.0000000  0  7G01G03G07G11G17G22G30                0.000275576
  20254693.000 7    -32982.930 7    -21366.03549  20254693.82449
  23254228.695 6   -199403.957 6   -114840.07049  23254230.30549
  21077369.930 6     -9650.012 6     -6771.59049  21077368.31349
  21371533.39116     13776.02316     10317.10558  21371531.35958
  24047987.578 5   -125553.398 5    -78820.55548  24047986.30948
  22617413.531 6   -138129.770 6    -93773.73848  22617410.37948
  21678488.59416    -73079.25016    -50942.76659  21678488.72759
 20  5 16  5 20 38.0000000  0  7G01G03G07G11G17G22G30                0.000274532
  20254536.406 7    -33804.230 7    -22006.00449  20254537.69149
  23253403.883 6   -203735.941 6   -118215.63749  23253406.16449
  21077310.594 6     -9960.645 6     -7013.63749  21077309.25449
  21371618.031 6     14218.617 6     10661.97748  21371615.17648
  24047409.328 5   -128591.809 5    -81188.14548  24047408.49648
  22616841.602 6   -141136.684 6    -96116.78548  22616838.08248
  21678053.531 6    -75364.527 6    -52723.50049  21678053.88349
 20  5 16  5 20 39.0000000  0  7G01G03G07G11G17G22G30                0.000273489
  20254380.539 7    -34625.676 7    -22646.09449  20254381.27049
  23252579.688 6   -208068.617 6   -121591.75049  23252581.84849
  21077251.773 6    -10271.461 6     -7255.84049  21077250.41849
  21371702.305 6     14660.684 6     11006.44548  21371699.71948
  24046830.820 5   -131630.898 5    -83556.26648  24046829.73848
  22616269.133 6   -144143.992 6    -98460.13348  22616265.63348
  21677618.508 6    -77649.969 6    -54504.36749  21677618.86749
 20  5 16  5 20 40.0000000  0  7G01G03G07G11G17G22G30                0.000272444
  20254223.992 7    -35447.438 7    -23286.42649  20254224.92249
  23251754.969 6   -212402.102 6   -124968.49249  23251756.97349
  21077192.656 6    -10582.637 6     -7498.31349  21077190.99249
  21371785.828 6     15102.047 6     11350.36348  21371783.46148
  24046252.922 5   -134670.797 5    -85925.02048  24046251.48048
  22615696.844 6   -147151.844 6   -100803.91048  22615693.60948
  21677183.766 6    -79935.727 6    -56285.47749  21677184.30149
 20  5 16  5 20 41.0000000  0  7G01G03G07G11G17G22G30                0.000271399
  20254067.539 7    -36269.301 7    -23926.83649  20254068.43049
  23250929.813 6   -216736.203 6   -128345.70749  23250932.34049
  21077133.383 6    -10893.973 6     -7740.92249  21077131.53549
  21371869.727 6     15542.906 6     11693.89148  21371867.58648
  24045673.898 5   -137711.340 5    -88294.26648  24045672.80148
  22615124.492 6   -150160.012 6   -103147.93448  22615121.17248
  21676748.680 6    -82221.613 6    -58066.69549  21676748.96549
 20  5 16  5 20 42.0000000  0  7G01G03G07G11G17G22G30                0.000270351
  20253910.984 7    -37091.250 7    -24567.32049  20253912.11749
  23250104.906 6   -221070.938 6   -131723.42249  23250107.48449
  21077074.305 6    -11205.434 6     -7983.61749  21077072.16449
  21371953.508 6     15983.293 6     12037.04748  21371951.34848
  24045095.070 5   -140752.492 5    -90663.99248  24045094.35948
  22614551.922 6   -153168.492 6   -105492.20748  22614548.02348
  21676313.547 6    -84507.586 6    -59847.97349  21676314.27749
 20  5 16  5 20 43.0000000  0  7G01G03G07G11G17G22G30                0.000269304
  20253754.617 7    -37913.168 7    -25207.77349  20253755.72349
  23249280.039 5   -225406.141 5   -135101.50449  23249282.23049
  21077014.828 6    -11516.934 6     -8226.35249  21077012.98049
  21372037.422 6     16423.309 6     12379.91448  21372035.20348
  24044516.742 5   -143794.121 5    -93034.09848  24044515.43848
  22613979.352 6   -156177.199 6   -107836.65648  22613975.96948
  21675878.844 6    -86793.559 6    -61629.25449  21675878.87949
 20  5 16  5 20 44.0000000  0  8G01G03G07G11G17G22G28G30             0.000268257
  20253598.547 7    -38735.141 7    -25848.27749  20253599.53549
  23248454.648 5   -229741.934 5   -138480.03149  23248457.30149
  21076955.172 6    -11828.527 6     -8469.15249  21076953.66849
  21372121.039 6     16862.898 6     12722.44548  21372118.58248
  24043937.742 5   -146836.355 5    -95404.66448  24043936.64848
  22613406.523 6   -159186.172 6   -110181.31348  22613403.57848
  23598177.71115   -162236.00415    -92503.03156  23598174.98456
  21675443.414 6    -89079.594 6    -63410.57849  21675444.21549
 20  5 16  5 20 45.0000000  0  8G01G03G07G11G17G22G28G30             0.000267210
  20253441.930 7    -39557.047 7    -26488.72349  20253442.80949
  23247629.734 5   -234078.160 5   -141858.91049  23247631.98449
  21076896.391 6    -12140.090 6     -8711.93049  21076894.10549
  21372204.836 6     17302.168 6     13064.73048  21372202.45748
  24043358.445 5   -149879.000 5    -97775.55948  24043357.29748
  22612834.234 6   -162195.285 6   -112526.07448  22612830.84448
  23597379.102 5   -166431.457 5    -95772.21146  23597376.77046
  21675008.625 6    -91365.559 6    -65191.84849  21675009.42249
 20  5 16  5 20 46.0000000  0  8G01G03G07G11G17G22G28G30             0.000266163
  20253285.633 7    -40378.813 7    -27129.05949  20253286.78549
  23246804.875 5   -238414.738 5   -145238.05949  23246806.97749
  21076836.758 6    -12451.578 6     -8954.64849  21076835.11349
  21372287.781 6     17741.203 6     13406.83248  21372285.66848
  24042779.586 5   -152922.055 5   -100146.77748  24042778.29348
  22612261.734 6   -165204.480 6   -114870.90248  22612258.21548
  23596580.898 5   -170627.469 5    -99041.83246  23596578.30546
  21674573.922 6    -93651.387 6    -66973.01649  21674574.30149
 20  5 16  5 20 47.0000000  0  8G01G03G07G11G17G22G28G30             0.000265116
  20253129.352 7    -41200.633 7    -27769.44549  20253130.16449
  23245979.234 5   -242751.911 5   -148617.67949  23245981.50849
  21076777.695 6    -12763.133 6     -9197.42249  21076775.64149
  21372371.813 6     18179.789 6     13748.59048  21372369.24648
  24042200.242 5   -155965.648 5   -102518.41048  24042199.06348
  22611689.117 6   -168213.973 6   -117215.96548  22611685.24648
  23595781.781 4   -174824.211 4   -102312.02046  23595779.60946
  21674139.109 6    -95937.277 6    -68754.22749  21674139.05149
 20  5 16  5 20 48.0000000  0  8G01G03G07G11G17G22G28G30             0.000264067
  20252972.906 7    -42022.332 7    -28409.72749  20252973.43449
  23245153.539 5   -247089.453 5   -151997.57849  23245156.05149
  21076718.617 6    -13074.621 6     -9440.14149  21076716.64549
  21372454.852 6     18618.109 6     14090.14548  21372452.44948
  24041620.703 5   -159009.641 5   -104890.34848  24041620.24248
  22611116.227 6   -171223.551 6   -119561.09848  22611112.87948
  23594983.492 4   -179021.555 4   -105582.67246  23594980.72346
  21673704.227 6    -98223.051 6    -70535.35249  21673704.06649
 20  5 16  5 20 49.0000000  0  8G01G03G07G11G17G22G28G30             0.000263018
  20252816.250 7    -42843.969 7    -29049.96549  20252817.36749
  23244327.984 6   -251427.488 6   -155377.85949  23244331.09449
  21076659.109 6    -13386.102 6     -9682.85249  21076657.32849
  21372538.383 6     19056.102 6     14431.43448  21372535.79748
  24041041.469 5   -162054.113 5   -107262.66448  24041040.94548
  22610543.016 6   -174233.301 6   -121906.35248  22610539.98048
  23594184.945 4   -183219.500 4   -108853.80146  23594182.34446
  21673269.008 6   -100508.777 6    -72316.43449  21673269.35549
 20  5 16  5 20 50.0000000  0  8G01G03G07G11G17G22G28G30             0.000261969
  20252660.133 7    -43665.313 7    -29689.97749  20252660.91449
  23243502.672 5   -255765.738 5   -158758.31349  23243505.28949
  21076600.047 6    -13697.367 6     -9925.39549  21076598.00449
  21372621.758 6     19493.992 6     14772.64148  21372619.54748
  24040462.258 5   -165098.824 5   -109635.17248  24040461.33648
  22609970.750 6   -177242.992 6   -124251.56348  22609967.35948
  23593385.461 5   -187417.879 5   -112125.25446  23593383.16846
  21672834.289 7   -102794.230 7    -74097.31349  21672834.45349
 20  5 16  5 20 51.0000000  0  8G01G03G07G11G17G22G28G30             0.000260920
  20252503.680 7    -44486.547 7    -30329.90249  20252505.10249
  23242677.273 5   -260104.355 5   -162139.04749  23242679.46149
  21076540.430 6    -14008.535 6    -10167.86749  21076538.61349
  21372705.141 6     19931.629 6     15113.66048  21372702.63348
  24039882.719 5   -168143.930 5   -112007.98048  24039881.86348
  22609397.750 6   -180252.754 6   -126596.82048  22609394.19548
  23592586.633 4   -191616.844 4   -115397.18446  23592584.42646
  21672399.313 6   -105079.590 6    -75878.10549  21672399.73049
 20  5 16  5 20 52.0000000  0  8G01G03G07G11G17G22G28G30             0.000259871
  20252347.375 7    -45307.691 7    -30969.75849  20252348.82849
  23241851.742 5   -264443.395 5   -165520.12149  23241854.18049
  21076481.461 6    -14319.637 6    -10410.28949  21076479.69549
  21372788.148 6     20368.992 6     15454.46148  21372785.74648
  24039302.883 5   -171189.453 5   -114381.11348  24039302.91048
  22608825.516 6   -183262.672 6   -128942.21548  22608821.55948
  23591786.953 4   -195816.355 4   -118669.53546  23591784.87946
  21671964.156 7   -107364.824 7    -77658.81349  21671964.76649
 20  5 16  5 20 53.0000000  0  8G01G03G07G11G17G22G28G30             0.000258820
  20252191.406 7    -46128.570 7    -31609.39849  20252192.43049
  23241025.641 5   -268782.723 5   -168901.41449  23241028.23449
  21076422.305 6    -14630.574 6    -10652.57449  21076420.63749
  21372871.539 6     20806.184 6     15795.12948  21372868.60248
  24038723.227 5   -174235.285 5   -116754.48448  24038722.64848
  22608252.008 6   -186272.570 6   -131287.59448  22608248.57048
  23590987.938 4   -200016.391 4   -121942.29746  23590985.32046
  21671529.227 7   -109649.867 7    -79439.37149  21671529.80149
 20  5 16  5 20 54.0000000  0  8G01G03G07G11G17G22G28G30             0.000257769
  20252034.977 7    -46949.414 7    -32249.02049  20252035.98049
  23240199.922 5   -273122.512 5   -172283.06349  23240202.73049
  21076363.078 6    -14941.488 6    -10894.84849  21076361.42649
  21372954.336 6     21243.039 6     16135.53948  21372952.10948
  24038143.891 5   -177281.563 5   -119128.21148  24038143.15248
  22607679.422 6   -189282.613 6   -133633.08248  22607676.18448
  23590188.461 2   -204216.863 2   -125215.37946  23590186.23046
  21671094.844 6   -111934.852 6    -81219.87949  21671095.14549
 20  5 16  5 20 55.0000000  0  8G01G03G07G11G17G22G28G30             0.000256720
  20251878.945 7    -47769.965 7    -32888.39849  20251879.97749
  23239374.336 5   -277462.578 5   -175664.92249  23239377.30949
  21076303.641 6    -15252.203 6    -11136.96949  21076301.92649
  21373037.734 6     21679.797 6     16475.87148  21373035.50048
  24037563.680 5   -180328.063 5   -121502.10248  24037563.61348
  22607106.789 6   -192292.637 6   -135978.55148  22607103.54348
  23589389.109 3   -208418.031 3   -128488.96546  23589386.87146
  21670659.414 6   -114219.566 6    -83000.17249  21670659.75449
 20  5 16  5 20 56.0000000  0  8G01G03G07G11G17G22G28G30             0.000255669
  20251722.930 7    -48590.320 7    -33527.63749  20251723.93049
  23238548.008 5   -281802.820 5   -179046.92249  23238550.73849
  21076244.664 6    -15562.691 6    -11378.90649  21076243.28149
  21373120.664 6     22116.371 6     16816.05948  21373118.23048
  24036983.938 5   -183374.879 5   -123876.25448  24036983.62148
  22606534.109 6   -195302.629 6   -138323.98448  22606530.71148
  23588589.430 4   -212619.566 4   -131762.89546  23588587.53146
  21670225.313 7   -116504.043 7    -84780.27749  21670225.22749
 20  5 16  5 20 57.0000000  0  8G01G03G07G11G17G22G28G30             0.000254618
  20251566.961 7    -49410.266 7    -34166.56349  20251567.84049
  23237721.719 5   -286143.277 5   -182429.09849  23237724.68049
  21076185.344 6    -15872.855 6    -11620.59049  21076184.04749
  21373203.734 6     22552.996 6     17156.28148  21373201.12148
  24036404.219 5   -186421.797 5   -126250.46948  24036403.98048
  22605961.484 6   -198312.457 6   -140669.31348  22605957.59848
  23587790.398 4   -216821.351 4   -135037.03046  23587787.92246
  21669790.336 6   -118788.148 6    -86560.10549  21669790.87549
 20  5 16  5 20 58.0000000  0  8G01G03G07G11G17G22G28G30             0.000253567
  20251410.828 7    -50229.852 7    -34805.20749  20251412.19149
  23236895.789 5   -290483.879 5   -185811.38749  23236899.04349
  21076127.063 6    -16182.742 6    -11862.05949  21076125.10249
  21373287.125 6     22989.539 6     17496.44148  21373284.47348
  24035824.859 5   -189468.926 5   -128624.85248  24035824.09048
  22605389.070 6   -201322.176 6   -143014.54348  22605384.88748
  23586990.367 3   -221023.516 3   -138311.45746  23586987.78546
  21669355.820 6   -121071.914 6    -88339.66449  21669356.21149
 20  5 16  5 20 59.0000000  0  8G01G03G07G11G17G22G28G30             0.000252514
  20251255.008 7    -51049.148 7    -35443.60949  20251256.36349
  23236069.727 5   -294824.641 5   -189193.79349  23236073.06349
  21076067.891 6    -16492.332 6    -12103.29349  21076066.18849
  21373370.266 6     23426.035 6     17836.56648  21373367.59048
  24035244.273 5   -192516.211 5   -130999.35948  24035244.20348
  22604815.773 6   -204331.793 6   -145359.70348  22604812.18448
  23586191.125 3   -225226.102 3   -141586.21546  23586188.47346
  21668921.109 6   -123355.406 6    -90119.01649  21668921.24649
 20  5 16  5 21  0.0000000  0  8G01G03G07G11G17G22G28G30             0.000251463
  20251099.359 7    -51868.113 7    -36081.77049  20251100.14849
  23235244.000 5   -299165.645 5   -192576.38349  23235246.79349
  21076008.844 6    -16801.637 6    -12344.31649  21076007.16449
  21373453.516 6     23862.461 6     18176.63348  21373450.30148
  24034665.141 5   -195563.762 5   -133374.06548  24034664.38748
  22604243.328 6   -207341.324 6   -147704.79348  22604239.56648
  23585391.430 4   -229428.973 4   -144861.17646  23585388.05546
  21668486.672 6   -125638.527 6    -91898.07449  21668486.92649
 20  5 16  5 21  1.0000000  0  8G01G03G07G11G17G22G28G30             0.000250412
  20250943.461 7    -52686.902 7    -36719.78549  20250943.94949
  23234417.883 5   -303506.984 5   -195959.24649  23234421.25449
  21075950.273 6    -17110.828 6    -12585.25449  21075948.43849
  21373535.938 6     24298.676 6     18516.54348  21373533.18448
  24034085.117 5   -198611.594 5   -135749.00048  24034084.24648
  22603670.695 6   -210350.902 6   -150049.92248  22603666.44148
  23584591.164 4   -233632.473 4   -148136.63746  23584588.44946
  21668052.203 6   -127921.516 6    -93677.02749  21668052.82049
 20  5 16  5 21  2.0000000  0  8G01G03G07G11G17G22G28G30             0.000249359
  20250787.813 7    -53505.504 7    -37357.66049  20250788.42249
  23233592.102 5   -307848.641 5   -199342.35549  23233594.78549
  21075891.633 6    -17419.926 6    -12826.10949  21075889.85249
  21373618.992 6     24734.676 6     18856.27348  21373616.67648
  24033504.969 5   -201659.816 5   -138124.23448  24033504.48848
  22603097.914 6   -213360.527 6   -152395.08648  22603094.07448
  23583791.422 4   -237836.434 4   -151412.45346  23583788.27346
  21667618.023 6   -130204.336 6    -95455.85549  21667618.19549
 20  5 16  5 21  3.0000000  0  8G01G03G07G11G17G22G28G30             0.000248306
  20250632.234 7    -54323.879 7    -37995.35549  20250632.66849
  23232765.141 5   -312190.563 5   -202725.66449  23232767.84849
  21075832.445 6    -17728.801 6    -13066.79749  21075830.80149
  21373701.969 6     25170.492 6     19195.87548  21373699.56348
  24032925.109 5   -204708.285 5   -140499.66848  24032924.56648
  22602525.102 6   -216370.129 6   -154740.22748  22602521.51648
  23582991.516 4   -242040.801 4   -154688.58246  23582988.43446
  21667183.828 6   -132486.930 6    -97234.50449  21667184.00849
 20  5 16  5 21  4.0000000  0  8G01G03G07G11G17G22G28G30             0.000247255
  20250476.016 7    -55141.836 7    -38632.72749  20250476.73449
  23231939.023 5   -316532.582 5   -206109.05549  23231942.11749
  21075774.039 6    -18037.316 6    -13307.19949  21075772.30149
  21373784.977 6     25606.367 6     19535.51648  21373782.14548
  24032344.758 4   -207756.867 4   -142875.18848  24032344.11748
  22601952.570 6   -219379.547 6   -157085.22748  22601948.59048
  23582191.133 4   -246245.500 4   -157964.96946  23582188.39546
  21666749.281 6   -134769.113 6    -99012.82849  21666749.60949
 20  5 16  5 21  5.0000000  0  8G01G03G07G11G17G22G28G30             0.000246202
  20250320.609 7    -55959.762 7    -39270.07049  20250321.68849
  23231112.672 5   -320875.090 5   -209492.82049  23231116.27749
  21075715.367 6    -18345.824 6    -13547.59449  21075713.28949
  21373867.742 6     26041.910 6     19874.90248  21373864.96548
  24031764.383 5   -210805.982 5   -145251.12948  24031763.99248
  22601379.852 6   -222389.121 6   -159430.34448  22601376.04748
  23581391.273 4   -250450.828 4   -161241.85946  23581388.28146
  21666315.188 6   -137051.277 6   -100791.13349  21666315.41849
 20  5 16  5 21  6.0000000  0  8G01G03G07G11G17G22G28G30             0.000245150
  20250164.727 7    -56777.395 7    -39907.18849  20250165.57449
  23230286.281 5   -325217.824 5   -212876.77049  23230289.21949
  21075656.828 6    -18654.129 6    -13787.83249  21075654.73449
  21373951.172 6     26477.313 6     20214.18048  21373948.29748
  24031184.180 5   -213855.219 5   -147627.16848  24031183.38748
  22600807.195 6   -225398.668 6   -161775.43848  22600802.79348
  23580591.219 4   -254656.605 4   -164519.08646  23580587.94946
  21665881.039 6   -139333.133 6   -102569.19549  21665880.86349
 20  5 16  5 21  7.0000000  0  8G01G03G07G11G17G22G28G30             0.000244095
  20250010.008 7    -57594.637 7    -40544.00449  20250010.42649
  23229460.234 5   -329560.688 5   -216260.82449  23229463.40649
  21075598.070 6    -18962.035 6    -14027.76649  21075596.04349
  21374033.773 6     26912.754 6     20553.48048  21374031.17248
  24030603.602 4   -216904.648 4   -150003.35548  24030603.16848
  22600234.375 6   -228408.004 6   -164120.39148  22600230.59048
  23579791.141 3   -258862.500 3   -167796.39546  23579787.71946
  21665446.430 6   -141614.594 6   -104346.94949  21665447.00449
 20  5 16  5 21  8.0000000  0  8G01G03G07G11G17G22G28G30             0.000243042
  20249853.977 7    -58411.574 7    -41180.57449  20249855.35949
  23228633.297 5   -333903.711 5   -219644.98849  23228636.68849
  21075539.383 6    -19269.746 6    -14267.53949  21075537.44949
  21374116.453 6     27348.070 6     20892.68048  21374113.69148
  24030023.484 5   -219954.309 5   -152379.73048  24030023.23048
  22599662.461 6   -231417.273 6   -166465.26648  22599657.91448
  23578989.547 3   -263068.945 3   -171074.13346  23578987.09446
  21665012.344 6   -143895.816 6   -106124.52749  21665012.76249
 20  5 16  5 21  9.0000000  0  8G01G03G07G11G17G22G28G30             0.000241989
  20249698.734 7    -59228.246 7    -41816.95349  20249699.58649
  23227806.961 5   -338247.016 5   -223029.37149  23227810.07849
  21075480.969 6    -19577.195 6    -14507.10249  21075479.31349
  21374199.336 6     27783.301 6     21231.82048  21374196.91848
  24029442.766 5   -223004.215 5   -154756.28948  24029442.82848
  22599089.211 6   -234426.465 6   -168810.10248  22599085.30148
  23578189.227 2   -267275.824 2   -174352.20746  23578186.56646
  21664578.211 6   -146176.746 6   -107901.88349  21664578.69549
 20  5 16  5 21 10.0000000  0  8G01G03G07G11G17G22G28G30             0.000240934
  20249543.430 7    -60044.699 7    -42453.15249  20249544.57049
  23226980.336 5   -342590.590 5   -226413.95749  23226983.75849
  21075422.758 6    -19884.496 6    -14746.54749  21075420.60949
  21374281.992 6     28218.340 6     21570.80948  21374279.24248
  24028862.297 5   -226054.395 5   -157133.03948  24028862.45348
  22598516.586 6   -237435.723 6   -171154.98848  22598512.77348
  23577389.063 3   -271483.082 3   -177630.59446  23577385.77046
  21664144.563 6   -148457.445 6   -109679.05549  21664145.24249
 20  5 16  5 21 11.0000000  0  8G01G03G07G11G17G22G28G30             0.000239880
  20249387.961 7    -60860.836 7    -43089.09849  20249389.00849
  23226153.773 5   -346934.363 5   -229798.71949  23226156.37549
  21075363.820 6    -20191.504 6    -14985.75849  21075362.60949
  21374365.141 6     28653.328 6     21909.77048  21374362.05948
  24028282.180 5   -229104.773 5   -159509.95748  24028282.16448
  22597944.164 6   -240444.844 6   -173499.77048  22597940.13748
  23576588.188 3   -275690.832 3   -180909.37146  23576585.36346
  21663710.773 6   -150737.879 6   -111456.02049  21663710.82449
 20  5 16  5 21 12.0000000  0  8G01G03G07G11G17G22G28G30             0.000238827
  20249232.828 7    -61676.750 7    -43724.87149  20249233.52749
  23225326.914 5   -351278.461 5   -233183.73849  23225329.90649
  21075305.477 6    -20498.340 6    -15224.84449  21075304.29749
  21374447.672 6     29088.137 6     22248.58248  21374444.91448
  24027701.516 5   -232155.516 5   -161887.14848  24027701.57848
  22597371.508 6   -243453.977 6   -175844.55148  22597367.26248
  23575786.875 3   -279899.016 3   -184188.48446  23575784.19146
  21663276.078 6   -153018.070 6   -113232.80149  21663277.10549
 20  5 16  5 21 13.0000000  0  8G01G03G07G11G17G22G28G30             0.000237772
  20249077.305 7    -62492.367 7    -44360.41449  20249078.44149
  23224500.680 5   -355622.766 5   -236568.91049  23224503.68849
  21075247.219 6    -20804.957 6    -15463.77749  21075245.75449
  21374530.250 6     29522.855 6     22587.32448  21374527.84848
  24027120.781 5   -235206.465 5   -164264.50448  24027120.98048
  22596798.625 6   -246463.043 6   -178189.27348  22596794.72748
  23574985.727 3   -284107.625 3   -187467.89846  23574983.93046
  21662842.773 6   -155297.988 6   -115009.35549  21662843.27049
 20  5 16  5 21 14.0000000  0  8G01G03G07G11G17G22G28G30             0.000236717
  20248922.305 7    -63307.551 7    -44995.62149  20248922.65649
  23223673.664 5   -359967.160 5   -239954.15049  23223676.81649
  21075188.797 6    -21111.141 6    -15702.35949  21075187.17249
  21374612.625 6     29957.617 6     22926.09848  21374609.99248
  24026541.680 4   -238257.406 4   -166641.86348  24026540.19148
  22596226.172 6   -249471.938 6   -180533.84848  22596222.07848
  23574184.945 3   -288316.426 3   -190747.46946  23574182.74646
  21662408.922 6   -157577.430 6   -116785.54749  21662408.73449
 20  5 16  5 21 15.0000000  0  8G01G03G07G11G17G22G28G30             0.000235662
  20248767.633 7    -64122.465 7    -45630.62949  20248767.76649
  23222846.539 6   -364311.750 6   -243339.53549  23222850.71949
  21075130.391 6    -21417.160 6    -15940.81649  21075129.19549
  21374695.469 6     30392.281 6     23264.80148  21374693.30148
  24025960.352 4   -241308.684 4   -169019.48048  24025959.41048
  22595653.820 6   -252480.742 6   -182878.34448  22595649.17248
  23573384.008 3   -292525.676 3   -194027.40646  23573382.21546
  21661975.094 6   -159856.668 6   -118561.57849  21661975.09049
 20  5 16  5 21 16.0000000  0  8G01G03G07G11G17G22G28G30             0.000234606
  20248612.711 7    -64937.109 7    -46265.41049  20248613.11749
  23222020.313 5   -368656.605 5   -246725.12949  23222024.36749
  21075072.555 6    -21722.910 6    -16179.05949  21075070.66849
  21374778.328 6     30826.801 6     23603.37548  21374775.79748
  24025379.281 5   -244360.172 5   -171397.26648  24025378.49648
  22595081.141 6   -255489.465 6   -185222.78948  22595076.92648
  23572583.195 3   -296735.348 3   -197307.67646  23572581.01646
  21661541.352 6   -162135.641 6   -120337.40649  21661541.33649
 20  5 16  5 21 17.0000000  0  8G01G03G07G11G17G22G28G30             0.000233551
  20248457.102 7    -65751.504 7    -46900.00849  20248457.82049
  23221193.789 5   -373001.723 5   -250110.91449  23221197.43449
  21075014.555 6    -22028.461 6    -16417.15249  21075012.82849
  21374860.820 6     31261.172 6     23941.84048  21374858.42648
  24024799.508 3   -247411.977 3   -173775.29348  24024797.66848
  22594508.930 6   -258498.203 6   -187567.25848  22594504.21948
  23571781.961 2   -300945.469 2   -200588.30946  23571779.98846
  21661107.773 6   -164414.344 6   -122113.02349  21661108.01249
 20  5 16  5 21 18.0000000  0  8G01G03G07G11G17G22G28G30             0.000232496
  20248302.477 7    -66565.402 7    -47534.22749  20248302.89849
  23220366.023 5   -377346.824 5   -253496.71149  23220370.79749
  21074957.008 6    -22333.598 6    -16654.93449  21074954.44549
  21374943.641 6     31695.684 6     24280.42248  21374940.68448
  24024218.094 3   -250463.781 3   -176153.27747  24024216.99247
  22593936.406 6   -261506.645 6   -189911.50847  22593931.67247
  23570980.242 2   -305155.809 2   -203869.08246  23570979.14146
  21660674.328 6   -166692.570 6   -123888.26249  21660673.87149
 20  5 16  5 21 19.0000000  0  8G01G03G07G11G17G22G28G30             0.000231440
  20248147.563 7    -67379.070 7    -48168.25049  20248148.59049
  23219539.664 5   -381692.262 5   -256882.76649  23219543.86749
  21074898.914 6    -22638.496 6    -16892.53149  21074896.75849
  21375026.430 6     32130.012 6     24618.85548  21375023.54348
  24023637.469 3   -253515.883 3   -178531.50447  24023635.67247
  22593363.289 6   -264515.082 6   -192255.74247  22593359.34047
  23570179.547 1   -309366.551 1   -207150.16445  23570177.62545
  21660240.836 6   -168970.574 6   -125663.32849  21660240.87149
 20  5 16  5 21 20.0000000  0  8G01G03G07G11G17G22G28G30             0.000230383
  20247992.711 7    -68192.547 7    -48802.12949  20247993.27749
  23218712.188 5   -386037.961 5   -260269.02049  23218716.93849
  21074840.852 6    -22943.266 6    -17130.01649  21074838.57449
  21375108.992 6     32564.156 6     24957.16448  21375106.36748
  24023057.211 3   -256568.324 3   -180910.02347  24023054.89147
  22592791.133 6   -267523.559 6   -194600.00847  22592786.57847
  23569378.227 1   -313577.820 1   -210431.66045  23569375.95345
  21659807.820 6   -171248.406 6   -127438.25849  21659807.52049
 20  5 16  5 21 21.0000000  0  8G01G03G07G11G17G22G28G30             0.000229328
  20247838.023 7    -69005.555 7    -49435.64149  20247838.56649
  23217884.898 5   -390383.684 5   -263655.29749  23217889.94149
  21074782.563 6    -23247.660 6    -17367.19949  21074781.12949
  21375191.500 6     32998.410 6     25295.54748  21375189.07848
  24022476.109 3   -259620.793 3   -183288.57847  24022473.93847
  22592218.680 6   -270531.742 6   -196944.04747  22592214.03147
  23568576.273 2   -317789.293 2   -213713.32845  23568574.72345
  21659374.180 6   -173525.754 6   -129212.81349  21659373.68849
 20  5 16  5 21 22.0000000  0  8G01G03G07G11G17G22G28G30             0.000228271
  20247683.453 7    -69818.184 7    -50068.85249  20247683.91049
  23217058.359 5   -394729.551 5   -267041.70349  23217062.68449
  21074724.961 6    -23551.723 6    -17604.12149  21074723.10249
  21375273.898 6     33432.621 6     25633.89148  21375271.53148
  24021895.094 3   -262673.484 3   -185667.31347  24021892.61347
  22591646.211 6   -273539.809 6   -199287.99247  22591641.77047
  23567775.438 3   -322001.109 3   -216995.27745  23567773.41045
  21658940.648 6   -175802.758 6   -130987.10249  21658940.35949
 20  5 16  5 21 23.0000000  0  8G01G03G07G11G17G22G28G30             0.000227215
  20247528.805 7    -70630.688 7    -50701.96549  20247529.42249
  23216231.094 5   -399075.844 5   -270428.43049  23216235.85949
  21074666.711 5    -23855.664 5    -17840.95349  21074664.64849
  21375356.820 6     33866.609 6     25972.05548  21375354.22348
  24021313.336 4   -265726.469 4   -188046.27347  24021311.68447
  22591073.781 6   -276547.926 6   -201631.97347  22591069.24647
  23566973.063 2   -326213.438 2   -220277.63345  23566971.72345
  21658507.813 6   -178079.629 6   -132761.28949  21658507.27349
 20  5 16  5 21 24.0000000  0  8G01G03G07G11G17G22G28G30             0.000226158
  20247374.367 7    -71442.762 7    -51334.75849  20247374.84449
  23215404.063 5   -403422.121 5   -273815.14549  23215408.60549
  21074609.266 6    -24159.254 6    -18077.52049  21074607.50449
  21375438.906 6     34300.605 6     26310.22348  21375436.40248
  24020732.859 3   -268779.551 3   -190425.30147  24020730.60547
  22590501.258 6   -279555.863 6   -203975.82047  22590496.66447
  23566171.945 2   -330426.094 2   -223560.21545  23566169.85245
  21658074.516 6   -180356.082 6   -134535.15249  21658073.92649
 20  5 16  5 21 25.0000000  0  8G01G03G07G11G17G22G28G30             0.000225101
  20247220.023 7    -72254.566 7    -51967.32849  20247220.37949
  23214577.313 5   -407768.727 5   -277202.10949  23214581.62549
  21074551.484 6    -24462.613 6    -18313.90649  21074549.68049
  21375521.875 6     34734.504 6     26648.32848  21375519.58648
  24020151.016 2   -271832.895 2   -192804.51247  24020149.80147
  22589929.031 6   -282563.727 6   -206319.61348  22589924.62148
  23565370.305 2   -334639.168 2   -226843.13745  23565368.51245
  21657641.086 6   -182632.266 6   -136308.80549  21657640.71149
 20  5 16  5 21 26.0000000  0  8G01G03G07G11G17G22G28G30             0.000224043
  20247065.641 7    -73065.934 7    -52599.56349  20247066.09049
  23213750.680 5   -412115.367 5   -280589.10249  23213754.05949
  21074493.641 6    -24765.566 6    -18549.97349  21074491.94949
  21375604.250 6     35168.422 6     26986.44148  21375601.77048
  24019570.070 3   -274886.391 3   -195183.85547  24019568.45347
  22589356.422 6   -285571.383 6   -208663.24248  22589352.49248
  23564568.922 3   -338852.445 3   -230126.19145  23564566.62145
  21657207.898 6   -184908.027 6   -138082.12149  21657207.71149
 20  5 16  5 21 27.0000000  0  8G01G03G07G11G17G22G28G30             0.000222986
  20246911.063 7    -73877.059 7    -53231.61349  20246911.57449
  23212923.516 5   -416462.266 5   -283976.27749  23212927.20749
  21074436.211 6    -25068.336 6    -18785.89549  21074434.18849
  21375687.164 6     35602.246 6     27324.48848  21375684.48848
  24018989.422 4   -277940.098 4   -197563.37147  24018987.08247
  22588784.109 6   -288579.035 6   -211006.85248  22588780.37548
  23563766.922 3   -343066.188 3   -233409.62945  23563765.09045
  21656774.711 6   -187183.563 6   -139855.26249  21656774.64849
 20  5 16  5 21 28.0000000  0  8G01G03G07G11G17G22G28G30             0.000221928
  20246756.688 7    -74687.824 7    -53863.37149  20246757.63349
  23212096.180 5   -420809.367 5   -287363.62149  23212099.93449
  21074378.961 6    -25370.809 6    -19021.58249  21074377.13349
  21375769.781 6     36035.992 6     27662.47348  21375766.82448
  24018407.750 5   -280994.012 5   -199943.06347  24018406.22347
  22588212.289 6   -291586.563 6   -213350.36348  22588208.16848
  23562963.828 2   -347280.297 2   -236693.33645  23562963.17245
  21656341.781 6   -189458.742 6   -141628.12949  21656341.97349
 20  5 16  5 21 29.0000000  0  8G01G03G07G11G17G22G28G30             0.000220871
  20246602.648 7    -75498.410 7    -54494.99649  20246602.88749
  23211269.094 5   -425156.727 5   -290751.18049  23211273.03549
  21074321.477 6    -25673.098 6    -19257.11749  21074319.42649
  21375852.109 6     36469.570 6     28000.31648  21375849.55148
  24017826.055 5   -284048.199 5   -202322.96948  24017824.95348
  22587640.016 6   -294594.055 6   -215693.86748  22587635.09848
  23562161.992 1   -351494.820 1   -239977.37945  23562161.03945
  21655908.961 6   -191733.727 6   -143400.84849  21655908.89549
 20  5 16  5 21 30.0000000  0  8G01G03G07G11G17G22G28G30             0.000219812
  20246448.609 7    -76308.359 7    -55126.12549  20246449.15249
  23210441.969 5   -429503.953 5   -294138.63749  23210445.87949
  21074263.539 6    -25974.840 6    -19492.24649  21074262.02049
  21375934.633 6     36903.395 6     28338.35548  21375932.10948
  24017245.117 5   -287102.266 5   -204702.77048  24017243.83648
  22587067.359 6   -297601.172 6   -218037.07848  22587062.79748
  23561360.547 1   -355709.422 1   -243261.50045  23561358.85245
  21655476.008 6   -194008.074 6   -145173.06349  21655476.50049
 20  5 16  5 21 31.0000000  0  8G01G03G07G11G17G22G28G30             0.000218756
  20246294.656 7    -77117.895 7    -55756.93049  20246294.98849
  23209614.336 5   -433851.297 5   -297526.19549  23209618.48849
  21074206.852 6    -26276.188 6    -19727.06649  21074204.50849
  21376017.125 6     37337.227 6     28676.41048  21376014.92648
  24016664.727 5   -290156.445 5   -207082.64848  24016662.70348
  22586495.313 6   -300608.074 6   -220380.12147  22586490.19947
  23560558.203 2   -359924.355 2   -246545.86345  23560556.77345
  21655043.453 6   -196282.039 6   -146944.98449  21655043.59449
 20  5 16  5 21 32.0000000  0  8G01G03G07G11G17G22G28G30             0.000217697
  20246140.531 7    -77927.141 7    -56387.51249  20246141.09449
  23208787.242 5   -438198.875 5   -300913.93048  23208791.28148
  21074149.406 6    -26577.328 6    -19961.72749  21074147.09049
  21376099.500 6     37770.969 6     29014.39148  21376097.56348
  24016083.063 5   -293210.891 5   -209462.73448  24016081.79748
  22585923.016 6   -303614.938 6   -222723.12547  22585918.65247
  23559756.641 2   -364139.656 2   -249830.52045  23559754.68845
  21654610.969 6   -198555.727 6   -148716.69149  21654611.14549
 20  5 16  5 21 33.0000000  0  8G01G03G07G11G17G22G28G30             0.000216639
  20245986.484 7    -78736.074 7    -57017.85549  20245986.94549
  23207960.125 5   -442546.652 5   -304301.80948  23207963.91448
  21074092.219 6    -26878.199 6    -20196.16849  21074090.25849
  21376182.320 6     38204.625 6     29352.30948  21376179.76648
  24015501.727 5   -296265.539 5   -211842.97748  24015500.30148
  22585351.070 6   -306621.703 6   -225066.06347  22585346.15247
  23558953.688 2   -368355.363 2   -253115.47745  23558952.58245
  21654178.500 6   -200829.109 6   -150488.15649  21654178.55149
 20  5 16  5 21 34.0000000  0  8G01G03G07G11G17G22G28G30             0.000215580
  20245832.656 7    -79544.711 7    -57647.96149  20245833.09449
  23207132.898 5   -446894.629 5   -307689.83249  23207136.54349
  21074035.211 6    -27178.816 6    -20430.42249  21074032.88349
  21376264.539 6     38638.203 6     29690.15648  21376262.28148
  24014920.836 5   -299320.457 5   -214223.43848  24014919.06648
  22584778.453 6   -309628.336 6   -227408.90248  22584774.46148
  23558151.734 2   -372571.469 2   -256400.75045  23558150.34445
  21653745.398 6   -203102.211 6   -152259.40249  21653746.30549
 20  5 16  5 21 35.0000000  0  8G01G03G07G11G17G22G28G30             0.000214521
  20245678.844 7    -80353.039 7    -58277.82449  20245679.97749
  23206306.102 5   -451242.738 5   -311077.96549  23206308.29349
  21073977.383 7    -27479.191 7    -20664.51649  21073975.37549
  21376347.445 6     39071.754 6     30027.99248  21376344.71948
  24014339.375 4   -302375.430 4   -216603.94948  24014338.14548
  22584206.930 6   -312634.910 6   -229751.68848  22584202.67648
  23557350.539 3   -376787.965 3   -259686.33245  23557347.97345
  21653312.930 6   -205374.977 6   -154030.38349  21653313.64549
 20  5 16  5 21 36.0000000  0  8G01G03G07G11G17G22G28G30             0.000213461
  20245525.023 7    -81160.922 7    -58907.35549  20245526.00049
  23205478.344 5   -455590.980 5   -314466.21149  23205480.73049
  21073920.289 6    -27779.117 6    -20898.26649  21073918.16449
  21376429.469 6     39505.270 6     30365.80948  21376427.23048
  24013757.180 5   -305430.766 5   -218984.73448  24013756.27048
  22583634.156 6   -315641.250 6   -232094.28948  22583629.88348
  23556547.922 4   -381004.703 4   -262972.11345  23556545.55145
  21652880.453 6   -207647.391 6   -155801.09049  21652880.95349
 20  5 16  5 21 37.0000000  0  8G01G03G07G11G17G22G28G30             0.000212402
  20245370.984 7    -81968.590 7    -59536.69949  20245371.99649
  23204650.000 5   -459939.551 5   -317854.70349  23204653.59049
  21073863.063 7    -28078.898 7    -21131.87949  21073861.45349
  21376512.469 6     39938.645 6     30703.50448  21376509.79748
  24013176.031 6   -308486.262 6   -221365.64148  24013175.41448
  22583062.258 6   -318647.621 6   -234436.91848  22583058.44948
  23555745.297 5   -385221.945 5   -266258.27746  23555743.10946
  21652448.336 6   -209919.500 6   -157571.56649  21652448.80949
 20  5 16  5 21 38.0000000  0  8G01G03G07G11G17G22G28G30             0.000211344
  20245217.664 7    -82775.965 7    -60165.82049  20245218.54349
  23203822.406 5   -464288.258 5   -321243.29749  23203825.60249
  21073806.281 6    -28378.445 6    -21365.29349  21073804.20349
  21376595.188 6     40371.938 6     31041.13348  21376592.55548
  24012594.703 6   -311541.941 6   -223746.68048  24012594.82448
  22582489.984 6   -321653.891 6   -236779.46948  22582486.39848
  23554942.508 5   -389439.477 5   -269544.68046  23554940.41046
  21652016.000 6   -212191.340 6   -159341.84449  21652016.50849
 20  5 16  5 21 39.0000000  0  8G01G03G07G11G17G22G28G30             0.000210283
  20245064.031 7    -83583.004 7    -60794.68849  20245065.10549
  23202995.273 5   -468637.160 5   -324632.05149  23202998.39849
  21073749.555 6    -28677.668 6    -21598.44549  21073747.50849
  21376677.344 6     40805.176 6     31378.71148  21376674.53548
  24012013.438 6   -314597.816 6   -226127.87948  24012012.94548
  22581917.828 6   -324660.047 6   -239121.92648  22581914.06348
  23554140.039 5   -393657.391 5   -272831.35246  23554137.82046
  21651583.836 6   -214462.840 6   -161111.85249  21651584.73449
 20  5 16  5 21 40.0000000  0  8G01G03G07G11G17G22G28G30             0.000209223
  20244910.352 7    -84389.859 7    -61423.40649  20244911.51249
  23202167.703 5   -472986.402 5   -328021.07849  23202170.59849
  21073692.539 7    -28976.805 7    -21831.53149  21073690.27749
  21376759.750 6     41238.180 6     31716.10948  21376756.78148
  24011432.203 6   -317654.016 6   -228509.33248  24011431.41848
  22581346.125 6   -327666.254 6   -241464.41848  22581342.45348
  23553337.063 5   -397875.824 5   -276118.44146  23553335.09846
  21651151.422 6   -216734.168 6   -162881.72349  21651152.23449
 20  5 16  5 21 41.0000000  0  8G01G03G07G11G17G22G28G30             0.000208164
  20244756.898 7    -85196.387 7    -62051.87149  20244757.74649
  23201339.797 5   -477335.813 5   -331410.23049  23201342.58649
  21073635.594 7    -29275.629 7    -22064.37949  21073633.51649
  21376842.141 6     41671.145 6     32053.48448  21376839.74648
  24010850.305 6   -320710.398 6   -230890.93048  24010849.89548
  22580773.891 6   -330672.324 6   -243806.80948  22580770.19948
  23552534.352 5   -402094.602 5   -279405.80546  23552532.09446
  21650718.984 6   -219005.184 6   -164651.34449  21650719.92649
 20  5 16  5 21 42.0000000  0  8G01G03G07G11G17G22G28G30             0.000207104
  20244603.508 7    -86002.637 7    -62680.11349  20244604.45349
  23200512.102 5   -481685.453 5   -334799.55949  23200515.10549
  21073578.695 7    -29574.258 7    -22297.07449  21073576.50049
  21376924.273 6     42104.016 6     32390.77748  21376921.74248
  24010269.375 6   -323767.051 6   -233272.73448  24010268.83248
  22580201.727 6   -333678.375 6   -246149.18448  22580198.20348
  23551731.570 5   -406313.801 5   -282693.50446  23551729.50446
  21650287.125 6   -221275.918 6   -166420.74649  21650287.87949
 20  5 16  5 21 43.0000000  0  8G01G03G07G11G17G22G28G30             0.000206043
  20244450.266 7    -86808.434 7    -63308.01249  20244451.07449
  23199684.016 5   -486035.172 5   -338188.94149  23199687.29749
  21073522.070 7    -29872.477 7    -22529.45349  21073520.01649
  21377006.820 6     42536.914 6     32728.10948  21377004.31348
  24009687.648 6   -326823.762 6   -235654.59048  24009686.86348
  22579629.977 6   -336684.188 6   -248491.37148  22579626.32448
  23550928.203 5   -410533.273 5   -285981.39846  23550926.27746
  21649854.898 6   -223546.227 6   -168189.81349  21649855.67249
 20  5 16  5 21 44.0000000  0  8G01G03G07G11G17G22G28G30             0.000204983
  20244296.906 7    -87613.910 7    -63935.65649  20244297.71149
  23198856.602 5   -490385.016 5   -341578.43449  23198859.23449
  21073465.219 7    -30170.410 7    -22761.61749  21073463.15649
  21377088.992 6     42969.754 6     33065.38748  21377086.37948
  24009105.836 6   -329880.656 6   -238036.58248  24009104.86348
  22579057.898 6   -339689.859 6   -250833.45748  22579054.28548
  23550125.508 5   -414753.059 5   -289269.53946  23550123.18846
  21649423.156 6   -225816.207 6   -169958.62949  21649423.92649
 20  5 16  5 21 45.0000000  0  8G01G03G07G11G17G22G28G30             0.000203922
  20244143.914 7    -88419.082 7    -64563.05949  20244145.05549
  23198028.586 5   -494735.066 5   -344968.08649  23198031.77749
  21073408.711 7    -30468.094 7    -22993.58249  21073406.37549
  21377171.352 6     43402.531 6     33402.61348  21377168.73048
  24008523.813 6   -332937.773 6   -240418.74649  24008523.33649
  22578485.992 6   -342695.473 6   -253175.49248  22578482.27748
  23549322.102 5   -418973.246 5   -292557.99646  23549320.11346
  21648991.500 6   -228085.879 6   -171727.20349  21648991.91849
 20  5 16  5 21 46.0000000  0  8G01G03G07G11G17G22G28G30             0.000202860
  20243990.648 7    -89223.848 7    -65190.14849  20243991.66849
  23197200.195 5   -499085.219 5   -348357.81349  23197203.86749
  21073351.961 7    -30765.395 7    -23225.24649  21073349.95749
  21377253.750 6     43835.328 6     33739.86348  21377251.18048
  24007941.953 6   -335994.965 6   -242800.97348  24007941.43848
  22577913.750 6   -345700.832 6   -255517.33248  22577910.33248
  23548519.258 5   -423193.676 5   -295846.65246  23548516.79746
  21648559.766 6   -230355.145 6   -173495.46149  21648559.78949
 20  5 16  5 21 47.0000000  0  8G01G03G07G11G17G22G28G30             0.000201799
  20243837.672 7    -90028.230 7    -65816.93849  20243838.10949
  23196372.844 5   -503435.496 5   -351747.63749  23196375.84049
  21073295.656 7    -31062.355 7    -23456.64149  21073293.09049
  21377336.344 6     44268.117 6     34077.09848  21377333.64848
  24007359.547 6   -339052.316 6   -245183.32849  24007359.36349
  22577342.180 6   -348706.078 6   -257859.08648  22577338.29348
  23547715.891 5   -427414.496 5   -299135.60246  23547713.82846
  21648127.914 6   -232623.996 6   -175263.40649  21648128.08249
 20  5 16  5 21 48.0000000  0  8G01G03G07G11G17G22G28G30             0.000200737
  20243684.539 7    -90832.215 7    -66443.42249  20243685.23849
  23195545.242 5   -507785.922 5   -355137.58249  23195547.99249
  21073239.297 7    -31359.020 7    -23687.80549  21073237.09849
  21377419.094 6     44700.918 6     34414.34848  21377415.86748
  24006778.359 6   -342109.816 6   -247565.80148  24006777.62148
  22576770.367 6   -351711.133 6   -260200.68848  22576766.78148
  23546912.930 5   -431635.535 5   -302424.72746  23546910.57846
  21647696.164 6   -234892.523 6   -177031.09049  21647696.68849
 20  5 16  5 21 49.0000000  0  8G01G03G07G11G17G22G28G30             0.000199677
  20243531.672 7    -91635.852 7    -67069.63749  20243532.55149
  23194717.336 5   -512136.469 5   -358527.62549  23194720.00049
  21073182.852 7    -31655.324 7    -23918.69149  21073180.53549
  21377501.195 6     45133.691 6     34751.57448  21377498.44548
  24006196.109 6   -345167.453 6   -249948.37148  24006195.60248
  22576198.328 6   -354716.031 6   -262542.16448  22576195.07848
  23546109.391 5   -435856.922 5   -305714.11346  23546107.31346
  21647264.625 6   -237160.652 6   -178798.46549  21647264.84049
 20  5 16  5 21 50.0000000  0  8G01G03G07G11G17G22G28G30             0.000198614
  20243378.984 7    -92439.063 7    -67695.51649  20243379.77749
  23193889.414 5   -516487.102 5   -361917.72349  23193892.13349
  21073126.461 7    -31951.293 7    -24149.32049  21073124.34449
  21377583.508 6     45566.492 6     35088.81648  21377580.63748
  24005615.078 6   -348225.219 6   -252331.04748  24005613.87948
  22575626.359 6   -357720.750 6   -264883.50848  22575622.93448
  23545306.352 5   -440078.574 5   -309003.69946  23545303.61746
  21646832.938 6   -239428.410 6   -180565.55149  21646833.23049
 20  5 16  5 21 51.0000000  0  8G01G03G07G11G17G22G28G30             0.000197554
  20243225.828 7    -93241.988 7    -68321.17249  20243226.91449
  23193060.898 5   -520837.938 5   -365307.97749  23193064.16849
  21073070.133 7    -32247.008 7    -24379.75449  21073067.96549
  21377665.906 6     45999.184 6     35425.97748  21377663.25448
  24005032.391 6   -351283.199 6   -254713.87948  24005032.27048
  22575055.078 6   -360725.398 6   -267224.78948  22575050.96548
  23544502.453 5   -444300.676 5   -312293.64146  23544500.25446
  21646401.867 6   -241695.875 6   -182332.40649  21646401.78949
 20  5 16  5 21 52.0000000  0  8G01G03G07G11G17G22G28G30             0.000196491
  20243073.180 7    -94044.598 7    -68946.57449  20243073.79749
  23192233.188 5   -525188.984 5   -368698.39849  23192236.22749
  21073013.977 7    -32542.453 7    -24609.96949  21073011.83249
  21377748.508 6     46431.816 6     35763.08248  21377745.19148
  24004450.664 6   -354341.379 6   -257096.87148  24004449.62148
  22574482.695 6   -363729.906 6   -269565.96548  22574479.70748
  23543699.336 5   -448523.113 5   -315583.85546  23543696.75846
  21645970.383 6   -243963.035 6   -184099.02349  21645970.48449
 20  5 16  5 21 53.0000000  0  8G01G03G07G11G17G22G28G30             0.000195429
  20242920.453 7    -94846.805 7    -69571.67249  20242921.39549
  23191405.195 5   -529540.117 5   -372088.89149  23191408.31649
  21072957.773 7    -32837.531 7    -24839.90249  21072955.76249
  21377830.695 6     46864.461 6     36100.21548  21377827.58248
  24003868.797 6   -357399.684 6   -259479.96548  24003867.85248
  22573911.422 6   -366734.246 6   -271907.00848  22573908.29748
  23542895.781 5   -452745.824 5   -318874.30146  23542893.43046
  21645538.648 6   -246229.781 6   -185865.32049  21645539.19949
 20  5 16  5 21 54.0000000  0  8G01G03G07G11G17G22G28G30             0.000194366
  20242768.008 7    -95648.648 7    -70196.48849  20242769.03149
  23190576.891 5   -533891.372 5   -375479.47349  23190580.69149
  21072901.844 7    -33132.320 7    -25069.60549  21072899.47349
  21377912.617 6     47297.063 6     36437.30548  21377910.23048
  24003286.516 5   -360458.148 5   -261863.18448  24003285.68448
  22573339.586 6   -369738.461 6   -274247.94948  22573336.32448
  23542091.711 5   -456968.867 5   -322164.98846  23542089.44946
  21645107.539 6   -248496.184 6   -187631.34849  21645108.00849
 20  5 16  5 21 55.0000000  0  8G01G03G07G11G17G22G28G30             0.000193304
  20242615.422 7    -96450.172 7    -70821.04749  20242616.13749
  23189749.242 5   -538242.828 5   -378870.21949  23189752.41849
  21072845.750 7    -33426.828 7    -25299.10249  21072843.07049
  21377994.891 6     47729.590 6     36774.34048  21377991.96148
  24002704.914 6   -363516.805 6   -264246.54748  24002703.91448
  22572768.227 6   -372742.551 6   -276588.80548  22572764.64548
  23541288.484 5   -461192.309 5   -325455.98046  23541286.02346
  21644676.672 6   -250762.258 6   -189397.11349  21644677.03949
 20  5 16  5 21 56.0000000  0  8G01G03G07G11G17G22G28G30             0.000192242
  20242463.133 7    -97251.391 7    -71445.37949  20242463.95749
  23188921.414 5   -542594.508 5   -382261.13749  23188924.16049
  21072789.602 7    -33721.070 7    -25528.37949  21072787.39849
  21378077.305 6     48162.070 6     37111.33648  21378074.56648
  24002122.781 6   -366575.672 6   -266630.07048  24002121.52748
  22572196.672 6   -375746.539 6   -278929.57448  22572193.30948
  23540484.820 5   -465416.105 5   -328747.23046  23540481.85246
  21644245.563 6   -253028.031 6   -191162.65649  21644245.28549
 20  5 16  5 21 57.0000000  0  8G01G03G07G11G17G22G28G30             0.000191177
  20242310.578 7    -98052.184 7    -72069.37149  20242311.54349
  23188093.203 5   -546946.211 5   -385652.06649  23188095.81349
  21072733.766 7    -34014.930 7    -25757.35949  21072731.40649
  21378159.594 6     48594.563 6     37448.34448  21378157.21548
  24001540.219 6   -369634.625 6   -269013.67248  24001539.73848
  22571624.961 6   -378750.320 6   -281270.18448  22571621.47748
  23539680.656 5   -469640.199 5   -332038.73046  23539678.16846
  21643814.328 6   -255293.379 6   -192927.85949  21643814.64849
 20  5 16  5 21 58.0000000  0  8G01G03G07G11G17G22G28G30             0.000190115
  20242158.398 7    -98852.570 7    -72693.04749  20242159.15249
  23187264.617 5   -551298.047 5   -389043.10249  23187267.84449
  21072677.828 7    -34308.449 7    -25986.07449  21072675.54749
  21378241.617 6     49027.066 6     37785.35548  21378239.02748
  24000958.117 5   -372693.676 5   -271397.35248  24000957.39548
  22571053.547 6   -381753.922 6   -283610.65648  22571050.35248
  23538876.680 5   -473864.563 5   -335330.44146  23538874.28546
  21643383.352 6   -257558.313 6   -194692.75049  21643383.59449
 20  5 16  5 21 59.0000000  0  8G01G03G07G11G17G22G28G30             0.000189053
  20242006.125 7    -99652.703 7    -73316.52749  20242006.68449
  23186436.703 5   -555650.098 5   -392434.31349  23186439.95349
  21072622.227 7    -34601.738 7    -26214.61349  21072619.80949
  21378324.039 6     49459.457 6     38122.28548  21378321.64848
  24000376.063 6   -375753.008 6   -273781.24248  24000375.22348
  22570481.984 6   -384757.461 6   -285951.07048  22570478.55548
  23538073.055 5   -478089.328 5   -338622.47346  23538069.95746
  21642952.359 6   -259823.008 6   -196457.44549  21642952.60549
 20  5 16  5 22  0.0000000  0  8G01G03G07G11G17G22G28G30             0.000187988
  20241853.719 7   -100452.547 7    -73939.78549  20241854.89549
  23185608.484 5   -560002.391 5   -395825.69949  23185611.15649
  21072566.047 7    -34894.809 7    -26442.98449  21072563.93049
  21378406.555 6     49891.727 6     38459.11748  21378403.84848
  23999793.836 5   -378812.570 5   -276165.32448  23999793.00048
  22569910.422 6   -387760.914 6   -288291.42648  22569907.04748
  23537268.852 5   -482314.516 5   -341914.82446  23537266.14546
  21642520.984 6   -262087.422 6   -198221.92249  21642521.46949
 20  5 16  5 22  1.0000000  0  8G01G03G07G11G17G22G28G30             0.000186924
  20241701.672 7   -101252.016 7    -74562.75049  20241702.25049
  23184780.742 5   -564354.805 5   -399217.19149  23184782.95349
  21072510.703 7    -35187.559 7    -26671.10249  21072507.87949
  21378488.781 6     50323.992 6     38795.94948  21378486.05148
  23999211.828 6   -381872.281 6   -278549.50848  23999210.61348
  22569338.781 6   -390764.246 6   -290631.68848  22569335.74648
  23536464.531 5   -486539.988 5   -345207.40246  23536462.16846
  21642090.477 6   -264351.473 6   -199986.12149  21642090.97349
 20  5 16  5 22  2.0000000  0  8G01G03G07G11G17G22G28G30             0.000185862
  20241549.711 7   -102051.094 7    -75185.41449  20241550.50449
  23183951.891 5   -568707.348 5   -402608.78549  23183954.74649
  21072455.227 7    -35479.965 7    -26898.95349  21072452.74649
  21378570.883 6     50756.258 6     39132.77348  21378568.61748
  23998629.555 5   -384932.125 5   -280933.80148  23998628.29348
  22568766.859 6   -393767.387 6   -292971.79748  22568763.78548
  23535660.352 5   -490765.805 5   -348500.23846  23535658.00046
  21641659.547 6   -266615.129 6   -201750.01649  21641659.91049
 20  5 16  5 22  3.0000000  0  8G01G03G07G11G17G22G28G30             0.000184797
  20241397.703 7   -102849.863 7    -75807.82849  20241398.50449
  23183123.906 5   -573060.031 5   -406000.48449  23183126.74249
  21072399.430 7    -35772.066 7    -27126.56649  21072397.09049
  21378653.250 6     51188.473 6     39469.56348  21378650.39848
  23998047.055 5   -387992.152 5   -283318.24648  23998046.14148
  22568195.930 6   -396770.414 6   -295311.81348  22568192.41048
  23534856.391 5   -494991.930 5   -351793.31346  23534853.66846
  21641229.320 6   -268878.465 6   -203513.64549  21641228.82849
 20  5 16  5 22  4.0000000  0  8G01G03G07G11G17G22G28G30             0.000183733
  20241245.695 7   -103648.195 7    -76429.90649  20241246.66049
  23182295.313 5   -577412.797 5   -409392.25449  23182297.85249
  21072343.633 7    -36063.820 7    -27353.90649  21072341.27049
  21378735.813 6     51620.691 6     39806.36348  21378732.88348
  23997464.281 5   -391052.313 5   -285702.78548  23997463.66848
  22567624.266 6   -399773.242 6   -297651.68448  22567621.43848
  23534052.094 5   -499218.344 5   -355086.62146  23534049.59846
  21640798.625 6   -271141.395 6   -205276.96949  21640798.66849
 20  5 16  5 22  5.0000000  0  8G01G03G07G11G17G22G28G30             0.000182669
  20241093.727 7   -104445.988 7    -77051.56349  20241094.98849
  23181466.813 5   -581765.543 5   -412784.00049  23181469.90649
  21072288.664 7    -36355.070 7    -27580.85949  21072286.29749
  21378817.805 6     52053.094 6     40143.28948  21378815.14848
  23996882.250 5   -394112.406 5   -288087.27748  23996881.49648
  22567052.984 6   -402775.730 6   -299991.28948  22567050.13748
  23533247.492 5   -503444.895 5   -358380.04746  23533245.16846
  21640368.156 7   -273403.789 7   -207039.88349  21640368.07849
 20  5 16  5 22  6.0000000  0  8G01G03G07G11G17G22G28G30             0.000181604
  20240941.930 7   -105243.465 7    -77672.97349  20240942.77049
  23180638.766 5   -586118.465 5   -416175.88349  23180641.05949
  21072232.883 7    -36646.051 7    -27807.59849  21072230.79749
  21378900.000 6     52485.418 6     40480.16848  21378897.32848
  23996300.148 5   -397172.719 5   -290471.93048  23996299.22748
  22566481.742 6   -405778.117 6   -302330.81648  22566478.68848
  23532443.297 5   -507671.832 5   -361673.76246  23532440.85946
  21639937.891 7   -275665.844 7   -208802.52749  21639937.39849
 20  5 16  5 22  7.0000000  0  8G01G03G07G11G17G22G28G30             0.000180540
  20240790.375 7   -106040.520 7    -78294.05549  20240791.47749
  23179810.047 5   -590471.453 5   -419567.82449  23179813.05549
  21072177.609 7    -36936.652 7    -28034.04749  21072175.28149
  21378982.180 6     52917.750 6     40817.04348  21378979.68448
  23995717.617 5   -400233.125 5   -292856.66448  23995716.63748
  22565910.508 6   -408780.293 6   -304670.17648  22565907.43448
  23531638.609 5   -511899.008 5   -364967.65646  23531636.18846
  21639507.453 7   -277927.496 7   -210564.84849  21639507.39149
 20  5 16  5 22  8.0000000  0  8G01G03G07G11G17G22G28G30             0.000179476
  20240638.602 7   -106837.273 7    -78914.90249  20240639.77749
  23178982.297 5   -594824.645 5   -422959.91849  23178984.79749
  21072122.227 7    -37227.000 7    -28260.28549  21072119.83649
  21379064.336 6     53350.023 6     41153.88348  21379062.06648
  23995135.234 5   -403293.734 5   -295241.55548  23995134.40648
  22565338.688 6   -411782.363 6   -307009.44148  22565335.91848
  23530834.266 5   -516126.589 5   -368261.88446  23530831.78546
  21639076.930 6   -280188.832 6   -212326.92649  21639076.87149
 20  5 16  5 22  9.0000000  0  8G01G03G07G11G17G22G28G30             0.000178410
  20240487.258 7   -107633.621 7    -79535.43449  20240488.09449
  23178153.375 5   -599177.957 5   -426352.10549  23178156.07849
  21072067.453 7    -37517.008 7    -28486.27049  21072064.75049
  21379146.609 6     53782.320 6     41490.73848  21379144.00448
  23994552.117 5   -406354.473 5   -297626.54748  23994552.13348
  22564767.547 6   -414784.266 6   -309348.58648  22564764.76648
  23530029.906 5   -520354.426 5   -371556.30146  23530027.72746
  21638646.375 6   -282449.789 6   -214088.71549  21638646.69549
 20  5 16  5 22 10.0000000  0  8G01G03G07G11G17G22G28G30             0.000177345
  20240335.844 7   -108429.711 7    -80155.76249  20240336.62949
  23177325.898 5   -603531.504 5   -429744.48449  23177327.49649
  21072012.453 7    -37806.801 7    -28712.08249  21072009.96949
  21379228.898 6     54214.438 6     41827.45748  21379226.39148
  23993969.906 5   -409415.477 5   -300011.74248  23993968.77048
  22564196.305 6   -417786.129 6   -311687.69948  22564193.76248
  23529225.398 4   -524582.699 4   -374851.05946  23529222.89846
  21638215.813 6   -284710.492 6   -215850.30549  21638216.51649
 20  5 16  5 22 11.0000000  0  8G01G03G07G11G17G22G28G30             0.000176279
  20240184.352 7   -109225.328 7    -80775.72749  20240184.85249
  23176496.734 5   -607885.066 5   -433136.85949  23176499.60949
  21071956.945 7    -38096.168 7    -28937.57049  21071955.18049
  21379311.367 6     54646.688 6     42164.28148  21379308.66848
  23993386.859 5   -412476.500 5   -302396.96148  23993386.70748
  22563625.578 6   -420787.703 6   -314026.57848  22563622.75448
  23528420.563 5   -528811.168 5   -378145.97346  23528418.07446
  21637786.141 6   -286970.723 6   -217611.52349  21637786.07449
 20  5 16  5 22 12.0000000  0  8G01G03G07G11G17G22G28G30             0.000175215
  20240033.102 7   -110020.543 7    -81395.37949  20240034.18049
  23175667.492 5   -612238.719 5   -436529.31649  23175670.43449
  21071901.992 6    -38385.168 6    -29162.77349  21071899.81349
  21379393.422 6     55078.953 6     42501.12148  21379390.88348
  23992804.422 5   -415537.652 5   -304782.28148  23992804.24648
  22563054.031 6   -423789.098 6   -316365.32848  22563050.73448
  23527615.914 4   -533039.953 4   -381441.13346  23527613.39846
  21637356.484 7   -289230.559 7   -219372.43849  21637356.10949
 20  5 16  5 22 13.0000000  0  8G01G03G07G11G17G22G28G30             0.000174149
  20239881.992 7   -110815.383 7    -82014.73049  20239882.90649
  23174839.477 5   -616592.535 5   -439921.89849  23174841.90249
  21071847.234 7    -38673.875 7    -29387.73849  21071844.66849
  21379475.898 6     55511.176 6     42837.90648  21379473.26248
  23992222.547 5   -418598.980 5   -307167.72348  23992222.05948
  22562483.172 6   -426790.344 6   -318703.96948  22562479.98848
  23526810.984 4   -537269.008 4   -384736.48446  23526808.80946
  21636926.430 6   -291490.008 6   -221133.04749  21636926.32849
 20  5 16  5 22 14.0000000  0  8G01G03G07G11G17G22G28G30             0.000173082
  20239730.672 7   -111609.867 7    -82633.80949  20239731.62549
  23174010.547 5   -620946.457 5   -443314.56349  23174013.07049
  21071792.305 7    -38962.238 7    -29612.43449  21071789.98449
  21379558.031 6     55943.383 6     43174.68048  21379555.47348
  23991639.555 5   -421660.441 5   -309553.27348  23991639.44148
  22561912.352 6   -429791.430 6   -321042.47748  22561909.11748
  23526006.469 5   -541498.422 5   -388032.12146  23526003.87146
  21636496.672 6   -293749.121 6   -222893.39849  21636496.46549
 20  5 16  5 22 15.0000000  0  8G01G03G07G11G17G22G28G30             0.000172018
  20239579.656 7   -112404.027 7    -83252.63349  20239580.27349
  23173182.570 5   -625300.570 5   -446707.38349  23173185.32049
  21071737.453 6    -39250.336 6    -29836.93049  21071735.15649
  21379640.258 6     56375.523 6     43511.41048  21379637.54748
  23991057.445 5   -424722.109 5   -311938.98448  23991056.79748
  22561341.117 6   -432792.434 6   -323380.93048  22561337.97748
  23525200.648 4   -545728.164 4   -391328.03146  23525198.73046
  21636066.508 6   -296007.910 6   -224653.49649  21636066.56349
 20  5 16  5 22 16.0000000  0  8G01G03G07G11G17G22G28G30             0.000170950
  20239428.719 7   -113197.953 7    -83871.27749  20239429.33649
  23172354.133 5   -629654.891 5   -450100.35949  23172356.41449
  21071682.656 6    -39538.238 6    -30061.27049  21071680.53549
  21379722.500 6     56807.551 6     43848.05548  21379719.65648
  23990474.398 5   -427784.012 5   -314324.88348  23990474.03148
  22560770.102 6   -435793.355 6   -325719.30948  22560767.33248
  23524396.172 4   -549958.336 4   -394624.28146  23524394.04346
  21635636.898 6   -298266.445 6   -226413.39549  21635636.85949
 20  5 16  5 22 17.0000000  0  8G01G03G07G11G17G22G28G30             0.000169886
  20239277.578 7   -113991.414 7    -84489.55949  20239278.18449
  23171525.352 5   -634009.328 5   -453493.42649  23171527.90249
  21071627.945 6    -39825.734 6    -30285.29349  21071625.79749
  21379804.922 6     57239.609 6     44184.72348  21379801.90648
  23989891.727 5   -430846.043 5   -316710.87948  23989891.69548
  22560199.227 6   -438794.066 6   -328057.52048  22560196.34448
  23523590.336 5   -554188.797 5   -397920.75446  23523588.87946
  21635207.102 6   -300524.539 6   -228172.95349  21635207.15649
 20  5 16  5 22 18.0000000  0  8G01G03G07G11G17G22G28G30             0.000168818
  20239126.563 7   -114784.543 7    -85107.57849  20239127.40249
  23170696.359 5   -638363.883 5   -456886.59049  23170699.25849
  21071573.023 6    -40112.949 6    -30509.09849  21071571.12549
  21379887.055 6     57671.637 6     44521.36748  21379884.26248
  23989309.289 5   -433908.191 5   -319096.96148  23989309.10548
  22559627.859 6   -441794.621 6   -330395.61748  22559625.23048
  23522785.891 5   -558419.555 5   -401217.44546  23522783.62946
  21634777.938 6   -302782.293 6   -229932.23849  21634777.53549
 20  5 16  5 22 19.0000000  0  8G01G03G07G11G17G22G28G30             0.000167751
  20238975.820 7   -115577.332 7    -85725.33649  20238976.65649
  23169867.898 5   -642718.613 5   -460279.88349  23169870.12949
  21071518.414 6    -40399.859 6    -30732.66849  21071516.45749
  21379969.023 6     58103.609 6     44857.97748  21379966.39548
  23988726.430 5   -436970.531 5   -321483.20348  23988726.07848
  22559056.328 6   -444795.059 6   -332733.62548  22559053.85248
  23521981.359 5   -562650.645 5   -404514.38746  23521978.63746
  21634347.961 6   -305039.688 6   -231691.25049  21634348.03549
 20  5 16  5 22 20.0000000  0  8G01G03G07G11G17G22G28G30             0.000166685
  20238824.789 7   -116369.672 7    -86342.74249  20238825.75849
  23169039.086 5   -647073.379 5   -463673.20749  23169041.67649
  21071464.195 6    -40686.375 6    -30955.92649  21071461.75449
  21380051.242 6     58535.637 6     45194.61348  21380048.75048
  23988143.977 5   -440032.969 5   -323869.52048  23988143.12148
  22558485.953 6   -447795.258 6   -335071.44148  22558483.32448
  23521175.820 4   -566882.004 4   -407811.55546  23521172.87146
  21633918.305 6   -307296.676 6   -233449.94949  21633918.37949
 20  5 16  5 22 21.0000000  0  8G01G03G07G11G17G22G28G30             0.000165619
  20238674.242 7   -117161.559 7    -86959.80149  20238674.97349
  23168210.336 5   -651428.199 5   -467066.56649  23168213.00849
  21071409.805 6    -40972.484 6    -31178.87149  21071407.96549
  21380133.828 6     58967.727 6     45531.30548  21380131.07848
  23987560.602 5   -443095.426 5   -326255.85548  23987560.19948
  22557915.320 6   -450795.211 6   -337409.06348  22557912.64848
  23520370.227 4   -571113.578 4   -411108.87946  23520368.28546
  21633489.227 6   -309553.195 6   -235208.27749  21633488.99649
 20  5 16  5 22 22.0000000  0  8G01G03G07G11G17G22G28G30             0.000164551
  20238523.688 7   -117953.020 7    -87576.52349  20238524.60249
  23167381.547 5   -655783.082 5   -470459.98049  23167384.52049
  21071355.422 6    -41258.227 6    -31401.52749  21071353.35249
  21380215.734 6     59399.863 6     45868.03948  21380213.02348
  23986978.500 5   -446158.020 5   -328642.29348  23986977.52048
  22557344.008 6   -453794.973 6   -339746.54348  22557341.88348
  23519564.758 4   -575345.441 4   -414406.42246  23519562.98846
  21633059.930 6   -311809.305 6   -236966.28549  21633059.60949
 20  5 16  5 22 23.0000000  0  8G01G03G07G11G17G22G28G30             0.000163485
  20238373.289 7   -118744.078 7    -88192.93449  20238373.66049
  23166552.844 5   -660138.086 5   -473853.48449  23166555.43849
  21071301.008 6    -41543.613 6    -31623.91449  21071298.86349
  21380298.016 6     59832.004 6     46204.77348  21380295.55148
  23986395.422 5   -449220.707 5   -331028.80548  23986394.89148
  22556773.445 6   -456794.527 6   -342083.85948  22556771.09048
  23518760.070 4   -579577.578 4   -417704.19546  23518757.18846
  21632630.625 7   -314065.016 7   -238723.98449  21632630.50049
 20  5 16  5 22 24.0000000  0  8G01G03G07G11G17G22G28G30             0.000162416
  20238222.664 7   -119534.824 7    -88809.10549  20238223.35249
  23165724.523 5   -664493.273 5   -477247.13349  23165726.99649
  21071246.898 6    -41828.742 6    -31846.09049  21071244.63349
  21380380.445 6     60264.070 6     46541.44148  21380377.73848
  23985812.250 5   -452283.621 5   -333415.49648  23985812.31648
  22556202.867 6   -459793.973 6   -344421.08248  22556200.50048
  23517954.383 4   -583810.096 4   -421002.26546  23517951.80946
  21632201.430 6   -316320.434 6   -240481.45749  21632201.21549
 20  5 16  5 22 25.0000000  0  8G01G03G07G11G17G22G28G30             0.000161348
  20238072.203 7   -120325.320 7    -89425.07049  20238073.00449
  23164894.922 5   -668848.699 5   -480640.97349  23164898.10249
  21071192.609 6    -42113.633 6    -32068.08249  21071189.98449
  21380462.172 6     60696.008 6     46878.01248  21380459.65248
  23985229.656 5   -455346.797 5   -335802.38748  23985229.19548
  22555631.891 6   -462793.383 6   -346758.28948  22555629.48048
  23517149.117 5   -588043.008 5   -424300.66046  23517145.91846
  21631772.656 7   -318575.555 7   -242238.69549  21631772.01249
 20  5 16  5 22 26.0000000  0  8G01G03G07G11G17G22G28G30             0.000160282
  20237922.023 7   -121115.469 7    -90040.77049  20237922.76649
  23164066.898 5   -673204.242 5   -484034.89849  23164068.86349
  21071138.656 6    -42398.227 6    -32289.84449  21071136.32449
  21380544.461 6     61127.938 6     47214.58248  21380541.78548
  23984646.555 5   -458410.102 5   -338189.37948  23984646.19148
  22555061.063 6   -465792.637 6   -349095.36748  22555058.59848
  23516343.594 5   -592276.230 5   -427599.27046  23516340.91846
  21631343.164 6   -320830.344 6   -243995.67249  21631342.83249
 20  5 16  5 22 27.0000000  0  8G01G03G07G11G17G22G28G30             0.000159214
  20237771.766 7   -121905.074 7    -90656.04749  20237772.35249
  23163237.570 5   -677559.762 5   -487428.81349  23163240.79349
  21071084.688 7    -42682.363 7    -32511.25449  21071082.19549
  21380626.422 6     61559.980 6     47551.23848  21380623.86348
  23984063.734 5   -461473.434 5   -340576.39148  23984063.64848
  22554490.383 6   -468791.590 6   -351432.21548  22554488.06648
  23515538.242 5   -596509.676 5   -430898.06646  23515535.59446
  21630914.391 7   -323084.617 7   -245752.25049  21630914.07449
 20  5 16  5 22 28.0000000  0  8G01G03G07G11G17G22G28G30             0.000158146
  20237621.797 7   -122694.336 7    -91271.05949  20237622.40649
  23162408.133 5   -681915.457 5   -490822.85949  23162411.46149
  21071030.375 6    -42966.180 6    -32732.40649  21071028.25049
  21380708.805 6     61991.984 6     47887.86748  21380706.07448
  23983480.914 5   -464536.910 5   -342963.52048  23983480.66048
  22553920.070 6   -471790.391 6   -353768.94548  22553917.29748
  23514732.398 5   -600743.438 5   -434197.09446  23514729.78946
  21630485.313 6   -325338.555 6   -247508.56649  21630485.16049
 20  5 16  5 22 29.0000000  0  8G01G03G07G11G17G22G28G30             0.000157078
  20237471.273 7   -123483.160 7    -91885.72349  20237472.02749
  23161580.289 5   -686271.168 5   -494216.91449  23161582.49249
  21070976.430 6    -43249.609 6    -32953.26649  21070974.29349
  21380790.820 6     62424.043 6     48224.52748  21380788.47748
  23982898.281 5   -467600.488 5   -345350.72348  23982897.42648
  22553349.117 6   -474788.980 6   -356105.49648  22553346.75448
  23513926.445 5   -604977.418 5   -437496.28546  23513924.19546
  21630056.500 7   -327592.023 7   -249264.51649  21630056.09849
 20  5 16  5 22 30.0000000  0  8G01G03G07G11G17G22G28G30             0.000156010
  20237321.281 7   -124271.656 7    -92500.13749  20237322.07449
  23160750.938 5   -690627.094 5   -497611.14549  23160754.01249
  21070922.688 7    -43532.770 7    -33173.90649  21070920.65249
  21380873.500 6     62856.055 6     48561.16448  21380870.46548
  23982314.383 5   -470664.242 5   -347738.07048  23982314.44148
  22552778.859 6   -477787.426 6   -358441.95748  22552776.18048
  23513120.523 5   -609211.777 5   -440795.78146  23513118.15646
  21629627.641 7   -329845.207 7   -251020.24249  21629627.78149
 20  5 16  5 22 31.0000000  0  8G01G03G07G11G17G22G28G30             0.000154942
  20237171.313 7   -125059.863 7    -93114.32849  20237171.92649
  23159922.148 5   -694983.215 5   -501005.51649  23159924.97349
  21070868.609 6    -43815.688 6    -33394.36349  21070866.61749
  21380955.727 6     63287.941 6     48897.69148  21380952.85948
  23981731.422 5   -473728.219 5   -350125.58248  23981731.49248
  22552208.164 6   -480785.805 6   -360778.35548  22552205.87548
  23512315.523 5   -613446.488 5   -444095.55946  23512312.41446
  21629198.695 7   -332098.066 7   -252775.71549  21629198.78949
 20  5 16  5 22 32.0000000  0  8G01G03G07G11G17G22G28G30             0.000153872
  20237021.344 7   -125847.621 7    -93728.16449  20237022.42649
  23159093.469 5   -699339.383 5   -504399.92649  23159095.61349
  21070814.953 6    -44098.191 6    -33614.49649  21070813.12549
  21381037.773 6     63719.926 6     49234.30148  21381034.84048
  23981149.109 5   -476792.270 5   -352513.15648  23981148.51648
  22551637.859 6   -483783.926 6   -363114.55148  22551635.02348
  23511509.117 5   -617681.484 5   -447395.55946  23511506.50846
  21628770.109 7   -334350.492 7   -254530.85949  21628770.14849
 20  5 16  5 22 33.0000000  0  8G01G03G07G11G17G22G28G30             0.000152803
  20236871.602 7   -126635.051 7    -94341.75049  20236872.34049
  23158263.875 5   -703695.703 5   -507794.45749  23158266.93449
  21070761.258 6    -44380.430 6    -33834.42249  21070759.34849
  21381120.109 6     64151.832 6     49570.85548  21381117.31648
  23980566.109 5   -479856.535 5   -354900.89548  23980565.57448
  22551066.672 6   -486781.949 6   -365450.67648  22551064.57448
  23510704.031 5   -621916.797 5   -450695.81346  23510700.73046
  21628341.531 7   -336602.578 7   -256285.73449  21628341.87149
 20  5 16  5 22 34.0000000  0  8G01G03G07G11G17G22G28G30             0.000151733
  20236721.688 7   -127422.117 7    -94955.04749  20236722.50449
  23157434.727 5   -708052.148 5   -511189.09049  23157437.90249
  21070707.563 6    -44662.332 6    -34054.09049  21070705.41049
  21381202.234 6     64583.727 6     49907.39848  21381199.56648
  23979982.641 5   -482920.922 5   -357288.73048  23979981.95748
  22550496.914 6   -489779.785 6   -367786.65248  22550494.02348
  23509896.992 5   -626152.414 5   -453996.29746  23509894.44146
  21627913.289 7   -338854.313 7   -258040.33249  21627913.25049
 20  5 16  5 22 35.0000000  0  8G01G03G07G11G17G22G28G30             0.000150665
  20236571.961 7   -128208.707 7    -95567.97349  20236573.00449
  23156606.367 5   -712408.664 5   -514583.77349  23156609.05549
  21070654.313 6    -44943.816 6    -34273.43049  21070651.87949
  21381284.445 6     65015.703 6     50244.00048  21381281.69548
  23979399.789 5   -485985.340 5   -359676.58648  23979399.43448
  22549926.477 6   -492777.371 6   -370122.43048  22549923.91048
  23509090.984 5   -630388.281 5   -457296.97746  23509088.33246
  21627484.992 7   -341105.582 7   -259794.56649  21627484.82449
 20  5 16  5 22 36.0000000  0  8G01G03G07G11G17G22G28G30             0.000149595
  20236422.531 7   -128994.918 7    -96180.60549  20236423.49249
  23155777.273 5   -716765.219 5   -517978.49249  23155779.67249
  21070600.625 7    -45224.969 7    -34492.50849  21070598.25849
  21381366.383 6     65447.672 6     50580.60248  21381363.58648
  23978816.336 5   -489049.926 5   -362064.57448  23978815.81648
  22549355.992 6   -495774.770 6   -372458.07048  22549353.20348
  23508285.094 5   -634624.398 5   -460597.84446  23508282.44546
  21627056.672 6   -343356.441 6   -261548.48049  21627056.65649
 20  5 16  5 22 37.0000000  0  8G01G03G07G11G17G22G28G30             0.000148527
  20236272.961 7   -129780.691 7    -96792.89849  20236273.78149
  23154948.383 5   -721121.895 5   -521373.30149  23154950.64549
  21070547.305 7    -45505.746 7    -34711.29749  21070545.41049
  21381448.773 6     65879.652 6     50917.20748  21381446.35248
  23978233.188 5   -492114.578 5   -364452.61748  23978232.75048
  22548785.383 6   -498771.961 6   -374793.54348  22548782.97748
  23507478.625 5   -638860.820 5   -463898.94146  23507476.23446
  21626628.117 6   -345606.895 6   -263302.08249  21626628.47349
 20  5 16  5 22 38.0000000  0  8G01G03G07G11G17G22G28G30             0.000147457
  20236123.375 7   -130566.195 7    -97404.98049  20236124.17249
  23154119.141 5   -725478.730 5   -524768.23849  23154121.95749
  21070494.133 6    -45786.277 6    -34929.89849  21070491.98849
  21381531.125 6     66311.547 6     51253.75048  21381528.17648
  23977650.297 5   -495179.465 5   -366840.84848  23977649.52048
  22548215.352 6   -501769.086 6   -377128.96548  22548212.99248
  23506673.156 5   -643097.602 5   -467200.33246  23506669.63346
  21626200.039 6   -347857.070 6   -265055.46549  21626200.34049
 20  5 16  5 22 39.0000000  0  8G01G03G07G11G17G22G28G30             0.000146387
  20235973.844 7   -131351.406 7    -98016.83249  20235974.82449
  23153290.094 5   -729835.820 5   -528163.37549  23153293.05149
  21070440.531 6    -46066.590 6    -35148.32049  21070438.49249
  21381612.992 6     66743.352 6     51590.22348  21381610.21548
  23977067.023 5   -498244.621 5   -369229.28548  23977065.92648
  22547645.039 6   -504766.125 6   -379464.32448  22547642.53948
  23505867.031 5   -647334.832 5   -470502.07446  23505863.78146
  21625771.773 7   -350106.961 7   -266808.63349  21625771.87949
 20  5 16  5 22 40.0000000  0  8G01G03G07G11G17G22G28G30             0.000145317
  20235824.914 7   -132136.285 7    -98628.43049  20235825.64849
  23152459.992 5   -734193.066 5   -531558.62549  23152463.43449
  21070387.195 7    -46346.586 7    -35366.50449  21070385.19549
  21381695.203 6     67175.086 6     51926.64148  21381692.70748
  23976483.023 5   -501309.938 5   -371617.84048  23976482.69948
  22547074.781 6   -507763.016 6   -381799.56348  22547072.51648
  23505060.242 5   -651572.363 5   -473804.05146  23505057.33246
  21625343.914 6   -352356.496 6   -268561.52049  21625344.17249
 20  5 16  5 22 41.0000000  0  8G01G03G07G11G17G22G28G30             0.000144247
  20235675.641 7   -132920.758 7    -99239.70349  20235676.30149
  23151631.273 5   -738550.395 5   -534953.94149  23151634.12949
  21070334.133 6    -46626.254 6    -35584.42249  21070332.06349
  21381777.680 6     67606.875 6     52263.09848  21381774.87948
  23975899.898 5   -504375.336 5   -374006.46148  23975899.51648
  22546504.477 6   -510759.730 6   -384134.66048  22546501.86348
  23504253.406 5   -655810.188 5   -477106.26646  23504250.78946
  21624915.719 6   -354605.648 6   -270314.10549  21624916.27349
 20  5 16  5 22 42.0000000  0  8G01G03G07G11G17G22G28G30             0.000143177
  20235526.031 7   -133704.859 7    -99850.69149  20235526.89849
  23150802.359 5   -742907.840 5   -538349.34849  23150805.50049
  21070280.547 7    -46905.578 7    -35802.07849  21070279.02049
  21381859.766 6     68038.613 6     52599.51248  21381857.02348
  23975316.375 5   -507440.914 5   -376395.21948  23975316.01248
  22545934.328 6   -513756.273 6   -386469.63348  22545931.54748
  23503447.820 5   -660048.309 5   -480408.69546  23503444.28546
  21624487.602 6   -356854.422 6   -272066.39849  21624488.33649
 20  5 16  5 22 43.0000000  0  8G01G03G07G11G17G22G28G30             0.000142107
  20235377.266 7   -134488.512 7   -100461.32849  20235377.94549
  23149973.102 5   -747265.320 5   -541744.78549  23149975.94949
  21070227.883 6    -47184.508 6    -36019.42649  21070225.56349
  21381941.789 6     68470.426 6     52935.99648  21381938.89548
  23974732.906 5   -510506.570 5   -378784.03949  23974732.77349
  22545364.203 6   -516752.574 6   -388804.41048  22545361.42648
  23502640.414 5   -664286.672 5   -483711.31346  23502637.97346
  21624060.023 6   -359102.746 6   -273818.33649  21624060.49249
 20  5 16  5 22 44.0000000  0  8G01G03G07G11G17G22G28G30             0.000141035
  20235228.039 7   -135271.781 7   -101071.66449  20235228.89149
  23149144.023 5   -751622.953 5   -545140.34049  23149146.87949
  21070175.180 6    -47463.125 6    -36236.53149  21070173.16049
  21382023.859 6     68902.207 6     53272.44548  21382021.43448
  23974150.031 5   -513572.340 5   -381172.94548  23974149.46148
  22544793.648 6   -519748.707 6   -391139.05948  22544791.37148
  23501834.445 5   -668525.336 5   -487014.16046  23501831.16846
  21623632.305 6   -361350.707 6   -275569.99249  21623632.75849
 20  5 16  5 22 45.0000000  0  8G01G03G07G11G17G22G28G30             0.000139965
  20235078.984 7   -136054.508 7   -101681.58649  20235080.08249
  23148314.758 5   -755980.492 5   -548535.82449  23148317.47349
  21070121.953 6    -47741.211 6    -36453.22749  21070119.96149
  21382106.469 6     69334.160 6     53609.03148  21382103.55148
  23973566.523 5   -516638.086 5   -383561.84448  23973565.70348
  22544223.461 6   -522744.496 6   -393473.43848  22544221.30548
  23501027.938 5   -672764.152 5   -490317.12946  23501024.87146
  21623204.430 6   -363598.117 6   -277321.22349  21623204.58649
 20  5 16  5 22 46.0000000  0  8G01G03G07G11G17G22G28G30             0.000138895
  20234930.227 7   -136836.867 7   -102291.21549  20234931.16449
  23147485.141 5   -760338.172 5   -551931.41449  23147488.23849
  21070069.195 7    -48018.988 7    -36669.67649  21070067.39849
  21382188.438 6     69766.105 6     53945.60948  21382185.70748
  23972983.609 5   -519703.973 5   -385950.83649  23972982.53949
  22543653.766 6   -525740.109 6   -395807.68448  22543651.38348
  23500221.000 5   -677003.246 5   -493620.31346  23500218.46946
  21622776.859 6   -365845.145 6   -279072.15249  21622777.72349
 20  5 16  5 22 47.0000000  0  8G01G03G07G11G17G22G28G30             0.000137823
  20234781.641 7   -137619.020 7   -102900.68849  20234782.38749
  23146656.367 5   -764696.164 5   -555327.25849  23146658.94949
  21070015.883 7    -48296.664 7    -36886.05549  21070014.17249
  21382270.781 6     70197.844 6     54282.03148  21382267.88748
  23972399.570 5   -522770.176 5   -388340.08648  23972398.34848
  22543083.672 6   -528735.770 6   -398141.96548  22543081.21548
  23499413.844 5   -681242.891 5   -496923.93046  23499411.53546
  21622349.289 6   -368092.008 6   -280822.95749  21622350.03149
 20  5 16  5 22 48.0000000  0  8G01G03G07G11G17G22G28G30             0.000136751
  20234632.656 7   -138400.887 7   -103509.93849  20234633.39549
  23145827.359 5   -769054.328 5   -558723.22749  23145829.68049
  21069963.242 7    -48574.016 7    -37102.16849  21069961.52049
  21382352.711 6     70629.539 6     54618.41448  21382350.13348
  23971816.484 5   -525836.609 5   -390729.52048  23971815.22348
  22542513.211 6   -531731.293 6   -400476.13748  22542510.77348
  23498606.609 5   -685482.852 5   -500227.79746  23498604.72746
  21621921.891 6   -370338.516 6   -282573.48849  21621922.41049
 20  5 16  5 22 49.0000000  0  8G01G03G07G11G17G22G28G30             0.000135681
  20234484.086 7   -139182.289 7   -104118.82449  20234484.76649
  23144997.797 5   -773412.559 5   -562119.25449  23145000.00849
  21069910.773 7    -48851.000 7    -37318.00849  21069909.24249
  21382435.133 6     71061.242 6     54954.80548  21382432.23848
  23971232.945 5   -528903.125 5   -393119.01648  23971231.47748
  22541943.898 6   -534726.609 6   -402810.14548  22541941.04748
  23497800.078 5   -689723.039 5   -503531.84446  23497797.96146
  21621494.492 6   -372584.617 6   -284323.69149  21621494.87949
 20  5 16  5 22 50.0000000  0  8G01G03G07G11G17G22G28G30             0.000134609
  20234335.281 7   -139963.367 7   -104727.44949  20234335.97349
  23144168.047 5   -777770.910 5   -565515.37149  23144171.10549
  21069858.211 7    -49127.703 7    -37533.62149  21069856.39149
  21382517.094 6     71492.898 6     55291.15648  21382514.19948
  23970649.500 5   -531969.785 5   -395508.62148  23970648.26248
  22541373.914 6   -537721.797 6   -405144.05548  22541371.08648
  23496993.633 5   -693963.617 5   -506836.19146  23496990.93846
  21621067.195 6   -374830.383 6   -286073.64149  21621067.69549
 20  5 16  5 22 51.0000000  0  8G01G03G07G11G17G22G28G30             0.000133537
  20234186.969 7   -140744.082 7   -105335.80549  20234187.61749
  23143339.219 5   -782129.445 5   -568911.62949  23143341.84449
  21069805.641 7    -49404.082 7    -37748.98049  21069803.67249
  21382599.031 6     71924.531 6     55627.49648  21382596.55148
  23970065.906 5   -535036.645 5   -397898.38348  23970064.48048
  22540803.922 6   -540716.824 6   -407477.84448  22540801.46948
  23496185.867 5   -698204.480 5   -510140.75846  23496184.01246
  21620639.969 6   -377075.766 6   -287823.29349  21620640.15249
 20  5 16  5 22 52.0000000  0  8G01G03G07G11G17G22G28G30             0.000132465
  20234038.656 7   -141524.332 7   -105943.78549  20234039.24249
  23142509.305 5   -786487.926 5   -572307.84849  23142511.84849
  21069752.844 7    -49680.020 7    -37964.00049  21069751.18449
  21382681.336 6     72356.266 6     55963.91048  21382678.75848
  23969482.516 5   -538103.520 5   -400288.15648  23969480.57448
  22540234.305 6   -543711.563 6   -409811.40248  22540231.56648
  23495379.508 5   -702445.523 5   -513445.48446  23495376.94546
  21620212.891 6   -379320.688 6   -289572.58249  21620213.00049
 20  5 16  5 22 53.0000000  0  8G01G03G07G11G17G22G28G30             0.000131393
  20233890.008 7   -142304.051 7   -106551.35949  20233890.57849
  23141679.828 5   -790846.422 5   -575704.07049  23141682.68449
  21069700.539 7    -49955.504 7    -38178.66849  21069698.89849
  21382763.313 6     72788.117 6     56300.42248  21382760.77348
  23968898.461 5   -541170.363 5   -402677.90248  23968896.96548
  22539664.359 6   -546706.023 6   -412144.75048  22539661.37148
  23494572.008 5   -706686.781 5   -516750.36746  23494569.90246
  21619785.703 6   -381565.090 6   -291321.46549  21619785.89849
 20  5 16  5 22 54.0000000  0  8G01G03G07G11G17G22G28G30             0.000130322
  20233741.695 7   -143083.398 7   -107158.64549  20233742.48449
  23140850.711 5   -795205.020 5   -579100.37949  23140853.37549
  21069648.500 7    -50230.664 7    -38393.07449  21069646.32449
  21382845.648 6     73219.965 6     56636.91848  21382843.22748
  23968314.922 5   -544237.395 5   -405067.79748  23968313.21148
  22539094.727 6   -549700.273 6   -414477.93848  22539091.71548
  23493764.781 5   -710928.289 5   -520055.43446  23493762.72346
  21619358.703 6   -383809.125 6   -293070.06649  21619358.95749
 20  5 16  5 22 55.0000000  0  8G01G03G07G11G17G22G28G30             0.000129250
  20233593.656 7   -143862.340 7   -107765.62149  20233594.28949
  23140021.273 5   -799563.711 5   -582496.76649  23140024.02049
  21069595.719 7    -50505.445 7    -38607.19149  21069593.96949
  21382928.031 6     73651.820 6     56973.43048  21382925.28148
  23967731.320 5   -547304.516 5   -407457.76248  23967729.87148
  22538524.656 6   -552694.324 6   -416810.96548  22538521.94548
  23492957.227 5   -715170.137 5   -523360.76246  23492955.12146
  21618931.547 6   -386052.730 6   -294818.33649  21618932.14849
 20  5 16  5 22 56.0000000  0  8G01G03G07G11G17G22G28G30             0.000128178
  20233445.227 7   -144640.816 7   -108372.21949  20233445.93049
  23139192.047 5   -803922.445 5   -585893.18049  23139194.46149
  21069543.813 7    -50779.852 7    -38821.02049  21069541.89549
  21383009.742 6     74083.754 6     57309.99648  21383007.33648
  23967147.602 5   -550371.734 5   -409847.80148  23967145.77348
  22537954.844 6   -555688.176 6   -419143.84048  22537952.23448
  23492150.430 5   -719412.199 5   -526666.26646  23492148.77046
  21618504.586 6   -388295.910 6   -296566.26649  21618505.33649
 20  5 16  5 22 57.0000000  0  8G01G03G07G11G17G22G28G30             0.000127104
  20233297.063 7   -145418.852 7   -108978.48049  20233298.02049
  23138362.148 5   -808281.223 5   -589289.62549  23138364.95349
  21069491.609 7    -51053.820 7    -39034.50049  21069490.04749
  21383092.305 6     74515.762 6     57646.63348  21383089.69148
  23966563.773 5   -553438.973 5   -412237.85948  23966562.21948
  22537384.891 6   -558681.727 6   -421476.47748  22537382.66448
  23491342.211 5   -723654.441 5   -529971.90646  23491341.46946
  21618078.094 6   -390538.625 6   -298313.83249  21618078.40249
 20  5 16  5 22 58.0000000  0  8G01G03G07G11G17G22G28G30             0.000126032
  20233149.063 7   -146196.508 7   -109584.44549  20233149.91049
  23137532.461 5   -812640.090 5   -592686.14549  23137535.50449
  21069439.641 7    -51327.465 7    -39247.73049  21069437.91449
  21383174.273 6     74947.766 6     57983.26248  21383171.85948
  23965980.156 5   -556506.344 5   -414628.02048  23965978.63748
  22536815.586 6   -561675.113 6   -423808.98048  22536812.98848
  23490536.547 5   -727897.000 5   -533277.78946  23490534.30146
  21617650.734 6   -392780.949 6   -300061.09849  21617651.75849
 20  5 16  5 22 59.0000000  0  8G01G03G07G11G17G22G28G30             0.000124960
  20233001.242 7   -146973.746 7   -110190.09049  20233002.03949
  23136703.133 5   -816999.047 5   -596082.73449  23136705.69149
  21069387.617 7    -51600.762 7    -39460.69549  21069385.71149
  21383256.492 6     75379.773 6     58319.88748  21383253.93848
  23965396.383 5   -559573.863 5   -417018.29348  23965394.74248
  22536246.164 6   -564668.313 6   -426141.34448  22536243.28148
  23489728.305 5   -732139.824 5   -536583.88346  23489726.60246
  21617224.586 6   -395022.875 6   -301808.05149  21617225.09849
 20  5 16  5 23  0.0000000  0  8G01G03G07G11G17G22G28G30             0.000123886
  20232853.344 7   -147750.703 7   -110795.50849  20232854.44149
  23135873.758 5   -821358.215 5   -599479.48849  23135876.89549
  21069335.555 7    -51873.813 7    -39673.46149  21069333.65249
  21383338.719 6     75811.695 6     58656.44948  21383336.48048
  23964812.555 5   -562641.574 5   -419408.71548  23964811.02348
  22535676.375 6   -567661.410 6   -428473.62948  22535673.69948
  23488921.203 5   -736383.063 5   -539890.30546  23488919.04346
  21616797.766 6   -397264.500 6   -303554.77049  21616798.47349
 20  5 16  5 23  1.0000000  0  8G01G03G07G11G17G22G28G30             0.000122814
  20232705.797 7   -148527.137 7   -111400.52049  20232706.79749
  23135044.047 5   -825717.340 5   -602876.20749  23135046.87149
  21069283.883 7    -52146.395 7    -39885.86349  21069281.78149
  21383421.117 6     76243.727 6     58993.09048  21383418.27348
  23964228.719 5   -565709.316 5   -421799.16048  23964227.13348
  22535106.758 6   -570654.215 6   -430805.68048  22535104.25048
  23488113.523 5   -740626.461 5   -543196.85246  23488111.28546
  21616371.477 6   -399505.629 6   -305301.10549  21616372.03149
 20  5 16  5 23  2.0000000  0  8G01G03G07G11G17G22G28G30             0.000121740
  20232558.344 7   -149303.301 7   -112005.32849  20232559.01249
  23134214.648 5   -830076.703 5   -606273.11349  23134217.92249
  21069231.867 7    -52418.738 7    -40098.08249  21069230.02749
  21383503.266 6     76675.680 6     59329.68048  21383500.61348
  23963644.828 5   -568777.289 5   -424189.78948  23963643.19148
  22534537.297 6   -573646.914 6   -433137.65248  22534534.44548
  23487305.633 5   -744870.222 5   -546503.68146  23487303.90646
  21615945.086 6   -401746.438 6   -307047.19549  21615945.70349
 20  5 16  5 23  3.0000000  0  8G01G03G07G11G17G22G28G30             0.000120667
  20232410.375 7   -150079.035 7   -112609.79349  20232411.50049
  23133385.086 5   -834436.152 5   -609670.07849  23133388.25449
  21069180.023 7    -52690.746 7    -40310.03549  21069178.09049
  21383585.367 6     77107.641 6     59666.26648  21383583.01648
  23963060.945 5   -571845.387 5   -426580.51648  23963059.62148
  22533967.992 6   -576639.426 6   -435469.48048  22533964.82848
  23486498.539 5   -749114.293 5   -549810.75046  23486496.20346
  21615518.609 6   -403986.875 6   -308792.98849  21615519.34849
 20  5 16  5 23  4.0000000  0  8G01G03G07G11G17G22G28G30             0.000119593
  20232262.836 7   -150854.297 7   -113213.89549  20232263.64549
  23132555.625 5   -838795.566 5   -613067.02349  23132558.82449
  21069128.492 7    -52962.301 7    -40521.64549  21069126.46949
  21383667.500 6     77539.676 6     60002.92248  21383665.17648
  23962476.648 5   -574913.496 5   -428971.24648  23962475.78548
  22533398.617 6   -579631.668 6   -437801.09448  22533395.60948
  23485690.141 5   -753358.539 5   -553117.96546  23485688.54746
  21615092.281 6   -406226.828 6   -310538.41049  21615092.94549
 20  5 16  5 23  5.0000000  0  8G01G03G07G11G17G22G28G30             0.000118519
  20232115.469 7   -151629.262 7   -113817.76649  20232116.07849
  23131726.156 5   -843155.191 5   -616464.12549  23131729.32049
  21069076.859 7    -53233.609 7    -40733.04749  21069074.78149
  21383749.781 6     77971.641 6     60339.52048  21383746.96548
  23961893.273 5   -577981.832 5   -431362.15648  23961891.73448
  22532829.633 6   -582623.773 6   -440132.60548  22532826.26648
  23484883.016 5   -757603.180 5   -556425.48046  23484880.75046
  21614666.508 6   -408466.469 6   -312283.58649  21614667.29349
 20  5 16  5 23  6.0000000  0  8G01G03G07G11G17G22G28G30             0.000117447
  20231967.906 7   -152403.648 7   -114421.18449  20231969.03149
  23130896.133 5   -847514.719 5   -619861.15649  23130899.57849
  21069025.359 7    -53504.379 7    -40944.04349  21069023.49649
  21383831.984 6     78403.809 6     60676.27748  21383829.87948
  23961309.195 5   -581050.117 5   -433753.02048  23961307.77048
  22532260.047 6   -585615.543 6   -442463.84848  22532256.73448
  23484075.164 5   -761847.910 5   -559733.04746  23484073.34846
  21614240.508 6   -410705.527 6   -314028.30549  21614240.84849
 20  5 16  5 23  7.0000000  0  8G01G03G07G11G17G22G28G30             0.000116373
  20231820.508 7   -153177.496 7   -115024.18049  20231821.27749
  23130066.297 5   -851874.223 5   -623258.17249  23130070.17649
  21068973.664 7    -53774.645 7    -41154.64149  21068972.13749
  21383914.406 6     78836.113 6     61013.13348  21383911.60948
  23960725.859 5   -584118.352 5   -436143.84848  23960724.05948
  22531691.141 6   -588606.957 6   -444794.82448  22531687.54748
  23483267.555 5   -766092.773 5   -563040.73446  23483265.43846
  21613814.391 6   -412944.051 6   -315772.61349  21613814.75849
 20  5 16  5 23  8.0000000  0  8G01G03G07G11G17G22G28G30             0.000115299
  20231673.477 7   -153950.898 7   -115626.83249  20231674.30149
  23129236.688 5   -856233.785 5   -626655.23849  23129240.45749
  21068922.242 7    -54044.531 7    -41364.94549  21068920.50449
  21383996.508 6     79268.477 6     61350.03148  21383993.90248
  23960141.711 5   -587186.676 5   -438534.74648  23960139.90648
  22531121.742 6   -591598.125 6   -447125.61348  22531118.44148
  23482459.664 5   -770337.848 5   -566348.58646  23482457.92646
  21613388.594 7   -415182.117 7   -317516.56649  21613388.96549
 20  5 16  5 23  9.0000000  0  8G01G03G07G11G17G22G28G30             0.000114223
  20231526.555 7   -154723.859 7   -116229.13749  20231527.29749
  23128407.641 5   -860593.332 5   -630052.28149  23128410.93449
  21068871.211 7    -54314.004 7    -41574.92649  21068869.07849
  21384078.922 6     79700.926 6     61687.01248  21384076.27748
  23959558.227 5   -590255.043 5   -440925.68048  23959556.05548
  22530552.352 6   -594589.031 6   -449456.18848  22530548.92648
  23481651.891 5   -774583.188 5   -569656.64546  23481649.90646
  21612962.625 7   -417419.742 7   -319260.16449  21612963.13749
 20  5 16  5 23 10.0000000  0  8G01G03G07G11G17G22G28G30             0.000113150
  20231379.352 7   -155496.531 7   -116831.21949  20231380.12549
  23127577.516 5   -864953.082 5   -633449.49249  23127581.61349
  21068820.188 7    -54583.262 7    -41784.73849  21068817.90249
  21384161.070 6     80133.270 6     62023.89548  21384159.02348
  23958974.070 5   -593323.695 5   -443316.83248  23958972.06648
  22529982.992 6   -597579.883 6   -451786.72348  22529980.16048
  23480843.664 5   -778828.922 5   -572965.01646  23480842.37946
  21612537.094 7   -419657.086 7   -321003.54749  21612537.54349
 20  5 16  5 23 11.0000000  0  8G01G03G07G11G17G22G28G30             0.000112076
  20231232.281 7   -156268.770 7   -117432.96549  20231233.61749
  23126747.844 5   -869312.914 5   -636846.75449  23126751.59849
  21068768.922 7    -54852.121 7    -41994.24249  21068766.96949
  21384243.461 6     80565.645 6     62360.81648  21384240.65648
  23958389.836 5   -596392.391 5   -445708.02348  23958388.15248
  22529413.766 6   -600570.492 6   -454117.06648  22529410.91048
  23480035.500 5   -783074.895 5   -576273.56646  23480033.86346
  21612111.328 7   -421893.992 7   -322746.59849  21612112.16849
 20  5 16  5 23 12.0000000  0  8G01G03G07G11G17G22G28G30             0.000111002
  20231085.555 7   -157040.555 7   -118034.35549  20231086.80949
  23125918.438 5   -873672.813 5   -640244.07449  23125921.91849
  21068717.609 7    -55120.590 7    -42203.43449  21068715.72349
  21384325.680 6     80998.090 6     62697.78148  21384323.23848
  23957806.227 6   -599461.180 6   -448099.28548  23957804.11748
  22528844.859 6   -603560.852 6   -456447.21548  22528841.53148
  23479228.359 5   -787321.109 5   -579582.30146  23479226.17246
  21611685.500 6   -424130.457 6   -324489.29349  21611686.22749
 20  5 16  5 23 13.0000000  0  8G01G03G07G11G17G22G28G30             0.000109926
  20230938.797 7   -157811.816 7   -118635.34449  20230939.82449
  23125088.586 5   -878032.648 5   -643641.34849  23125092.30949
  21068666.805 7    -55388.582 7    -42412.25849  21068664.79349
  21384408.391 6     81430.648 6     63034.84448  21384405.58648
  23957221.461 6   -602529.941 6   -450490.52348  23957220.03948
  22528276.031 6   -606550.910 6   -458777.13748  22528272.76248
  23478419.789 5   -791567.445 5   -582891.14546  23478417.85246
  21611260.117 6   -426366.402 6   -326231.59049  21611260.60949
 20  5 16  5 23 14.0000000  0  8G01G03G07G11G17G22G28G30             0.000108852
  20230792.023 7   -158582.758 7   -119236.07449  20230793.30549
  23124259.070 5   -882392.660 5   -647038.76249  23124262.96949
  21068615.813 7    -55656.297 7    -42620.87949  21068613.87549
  21384490.547 6     81863.168 6     63371.87148  21384487.77048
  23956638.172 5   -605598.934 5   -452881.94548  23956635.94148
  22527707.109 6   -609540.844 6   -461106.94948  22527703.89148
  23477611.891 5   -795814.168 5   -586200.27746  23477609.95746
  21610834.625 6   -428602.016 6   -327973.62949  21610835.28549
 20  5 16  5 23 15.0000000  0  8G01G03G07G11G17G22G28G30             0.000107777
  20230645.469 7   -159353.441 7   -119836.60949  20230646.50049
  23123429.141 5   -886752.887 5   -650436.33249  23123433.00049
  21068564.844 7    -55923.820 7    -42829.33249  21068563.03549
  21384572.773 6     82295.531 6     63708.77748  21384570.35948
  23956053.453 6   -608668.145 6   -455273.53148  23956051.80948
  22527138.313 6   -612530.703 6   -463436.71548  22527134.94948
  23476803.211 5   -800061.289 5   -589509.72346  23476801.53146
  21610409.438 6   -430837.359 6   -329715.45349  21610410.06649
 20  5 16  5 23 16.0000000  0  8G01G03G07G11G17G22G28G30             0.000106703
  20230499.047 7   -160123.637 7   -120436.76249  20230499.98449
  23122599.336 5   -891113.133 5   -653833.92649  23122603.63749
  21068514.047 7    -56190.895 7    -43037.44149  21068511.81649
  21384654.922 6     82728.004 6     64045.77348  21384652.59848
  23955469.695 5   -611737.406 5   -457665.16448  23955468.05148
  22526569.195 6   -615520.328 6   -465766.29348  22526566.10248
  23475995.656 5   -804308.621 5   -592819.33646  23475993.42646
  21609983.938 6   -433072.246 6   -331456.92249  21609984.56349
 20  5 16  5 23 17.0000000  0  8G01G03G07G11G17G22G28G30             0.000105627
  20230352.578 7   -160893.383 7   -121036.56349  20230353.65649
  23121769.977 5   -895473.387 5   -657231.52049  23121773.78949
  21068463.258 7    -56457.570 7    -43245.24249  21068461.23449
  21384737.219 7     83160.539 7     64382.80548  21384734.91448
  23954885.523 5   -614806.691 5   -460056.80948  23954883.67248
  22526000.297 6   -618509.629 6   -468095.62148  22525997.14848
  23475187.352 5   -808556.129 5   -596129.07446  23475184.87146
  21609558.914 6   -435306.641 6   -333198.00449  21609559.16049
 20  5 16  5 23 18.0000000  0  8G01G03G07G11G17G22G28G30             0.000104551
  20230206.023 7   -161662.766 7   -121636.08249  20230206.90249
  23120940.039 5   -899833.797 5   -660629.23449  23120944.05549
  21068412.438 7    -56723.930 7    -43452.80149  21068410.74649
  21384819.727 7     83593.059 7     64719.83248  21384817.13748
  23954301.563 5   -617876.176 5   -462448.61748  23954299.80548
  22525431.375 6   -621498.805 6   -470424.84848  22525428.30548
  23474378.211 5   -812804.023 5   -599439.12146  23474376.88746
  21609133.844 6   -437540.703 6   -334938.83649  21609134.23449
 20  5 16  5 23 19.0000000  0  8G01G03G07G11G17G22G28G30             0.000103476
  20230059.680 7   -162431.809 7   -122235.34449  20230060.56649
  23120110.234 5   -904194.352 5   -664027.06649  23120114.00049
  21068362.070 7    -56990.000 7    -43660.13349  21068359.89149
  21384901.734 7     84025.508 7     65056.81348  21384899.51648
  23953717.109 5   -620945.805 5   -464840.53548  23953716.11748
  22524862.852 6   -624487.844 6   -472753.96948  22524859.00848
  23473570.078 5   -817052.191 5   -602749.38346  23473568.50846
  21608708.766 6   -439774.395 6   -336679.37549  21608709.22349
 20  5 16  5 23 20.0000000  0  8G01G03G07G11G17G22G28G30             0.000102402
  20229913.203 7   -163200.293 7   -122834.16049  20229914.41849
  23119280.320 5   -908554.793 5   -667424.80949  23119284.18849
  21068311.680 7    -57255.555 7    -43867.05949  21068309.60249
  21384984.352 6     84458.141 6     65393.92648  21384981.63348
  23953133.055 5   -624015.406 5   -467232.43448  23953132.05148
  22524293.992 6   -627476.500 6   -475082.78948  22524290.43048
  23472761.734 5   -821300.516 5   -606059.76246  23472759.97346
  21608283.758 6   -442007.527 6   -338419.48049  21608284.14149
 20  5 16  5 23 21.0000000  0  8G01G03G07G11G17G22G28G30             0.000101326
  20229767.281 7   -163968.320 7   -123432.62949  20229768.05549
  23118451.203 5   -912915.305 5   -670822.61749  23118454.16449
  21068260.859 7    -57520.723 7    -44073.68849  21068258.84049
  21385066.703 6     84890.824 6     65731.07848  21385064.02048
  23952549.273 5   -627085.063 5   -469624.37148  23952547.49648
  22523725.438 6   -630464.930 6   -477411.43448  22523721.57048
  23471953.320 5   -825549.051 5   -609370.31346  23471951.10546
  21607859.078 6   -444240.211 6   -340159.23449  21607859.53549
 20  5 16  5 23 22.0000000  0  8G01G03G07G11G17G22G28G30             0.000100250
  20229621.031 7   -164735.906 7   -124030.74249  20229622.26649
  23117620.906 5   -917275.863 5   -674220.45349  23117624.80149
  21068210.750 7    -57785.484 7    -44279.98849  21068208.91049
  21385148.750 6     85323.566 6     66068.27748  21385146.30948
  23951965.406 5   -630154.809 5   -472016.38348  23951963.72348
  22523156.805 6   -633453.121 6   -479739.88748  22523153.06648
  23471144.719 5   -829797.797 5   -612681.02746  23471142.83646
  21607434.219 6   -446472.449 6   -341898.64849  21607434.67649
 20  5 16  5 23 23.0000000  0  8G01G03G07G11G17G22G28G30             0.000099174
  20229475.000 7   -165503.203 7   -124628.63749  20229475.88749
  23116791.359 5   -921636.594 5   -677618.42249  23116794.74649
  21068160.063 7    -58050.027 7    -44486.12549  21068158.23449
  21385231.148 6     85756.203 6     66405.39848  21385228.28548
  23951380.313 5   -633224.773 5   -474408.55548  23951378.99248
  22522588.195 6   -636441.191 6   -482068.25448  22522584.53148
  23470335.891 5   -834046.938 5   -615992.04346  23470334.37546
  21607009.523 7   -448704.398 7   -343637.83249  21607009.72749
 20  5 16  5 23 24.0000000  0  8G01G03G07G11G17G22G28G30             0.000098097
  20229329.000 7   -166270.035 7   -125226.16849  20229330.01649
  23115961.023 5   -925997.348 5   -681016.41849  23115965.01249
  21068110.055 6    -58314.090 6    -44691.89149  21068107.96149
  21385313.563 6     86188.926 6     66742.58248  21385310.91048
  23950796.047 5   -636294.762 5   -476800.75448  23950794.86748
  22522019.844 6   -639429.023 6   -484396.44148  22522016.14548
  23469527.383 5   -838296.324 5   -619303.25046  23469525.47346
  21606585.273 6   -450935.863 6   -345376.63749  21606585.23849
 20  5 16  5 23 25.0000000  0  8G01G03G07G11G17G22G28G30             0.000097021
  20229183.375 7   -167036.355 7   -125823.30149  20229184.58249
  23115131.398 5   -930358.082 5   -684414.39149  23115135.39549
  21068059.891 7    -58577.742 7    -44897.33649  21068057.62949
  21385395.469 6     86621.770 6     67079.86348  21385393.42648
  23950211.758 5   -639364.809 5   -479192.99648  23950210.80548
  22521451.141 6   -642416.523 6   -486724.37948  22521447.45748
  23468718.961 5   -842545.852 5   -622614.55146  23468716.95346
  21606160.445 6   -453166.836 6   -347115.04749  21606160.75849
 20  5 16  5 23 26.0000000  0  8G01G03G07G11G17G22G28G30             0.000095945
  20229037.727 7   -167802.238 7   -126420.08649  20229038.76649
  23114301.453 5   -934718.863 5   -687812.40249  23114305.73049
  21068009.734 7    -58840.977 7    -45102.45749  21068007.73449
  21385477.734 6     87054.703 6     67417.21948  21385475.94148
  23949627.617 5   -642434.898 5   -481585.26248  23949626.60948
  22520882.586 6   -645403.797 6   -489052.12148  22520879.18848
  23467910.539 5   -846795.594 5   -625926.02346  23467908.14846
  21605735.727 6   -455397.340 6   -348853.10949  21605736.22749
 20  5 16  5 23 27.0000000  0  8G01G03G07G11G17G22G28G30             0.000094870
  20228892.141 7   -168567.684 7   -127016.53549  20228893.11349
  23113471.680 5   -939079.750 5   -691210.49649  23113475.88749
  21067959.773 7    -59103.844 7    -45307.29749  21067957.69949
  21385560.383 6     87487.637 6     67754.57848  21385558.26248
  23949043.781 5   -645505.086 5   -483977.61348  23949042.52048
  22520313.977 6   -648390.867 6   -491379.70748  22520310.65648
  23467101.141 5   -851045.613 5   -629237.73046  23467099.27346
  21605311.922 6   -457627.465 6   -350590.87549  21605311.98449
 20  5 16  5 23 28.0000000  0  8G01G03G07G11G17G22G28G30             0.000093792
  20228746.414 7   -169332.992 7   -127612.88349  20228747.08649
  23112641.469 5   -943440.914 5   -694608.80149  23112645.94149
  21067909.852 7    -59366.637 7    -45512.07049  21067907.53549
  21385643.125 6     87920.344 6     68091.75048  21385640.43848
  23948459.375 5   -648575.652 5   -486370.25848  23948457.79748
  22519746.109 6   -651377.988 6   -493707.34048  22519742.33248
  23466292.656 5   -855296.141 5   -632549.83646  23466290.62146
  21604887.547 6   -459857.410 6   -352328.49249  21604887.52349
 20  5 16  5 23 29.0000000  0  8G01G03G07G11G17G22G28G30             0.000092716
  20228600.914 7   -170097.918 7   -128208.93049  20228602.00449
  23111812.203 5   -947802.211 5   -698007.20349  23111815.80149
  21067860.000 7    -59629.063 7    -45716.55549  21067857.57449
  21385725.438 6     88353.035 6     68428.90648  21385722.97348
  23947874.867 5   -651646.352 5   -488763.01248  23947873.26248
  22519177.313 6   -654364.891 6   -496034.78548  22519173.75448
  23465483.680 5   -859547.020 5   -635862.21546  23465481.93446
  21604463.438 6   -462086.965 6   -354065.80949  21604463.45749
 20  5 16  5 23 30.0000000  0  8G01G03G07G11G17G22G28G30             0.000091639
  20228455.289 7   -170862.406 7   -128804.64149  20228456.35549
  23110982.250 5   -952163.523 5   -701405.63749  23110985.49249
  21067809.648 7    -59891.117 7    -45920.74649  21067807.77349
  21385807.539 6     88785.809 6     68766.12548  21385805.37548
  23947290.242 5   -654717.102 5   -491155.80948  23947289.27048
  22518608.789 6   -657351.563 6   -498362.05548  22518606.12548
  23464674.398 5   -863798.090 5   -639174.75046  23464672.81346
  21604038.852 6   -464316.074 6   -355802.78549  21604039.23449
 20  5 16  5 23 31.0000000  0  8G01G03G07G11G17G22G28G30             0.000090561
  20228309.891 7   -171626.488 7   -129400.03549  20228310.76249
  23110152.211 5   -956524.965 5   -704804.14549  23110155.45749
  21067759.883 7    -60152.813 7    -46124.66449  21067757.99649
  21385889.844 6     89218.566 6     69103.34048  21385887.80548
  23946706.430 5   -657787.949 5   -493548.67248  23946705.08248
  22518040.766 6   -660338.063 6   -500689.20348  22518037.42648
  23463865.898 5   -868049.470 5   -642487.51146  23463863.55946
  21603614.914 7   -466544.801 7   -357539.44949  21603615.22349
 20  5 16  5 23 32.0000000  0  8G01G03G07G11G17G22G28G30             0.000089483
  20228164.297 7   -172390.168 7   -129995.10549  20228165.82449
  23109322.211 5   -960886.445 5   -708202.70749  23109325.50449
  21067710.289 7    -60414.145 7    -46328.29749  21067708.22349
  21385972.359 6     89651.328 6     69440.55948  21385970.03548
  23946121.344 5   -660858.965 5   -495941.68448  23946120.19148
  22517472.203 6   -663324.340 6   -503016.16848  22517469.05548
  23463056.703 5   -872301.070 5   -645800.43446  23463054.87946
  21603190.586 7   -468773.137 7   -359275.82049  21603190.53549
 20  5 16  5 23 33.0000000  0  8G01G03G07G11G17G22G28G30             0.000088408
  20228019.242 7   -173153.375 7   -130589.81349  20228020.68849
  23108491.992 5   -965247.977 5   -711601.30149  23108495.51249
  21067660.625 7    -60675.074 7    -46531.62549  21067658.57049
  21386055.016 6     90084.184 6     69777.84448  21386052.23448
  23945537.305 5   -663929.977 5   -498334.67248  23945535.87148
  22516903.578 6   -666310.355 6   -505342.94148  22516900.50048
  23462247.117 5   -876552.879 5   -649113.53946  23462245.49246
  21602766.930 7   -471000.973 7   -361011.79349  21602766.90249
 20  5 16  5 23 34.0000000  0  8G01G03G07G11G17G22G28G30             0.000087330
  20227874.172 7   -173916.316 7   -131184.31649  20227875.48049
  23107662.398 5   -969609.695 5   -715000.04749  23107665.20349
  21067611.055 7    -60935.758 7    -46734.76249  21067609.04349
  21386137.047 6     90516.941 6     70115.06348  21386134.71948
  23944953.195 5   -667001.242 5   -500727.86748  23944951.57848
  22516336.023 6   -669296.277 6   -507669.62948  22516332.61748
  23461438.031 5   -880805.113 5   -652426.95746  23461436.22746
  21602342.867 7   -473228.531 7   -362747.55549  21602343.00849
 20  5 16  5 23 35.0000000  0  8G01G03G07G11G17G22G28G30             0.000086252
  20227728.945 7   -174678.949 7   -131778.57449  20227730.21149
  23106832.234 5   -973971.598 5   -718398.92649  23106835.48849
  21067561.648 7    -61196.188 7    -46937.69549  21067559.60549
  21386219.477 6     90949.586 6     70452.18448  21386216.97748
  23944368.375 5   -670072.727 5   -503121.23048  23944367.42648
  22515767.547 6   -672282.094 6   -509996.23848  22515764.43048
  23460629.180 5   -885057.676 5   -655740.64846  23460627.30946
  21601918.883 6   -475455.789 6   -364483.08249  21601919.23049
 20  5 16  5 23 36.0000000  0  8G01G03G07G11G17G22G28G30             0.000085173
  20227584.016 7   -175441.176 7   -132372.51649  20227585.06649
  23106001.883 5   -978333.563 5   -721797.85549  23106005.36749
  21067512.180 7    -61456.281 7    -47140.36749  21067509.95749
  21386301.820 6     91382.270 6     70789.34448  21386299.64548
  23943783.922 5   -673144.332 5   -505514.68448  23943782.39548
  22515199.438 6   -675267.719 6   -512322.70348  22515196.16048
  23459819.656 5   -889310.570 5   -659054.59446  23459817.81646
  21601495.094 6   -477682.613 6   -366218.27349  21601495.19949
 20  5 16  5 23 37.0000000  0  8G01G03G07G11G17G22G28G30             0.000084095
  20227439.156 7   -176202.902 7   -132966.06649  20227440.15649
  23105172.375 5   -982695.520 5   -725196.77749  23105175.03549
  21067462.703 7    -61715.891 7    -47342.65649  21067460.80149
  21386384.078 6     91815.051 6     71126.57048  21386381.74248
  23943199.672 5   -676215.922 5   -507908.12948  23943198.10248
  22514631.266 6   -678253.012 6   -514648.90248  22514628.09848
  23459010.336 5   -893563.613 5   -662368.65646  23459008.18846
  21601071.352 6   -479908.941 6   -367953.07849  21601072.00049
 20  5 16  5 23 38.0000000  0  8G01G03G07G11G17G22G28G30             0.000083017
  20227294.195 7   -176964.004 7   -133559.13349  20227295.05149
  23104342.484 5   -987057.359 5   -728595.61349  23104345.39149
  21067413.414 7    -61974.945 7    -47544.52049  21067411.62549
  21386466.258 6     92248.078 6     71463.99648  21386464.24648
  23942614.813 5   -679287.438 5   -510301.52048  23942613.54348
  22514063.031 6   -681237.914 6   -516974.80148  22514059.62948
  23458201.094 5   -897816.691 5   -665682.73446  23458198.89146
  21600648.266 7   -482134.672 7   -369687.41049  21600648.13349
 20  5 16  5 23 39.0000000  0  8G01G03G07G11G17G22G28G30             0.000081940
  20227149.516 7   -177724.699 7   -134151.88749  20227150.39149
  23103512.219 5   -991419.266 5   -731994.50049  23103515.35549
  21067364.242 7    -62233.637 7    -47746.09849  21067362.01249
  21386548.750 6     92681.117 6     71801.42648  21386546.52748
  23942030.313 5   -682359.035 5   -512694.96948  23942029.12548
  22513495.266 6   -684222.602 6   -519300.53148  22513491.77748
  23457391.523 5   -902070.059 5   -668997.03546  23457389.84446
  21600224.602 7   -484359.961 7   -371421.40249  21600224.45749
 20  5 16  5 23 40.0000000  0  8G01G03G07G11G17G22G28G30             0.000080862
  20227004.781 7   -178485.016 7   -134744.34449  20227006.13749
  23102682.234 5   -995781.266 5   -735393.46149  23102684.76649
  21067315.039 7    -62492.012 7    -47947.42649  21067312.86349
  21386631.313 6     93114.152 6     72138.85548  21386629.03148
  23941445.773 5   -685430.777 5   -515088.53148  23941444.10948
  22512927.453 6   -687207.117 6   -521626.12148  22512924.02748
  23456582.328 5   -906323.746 5   -672311.59846  23456580.45346
  21599801.195 7   -486584.879 7   -373155.10949  21599801.35249
 20  5 16  5 23 41.0000000  0  8G01G03G07G11G17G22G28G30             0.000079782
  20226860.305 7   -179244.895 7   -135336.45749  20226861.08249
  23101852.211 5  -1000143.336 5   -738792.46949  23101855.21149
  21067266.016 7    -62749.961 7    -48148.42649  21067264.02349
  21386713.594 6     93547.234 6     72476.32448  21386711.50048
  23940861.336 5   -688502.590 5   -517482.15648  23940859.46948
  22512359.852 6   -690191.367 6   -523951.50848  22512356.39548
  23455772.680 5   -910577.660 5   -675626.34846  23455770.93846
  21599377.852 7   -488809.348 7   -374888.46549  21599377.61749
 20  5 16  5 23 42.0000000  0  8G01G03G07G11G17G22G28G30             0.000078705
  20226715.406 7   -180004.371 7   -135928.25849  20226716.43049
  23101021.656 5  -1004505.461 5   -742191.52748  23101024.75048
  21067216.531 7    -63007.594 7    -48349.18049  21067214.83249
  21386796.086 6     93980.316 6     72813.79348  21386793.43448
  23940276.563 5   -691574.516 5   -519875.86748  23940274.87948
  22511792.203 6   -693175.441 6   -526276.76248  22511788.32048
  23454963.594 5   -914831.844 5   -678941.28946  23454961.26646
  21598954.367 6   -491033.426 6   -376621.51249  21598954.36349
 20  5 16  5 23 43.0000000  0  8G01G03G07G11G17G22G28G30             0.000077625
  20226571.172 7   -180763.348 7   -136519.67249  20226572.06349
  23100192.305 5  -1008867.559 5   -745590.56349  23100194.84049
  21067167.859 7    -63264.746 7    -48549.55949  21067165.73849
  21386878.898 6     94413.520 6     73151.35248  21386876.02348
  23939692.992 5   -694646.453 5   -522269.58648  23939690.57848
  22511224.406 6   -696159.172 6   -528601.75048  22511220.64148
  23454153.914 5   -919086.180 5   -682256.35246  23454151.55146
  21598531.023 7   -493256.996 7   -378354.16449  21598530.96149
 20  5 16  5 23 44.0000000  0  8G01G03G07G11G17G22G28G30             0.000076548
  20226426.742 7   -181521.910 7   -137110.75849  20226427.77749
  23099361.984 5  -1013229.719 5   -748989.64549  23099364.73449
  21067119.016 7    -63521.531 7    -48749.65249  21067117.28549
  21386961.320 6     94846.754 6     73488.93848  21386958.33648
  23939108.125 5   -697718.473 5   -524663.36348  23939106.14848
  22510656.547 6   -699142.699 6   -530926.57048  22510653.12148
  23453344.063 5   -923340.758 5   -685571.61346  23453341.85546
  21598108.336 7   -495480.137 7   -380086.48049  21598108.18849
 20  5 16  5 23 45.0000000  0  8G01G03G07G11G17G22G28G30             0.000075468
  20226282.547 7   -182280.082 7   -137701.53549  20226283.69149
  23098531.750 5  -1017592.023 5   -752388.84049  23098534.71949
  21067070.273 7    -63778.000 7    -48949.50449  21067068.42249
  21387043.453 6     95279.980 6     73826.51648  21387040.75848
  23938523.242 5   -700790.660 5   -527057.28148  23938521.78548
  22510088.867 6   -702126.055 6   -533251.26648  22510085.30548
  23452534.438 5   -927595.703 5   -688887.14846  23452532.19146
  21597685.430 7   -497702.898 7   -381818.50849  21597685.28949
 20  5 16  5 23 46.0000000  0  8G01G03G07G11G17G22G28G30             0.000074389
  20226138.336 7   -183038.023 7   -138292.14549  20226139.68849
  23097701.523 5  -1021954.531 5   -755788.20349  23097704.28149
  21067021.477 7    -64034.277 7    -49149.19549  21067019.87149
  21387126.008 6     95713.059 6     74163.98048  21387123.42648
  23937938.813 5   -703863.109 5   -529451.39848  23937936.68848
  22509521.039 6   -705109.367 6   -535575.92248  22509517.75448
  23451725.008 5   -931851.020 5   -692202.98046  23451722.51646
  21597262.344 7   -499925.422 7   -383550.34449  21597262.43449
 20  5 16  5 23 47.0000000  0  8G01G03G07G11G17G22G28G30             0.000073309
  20225994.227 7   -183795.473 7   -138882.36749  20225995.46549
  23096871.570 5  -1026317.078 5   -759187.59049  23096874.10549
  21066972.609 7    -64290.133 7    -49348.56649  21066971.05549
  21387208.320 6     96146.234 6     74501.52048  21387205.96948
  23937353.852 5   -706935.602 5   -531845.54348  23937352.21548
  22508952.813 6   -708092.398 6   -537900.36748  22508949.93448
  23450915.461 5   -936106.547 5   -695518.97346  23450912.59046
  21596839.625 7   -502147.457 7   -385281.80549  21596839.83249
 20  5 16  5 23 48.0000000  0  8G01G03G07G11G17G22G28G30             0.000072231
  20225850.242 7   -184552.520 7   -139472.27349  20225851.13749
  23096041.938 5  -1030679.625 5   -762586.96949  23096043.74649
  21066924.094 7    -64545.574 7    -49547.60949  21066922.19149
  21387291.133 6     96579.453 6     74839.09048  21387288.20748
  23936769.484 5   -710008.172 5   -534239.75448  23936767.64548
  22508385.570 6   -711075.195 6   -540224.63348  22508382.55148
  23450104.813 5   -940362.293 5   -698835.15246  23450102.55946
  21596416.602 7   -504369.059 7   -387012.92649  21596416.87949
 20  5 16  5 23 49.0000000  0  8G01G03G07G11G17G22G28G30             0.000071152
  20225706.289 7   -185309.016 7   -140061.75049  20225707.23849
  23095211.227 5  -1035042.195 5   -765986.37549  23095213.60949
  21066875.742 7    -64800.586 7    -49746.32049  21066873.44949
  21387373.445 6     97012.777 6     75176.74648  21387370.59448
  23936184.820 5   -713080.727 5   -536633.95748  23936183.03948
  22507817.961 6   -714057.660 6   -542548.62948  22507815.09048
  23449294.992 5   -944618.254 5   -702151.48446  23449292.50846
  21595994.109 7   -506590.141 7   -388743.63349  21595994.22749
 20  5 16  5 23 50.0000000  0  8G01G03G07G11G17G22G28G30             0.000070072
  20225562.438 7   -186065.125 7   -140650.93049  20225562.96949
  23094381.133 5  -1039404.789 5   -769385.79749  23094383.33649
  21066827.461 7    -65055.203 7    -49944.73049  21066825.43449
  21387455.773 6     97446.152 6     75514.44148  21387453.60548
  23935599.820 5   -716153.391 5   -539028.23848  23935598.20748
  22507250.438 6   -717039.949 6   -544872.48448  22507247.22348
  23448484.680 5   -948874.426 5   -705467.98046  23448482.64146
  21595571.625 6   -508810.797 6   -390474.01649  21595571.84049
 20  5 16  5 23 51.0000000  0  8G01G03G07G11G17G22G28G30             0.000068991
  20225418.461 7   -186820.852 7   -141239.80949  20225419.55149
  23093551.344 5  -1043767.480 5   -772785.30149  23093553.21949
  21066778.750 7    -65309.516 7    -50142.90249  21066776.80149
  21387538.023 6     97879.508 6     75852.11748  21387535.69948
  23935014.906 5   -719226.207 5   -541422.64548  23935013.61748
  22506683.242 6   -720022.016 6   -547196.17648  22506679.93048
  23447675.008 5   -953130.902 5   -708784.71946  23447672.93846
  21595148.898 6   -511031.086 6   -392204.11749  21595149.21949
 20  5 16  5 23 52.0000000  0  8G01G03G07G11G17G22G28G30             0.000067911
  20225274.648 7   -187576.074 7   -141828.29349  20225275.73849
  23092720.672 5  -1048130.172 5   -776184.80149  23092722.80549
  21066730.453 7    -65563.375 7    -50340.71949  21066728.26649
  21387620.586 6     98312.957 6     76189.87548  21387618.03548
  23934430.047 5   -722298.992 5   -543817.02748  23934428.88348
  22506115.852 6   -723003.785 6   -549519.62548  22506112.17648
  23446865.148 5   -957387.559 5   -712101.58646  23446863.01246
  21594726.086 6   -513250.863 6   -393933.81649  21594726.81349
 20  5 16  5 23 53.0000000  0  8G01G03G07G11G17G22G28G30             0.000066832
  20225131.016 7   -188330.961 7   -142416.51649  20225132.12149
  23091889.914 5  -1052493.055 5   -779584.45749  23091892.85949
  21066682.258 7    -65816.938 7    -50538.30149  21066680.40249
  21387703.023 6     98746.371 6     76527.59848  21387700.74648
  23933845.844 5   -725372.039 5   -546211.60948  23933843.62148
  22505548.484 6   -725985.438 6   -551842.98848  22505545.16848
  23446055.273 5   -961644.574 5   -715418.73846  23446053.04346
  21594304.234 6   -515470.328 6   -395663.27049  21594304.37949
 20  5 16  5 23 54.0000000  0  8G01G03G07G11G17G22G28G30             0.000065752
  20224987.367 7   -189085.348 7   -143004.34849  20224988.52749
  23091059.742 5  -1056855.883 5   -782984.05949  23091062.57049
  21066633.852 7    -66070.055 7    -50735.53549  21066631.91849
  21387785.656 6     99179.918 6     76865.42248  21387783.34048
  23933261.273 5   -728445.066 5   -548606.17648  23933259.39848
  22504981.180 6   -728966.758 6   -554166.09848  22504977.62148
  23445245.367 5   -965901.719 5   -718735.99646  23445242.92646
  21593882.039 7   -517689.254 7   -397392.30949  21593881.70749
 20  5 16  5 23 55.0000000  0  8G01G03G07G11G17G22G28G30             0.000064672
  20224844.320 7   -189839.242 7   -143591.79749  20224845.10249
  23090230.016 5  -1061218.672 5   -786383.62949  23090232.36749
  21066586.188 7    -66322.723 7    -50932.41849  21066583.91449
  21387868.328 6     99613.539 6     77203.31348  21387865.61748
  23932675.969 5   -731518.074 5   -551000.72348  23932674.58648
  22504413.875 6   -731947.797 6   -556488.98848  22504410.23848
  23444434.734 5   -970159.070 5   -722053.41446  23444432.80146
  21593459.602 6   -519907.707 6   -399120.97349  21593459.75849
 20  5 16  5 23 56.0000000  0  8G01G03G07G11G17G22G28G30             0.000063591
  20224700.766 7   -190592.766 7   -144178.96149  20224701.77049
  23089399.586 5  -1065581.641 5   -789783.34449  23089402.06649
  21066538.102 7    -66575.063 7    -51129.04349  21066536.17649
  21387950.984 6    100047.125 6     77541.17248  21387948.06348
  23932091.328 5   -734591.281 5   -553395.43048  23932089.89848
  22503846.680 6   -734928.656 6   -558811.73848  22503843.06648
  23443624.367 4   -974416.711 4   -725371.07046  23443622.19546
  21593037.844 7   -522125.785 7   -400849.33649  21593037.94149
 20  5 16  5 23 57.0000000  0  8G01G03G07G11G17G22G28G30             0.000062511
  20224557.383 7   -191345.945 7   -144765.85249  20224558.26249
  23088569.461 5  -1069944.625 5   -793183.05949  23088572.52349
  21066489.820 7    -66827.102 7    -51325.44149  21066488.20349
  21388033.492 6    100480.746 6     77879.06648  21388030.53948
  23931507.156 5   -737664.645 5   -555790.28948  23931505.10548
  22503279.531 6   -737909.305 6   -561134.32048  22503276.20348
  23442814.578 4   -978674.522 4   -728688.84246  23442812.02346
  21592615.289 6   -524343.477 6   -402577.41449  21592615.75849
 20  5 16  5 23 58.0000000  0  8G01G03G07G11G17G22G28G30             0.000061430
  20224414.227 7   -192098.613 7   -145352.34849  20224415.12949
  23087738.984 5  -1074307.711 5   -796582.86749  23087741.59849
  21066442.273 7    -67078.703 7    -51521.49649  21066440.39849
  21388115.953 6    100914.430 6     78216.99648  21388113.11348
  23930921.578 5   -740737.988 5   -558185.10248  23930920.25848
  22502711.836 6   -740889.738 6   -563456.73848  22502709.00848
  23442004.008 5   -982932.828 5   -732006.99646  23442001.84446
  21592193.703 6   -526560.680 6   -404305.10249  21592193.95349
 20  5 16  5 23 59.0000000  0  8G01G03G07G11G17G22G28G30             0.000060350
  20224271.117 7   -192850.953 7   -145938.58649  20224271.62549
  23086908.930 5  -1078670.883 5   -799982.73449  23086911.04749
  21066394.445 7    -67329.992 7    -51717.30949  21066392.37149
  21388198.180 6    101348.066 6     78554.89148  21388195.59448
  23930336.477 5   -743811.512 5   -560580.04348  23930335.28148
  22502145.141 6   -743869.988 6   -565779.01248  22502141.97748
  23441194.188 5   -987191.332 5   -735325.30946  23441191.66046
  21591771.719 6   -528777.543 6   -406032.52749  21591772.23849
 20  5 16  5 24  0.0000000  0  8G01G03G07G11G17G22G28G30             0.000059269
  20224128.398 7   -193602.941 7   -146524.55149  20224128.89549
  23086078.508 5  -1083034.191 5   -803382.71549  23086080.57049
  21066346.375 7    -67581.004 7    -51912.90249  21066344.36749
  21388280.711 6    101781.656 6     78892.75448  21388278.25448
  23929752.211 5   -746885.230 5   -562975.13348  23929750.30148
  22501577.633 6   -746850.066 6   -568101.14848  22501574.82048
  23440383.516 5   -991450.133 5   -738643.85546  23440381.22346
  21591349.625 6   -530994.051 6   -407759.68049  21591350.56349
 20  5 16  5 24  1.0000000  0  8G01G03G07G11G17G22G28G30             0.000058187
  20223985.016 7   -194354.523 7   -147110.20349  20223986.03949
  23085248.625 5  -1087397.582 5   -806782.75049  23085250.14849
  21066298.930 7    -67831.656 7    -52108.22349  21066296.84849
  21388363.359 6    102215.250 6     79230.61348  21388360.80148
  23929166.992 5   -749959.078 5   -565370.32848  23929165.46148
  22501010.922 6   -749829.973 6   -570423.15248  22501007.71548
  23439573.109 5   -995709.199 5   -741962.61746  23439570.78946
  21590928.063 6   -533210.168 6   -409486.53149  21590928.97749
 20  5 16  5 24  2.0000000  0  8G01G03G07G11G17G22G28G30             0.000057106
  20223842.188 7   -195105.598 7   -147695.44949  20223843.09049
  23084417.617 5  -1091760.934 5   -810182.76649  23084419.85249
  21066251.320 7    -68081.867 7    -52303.19549  21066249.10249
  21388445.992 7    102648.984 7     79568.58248  21388442.90648
  23928582.578 6   -753032.891 6   -567765.50448  23928580.62948
  22500443.930 6   -752809.551 6   -572744.89548  22500440.46548
  23438761.813 5   -999968.402 5   -745281.47746  23438760.17646
  21590506.563 6   -535425.738 6   -411212.94949  21590507.31349
 20  5 16  5 24  3.0000000  0  8G01G03G07G11G17G22G28G30             0.000056025
  20223699.367 7   -195856.133 7   -148280.28549  20223700.33249
  23083587.695 5  -1096124.207 5   -813582.72749  23083589.39149
  21066203.563 7    -68331.598 7    -52497.78549  21066201.92649
  21388528.859 6    103082.844 6     79906.66048  21388525.64548
  23927997.945 5   -756106.738 5   -570160.71948  23927995.77348
  22499877.148 6   -755788.785 6   -575066.38348  22499873.67648
  23437951.742 4  -1004227.527 4   -748600.26646  23437949.73846
  21590085.930 6   -537640.785 6   -412938.95749  21590085.36349
 20  5 16  5 24  4.0000000  0  8G01G03G07G11G17G22G28G30             0.000054945
  20223556.469 7   -196606.117 7   -148864.68449  20223557.26249
  23082757.438 5  -1100487.395 5   -816982.62149  23082760.36349
  21066156.438 7    -68580.762 7    -52691.93049  21066154.67249
  21388611.156 6    103516.902 6     80244.88348  21388608.27748
  23927412.875 5   -759180.449 5   -572555.84448  23927411.25448
  22499310.172 6   -758767.629 6   -577387.57448  22499306.62948
  23437141.156 4  -1008487.078 4   -751919.40646  23437138.86746
  21589664.273 6   -539855.254 6   -414664.50849  21589663.99249
 20  5 16  5 24  5.0000000  0  8G01G03G07G11G17G22G28G30             0.000053864
  20223413.938 7   -197355.734 7   -149448.80549  20223414.62949
  23081926.266 5  -1104850.777 5   -820382.66449  23081929.44549
  21066109.016 7    -68829.648 7    -52885.87549  21066107.02049
  21388693.352 6    103950.895 6     80583.06648  21388691.14548
  23926827.695 6   -762254.414 6   -574951.14548  23926826.02048
  22498743.141 6   -761746.387 6   -579708.68448  22498739.77748
  23436330.648 5  -1012747.082 5   -755238.89146  23436328.23446
  21589242.523 6   -542069.391 6   -416389.80949  21589242.78149
 20  5 16  5 24  6.0000000  0  8G01G03G07G11G17G22G28G30             0.000052782
  20223271.336 7   -198104.938 7   -150032.60549  20223272.37549
  23081096.258 5  -1109214.117 5   -823782.65649  23081098.98449
  21066061.750 7    -69078.152 7    -53079.52049  21066059.72749
  21388776.055 6    104384.961 6     80921.29748  21388773.15648
  23926242.750 6   -765328.426 6   -577346.46148  23926241.02348
  22498176.172 6   -764724.871 6   -582029.57048  22498173.05548
  23435520.547 5  -1017007.121 5   -758558.40646  23435517.99246
  21588821.242 6   -544283.074 6   -418114.76649  21588821.46549
 20  5 16  5 24  7.0000000  0  8G01G03G07G11G17G22G28G30             0.000051701
  20223128.664 7   -198853.641 7   -150616.00849  20223129.41049
  23080266.359 5  -1113577.527 5   -827182.70749  23080268.18449
  21066014.625 7    -69326.227 7    -53272.83249  21066012.55149
  21388858.742 6    104819.090 6     81259.58248  21388856.47748
  23925657.578 5   -768402.465 5   -579741.80948  23925656.09048
  22497609.227 6   -767703.066 6   -584350.23848  22497606.51248
  23434709.453 5  -1021267.359 5   -761878.07046  23434707.19946
  21588400.203 6   -546496.281 6   -419839.34449  21588400.61749
 20  5 16  5 24  8.0000000  0  8G01G03G07G11G17G22G28G30             0.000050619
  20222986.422 7   -199601.828 7   -151199.01649  20222987.21949
  23079436.664 5  -1117940.871 5   -830582.70349  23079437.73049
  21065967.813 7    -69573.813 7    -53465.76249  21065965.38749
  21388941.250 6    105253.402 6     81598.01648  21388938.82048
  23925072.547 5   -771476.469 5   -582137.14148  23925071.27748
  22497043.047 6   -770680.906 6   -586670.62948  22497039.93848
  23433898.859 5  -1025527.691 5   -765197.81347  23433896.43847
  21587979.141 6   -548708.938 6   -421563.49649  21587979.35549
 20  5 16  5 24  9.0000000  0  8G01G03G07G11G17G22G28G30             0.000049536
  20222844.203 7   -200349.586 7   -151781.68449  20222844.73849
  23078605.930 5  -1122304.234 5   -833982.71949  23078607.67649
  21065920.219 7    -69821.020 7    -53658.39549  21065918.54749
  21389023.961 6    105687.742 6     81936.44948  21389021.19148
  23924487.242 6   -774550.582 6   -584532.54348  23924485.95748
  22496476.430 6   -773658.504 6   -588990.83248  22496473.38348
  23433087.898 5  -1029788.301 5   -768517.76646  23433085.73846
  21587558.219 6   -550921.156 6   -423287.30149  21587558.56649
 20  5 16  5 24 10.0000000  0  8G01G03G07G11G17G22G28G30             0.000048454
  20222701.914 7   -201096.992 7   -152364.07449  20222703.00049
  23077775.922 5  -1126667.738 5   -837382.84849  23077776.72349
  21065873.398 7    -70067.949 7    -53850.80949  21065871.53149
  21389106.852 6    106121.996 6     82274.82448  21389104.23048
  23923902.484 5   -777624.879 5   -586928.09848  23923901.34048
  22495910.102 6   -776635.973 6   -591310.93448  22495906.81648
  23432277.500 5  -1034049.230 5   -771837.96546  23432275.00446
  21587137.492 6   -553133.051 6   -425010.85249  21587137.68049
 20  5 16  5 24 11.0000000  0  8G01G03G07G11G17G22G28G30             0.000047373
  20222559.641 7   -201843.934 7   -152946.10549  20222560.41449
  23076945.242 5  -1131031.258 5   -840782.99249  23076946.07849
  21065826.758 7    -70314.402 7    -54042.85249  21065824.55549
  21389189.516 6    106556.379 6     82613.30148  21389186.91448
  23923317.320 5   -780699.195 5   -589323.66448  23923316.48848
  22495343.406 6   -779613.152 6   -593630.81648  22495340.56648
  23431466.594 5  -1038310.391 5   -775158.34446  23431463.82046
  21586716.555 6   -555344.426 6   -426733.99649  21586716.48049
 20  5 16  5 24 12.0000000  0  8G01G03G07G11G17G22G28G30             0.000046289
  20222417.898 7   -202590.430 7   -153527.78949  20222418.83649
  23076114.453 5  -1135394.809 5   -844183.16449  23076115.93449
  21065779.547 7    -70560.504 7    -54234.61749  21065777.89149
  21389272.352 6    106990.805 6     82951.81648  21389269.66848
  23922732.734 5   -783773.578 5   -591719.29348  23922730.96548
  22494777.031 6   -782590.102 6   -595950.51248  22494773.80148
  23430655.391 5  -1042571.738 5   -778478.87546  23430653.05546
  21586295.664 6   -557555.387 6   -428456.82449  21586296.10549
 20  5 16  5 24 13.0000000  0  8G01G03G07G11G17G22G28G30             0.000045208
  20222276.000 7   -203336.527 7   -154109.16449  20222276.32849
  23075283.609 5  -1139758.449 5   -847583.39549  23075285.68849
  21065732.930 7    -70806.254 7    -54426.11349  21065731.48849
  21389354.797 6    107425.215 6     83290.31648  21389352.10948
  23922147.672 5   -786848.125 5   -594115.04748  23922146.05148
  22494210.336 6   -785566.840 6   -598270.04748  22494207.31348
  23429844.547 5  -1046833.387 5   -781799.64546  23429842.37546
  21585874.703 6   -559765.941 6   -430179.32849  21585875.35549
 20  5 16  5 24 14.0000000  0  8G01G03G07G11G17G22G28G30             0.000044125
  20222133.992 7   -204082.176 7   -154690.19149  20222134.51649
  23074453.656 5  -1144122.102 5   -850983.64549  23074455.18849
  21065686.516 7    -71051.598 7    -54617.28949  21065684.63349
  21389437.453 6    107859.711 6     83628.87948  21389434.75848
  23921562.570 5   -789922.676 5   -596510.79748  23921560.87948
  22493644.180 6   -788543.316 6   -600589.38348  22493640.87148
  23429033.648 5  -1051095.219 5   -785120.55146  23429031.01646
  21585454.500 6   -561976.039 6   -431901.48849  21585454.89149
 20  5 16  5 24 15.0000000  0  8G01G03G07G11G17G22G28G30             0.000043043
  20221992.242 7   -204827.324 7   -155270.82449  20221993.12549
  23073623.391 5  -1148485.770 5   -854383.91048  23073624.74648
  21065639.766 7    -71296.523 7    -54808.13749  21065637.50049
  21389520.227 6    108294.324 6     83967.53548  21389517.64848
  23920976.719 5   -792997.301 5   -598906.60548  23920976.32448
  22493077.688 6   -791519.492 6   -602908.48448  22493074.71948
  23428222.086 5  -1055357.266 5   -788441.62946  23428220.62946
  21585033.844 6   -564185.621 6   -433623.23849  21585034.20749
 20  5 16  5 24 16.0000000  0  8G01G03G07G11G17G22G28G30             0.000041960
  20221850.586 7   -205572.031 7   -155851.12149  20221851.28549
  23072792.914 5  -1152849.449 5   -857784.17248  23072794.07448
  21065593.148 7    -71541.023 7    -54998.65649  21065591.28949
  21389602.781 6    108728.957 6     84306.21548  21389600.23048
  23920392.078 5   -796071.957 5   -601302.44148  23920390.87148
  22492511.750 6   -794495.430 6   -605227.39148  22492508.46148
  23427411.523 5  -1059619.531 5   -791762.86346  23427409.30946
  21584613.414 6   -566394.789 6   -435344.66849  21584613.86349
 20  5 16  5 24 17.0000000  0  8G01G03G07G11G17G22G28G30             0.000040878
  20221708.945 7   -206316.340 7   -156431.09849  20221709.64549
  23071963.563 5  -1157213.195 5   -861184.49248  23071964.05548
  21065546.516 7    -71785.160 7    -55188.89549  21065544.93049
  21389685.547 6    109163.645 6     84644.93048  21389682.96148
  23919806.867 5   -799146.754 5   -603698.38748  23919805.86348
  22491944.961 6   -797471.117 6   -607546.10948  22491942.27748
  23426600.469 5  -1063882.059 5   -795084.31646  23426597.72746
  21584192.859 6   -568603.512 6   -437065.75449  21584193.77049
 20  5 16  5 24 18.0000000  0  8G01G03G07G11G17G22G28G30             0.000039795
  20221567.328 7   -207060.289 7   -157010.79749  20221568.00049
  23071132.844 5  -1161577.043 5   -864584.89148  23071133.35548
  21065499.992 7    -72028.988 7    -55378.89549  21065498.71949
  21389768.148 6    109598.301 6     84983.61748  21389765.65648
  23919222.063 5   -802221.684 5   -606094.43448  23919220.61748
  22491378.750 6   -800446.664 6   -609864.71548  22491375.96148
  23425789.477 5  -1068144.855 5   -798405.98046  23425786.86346
  21583772.313 6   -570811.844 6   -438786.52749  21583773.30949
 20  5 16  5 24 19.0000000  0  8G01G03G07G11G17G22G28G30             0.000038712
  20221425.984 7   -207803.738 7   -157590.11349  20221427.05949
  23070301.883 5  -1165940.922 5   -867985.31349  23070302.85949
  21065453.914 7    -72272.418 7    -55568.58249  21065452.52049
  21389851.141 6    110033.035 6     85322.37148  21389848.60548
  23918636.461 5   -805296.656 5   -608490.51648  23918635.85548
  22490812.594 6   -803421.938 6   -612183.11348  22490809.97748
  23424977.875 5  -1072407.906 5   -801727.85246  23424975.25846
  21583352.625 6   -573019.730 6   -440506.96149  21583353.62549
 20  5 16  5 24 20.0000000  0  8G01G03G07G11G17G22G28G30             0.000037628
  20221284.305 7   -208546.711 7   -158169.05549  20221285.07049
  23069471.570 5  -1170304.730 5   -871385.68049  23069472.27749
  21065407.813 7    -72515.352 7    -55757.87949  21065406.01649
  21389933.789 6    110467.895 6     85661.22348  21389931.17648
  23918051.273 5   -808371.641 5   -610886.60248  23918050.64848
  22490246.602 6   -806396.875 6   -614501.25048  22490243.84048
  23424166.469 5  -1076671.066 5   -805049.78546  23424164.32446
  21582932.961 6   -575227.113 6   -442227.00049  21582933.26649
 20  5 16  5 24 21.0000000  0  8G01G03G07G11G17G22G28G30             0.000036545
  20221143.180 7   -209289.133 7   -158747.56349  20221144.15649
  23068640.992 5  -1174668.508 5   -874786.02749  23068642.22349
  21065361.688 7    -72757.828 7    -55946.82849  21065359.68449
  21390016.492 6    110902.895 6     86000.18048  21390013.56348
  23917466.344 5   -811446.609 5   -613282.68048  23917465.72348
  22489680.523 6   -809371.484 6   -616819.12948  22489677.41048
  23423355.188 5  -1080934.395 5   -808371.86347  23423352.92647
  21582512.828 6   -577433.930 6   -443946.59849  21582513.32049
 20  5 16  5 24 22.0000000  0  8G01G03G07G11G17G22G28G30             0.000035463
  20221001.945 7   -210030.988 7   -159325.63349  20221003.07449
  23067810.539 5  -1179032.203 5   -878186.30949  23067811.57049
  21065315.750 7    -72999.766 7    -56135.35249  21065314.01649
  21390099.430 6    111338.066 6     86339.27348  21390097.03148
  23916881.547 5   -814521.492 5   -615678.69548  23916880.27048
  22489114.523 6   -812345.695 6   -619136.69148  22489111.55548
  23422544.063 5  -1085197.801 5   -811694.00046  23422541.55946
  21582092.797 6   -579640.184 6   -445665.75849  21582093.78549
 20  5 16  5 24 23.0000000  0  8G01G03G07G11G17G22G28G30             0.000034380
  20220860.695 7   -210772.426 7   -159903.37149  20220861.43849
  23066980.133 5  -1183395.934 5   -881586.62148  23066981.43448
  21065269.406 7    -73241.336 7    -56323.59449  21065267.69949
  21390182.336 7    111773.289 7     86678.41448  21390179.65248
  23916295.867 5   -817596.496 5   -618074.80149  23916295.70349
  22488548.797 6   -815319.688 6   -621454.08248  22488545.86748
  23421733.055 5  -1089461.496 5   -815016.36347  23421730.43847
  21581673.008 6   -581845.996 6   -447384.57849  21581673.99649
 20  5 16  5 24 24.0000000  0  8G01G03G07G11G17G22G28G30             0.000033297
  20220720.109 7   -211513.402 7   -160480.75449  20220720.73049
  23066149.641 5  -1187759.641 5   -884986.91848  23066150.85548
  21065223.586 7    -73482.508 7    -56511.51249  21065221.98849
  21390265.266 7    112208.594 7     87017.61748  21390262.42648
  23915710.891 5   -820671.563 5   -620470.94949  23915710.02749
  22487983.008 6   -818293.406 6   -623771.26648  22487979.69548
  23420921.414 5  -1093725.355 5   -818338.84447  23420918.72347
  21581253.586 6   -584051.355 6   -449103.03549  21581254.44949
 20  5 16  5 24 25.0000000  0  8G01G03G07G11G17G22G28G30             0.000032211
  20220578.875 7   -212253.938 7   -161057.79749  20220579.46149
  23065319.289 5  -1192123.449 5   -888387.28948  23065320.43848
  21065177.938 7    -73723.320 7    -56699.16449  21065176.23049
  21390347.602 7    112643.891 7     87356.80948  21390345.28948
  23915125.461 5   -823746.719 5   -622867.17649  23915125.36749
  22487416.969 6   -821266.914 6   -626088.28148  22487414.35948
  23420109.727 5  -1097989.504 5   -821661.55546  23420107.45346
  21580833.875 6   -586256.293 6   -450821.16849  21580834.84849
 20  5 16  5 24 26.0000000  0  8G01G03G07G11G17G22G28G30             0.000031128
  20220438.344 7   -212994.141 7   -161634.57849  20220438.95349
  23064488.867 5  -1196487.371 5   -891787.74649  23064489.78549
  21065131.797 7    -73963.789 7    -56886.54349  21065130.55549
  21390430.961 6    113079.199 6     87696.00448  21390428.03948
  23914540.008 5   -826821.984 5   -625263.48849  23914539.76649
  22486850.758 6   -824240.223 6   -628405.14548  22486848.22348
  23419297.969 5  -1102253.930 5   -824984.48046  23419296.06646
  21580414.578 6   -588460.855 6   -452539.00849  21580414.74249
 20  5 16  5 24 27.0000000  0  8G01G03G07G11G17G22G28G30             0.000030045
  20220297.672 7   -213733.828 7   -162210.96149  20220298.03149
  23063658.438 5  -1200851.270 5   -895188.18049  23063659.68849
  21065086.258 7    -74203.820 7    -57073.57449  21065084.99249
  21390513.797 7    113514.617 7     88035.28548  21390511.07448
  23913954.836 5   -829897.285 5   -627659.82449  23913955.14149
  22486285.117 6   -827213.254 6   -630721.78948  22486282.57848
  23418486.664 5  -1106518.535 5   -828307.54747  23418484.18047
  21579995.156 6   -590664.891 6   -454256.44549  21579995.87149
 20  5 16  5 24 28.0000000  0  8G01G03G07G11G17G22G28G30             0.000028961
  20220156.961 7   -214473.195 7   -162787.09449  20220157.46949
  23062828.086 5  -1205215.297 5   -898588.71949  23062828.85249
  21065040.820 7    -74443.566 7    -57260.39549  21065039.15649
  21390596.461 7    113949.961 7     88374.52048  21390593.28948
  23913369.875 5   -832972.777 5   -630056.31349  23913369.38749
  22485719.617 6   -830186.125 6   -633038.30948  22485717.07048
  23417675.344 5  -1110783.492 5   -831630.89546  23417672.53546
  21579575.781 6   -592868.648 6   -455973.65649  21579576.21949
 20  5 16  5 24 29.0000000  0  8G01G03G07G11G17G22G28G30             0.000027878
  20220016.156 7   -215212.113 7   -163362.87549  20220016.67249
  23061997.742 5  -1209579.375 5   -901989.29349  23061998.48849
  21064995.094 7    -74682.910 7    -57446.89849  21064993.72749
  21390679.492 7    114385.359 7     88713.79348  21390676.57848
  23912785.000 5   -836048.367 5   -632452.87149  23912784.17649
  22485153.969 6   -833158.742 6   -635354.63748  22485151.25048
  23416863.781 5  -1115048.672 5   -834954.41846  23416861.31646
  21579156.672 6   -595071.906 6   -457690.48049  21579156.71549
 20  5 16  5 24 30.0000000  0  8G01G03G07G11G17G22G28G30             0.000026793
  20219875.508 7   -215950.512 7   -163938.25049  20219876.32849
  23061167.375 5  -1213943.367 5   -905389.79749  23061168.19549
  21064949.805 7    -74921.824 7    -57633.05549  21064948.44949
  21390762.172 7    114820.891 7     89053.16448  21390759.49648
  23912199.516 5   -839123.910 5   -634849.39549  23912199.01649
  22484588.313 6   -836131.043 6   -637670.71548  22484586.01648
  23416052.344 5  -1119313.992 5   -838278.03546  23416049.59846
  21578737.625 6   -597274.629 6   -459406.88749  21578737.77749
 20  5 16  5 24 31.0000000  0  8G01G03G07G11G17G22G28G30             0.000025709
  20219734.766 7   -216688.566 7   -164513.35949  20219735.67649
  23060337.109 5  -1218307.555 5   -908790.46949  23060337.82049
  21064904.445 7    -75160.414 7    -57818.96149  21064902.92649
  21390845.039 7    115256.391 7     89392.51648  21390842.07448
  23911614.148 5   -842199.629 5   -637246.06349  23911613.69149
  22484022.891 6   -839103.184 6   -639986.66848  22484019.67248
  23415240.172 5  -1123579.641 5   -841601.93046  23415237.84046
  21578318.477 6   -599477.016 6   -461123.03549  21578318.38749
 20  5 16  5 24 32.0000000  0  8G01G03G07G11G17G22G28G30             0.000024624
  20219594.680 7   -217426.160 7   -165088.10549  20219595.28549
  23059506.344 5  -1222671.684 5   -912191.08649  23059507.53149
  21064858.977 7    -75398.598 7    -58004.55949  21064857.71949
  21390927.734 7    115691.984 7     89731.94148  21390925.16848
  23911029.281 5   -845275.410 5   -639642.76649  23911028.22349
  22483457.469 6   -842075.055 6   -642302.41048  22483454.41848
  23414428.633 5  -1127845.508 5   -844925.98047  23414426.06347
  21577899.320 6   -601678.949 6   -462838.82449  21577899.57849
 20  5 16  5 24 33.0000000  0  8G01G03G07G11G17G22G28G30             0.000023539
  20219454.414 7   -218163.383 7   -165662.56349  20219455.21149
  23058675.633 5  -1227035.965 5   -915591.82849  23058676.72349
  21064813.922 7    -75636.453 7    -58189.89149  21064812.47349
  21391010.969 6    116127.543 6     90071.34048  21391008.26248
  23910443.852 5   -848351.332 5   -642039.59049  23910442.88749
  22482891.555 6   -845046.730 6   -644618.00048  22482888.48048
  23413616.359 5  -1132111.637 5   -848250.23446  23413614.44546
  21577480.250 6   -603880.480 6   -464554.30149  21577481.03149
 20  5 16  5 24 34.0000000  0  8G01G03G07G11G17G22G28G30             0.000022455
  20219314.258 7   -218900.105 7   -166236.63749  20219314.64149
  23057845.438 5  -1231400.199 5   -918992.52748  23057846.63748
  21064768.742 7    -75873.867 7    -58374.89849  21064767.28149
  21391093.867 6    116563.215 6     90410.82048  21391091.32848
  23909858.367 5   -851427.285 5   -644436.43849  23909857.37149
  22482326.086 6   -848018.105 6   -646933.35948  22482323.62148
  23412804.359 5  -1136377.977 5   -851574.65247  23412803.00047
  21577061.344 6   -606081.520 6   -466269.39849  21577061.75049
 20  5 16  5 24 35.0000000  0  8G01G03G07G11G17G22G28G30             0.000021370
  20219174.000 7   -219636.297 7   -166810.28949  20219174.92249
  23057014.555 5  -1235764.395 5   -922393.19948  23057016.04748
  21064723.406 7    -76110.785 7    -58559.51249  21064721.99249
  21391176.711 7    116999.035 7     90750.42248  21391174.09448
  23909273.031 6   -854503.207 6   -646833.25849  23909272.03149
  22481760.992 6   -850989.152 6   -649248.46548  22481758.17648
  23411992.781 5  -1140644.438 5   -854899.17247  23411990.79747
  21576642.570 6   -608282.027 6   -467984.07849  21576643.05949
 20  5 16  5 24 36.0000000  0  8G01G03G07G11G17G22G28G30             0.000020285
  20219034.086 7   -220371.961 7   -167383.52749  20219034.97749
  23056184.398 5  -1240128.543 5   -925793.82848  23056185.80948
  21064678.539 7    -76347.246 7    -58743.77349  21064677.09449
  21391259.430 7    117434.996 7     91090.12948  21391256.74248
  23908688.008 6   -857579.105 6   -649230.06649  23908687.03949
  22481195.414 6   -853959.840 6   -651563.28548  22481192.74648
  23411180.563 5  -1144911.027 5   -858223.77746  23411178.51646
  21576224.320 6   -610481.988 6   -469698.33249  21576224.50849
 20  5 16  5 24 37.0000000  0  8G01G03G07G11G17G22G28G30             0.000019201
  20218894.125 7   -221107.164 7   -167956.42249  20218895.06349
  23055353.555 5  -1244492.691 5   -929194.46148  23055355.20348
  21064633.672 7    -76583.273 7    -58927.69549  21064632.43049
  21391342.148 6    117871.039 6     91429.90248  21391339.87148
  23908102.086 5   -860655.070 5   -651626.93049  23908101.98049
  22480630.453 6   -856930.262 6   -653877.90648  22480627.64848
  23410368.742 5  -1149177.848 5   -861548.57846  23410366.94546
  21575805.195 6   -612681.477 6   -471412.21949  21575805.87549
 20  5 16  5 24 38.0000000  0  8G01G03G07G11G17G22G28G30             0.000018116
  20218754.563 7   -221842.098 7   -168529.09449  20218754.99649
  23054523.352 5  -1248857.004 5   -932595.21948  23054524.93848
  21064588.898 7    -76819.094 7    -59111.45749  21064587.38349
  21391425.602 7    118306.941 7     91769.56648  21391423.22748
  23907517.063 5   -863731.258 5   -654023.95749  23907516.25449
  22480064.750 6   -859900.602 6   -656192.45348  22480062.24248
  23409556.992 5  -1153445.035 5   -864873.66846  23409555.12146
  21575387.328 6   -614880.688 6   -473125.89549  21575387.83249
 20  5 16  5 24 39.0000000  0  8G01G03G07G11G17G22G28G30             0.000017031
  20218615.039 7   -222576.508 7   -169101.36749  20218615.55949
  23053692.766 5  -1253221.305 5   -935995.96949  23053694.11349
  21064543.656 7    -77054.445 7    -59294.84849  21064542.69549
  21391508.500 6    118742.984 6     92109.34048  21391505.85948
  23906931.359 5   -866807.453 5   -656420.99649  23906930.75049
  22479499.336 6   -862870.602 6   -658506.73448  22479497.07048
  23408744.867 5  -1157712.379 5   -868198.86746  23408742.68046
  21574968.859 6   -617079.375 6   -474839.16049  21574969.01249
 20  5 16  5 24 40.0000000  0  8G01G03G07G11G17G22G28G30             0.000015945
  20218474.898 7   -223310.355 7   -169673.19149  20218475.65249
  23052861.922 5  -1257585.523 5   -939396.65248  23052864.02048
  21064499.078 7    -77289.270 7    -59477.82849  21064497.94149
  21391591.516 6    119179.184 6     92449.23448  21391588.57048
  23906346.195 5   -869883.617 5   -658818.00449  23906345.56649
  22478934.297 6   -865840.242 6   -660820.73848  22478931.48448
  23407932.313 5  -1161979.871 5   -871524.18046  23407930.24246
  21574550.188 6   -619277.492 6   -476551.97749  21574550.44149
 20  5 16  5 24 41.0000000  0  8G01G03G07G11G17G22G28G30             0.000014860
  20218335.711 7   -224043.727 7   -170244.65249  20218336.62549
  23052032.016 5  -1261949.711 5   -942797.31348  23052033.41848
  21064454.586 7    -77523.668 7    -59660.47349  21064453.12949
  21391674.758 6    119615.480 6     92789.21148  21391671.85948
  23905760.578 5   -872959.801 5   -661215.03149  23905760.44949
  22478369.406 6   -868809.586 6   -663134.50448  22478366.70348
  23407120.969 5  -1166247.484 5   -874849.59846  23407118.52046
  21574132.086 6   -621475.129 6   -478264.41849  21574132.80949
 20  5 16  5 24 42.0000000  0  8G01G03G07G11G17G22G28G30             0.000013775
  20218196.219 7   -224776.832 7   -170815.90649  20218196.95749
  23051201.969 5  -1266314.121 5   -946198.14848  23051202.71148
  21064410.109 7    -77757.809 7    -59842.92649  21064408.71949
  21391757.633 6    120051.676 6     93129.09848  21391754.92648
  23905175.383 5   -876036.215 5   -663612.23849  23905174.72749
  22477804.594 6   -871778.824 6   -665448.19548  22477801.75048
  23406308.461 5  -1170515.535 5   -878175.35246  23406306.65646
  21573714.055 6   -623672.461 6   -479976.62549  21573714.41449
 20  5 16  5 24 43.0000000  0  8G01G03G07G11G17G22G28G30             0.000012688
  20218056.602 7   -225509.504 7   -171386.81649  20218057.56649
  23050371.375 5  -1270678.563 5   -949599.01648  23050372.07848
  21064365.680 7    -77991.633 7    -60025.12549  21064364.39149
  21391840.695 7    120487.875 7     93468.99248  21391837.78148
  23904589.336 5   -879112.754 5   -666009.53949  23904588.93849
  22477240.000 6   -874747.859 6   -667761.72748  22477236.76648
  23405496.227 5  -1174783.805 5   -881501.27747  23405494.03147
  21573296.266 7   -625869.363 7   -481688.50049  21573296.30149
 20  5 16  5 24 44.0000000  0  8G01G03G07G11G17G22G28G30             0.000011602
  20217917.164 7   -226241.836 7   -171957.46549  20217917.76249
  23049540.289 5  -1275043.102 5   -952999.95348  23049541.98448
  21064321.164 7    -78225.129 7    -60207.07449  21064319.83649
  21391923.641 7    120924.051 7     93808.87148  21391920.99248
  23904004.242 5   -882189.422 5   -668406.93849  23904003.68049
  22476674.828 6   -877716.719 6   -670075.12948  22476671.65248
  23404684.000 5  -1179052.410 5   -884827.46147  23404681.87147
  21572878.016 7   -628065.949 7   -483400.12549  21572878.55149
 20  5 16  5 24 45.0000000  0  8G01G03G07G11G17G22G28G30             0.000010517
  20217777.953 7   -226973.633 7   -172527.69549  20217778.73449
  23048710.258 5  -1279407.637 5   -956400.88749  23048711.67249
  21064276.828 7    -78458.180 7    -60388.67249  21064275.53149
  21392006.664 7    121360.348 7     94148.84048  21392004.12148
  23903418.766 5   -885266.109 5   -670804.35949  23903418.31649
  22476110.063 6   -880685.242 6   -672388.26248  22476106.96148
  23403871.680 5  -1183321.152 5   -888153.75447  23403869.47747
  21572460.289 7   -630261.988 7   -485111.32449  21572460.60249
 20  5 16  5 24 46.0000000  0  8G01G03G07G11G17G22G28G30             0.000009432
  20217638.477 7   -227704.969 7   -173097.56649  20217639.52049
  23047879.430 5  -1283772.141 5   -959801.78948  23047880.91048
  21064232.367 7    -78690.789 7    -60569.93049  21064230.96949
  21392089.734 6    121796.734 6     94488.88348  21392087.15648
  23902833.031 5   -888342.836 5   -673201.80549  23902833.07049
  22475545.164 6   -883653.480 6   -674701.17248  22475542.08648
  23403059.078 5  -1187590.105 5   -891480.19947  23403057.05947
  21572042.492 6   -632457.527 6   -486822.12949  21572042.62549
 20  5 16  5 24 47.0000000  0  8G01G03G07G11G17G22G28G30             0.000008345
  20217499.438 7   -228435.895 7   -173667.12149  20217500.44549
  23047048.727 5  -1288136.746 5   -963202.78148  23047050.40248
  21064188.219 7    -78923.035 7    -60750.89849  21064187.11349
  21392172.688 7    122233.133 7     94828.93848  21392170.34048
  23902247.797 5   -891419.660 5   -675599.33249  23902247.28949
  22474980.211 6   -886621.508 6   -677013.92648  22474976.91848
  23402246.594 5  -1191859.313 5   -894806.85547  23402244.78147
  21571624.852 7   -634652.664 7   -488532.62949  21571624.89549
 20  5 16  5 24 48.0000000  0  8G01G03G07G11G17G22G28G30             0.000007259
  20217360.820 7   -229166.477 7   -174236.40649  20217361.42649
  23046218.742 5  -1292501.434 5   -966603.83249  23046219.69949
  21064144.102 7    -79154.980 7    -60931.63749  21064142.67649
  21392255.398 6    122669.508 6     95168.96948  21392252.91448
  23901661.656 5   -894496.629 5   -677996.96549  23901661.63749
  22474415.266 6   -889589.371 6   -679326.54748  22474412.43048
  23401434.203 5  -1196128.801 5   -898133.73047  23401432.10547
  21571206.922 6   -636847.441 6   -490242.84049  21571207.24649
 20  5 16  5 24 49.0000000  0  8G01G03G07G11G17G22G28G30             0.000006172
  20217221.688 7   -229896.523 7   -174805.27349  20217222.32049
  23045387.664 5  -1296866.078 5   -970004.84849  23045389.07849
  21064100.109 7    -79386.457 7    -61112.02049  21064098.37549
  21392338.875 6    123106.012 6     95509.10248  21392335.91048
  23901076.508 5   -897573.590 5   -680394.59449  23901076.02049
  22473850.555 6   -892556.914 6   -681638.91448  22473847.61348
  23400621.953 5  -1200398.477 5   -901460.74647  23400619.75047
  21570789.789 7   -639041.684 7   -491952.64549  21570789.77349
 20  5 16  5 24 50.0000000  0  8G01G03G07G11G17G22G28G30             0.000005087
  20217082.750 7   -230626.168 7   -175373.82849  20217083.87149
  23044557.602 5  -1301230.789 5   -973405.91849  23044558.55949
  21064055.859 7    -79617.566 7    -61292.10249  21064054.35949
  21392421.719 7    123542.547 7     95849.25848  21392419.38348
  23900491.141 5   -900650.672 5   -682792.32449  23900490.89549
  22473285.797 6   -895524.215 6   -683951.09448  22473283.27048
  23399809.367 5  -1204668.383 5   -904787.95346  23399806.82846
  21570371.992 7   -641235.504 7   -493662.10949  21570372.28149
 20  5 16  5 24 51.0000000  0  8G01G03G07G11G17G22G28G30             0.000004000
  20216944.367 7   -231355.199 7   -175941.90649  20216944.68449
  23043727.078 5  -1305595.359 5   -976806.87949  23043728.64149
  21064012.492 7    -79848.129 7    -61471.76649  21064010.91849
  21392505.000 6    123979.273 6     96189.55948  21392502.22348
  23899905.555 5   -903727.652 5   -685189.96949  23899904.96949
  22472721.656 6   -898491.113 6   -686262.95748  22472718.56648
  23398997.313 5  -1208938.320 5   -908115.17646  23398994.55946
  21569954.828 7   -643428.719 7   -495371.10949  21569954.69949
 20  5 16  5 24 52.0000000  0  8G01G03G07G11G17G22G28G30             0.000002913
  20216805.305 7   -232083.785 7   -176509.63349  20216806.39549
  23042896.305 5  -1309959.965 5   -980207.87149  23042897.96149
  21063968.625 7    -80078.285 7    -61651.10949  21063967.27749
  21392588.102 7    124416.078 7     96529.93048  21392585.64148
  23899319.805 5   -906804.707 5   -687587.68049  23899319.73049
  22472157.211 6   -901457.730 6   -688574.60548  22472153.98048
  23398184.547 5  -1213208.543 5   -911442.63346  23398182.04346
  21569537.664 7   -645621.480 7   -497079.75849  21569537.90249
 20  5 16  5 24 53.0000000  0  8G01G03G07G11G17G22G28G30             0.000001827
  20216666.922 7   -232811.938 7   -177077.02749  20216667.67649
  23042065.680 5  -1314324.590 5   -983608.87549  23042067.41049
  21063924.820 7    -80308.070 7    -61830.16449  21063923.28949
  21392671.438 7    124852.918 7     96870.32448  21392668.87148
  23898734.414 5   -909881.836 5   -689985.44149  23898733.96149
  22471592.719 6   -904424.117 6   -690886.07848  22471589.27048
  23397371.727 5  -1217478.953 5   -914770.22346  23397369.14846
  21569120.391 7   -647813.801 7   -498788.05949  21569120.41049
 20  5 16  5 24 54.0000000  0  8G01G03G07G11G17G22G28G30             0.000000740
  20216528.477 7   -233539.586 7   -177644.02349  20216529.46149
  23041235.586 5  -1318689.188 5   -987009.86349  23041237.22749
  21063881.016 7    -80537.402 7    -62008.85949  21063879.71149
  21392754.391 6    125289.895 6     97210.82848  21392751.72748
  23898148.672 5   -912959.000 5   -692383.23049  23898148.29749
  22471027.914 6   -907390.203 6   -693197.31648  22471025.18048
  23396558.828 5  -1221749.543 5   -918097.96146  23396556.49646
  21568703.234 6   -650005.617 6   -500495.97349  21568703.46949
 20  5 16  5 24 55.0000000  0  8G01G03G07G11G17G22G28G30            -0.000000347
  20216390.039 7   -234266.727 7   -178210.63349  20216391.27349
  23040404.727 5  -1323053.738 5   -990410.81349  23040406.34449
  21063837.609 7    -80766.258 7    -62187.19149  21063836.29749
  21392837.492 6    125726.957 6     97551.39848  21392835.06348
  23897563.711 5   -916036.152 5   -694781.01249  23897562.70349
  22470463.688 6   -910355.934 6   -695508.27348  22470460.76248
  23395746.141 5  -1226020.289 5   -921425.81646  23395743.43846
  21568286.164 6   -652196.895 6   -502203.46149  21568286.56349
 20  5 16  5 24 56.0000000  0  8G01G03G07G11G17G22G28G30            -0.000001434
  20216252.094 7   -234993.285 7   -178776.78149  20216252.72749
  23039574.125 6  -1327418.195 6   -993811.68449  23039575.77749
  21063794.094 7    -80994.563 7    -62365.09449  21063793.05149
  21392920.641 6    126164.246 6     97892.14148  21392918.40648
  23896978.023 5   -919113.232 5   -697178.74049  23896977.03949
  22469899.703 6   -913321.258 6   -697818.92648  22469896.37948
  23394933.477 5  -1230291.094 5   -924753.71547  23394931.14847
  21567869.172 6   -654387.563 6   -503910.47349  21567869.60549
 20  5 16  5 24 57.0000000  0  8G01G03G07G11G17G22G28G30            -0.000002522
  20216114.023 7   -235719.473 7   -179342.64149  20216114.57049
  23038743.563 5  -1331782.699 5   -997212.59849  23038745.53949
  21063750.813 7    -81222.590 7    -62542.77749  21063749.20349
  21393003.742 6    126601.504 6     98232.86348  21393001.50448
  23896391.508 5   -922190.398 5   -699576.52749  23896391.62949
  22469335.109 6   -916286.430 6   -700129.44948  22469331.95348
  23394120.773 5  -1234562.219 5   -928081.86346  23394118.31646
  21567452.523 6   -656577.879 6   -505617.21149  21567452.66049
 20  5 16  5 24 58.0000000  0  8G01G03G07G11G17G22G28G30            -0.000003609
  20215975.609 7   -236445.191 7   -179908.14149  20215976.32049
  23037912.953 5  -1336147.281 5  -1000613.56649  23037914.94149
  21063707.625 7    -81450.184 7    -62720.12549  21063705.90249
  21393086.844 6    127038.836 6     98573.63748  21393084.89548
  23895806.336 5   -925267.680 5   -701974.41449  23895805.81649
  22468770.781 6   -919251.332 6   -702439.75848  22468767.94548
  23393308.422 5  -1238833.547 5   -931410.16446  23393305.41846
  21567035.828 7   -658767.719 7   -507323.58249  21567035.75849
 20  5 16  5 24 59.0000000  0  8G01G03G07G11G17G22G28G30            -0.000004696
  20215837.523 7   -237170.566 7   -180473.36349  20215838.46549
  23037081.984 5  -1340511.949 5  -1004014.60549  23037084.27049
  21063664.242 7    -81677.449 7    -62897.21949  21063662.87549
  21393170.297 6    127476.129 6     98914.38748  21393168.03948
  23895220.938 5   -928345.078 5   -704372.38749  23895220.60549
  22468206.617 6   -922216.027 6   -704749.90648  22468203.65248
  23392495.578 5  -1243105.172 5   -934738.70347  23392493.00447
  21566618.836 6   -660957.172 6   -509029.64849  21566619.22349
 20  5 16  5 25  0.0000000  0  8G01G03G07G11G17G22G28G30            -0.000005783
  20215699.469 7   -237895.344 7   -181038.12549  20215700.31349
  23036251.117 5  -1344876.461 5  -1007415.52749  23036253.87949
  21063621.063 7    -81904.180 7    -63073.89549  21063619.27749
  21393253.664 6    127913.672 6     99255.32448  21393251.30148
  23894635.602 5   -931422.418 5   -706770.31349  23894634.78549
  22467642.813 6   -925180.324 6   -707059.75048  22467639.50848
  23391682.797 5  -1247376.871 5   -938067.30546  23391680.09846
  21566202.531 6   -663146.043 6   -510735.26649  21566203.01649
 20  5 16  5 25  1.0000000  0  8G01G03G07G11G17G22G28G30            -0.000006870
  20215561.469 7   -238619.676 7   -181602.53949  20215562.68049
  23035421.383 5  -1349241.023 5  -1010816.48449  23035423.02049
  21063577.922 7    -82130.527 7    -63250.27049  21063576.54749
  21393336.813 6    128351.242 6     99596.28548  21393334.35248
  23894049.547 5   -934499.848 5   -709168.30949  23894049.16849
  22467078.422 6   -928144.379 6   -709369.39848  22467075.31348
  23390869.281 5  -1251648.801 5   -941396.07847  23390867.01247
  21565786.039 6   -665334.449 6   -512440.51649  21565786.27749
 20  5 16  5 25  2.0000000  0  8G01G03G07G11G17G22G28G30            -0.000007957
  20215424.039 7   -239343.543 7   -182166.59449  20215424.93449
  23034590.781 5  -1353605.586 5  -1014217.43849  23034592.75049
  21063534.766 7    -82356.465 7    -63426.32849  21063533.52349
  21393419.711 6    128788.871 6     99937.29748  21393417.46948
  23893464.414 5   -937577.250 5   -711566.28149  23893463.79349
  22466515.102 6   -931108.168 6   -711678.84848  22466511.55948
  23390056.266 5  -1255920.918 5   -944724.99646  23390053.81346
  21565369.742 6   -667522.379 6   -514145.39549  21565370.05949
 20  5 16  5 25  3.0000000  0  8G01G03G07G11G17G22G28G30            -0.000009045
  20215286.016 7   -240067.102 7   -182730.41049  20215287.07049
  23033760.102 5  -1357970.305 5  -1017618.51249  23033762.21949
  21063492.125 7    -82582.141 7    -63602.17649  21063490.35549
  21393503.547 6    129226.449 6    100278.27048  21393500.67248
  23892878.320 5   -940654.926 5   -713964.46949  23892877.68849
  22465950.828 6   -934071.813 6   -713988.17648  22465947.10548
  23389243.047 5  -1260193.406 5   -948054.21546  23389240.36746
  21564953.320 6   -669710.000 6   -515850.03949  21564953.61749
 20  5 16  5 25  4.0000000  0  8G01G03G07G11G17G22G28G30            -0.000010134
  20215148.492 7   -240790.195 7   -183293.85249  20215149.55149
  23032929.563 5  -1362335.043 5  -1021019.60549  23032931.64149
  21063449.219 7    -82807.387 7    -63777.69149  21063447.35249
  21393586.648 6    129664.094 6    100619.28948  21393584.17248
  23892292.594 5   -943732.625 5   -716362.68449  23892292.18849
  22465386.992 6   -937035.176 6   -716297.28948  22465383.34048
  23388430.289 5  -1264466.109 5   -951383.59047  23388427.79747
  21564537.305 6   -671897.152 6   -517554.31349  21564537.28149
 20  5 16  5 25  5.0000000  0  8G01G03G07G11G17G22G28G30            -0.000011221
  20215011.445 7   -241512.770 7   -183856.90249  20215012.19549
  23032098.617 5  -1366699.699 5  -1024420.63749  23032101.41449
  21063406.383 7    -83032.180 7    -63952.85949  21063404.79349
  21393669.758 6    130101.875 6    100960.41848  21393667.59848
  23891707.438 5   -946810.328 5   -718760.89549  23891706.19949
  22464823.000 6   -939998.203 6   -718606.14148  22464819.86348
  23387617.711 5  -1268738.930 5   -954713.06347  23387614.91447
  21564121.219 6   -674083.754 6   -519258.16449  21564121.41049
 20  5 16  5 25  6.0000000  0  8G01G03G07G11G17G22G28G30            -0.000012308
  20214873.766 7   -242234.797 7   -184419.52049  20214875.08249
  23031268.438 5  -1371064.289 5  -1027821.61349  23031270.70349
  21063363.617 7    -83256.461 7    -64127.62949  21063362.40649
  21393753.055 6    130539.801 6    101301.66048  21393750.88748
  23891121.609 5   -949887.992 5   -721159.07049  23891120.82449
  22464258.813 6   -942960.867 6   -720914.71948  22464255.77048
  23386804.195 5  -1273011.879 5   -958042.63346  23386801.52346
  21563704.961 6   -676269.828 6   -520961.59849  21563705.43449
 20  5 16  5 25  7.0000000  0  8G01G03G07G11G17G22G28G30            -0.000013397
  20214736.430 7   -242956.395 7   -184981.80949  20214737.39549
  23030437.531 5  -1375428.922 5  -1031222.62549  23030440.22349
  21063321.086 7    -83480.367 7    -64302.09849  21063319.81649
  21393836.367 6    130977.762 6    101642.92648  21393834.22348
  23890535.578 5   -952965.734 5   -723557.31349  23890535.18849
  22463695.281 6   -945923.293 6   -723223.10548  22463692.03548
  23385990.742 5  -1277285.078 5   -961372.40247  23385988.29347
  21563289.281 6   -678455.430 6   -522664.66849  21563289.26649
 20  5 16  5 25  8.0000000  0  8G01G03G07G11G17G22G28G30            -0.000014484
  20214599.461 7   -243677.492 7   -185543.69949  20214600.58649
  23029607.016 5  -1379793.531 5  -1034623.61349  23029609.74649
  21063278.422 7    -83703.820 7    -64476.21549  21063277.06349
  21393919.883 6    131415.844 6    101984.28948  21393917.46948
  23889949.813 5   -956043.523 5   -725955.59048  23889949.46548
  22463131.375 6   -948885.406 6   -725531.23848  22463128.37948
  23385177.844 5  -1281558.414 5   -964702.27047  23385174.90647
  21562873.578 6   -680640.555 6   -524367.36349  21562873.55549
 20  5 16  5 25  9.0000000  0  8G01G03G07G11G17G22G28G30            -0.000015574
  20214462.102 7   -244398.160 7   -186105.25849  20214463.20349
  23028776.734 5  -1384158.164 5  -1038024.62549  23028779.26249
  21063235.750 7    -83926.910 7    -64650.05549  21063234.59849
  21394003.133 6    131853.953 6    102325.67248  21394000.66048
  23889364.867 5   -959121.352 5   -728353.89848  23889363.72748
  22462567.828 6   -951847.273 6   -727839.18448  22462564.71948
  23384364.414 5  -1285832.004 5   -968032.33247  23384362.11347
  21562457.711 6   -682825.238 6   -526069.71949  21562457.77049
 20  5 16  5 25 10.0000000  0  8G01G03G07G11G17G22G28G30            -0.000016663
  20214325.219 7   -245118.305 7   -186666.41049  20214326.16849
  23027945.633 5  -1388522.758 5  -1041425.60249  23027949.08649
  21063193.953 7    -84149.504 7    -64823.50849  21063192.41849
  21394086.547 6    132292.199 6    102667.16048  21394084.02348
  23888779.023 5   -962199.176 5   -730752.20748  23888778.02748
  22462004.219 6   -954808.820 6   -730146.87548  22462001.08248
  23383551.148 5  -1290105.719 5   -971362.50047  23383549.03147
  21562041.906 7   -685009.375 7   -527771.64149  21562042.17249
 20  5 16  5 25 11.0000000  0  8G01G03G07G11G17G22G28G30            -0.000017750
  20214188.117 7   -245837.809 7   -187227.06649  20214189.08649
  23027115.492 5  -1392887.164 5  -1044826.43449  23027118.26249
  21063151.633 7    -84371.543 7    -64996.52349  21063150.14149
  21394170.180 6    132730.688 6    103008.84048  21394167.54348
  23888192.797 5   -965276.898 5   -733150.43049  23888192.34449
  22461441.422 6   -957769.902 6   -732454.21548  22461437.89548
  23382737.797 5  -1294379.473 5   -974692.69946  23382735.31346
  21561626.617 7   -687192.883 7   -529473.08249  21561626.58649
 20  5 16  5 25 12.0000000  0  8G01G03G07G11G17G22G28G30            -0.000018839
  20214051.477 7   -246556.984 7   -187787.46149  20214052.30549
  23026284.641 5  -1397251.695 5  -1048227.36349  23026288.00049
  21063109.242 7    -84593.266 7    -65169.29749  21063107.84849
  21394253.789 6    133169.172 6    103350.51648  21394250.89848
  23887607.414 5   -968354.754 5   -735548.76649  23887606.61349
  22460877.766 6   -960730.789 6   -734761.39548  22460874.27048
  23381924.359 5  -1298653.531 5   -978023.13747  23381921.90647
  21561210.867 6   -689376.023 6   -531174.23049  21561211.53549
 20  5 16  5 25 13.0000000  0  8G01G03G07G11G17G22G28G30            -0.000019926
  20213914.531 7   -247275.750 7   -188347.53949  20213915.65649
  23025454.086 5  -1401616.316 5  -1051628.36349  23025457.33249
  21063066.938 7    -84814.648 7    -65341.80149  21063065.79349
  21394337.242 6    133607.633 6    103692.17648  21394334.52748
  23887021.891 5   -971432.785 5   -737947.23049  23887020.89849
  22460314.445 6   -963691.484 6   -737068.43048  22460310.91848
  23381111.000 5  -1302927.902 5   -981353.82447  23381108.51247
  21560795.992 7   -691558.762 7   -532875.06649  21560795.77049
 20  5 16  5 25 14.0000000  0  8G01G03G07G11G17G22G28G30            -0.000021015
  20213778.031 7   -247994.066 7   -188907.26249  20213778.69949
  23024623.398 5  -1405980.949 5  -1055029.37549  23024626.80149
  21063024.953 6    -85035.617 6    -65513.98849  21063023.85249
  21394420.688 6    134046.184 6    104033.90248  21394418.30548
  23886435.984 5   -974510.863 5   -740345.73049  23886435.33249
  22459751.234 6   -966651.922 6   -739375.27048  22459747.46948
  23380297.695 5  -1307202.449 5   -984684.64847  23380295.47747
  21560380.594 7   -693741.043 7   -534575.53949  21560380.70749
 20  5 16  5 25 15.0000000  0  8G01G03G07G11G17G22G28G30            -0.000022104
  20213641.406 7   -248712.090 7   -189466.76649  20213642.27349
  23023793.031 5  -1410345.695 5  -1058430.48049  23023796.34449
  21062982.992 7    -85256.336 7    -65685.98049  21062981.42249
  21394504.047 6    134484.660 6    104375.57048  21394501.50848
  23885849.797 5   -977589.094 5   -742744.34849  23885849.17249
  22459188.180 6   -969612.234 6   -741682.00848  22459184.51248
  23379483.914 5  -1311477.324 5   -988015.71547  23379481.60247
  21559965.234 7   -695922.984 7   -536275.75449  21559965.38749
 20  5 16  5 25 16.0000000  0  8G01G03G07G11G17G22G28G30            -0.000023193
  20213504.398 7   -249429.672 7   -190025.91849  20213505.58249
  23022962.117 5  -1414710.520 5  -1061831.64149  23022965.81649
  21062941.172 6    -85476.684 6    -65857.68049  21062939.41849
  21394587.375 6    134923.152 6    104717.25448  21394585.16048
  23885264.383 5   -980667.457 5   -745143.07049  23885263.45349
  22458624.430 6   -972572.293 6   -743988.54748  22458620.81648
  23378670.891 5  -1315752.465 5   -991346.98446  23378668.42246
  21559550.125 7   -698104.520 7   -537975.65249  21559550.25849
 20  5 16  5 25 17.0000000  0  8G01G03G07G11G17G22G28G30            -0.000024282
  20213368.242 7   -250146.688 7   -190584.63349  20213369.40249
  23022131.500 5  -1419075.262 5  -1065232.73849  23022135.04349
  21062899.109 6    -85696.492 6    -66028.96149  21062897.55149
  21394670.961 6    135361.820 6    105059.06648  21394668.27048
  23884678.906 5   -983745.766 5   -747541.75049  23884677.48849
  22458060.984 6   -975532.004 6   -746294.81648  22458057.76648
  23377857.531 5  -1320027.703 5   -994678.34046  23377854.37146
  21559135.172 7   -700285.469 7   -539675.09449  21559134.99649
 20  5 16  5 25 18.0000000  0  8G01G03G07G11G17G22G28G30            -0.000025372
  20213232.023 7   -250863.316 7   -191143.04749  20213233.17649
  23021301.539 5  -1423440.023 5  -1068633.84849  23021304.71549
  21062857.523 7    -85915.973 7    -66199.98449  21062856.06349
  21394754.422 6    135800.500 6    105400.89848  21394751.74648
  23884092.609 5   -986824.172 5   -749940.51249  23884091.51649
  22457497.883 6   -978491.449 6   -748600.87948  22457494.69548
  23377043.617 5  -1324303.230 5   -998009.93047  23377040.72747
  21558720.188 7   -702465.988 7   -541374.19949  21558720.51649
 20  5 16  5 25 19.0000000  0  8G01G03G07G11G17G22G28G30            -0.000026461
  20213095.602 7   -251579.480 7   -191701.09449  20213096.68449
  23020471.016 5  -1427804.816 5  -1072034.98449  23020474.06349
  21062815.922 7    -86135.023 7    -66370.67249  21062814.25049
  21394837.625 6    136239.254 6    105742.78148  21394835.38748
  23883506.906 5   -989902.625 5   -752339.30149  23883505.75049
  22456934.398 6   -981450.633 6   -750906.73448  22456931.20348
  23376230.211 5  -1328578.918 5  -1001341.62146  23376227.52046
  21558304.953 7   -704646.039 7   -543072.94549  21558305.56349
 20  5 16  5 25 20.0000000  0  8G01G03G07G11G17G22G28G30            -0.000027550
  20212959.273 7   -252295.035 7   -192258.67649  20212960.87549
  23019640.555 5  -1432169.457 5  -1075435.99649  23019643.71549
  21062774.477 7    -86353.535 7    -66540.94149  21062772.87949
  21394921.328 6    136678.219 6    106084.82848  21394918.68048
  23882921.508 5   -992980.996 5   -754738.03149  23882919.76249
  22456371.820 6   -984409.402 6   -753212.26648  22456368.55948
  23375416.289 5  -1332854.656 5  -1004673.36746  23375413.70746
  21557890.367 6   -706825.480 6   -544771.21149  21557890.65649
 20  5 16  5 25 21.0000000  0  8G01G03G07G11G17G22G28G30            -0.000028639
  20212823.258 7   -253010.066 7   -192815.84449  20212824.43049
  23018809.922 5  -1436534.074 5  -1078836.98849  23018812.99649
  21062732.828 7    -86571.586 7    -66710.85549  21062731.00449
  21395005.000 6    137117.309 6    106426.98048  21395002.81648
  23882335.219 5   -996059.348 5   -757136.74249  23882334.17649
  22455808.656 6   -987367.855 6   -755517.55548  22455805.24648
  23374602.453 5  -1337130.578 5  -1008005.25047  23374600.03547
  21557475.742 6   -709004.418 6   -546469.08249  21557476.23049
 20  5 16  5 25 22.0000000  0  8G01G03G07G11G17G22G28G30            -0.000029730
  20212687.250 7   -253724.652 7   -193372.66449  20212688.39149
  23017979.383 5  -1440898.664 5  -1082237.96949  23017982.57049
  21062691.383 6    -86789.207 6    -66880.43049  21062689.84849
  21395088.344 6    137556.465 6    106769.17648  21395085.94148
  23881749.930 5   -999137.773 5   -759535.52048  23881748.29748
  22455246.094 6   -990326.012 6   -757822.60548  22455242.35548
  23373789.344 5  -1341406.691 5  -1011337.28546  23373786.38346
  21557061.289 6   -711182.855 6   -548166.56349  21557061.50049
 20  5 16  5 25 23.0000000  0  8G01G03G07G11G17G22G28G30            -0.000030819
  20212551.594 7   -254438.875 7   -193929.20349  20212552.51249
  23017148.008 6  -1445263.359 6  -1085639.02749  23017151.48049
  21062650.078 7    -87006.504 7    -67049.75449  21062648.58649
  21395171.922 6    137995.602 6    107111.35948  21395169.57048
  23881163.617 5  -1002216.352 5   -761934.41048  23881162.28948
  22454683.438 6   -993283.973 6   -760127.51248  22454679.44148
  23372975.031 5  -1345683.102 5  -1014669.55547  23372972.69947
  21556646.703 6   -713360.938 6   -549863.77349  21556647.08649
 20  5 16  5 25 24.0000000  0  8G01G03G07G11G17G22G28G30            -0.000031908
  20212415.539 7   -255152.551 7   -194485.31349  20212416.59849
  23016318.031 5  -1449628.031 5  -1089040.07049  23016321.28949
  21062608.688 6    -87223.363 6    -67218.73849  21062607.05549
  21395255.945 6    138434.887 6    107453.65648  21395253.30148
  23880577.875 5  -1005294.879 5   -764333.26648  23880576.50848
  22454120.680 6   -996241.605 6   -762432.16448  22454117.09048
  23372161.594 5  -1349959.648 5  -1018001.93446  23372159.33646
  21556232.422 6   -715538.469 6   -551560.55549  21556232.64149
 20  5 16  5 25 25.0000000  0  8G01G03G07G11G17G22G28G30            -0.000032999
  20212279.914 7   -255865.797 7   -195041.09049  20212280.78149
  23015487.336 5  -1453992.668 5  -1092441.08649  23015490.59849
  21062567.531 7    -87439.805 7    -67387.39149  21062565.80149
  21395339.711 6    138874.207 6    107795.98848  21395336.62148
  23879992.359 5  -1008373.500 5   -766732.18448  23879990.84048
  22453557.758 6   -999198.973 6   -764736.60548  22453554.20348
  23371347.633 5  -1354236.441 5  -1021334.50846  23371344.73446
  21555818.094 6   -717715.547 6   -553256.98049  21555818.41449
 20  5 16  5 25 26.0000000  0  8G01G03G07G11G17G22G28G30            -0.000034088
  20212144.211 7   -256578.633 7   -195596.54749  20212145.37549
  23014657.016 5  -1458357.375 5  -1095842.15249  23014659.82449
  21062526.492 7    -87655.895 7    -67555.77349  21062524.71949
  21395423.039 6    139313.566 6    108138.34048  21395420.26248
  23879406.430 5  -1011452.215 5   -769131.18048  23879404.89848
  22452994.945 6  -1002156.109 6   -767040.87148  22452991.52348
  23370533.711 5  -1358513.461 5  -1024667.24646  23370530.91846
  21555403.578 6   -719892.215 6   -554953.08649  21555404.10549
 20  5 16  5 25 27.0000000  0  8G01G03G07G11G17G22G28G30            -0.000035179
  20212008.836 7   -257290.918 7   -196151.57449  20212009.50049
  23013826.406 5  -1462722.016 5  -1099243.17649  23013829.42649
  21062485.172 7    -87871.488 7    -67723.77349  21062483.67649
  21395506.641 6    139753.082 6    108480.82048  21395503.66448
  23878820.234 5  -1014530.906 5   -771530.15648  23878818.62948
  22452432.320 6  -1005112.895 6   -769344.85948  22452428.48448
  23369720.047 5  -1362790.598 5  -1028000.07447  23369717.39547
  21554990.031 6   -722068.316 6   -556648.75049  21554989.80949
 20  5 16  5 25 28.0000000  0  8G01G03G07G11G17G22G28G30            -0.000036268
  20211873.266 7   -258002.621 7   -196706.14849  20211874.16049
  23012995.867 5  -1467086.539 5  -1102644.09849  23012999.10949
  21062444.586 7    -88086.547 7    -67891.35249  21062443.00849
  21395590.055 6    140192.762 6    108823.42648  21395587.29348
  23878234.992 5  -1017609.492 5   -773929.05948  23878233.13748
  22451869.578 6  -1008069.273 6   -771648.53148  22451866.10248
  23368905.773 5  -1367067.797 5  -1031332.95747  23368903.35247
  21554575.836 6   -724243.844 6   -558343.96949  21554576.32849
 20  5 16  5 25 29.0000000  0  8G01G03G07G11G17G22G28G30            -0.000037359
  20211737.805 7   -258713.988 7   -197260.45749  20211738.83249
  23012164.805 5  -1471451.156 5  -1106045.09449  23012167.96549
  21062403.617 7    -88301.297 7    -68058.68849  21062401.94949
  21395673.664 6    140632.426 6    109166.02348  21395671.14548
  23877648.609 5  -1020688.273 5   -776328.10549  23877647.23449
  22451307.039 6  -1011025.477 6   -773952.05948  22451303.33248
  23368091.930 5  -1371345.316 5  -1034666.08647  23368089.07847
  21554161.930 6   -726418.992 6   -560038.88749  21554161.93849
 20  5 16  5 25 30.0000000  0  8G01G03G07G11G17G22G28G30            -0.000038448
  20211602.727 7   -259424.914 7   -197814.42649  20211603.62149
  23011334.727 5  -1475815.805 5  -1109446.12149  23011337.74249
  21062362.695 7    -88515.672 7    -68225.73849  21062361.15249
  21395757.375 6    141072.113 6    109508.62948  21395754.48848
  23877062.992 5  -1023767.133 5   -778727.21949  23877061.46949
  22450744.180 6  -1013981.434 6   -776255.40248  22450740.72348
  23367277.500 5  -1375623.094 5  -1037999.41846  23367274.90246
  21553748.117 6   -728593.707 6   -561733.47349  21553748.64549
 20  5 16  5 25 31.0000000  0  8G01G03G07G11G17G22G28G30            -0.000039539
  20211467.242 7   -260135.230 7   -198367.92249  20211468.46949
  23010504.109 5  -1480180.293 5  -1112847.02049  23010506.91049
  21062322.047 7    -88729.477 7    -68392.34449  21062320.59049
  21395841.008 6    141512.051 6    109851.43848  21395838.71148
  23876476.750 5  -1026845.875 5   -781126.23848  23876475.02048
  22450182.117 6  -1016936.941 6   -778558.39148  22450178.52048
  23366463.758 5  -1379900.871 5  -1041332.75047  23366461.05147
  21553334.672 6   -730767.777 6   -563427.55149  21553334.50849
 20  5 16  5 25 32.0000000  0  8G01G03G07G11G17G22G28G30            -0.000040628
  20211332.047 7   -260845.078 7   -198921.05549  20211333.11349
  23009673.313 5  -1484544.820 5  -1116247.94549  23009676.09049
  21062281.648 7    -88942.871 7    -68558.62949  21062279.73449
  21395925.117 6    141952.047 6    110194.28948  21395922.46148
  23875891.547 5  -1029924.672 5   -783525.30549  23875889.72349
  22449619.906 6  -1019892.188 6   -780861.18048  22449616.25048
  23365649.563 5  -1384178.879 5  -1044666.26247  23365646.93047
  21552921.102 6   -732941.383 6   -565121.26649  21552921.16049
 20  5 16  5 25 33.0000000  0  8G01G03G07G11G17G22G28G30            -0.000041719
  20211197.406 7   -261554.547 7   -199473.88349  20211198.42249
  23008843.383 5  -1488909.406 5  -1119648.92249  23008845.94949
  21062241.117 7    -89155.945 7    -68724.66449  21062239.42249
  21396008.898 6    142392.027 6    110537.13348  21396006.13748
  23875305.211 5  -1033003.617 5   -785924.47749  23875303.65249
  22449057.508 6  -1022847.223 6   -783163.80548  22449053.93048
  23364835.242 5  -1388457.195 5  -1048000.01647  23364832.93047
  21552507.234 7   -735114.602 7   -566814.68849  21552507.25049
 20  5 16  5 25 34.0000000  0  8G01G03G07G11G17G22G28G30            -0.000042810
  20211062.234 7   -262263.652 7   -200026.43449  20211063.55549
  23008012.602 5  -1493274.070 5  -1123049.96149  23008015.30549
  21062200.477 7    -89368.691 7    -68890.44149  21062198.90249
  21396092.516 6    142832.008 6    110879.97348  21396089.53948
  23874718.898 5  -1036082.672 5   -788323.74248  23874717.54348
  22448495.172 6  -1025802.055 6   -785466.27348  22448491.85548
  23364020.891 5  -1392735.762 5  -1051333.96947  23364018.74647
  21552093.844 6   -737287.426 6   -568507.79749  21552094.00049
 20  5 16  5 25 35.0000000  0  8G01G03G07G11G17G22G28G30            -0.000043901
  20210927.664 7   -262971.992 7   -200578.38749  20210928.78949
  23007182.148 5  -1497638.461 5  -1126450.78149  23007184.76249
  21062160.406 7    -89580.738 7    -69055.67649  21062158.41849
  21396176.211 6    143272.340 6    111223.09048  21396173.35548
  23874133.563 5  -1039161.527 5   -790722.84448  23874131.88348
  22447933.172 6  -1028756.336 6   -787768.31348  22447929.60248
  23363207.180 5  -1397014.246 5  -1054667.85246  23363204.33646
  21551680.508 7   -739459.504 7   -570200.32849  21551680.64849
 20  5 16  5 25 36.0000000  0  8G01G03G07G11G17G22G28G30            -0.000044992
  20210792.922 7   -263680.000 7   -201130.08249  20210793.99649
  23006350.852 5  -1502002.953 5  -1129851.68449  23006353.94949
  21062120.133 7    -89792.477 7    -69220.67249  21062118.44149
  21396260.086 6    143712.645 6    111566.18848  21396257.37148
  23873547.508 5  -1042240.512 5   -793122.05548  23873545.98048
  22447370.539 6  -1031710.438 6   -790070.21948  22447367.26248
  23362392.453 5  -1401293.031 5  -1058001.96146  23362389.90246
  21551267.250 7   -741631.195 7   -571892.55149  21551267.27349
 20  5 16  5 25 37.0000000  0  8G01G03G07G11G17G22G28G30            -0.000046082
  20210658.320 7   -264387.492 7   -201681.37949  20210659.19549
  23005520.758 5  -1506367.422 5  -1133252.57049  23005523.16049
  21062079.961 7    -90003.785 7    -69385.32449  21062078.00449
  21396343.836 6    144153.039 6    111909.35248  21396341.20748
  23872961.711 5  -1045319.543 5   -795521.30148  23872960.10948
  22446808.195 6  -1034664.246 6   -792371.88348  22446805.28148
  23361578.797 5  -1405572.004 5  -1061336.23046  23361575.82446
  21550853.766 7   -743802.387 7   -573584.38749  21550854.12549
 20  5 16  5 25 38.0000000  0  8G01G03G07G11G17G22G28G30            -0.000047174
  20210523.609 7   -265094.523 7   -202232.31349  20210524.59449
  23004690.672 5  -1510731.887 5  -1136653.45349  23004692.70749
  21062039.734 7    -90214.664 7    -69549.64849  21062038.12149
  21396427.656 6    144593.523 6    112252.58248  21396425.02048
  23872375.750 5  -1048398.613 5   -797920.57449  23872374.07049
  22446246.430 6  -1037617.742 6   -794673.31348  22446242.93448
  23360764.719 5  -1409851.160 5  -1064670.63746  23360761.35946
  21550440.703 6   -745973.105 6   -575275.86349  21550441.52049
 20  5 16  5 25 39.0000000  0  8G01G03G07G11G17G22G28G30            -0.000048265
  20210389.094 7   -265801.129 7   -202782.91449  20210390.30549
  23003860.094 5  -1515096.383 5  -1140054.35949  23003862.25849
  21061999.516 7    -90425.164 7    -69713.67649  21061998.07449
  21396511.539 6    145034.035 6    112595.83648  21396508.84448
  23871789.859 5  -1051477.750 5   -800319.89849  23871788.00449
  22445684.523 6  -1040571.008 6   -796974.55548  22445681.55148
  23359949.930 5  -1414130.527 5  -1068005.21546  23359947.18846
  21550027.953 7   -748143.379 7   -576966.97749  21550028.21949
 20  5 16  5 25 40.0000000  0  8G01G03G07G11G17G22G28G30            -0.000049356
  20210254.602 7   -266507.230 7   -203333.12549  20210255.75049
  23003029.781 5  -1519460.805 5  -1143455.20349  23003031.84049
  21061959.563 7    -90635.207 7    -69877.35249  21061957.74649
  21396595.953 6    145474.684 6    112939.20348  21396592.46548
  23871203.805 5  -1054556.902 5   -802719.24249  23871202.45349
  22445122.602 6  -1043523.930 6   -799275.52748  22445119.25848
  23359136.023 5  -1418410.066 5  -1071339.91846  23359133.26246
  21549614.820 7   -750313.129 7   -578657.69549  21549615.32849
 20  5 16  5 25 41.0000000  0  8G01G03G07G11G17G22G28G30            -0.000050447
  20210120.445 7   -267212.957 7   -203883.04349  20210121.66449
  23002198.750 6  -1523825.363 6  -1146856.16049  23002200.94949
  21061919.492 7    -90844.938 7    -70040.77349  21061917.96549
  21396679.602 6    145915.332 6    113282.56348  21396676.51248
  23870618.266 5  -1057636.211 5   -805118.70749  23870616.51649
  22444560.938 6  -1046476.668 6   -801576.35248  22444557.28148
  23358321.016 5  -1422689.875 5  -1074674.82846  23358318.68046
  21549202.422 7   -752482.527 7   -580348.13749  21549202.50849
 20  5 16  5 25 42.0000000  0  8G01G03G07G11G17G22G28G30            -0.000051538
  20209986.633 7   -267918.121 7   -204432.52049  20209987.44949
  23001368.109 6  -1528189.824 6  -1150257.03549  23001370.35949
  21061879.648 7    -91054.152 7    -70203.80149  21061878.10249
  21396763.344 6    146356.113 6    113626.02348  21396760.05948
  23870032.289 5  -1060715.449 5   -807518.10549  23870030.41049
  22443999.234 6  -1049429.016 6   -803876.88348  22443995.35248
  23357506.578 5  -1426969.809 5  -1078009.84046  23357504.23446
  21548789.430 6   -754651.324 6   -582038.10949  21548789.81349
 20  5 16  5 25 43.0000000  0  8G01G03G07G11G17G22G28G30            -0.000052629
  20209852.078 7   -268622.926 7   -204981.71549  20209852.92249
  23000537.758 5  -1532554.328 5  -1153657.94549  23000539.91849
  21061840.125 7    -91263.043 7    -70366.57449  21061838.23049
  21396847.180 6    146796.895 6    113969.49248  21396843.98848
  23869446.078 5  -1063794.832 5   -809917.62549  23869444.22749
  22443437.383 6  -1052381.184 6   -806177.27748  22443433.57848
  23356692.344 5  -1431250.023 5  -1081345.07447  23356689.80947
  21548376.664 6   -756819.738 6   -583727.78549  21548377.25849
 20  5 16  5 25 44.0000000  0  8G01G03G07G11G17G22G28G30            -0.000053720
  20209718.172 7   -269327.266 7   -205530.54749  20209719.18449
  22999707.258 5  -1536918.848 5  -1157058.87549  22999709.33249
  21061800.406 7    -91471.523 7    -70529.03149  21061798.56649
  21396930.992 6    147237.773 6    114313.03148  21396928.03948
  23868860.016 5  -1066874.246 5   -812317.16849  23868858.16449
  22442875.789 6  -1055333.055 6   -808477.43848  22442872.04748
  23355878.039 5  -1435530.414 5  -1084680.44946  23355875.25446
  21547964.188 6   -758987.688 6   -585417.09449  21547964.97349
 20  5 16  5 25 45.0000000  0  8G01G03G07G11G17G22G28G30            -0.000054813
  20209584.234 7   -270031.086 7   -206078.98049  20209585.56649
  22998876.859 5  -1541283.320 5  -1160459.76649  22998879.00449
  21061760.875 7    -91679.531 7    -70691.11349  21061758.95349
  21397014.813 6    147678.742 6    114656.64548  21397012.02048
  23868273.703 5  -1069953.695 5   -814716.73449  23868272.50049
  22442313.625 6  -1058284.617 6   -810777.36348  22442310.31648
  23355063.172 5  -1439811.027 5  -1088015.99247  23355060.51647
  21547551.961 6   -761155.105 6   -587105.98849  21547552.02349
 20  5 16  5 25 46.0000000  0  8G01G03G07G11G17G22G28G30            -0.000055904
  20209450.484 7   -270734.496 7   -206627.09849  20209451.01649
  22998045.625 5  -1545647.848 5  -1163860.69149  22998048.03949
  21061721.219 7    -91887.195 7    -70852.93449  21061719.82449
  21397099.094 6    148119.742 6    115000.27748  21397095.55148
  23867687.891 5  -1073033.234 5   -817116.37149  23867686.32849
  22441752.289 6  -1061235.922 6   -813077.07848  22441748.76648
  23354248.703 5  -1444091.793 5  -1091351.65247  23354245.94947
  21547139.469 7   -763322.094 7   -588794.55149  21547139.93849
 20  5 16  5 25 47.0000000  0  8G01G03G07G11G17G22G28G30            -0.000056997
  20209316.938 7   -271437.379 7   -207174.79349  20209317.73849
  22997215.516 5  -1550012.313 5  -1167261.57049  22997217.53949
  21061681.742 7    -92094.359 7    -71014.36749  21061680.28549
  21397182.977 6    148560.871 6    115344.01648  21397179.82848
  23867102.016 5  -1076112.730 5   -819515.96949  23867100.27349
  22441190.586 6  -1064186.895 6   -815376.54348  22441187.61748
  23353434.359 5  -1448372.715 5  -1094687.43846  23353431.32046
  21546727.359 7   -765488.547 7   -590482.69949  21546727.34849
 20  5 16  5 25 48.0000000  0  8G01G03G07G11G17G22G28G30            -0.000058088
  20209183.391 7   -272139.820 7   -207722.14849  20209184.00849
  22996384.867 5  -1554376.770 5  -1170662.44549  22996386.62949
  21061642.750 7    -92301.141 7    -71175.49649  21061641.09849
  21397266.773 6    149002.086 6    115687.82048  21397264.19948
  23866516.273 5  -1079192.305 5   -821915.64149  23866513.99649
  22440629.281 6  -1067137.590 6   -817675.78948  22440625.83248
  23352619.672 5  -1452653.840 5  -1098023.37547  23352616.87547
  21546315.414 7   -767654.523 7   -592170.47749  21546315.82449
 20  5 16  5 25 49.0000000  0  8G01G03G07G11G17G22G28G30            -0.000059181
  20209049.398 7   -272841.777 7   -208269.13349  20209050.63749
  22995554.406 5  -1558741.227 5  -1174063.31649  22995556.89549
  21061603.406 7    -92507.516 7    -71336.30949  21061601.64149
  21397350.703 6    149443.344 6    116031.65648  21397347.86748
  23865930.023 5  -1082271.945 5   -824315.35949  23865927.96549
  22440067.766 6  -1070088.004 6   -819974.80948  22440064.19548
  23351804.031 5  -1456935.227 5  -1101359.52047  23351802.52347
  21545903.164 7   -769820.059 7   -593857.90649  21545903.50449
 20  5 16  5 25 50.0000000  0  8G01G03G07G11G17G22G28G30            -0.000060272
  20208916.023 7   -273543.285 7   -208815.77049  20208917.44149
  22994724.305 6  -1563105.699 6  -1177464.20349  22994725.97349
  21061563.984 7    -92713.480 7    -71496.80549  21061562.22349
  21397434.711 6    149884.680 6    116375.55148  21397431.91048
  23865343.992 5  -1085351.633 5   -826715.11349  23865341.84049
  22439506.375 6  -1073038.156 6   -822273.62948  22439502.59448
  23350989.969 5  -1461216.777 5  -1104695.80547  23350987.23847
  21545491.453 6   -771985.121 6   -595544.96949  21545491.62549
 20  5 16  5 25 51.0000000  0  8G01G03G07G11G17G22G28G30            -0.000061365
  20208782.578 7   -274244.426 7   -209362.10549  20208783.58249
  22993893.531 6  -1567470.258 6  -1180865.16049  22993895.43849
  21061524.734 7    -92919.133 7    -71657.05549  21061523.07049
  21397518.781 6    150325.984 6    116719.42648  21397516.14848
  23864758.352 5  -1088431.465 5   -829114.98049  23864756.14849
  22438945.039 6  -1075988.105 6   -824572.28548  22438941.37548
  23350174.977 5  -1465498.625 5  -1108032.31347  23350172.80547
  21545079.602 6   -774149.781 6   -597231.72349  21545079.58249
 20  5 16  5 25 52.0000000  0  8G01G03G07G11G17G22G28G30            -0.000062458
  20208649.516 7   -274945.129 7   -209908.11349  20208650.32849
  22993063.055 6  -1571834.801 6  -1184266.09449  22993064.97349
  21061485.852 7    -93124.355 7    -71816.96949  21061483.91049
  21397602.453 6    150767.395 6    117063.38348  21397599.85548
  23864171.656 5  -1091511.332 5   -831514.87949  23864170.05149
  22438383.547 6  -1078937.762 6   -826870.71148  22438379.95748
  23349360.383 5  -1469780.641 5  -1111368.93846  23349357.84846
  21544667.469 7   -776313.965 7   -598918.09849  21544667.64149
 20  5 16  5 25 53.0000000  0  8G01G03G07G11G17G22G28G30            -0.000063549
  20208515.852 7   -275645.234 7   -210453.64849  20208517.13349
  22992232.531 6  -1576199.273 6  -1187666.98449  22992234.35549
  21061446.617 7    -93329.098 7    -71976.50849  21061445.50049
  21397686.383 6    151208.938 6    117407.44548  21397683.96148
  23863586.031 5  -1094591.172 5   -833914.75049  23863584.01649
  22437822.734 6  -1081887.051 6   -829168.86348  22437818.91048
  23348545.234 5  -1474062.789 5  -1114705.67246  23348542.64546
  21544255.906 7   -778477.586 7   -600604.03149  21544256.16049
 20  5 16  5 25 54.0000000  0  8G01G03G07G11G17G22G28G30            -0.000064642
  20208383.047 7   -276345.031 7   -210998.94949  20208383.40249
  22991401.953 6  -1580563.828 6  -1191067.93449  22991403.38349
  21061407.977 7    -93533.516 7    -72135.79749  21061406.65649
  21397770.719 6    151650.457 6    117751.48048  21397767.95748
  23862999.492 5  -1097671.148 5   -836314.73049  23862998.24249
  22437261.656 6  -1084836.164 6   -831466.87548  22437258.01248
  23347730.625 5  -1478345.238 5  -1118042.64547  23347727.87147
  21543844.344 7   -780640.836 7   -602289.68449  21543844.58649
 20  5 16  5 25 55.0000000  0  8G01G03G07G11G17G22G28G30            -0.000065735
  20208249.648 7   -277044.363 7   -211543.88749  20208250.73849
  22990571.641 6  -1584928.410 6  -1194468.89849  22990573.25849
  21061369.297 7    -93737.551 7    -72294.78549  21061367.71549
  21397854.852 6    152092.016 6    118095.55548  21397851.96548
  23862413.508 5  -1100751.215 5   -838714.77749  23862411.74249
  22436700.078 6  -1087785.020 6   -833764.68848  22436696.80948
  23346915.727 5  -1482627.918 5  -1121379.80147  23346913.03147
  21543432.891 7   -782803.648 7   -603974.99249  21543433.02049
 20  5 16  5 25 56.0000000  0  8G01G03G07G11G17G22G28G30            -0.000066828
  20208116.695 7   -277743.230 7   -212088.44949  20208117.62549
  22989740.922 6  -1589292.969 6  -1197869.85249  22989742.86349
  21061330.578 7    -93941.156 7    -72453.44149  21061328.85949
  21397938.633 6    152533.691 6    118439.71148  21397936.01248
  23861827.570 5  -1103831.316 5   -841114.85249  23861826.13349
  22436139.008 6  -1090733.559 6   -836062.24648  22436135.91848
  23346100.492 5  -1486910.758 5  -1124717.07846  23346097.83646
  21543021.422 7   -784965.949 7   -605659.89849  21543021.44949
 20  5 16  5 25 57.0000000  0  8G01G03G07G11G17G22G28G30            -0.000067921
  20207984.156 7   -278441.484 7   -212632.54349  20207984.73849
  22988910.711 6  -1593657.387 6  -1201270.69949  22988912.05149
  21061291.641 7    -94144.211 7    -72611.66449  21061290.36349
  21398022.820 6    152975.555 6    118784.02348  21398019.80548
  23861240.930 5  -1106911.316 5   -843514.84849  23861239.50449
  22435577.648 6  -1093681.691 6   -838359.49648  22435574.80548
  23345285.813 5  -1491193.645 5  -1128054.38747  23345282.78147
  21542609.617 7   -787127.648 7   -607344.34449  21542609.91449
 20  5 16  5 25 58.0000000  0  8G01G03G07G11G17G22G28G30            -0.000069014
  20207850.961 7   -279139.262 7   -213176.27349  20207851.91449
  22988079.859 6  -1598021.801 6  -1204671.53949  22988081.97749
  21061253.508 7    -94346.836 7    -72769.55949  21061251.57849
  21398107.109 6    153417.520 6    119128.41048  21398104.49648
  23860655.227 5  -1109991.387 5   -845914.90249  23860653.50449
  22435017.094 6  -1096629.488 6   -840656.48048  22435014.03948
  23344470.430 5  -1495476.738 5  -1131391.87147  23344467.77047
  21542198.383 7   -789288.863 7   -609028.40649  21542198.85549
 20  5 16  5 25 59.0000000  0  8G01G03G07G11G17G22G28G30            -0.000070107
  20207718.367 7   -279836.691 7   -213719.71949  20207719.30549
  22987249.078 6  -1602386.289 6  -1208072.43849  22987250.91049
  21061214.656 7    -94549.160 7    -72927.21549  21061213.09049
  21398191.133 6    153859.434 6    119472.75848  21398188.10248
  23860068.891 5  -1113071.570 5   -848315.04749  23860067.54349
  22434455.742 6  -1099577.141 6   -842953.35948  22434452.63348
  23343655.266 5  -1499760.129 5  -1134729.57847  23343652.72747
  21541787.313 7   -791449.699 7   -610712.17649  21541787.50849
 20  5 16  5 26  0.0000000  0  8G01G03G07G11G17G22G28G30            -0.000071199
  20207585.859 7   -280533.535 7   -214262.71949  20207586.86349
  22986418.836 6  -1606750.668 6  -1211473.25049  22986420.54349
  21061176.273 7    -94750.926 7    -73084.43849  21061174.78949
  21398274.984 6    154301.570 6    119817.27748  21398272.82848
  23859482.609 5  -1116151.660 5   -850715.10949  23859481.14549
  22433894.922 6  -1102524.336 6   -845249.86748  22433891.97348
  23342840.008 5  -1504043.547 5  -1138067.31347  23342837.66847
  21541376.289 7   -793609.926 7   -612395.47349  21541376.85249
 20  5 16  5 26  1.0000000  0  8G01G03G07G11G17G22G28G30            -0.000072292
  20207453.648 7   -281230.004 7   -214805.42249  20207454.44549
  22985588.586 6  -1611115.105 6  -1214874.10549  22985590.44949
  21061138.047 7    -94952.383 7    -73241.41849  21061136.45349
  21398359.234 6    154743.680 6    120161.77748  21398356.51248
  23858896.820 5  -1119231.926 5   -853115.31649  23858895.11349
  22433334.461 6  -1105471.355 6   -847546.25048  22433331.28148
  23342024.797 5  -1508327.301 5  -1141405.29747  23342022.45347
  21540964.977 7   -795769.785 7   -614078.48049  21540965.66849
 20  5 16  5 26  2.0000000  0  8G01G03G07G11G17G22G28G30            -0.000073385
  20207320.992 7   -281926.051 7   -215347.79349  20207322.05149
  22984758.148 6  -1615479.602 6  -1218275.01249  22984759.97749
  21061099.680 7    -95153.492 7    -73398.12549  21061098.19949
  21398443.273 6    155185.805 6    120506.28548  21398440.55548
  23858310.375 5  -1122312.281 5   -855515.59049  23858308.96549
  22432773.711 6  -1108418.137 6   -849842.44148  22432771.06648
  23341209.906 5  -1512611.277 5  -1144743.45746  23341207.11346
  21540554.375 7   -797929.188 7   -615761.13749  21540554.66049
 20  5 16  5 26  3.0000000  0  8G01G03G07G11G17G22G28G30            -0.000074480
  20207188.438 7   -282621.648 7   -215889.81649  20207189.35249
  22983927.508 6  -1619844.109 6  -1221675.92249  22983929.10549
  21061061.781 7    -95354.176 7    -73554.50049  21061060.15249
  21398527.453 6    155627.992 6    120850.84848  21398524.62148
  23857724.203 5  -1125392.699 5   -857915.90649  23857722.72749
  22432213.219 6  -1111364.660 6   -852138.43048  22432209.85248
  23340394.305 5  -1516895.469 5  -1148081.78547  23340391.97347
  21540143.227 7   -800088.160 7   -617443.45349  21540143.76649
 20  5 16  5 26  4.0000000  0  8G01G03G07G11G17G22G28G30            -0.000075573
  20207055.984 7   -283316.684 7   -216431.39849  20207057.03149
  22983096.945 6  -1624208.500 6  -1225076.74249  22983098.92649
  21061023.289 7    -95554.352 7    -73710.48849  21061021.52349
  21398611.516 6    156070.371 6    121195.56348  21398608.77048
  23857138.070 5  -1128473.051 5   -860316.18049  23857136.46549
  22431652.484 6  -1114310.777 6   -854434.10548  22431649.09048
  23339579.133 5  -1521179.738 5  -1151420.18046  23339576.74246
  21539732.992 7   -802246.523 7   -619125.29349  21539732.80549
 20  5 16  5 26  5.0000000  0  8G01G03G07G11G17G22G28G30            -0.000076666
  20206924.234 7   -284011.301 7   -216972.66449  20206925.12149
  22982266.180 6  -1628572.902 6  -1228477.57049  22982268.23449
  21060985.563 7    -95754.141 7    -73866.17249  21060984.18449
  21398695.781 6    156512.781 6    121540.29748  21398693.12948
  23856552.172 6  -1131553.496 6   -862716.52749  23856550.54349
  22431091.672 6  -1117256.629 6   -856729.57448  22431088.59048
  23338763.984 5  -1525464.230 5  -1154758.74247  23338761.32847
  21539322.297 7   -804404.445 7   -620806.79749  21539322.39849
 20  5 16  5 26  6.0000000  0  8G01G03G07G11G17G22G28G30            -0.000077761
  20206792.227 7   -284705.430 7   -217513.53949  20206792.81649
  22981435.719 6  -1632937.344 6  -1231878.43049  22981437.82449
  21060947.391 6    -95953.516 6    -74021.52349  21060945.57849
  21398780.453 6    156955.277 6    121885.09848  21398777.49248
  23855965.594 6  -1134633.973 6   -865116.89549  23855964.30149
  22430530.938 6  -1120202.223 6   -859024.84048  22430528.24648
  23337948.547 5  -1529748.934 5  -1158097.47747  23337946.35247
  21538911.633 7   -806561.902 7   -622487.93449  21538911.93049
 20  5 16  5 26  7.0000000  0  8G01G03G07G11G17G22G28G30            -0.000078854
  20206660.125 7   -285399.035 7   -218054.01249  20206660.53949
  22980605.063 6  -1637301.656 6  -1235279.19149  22980607.02749
  21060909.508 7    -96152.422 7    -74176.52049  21060907.96549
  21398864.383 6    157397.914 6    122230.01248  21398861.79748
  23855379.898 5  -1137714.414 5   -867517.24249  23855378.37549
  22429970.750 6  -1123147.457 6   -861319.82848  22429967.59448
  23337133.258 5  -1534033.754 5  -1161436.30147  23337130.49647
  21538501.164 7   -808718.793 7   -624168.62949  21538501.30149
 20  5 16  5 26  8.0000000  0  8G01G03G07G11G17G22G28G30            -0.000079948
  20206528.234 7   -286092.215 7   -218594.15249  20206528.97349
  22979774.563 6  -1641666.020 6  -1238679.99249  22979776.91849
  21060871.945 7    -96350.934 7    -74331.20349  21060870.52749
  21398948.820 6    157840.602 6    122574.96548  21398946.05548
  23854793.969 6  -1140794.961 6   -869917.66449  23854791.98049
  22429410.133 6  -1126092.422 6   -863614.61348  22429407.20748
  23336318.102 5  -1538318.801 5  -1164775.29747  23336315.21947
  21538090.828 7   -810875.270 7   -625849.00449  21538091.03949
 20  5 16  5 26  9.0000000  0  8G01G03G07G11G17G22G28G30            -0.000081041
  20206396.484 7   -286784.887 7   -219133.90249  20206397.28549
  22978944.047 6  -1646030.332 6  -1242080.75449  22978946.12549
  21060834.242 6    -96549.000 6    -74485.54749  21060832.65649
  21399032.484 6    158283.395 6    122919.99648  21399030.17648
  23854207.461 6  -1143875.500 6   -872318.08649  23854205.65249
  22428849.594 6  -1129037.074 6   -865909.14548  22428846.72348
  23335502.344 5  -1542603.980 5  -1168114.39547  23335500.04347
  21537680.883 7   -813031.219 7   -627528.96549  21537680.99649
 20  5 16  5 26 10.0000000  0  8G01G03G07G11G17G22G28G30            -0.000082136
  20206264.914 7   -287476.996 7   -219673.20749  20206265.51249
  22978113.594 6  -1650394.543 6  -1245481.43049  22978115.61349
  21060796.555 6    -96746.563 6    -74639.49249  21060795.21149
  21399117.148 6    158726.379 6    123265.17648  21399114.72748
  23853621.367 6  -1146956.004 6   -874718.47349  23853619.43049
  22428289.453 6  -1131981.305 6   -868203.34848  22428286.50048
  23334686.875 5  -1546889.270 5  -1171453.58247  23334684.34847
  21537270.594 7   -815186.578 7   -629208.46549  21537270.74649
 20  5 16  5 26 11.0000000  0  8G01G03G07G11G17G22G28G30            -0.000083229
  20206132.914 7   -288168.688 7   -220212.18849  20206134.15249
  22977283.078 6  -1654758.789 6  -1248882.13749  22977285.23449
  21060759.047 7    -96943.762 7    -74793.15249  21060757.53149
  21399201.945 6    159169.355 6    123610.35248  21399198.82848
  23853035.375 6  -1150036.617 6   -877118.94949  23853033.12149
  22427729.688 6  -1134925.336 6   -870497.39148  22427726.19548
  23333871.469 5  -1551174.828 5  -1174792.96947  23333868.78947
  21536860.438 7   -817341.520 7   -630887.64149  21536860.52049
 20  5 16  5 26 12.0000000  0  8G01G03G07G11G17G22G28G30            -0.000084324
  20206001.203 7   -288859.961 7   -220750.84449  20206002.52749
  22976452.258 6  -1659123.059 6  -1252282.85949  22976454.68049
  21060721.180 6    -97140.578 6    -74946.51649  21060720.09849
  21399285.836 6    159612.391 6    123955.57048  21399283.03948
  23852448.891 6  -1153117.262 6   -879519.45349  23852446.82849
  22427169.273 6  -1137869.109 6   -872791.24648  22427166.05148
  23333055.992 5  -1555460.594 5  -1178132.53547  23333053.51247
  21536450.648 7   -819496.027 7   -632566.48049  21536450.63749
 20  5 16  5 26 13.0000000  0  8G01G03G07G11G17G22G28G30            -0.000085419
  20205869.992 7   -289550.750 7   -221289.12149  20205871.07049
  22975621.875 6  -1663487.305 6  -1255683.56649  22975624.39849
  21060684.148 7    -97336.961 7    -75099.54749  21060682.61349
  21399370.242 6    160055.520 6    124300.85948  21399367.04348
  23851862.805 6  -1156197.980 6   -881920.00849  23851860.58249
  22426609.320 6  -1140812.559 6   -875084.84048  22426605.73848
  23332240.305 5  -1559746.563 5  -1181472.25047  23332237.84447
  21536040.742 7   -821650.031 7   -634244.93049  21536040.82849
 20  5 16  5 26 14.0000000  0  8G01G03G07G11G17G22G28G30            -0.000086512
  20205738.391 7   -290240.934 7   -221826.92649  20205739.51649
  22974791.945 6  -1667851.410 6  -1259084.16849  22974794.05549
  21060646.906 6    -97532.797 6    -75252.14549  21060645.44949
  21399454.664 6    160498.848 6    124646.31348  21399451.60248
  23851276.672 5  -1159278.605 5   -884320.49649  23851274.58249
  22426049.188 6  -1143755.609 6   -877378.12548  22426046.09048
  23331424.445 5  -1564032.547 5  -1184811.98447  23331422.28147
  21535630.656 7   -823803.426 7   -635922.89849  21535630.93849
 20  5 16  5 26 15.0000000  0  8G01G03G07G11G17G22G28G30            -0.000087606
  20205607.250 7   -290930.629 7   -222364.35249  20205608.78949
  22973961.242 6  -1672215.473 6  -1262484.73849  22973963.52749
  21060610.250 7    -97728.176 7    -75404.38349  21060608.69949
  21399539.047 6    160942.316 6    124991.87548  21399536.50048
  23850690.031 5  -1162359.238 5   -886720.98449  23850688.22349
  22425488.836 6  -1146698.316 6   -879671.14848  22425486.05548
  23330609.195 5  -1568318.723 5  -1188151.85547  23330606.53947
  21535221.281 7   -825956.297 7   -637600.46149  21535221.36349
 20  5 16  5 26 16.0000000  0  8G01G03G07G11G17G22G28G30            -0.000088701
  20205476.055 7   -291619.762 7   -222901.34049  20205477.28149
  22973130.820 6  -1676579.410 6  -1265885.21149  22973133.17249
  21060572.719 7    -97923.039 7    -75556.23049  21060571.06349
  21399623.492 6    161385.922 6    125337.53548  21399620.95348
  23850103.320 5  -1165439.820 5   -889121.44149  23850101.83249
  22424929.336 6  -1149640.645 6   -881963.87548  22424925.78548
  23329793.609 5  -1572604.988 5  -1191491.80147  23329790.92647
  21534811.742 7   -828108.602 7   -639277.58249  21534811.99249
 20  5 16  5 26 17.0000000  0  8G01G03G07G11G17G22G28G30            -0.000089796
  20205345.008 7   -292308.438 7   -223437.96949  20205345.98449
  22972300.273 6  -1680943.375 6  -1269285.70349  22972302.38349
  21060535.859 7    -98117.523 7    -75707.77749  21060534.37949
  21399708.094 6    161829.625 6    125683.27748  21399704.96548
  23849517.484 5  -1168520.457 5   -891521.93849  23849515.69549
  22424369.203 6  -1152582.684 6   -884256.37148  22424366.25848
  23328977.836 5  -1576891.430 5  -1194831.88747  23328975.32047
  21534401.688 7   -830260.426 7   -640954.32849  21534402.23449
 20  5 16  5 26 18.0000000  0  8G01G03G07G11G17G22G28G30            -0.000090891
  20205214.188 7   -292996.602 7   -223974.20349  20205215.12949
  22971469.461 6  -1685307.281 6  -1272686.14549  22971472.14149
  21060499.008 6    -98311.547 6    -75858.97349  21060497.42649
  21399792.055 6    162273.410 6    126029.08648  21399789.32048
  23848931.047 5  -1171601.105 5   -893922.44549  23848929.74649
  22423809.375 6  -1155524.395 6   -886548.61348  22423806.59848
  23328161.906 5  -1581178.043 5  -1198172.11347  23328159.74247
  21533992.172 6   -832411.758 6   -642630.69149  21533992.91449
 20  5 16  5 26 19.0000000  0  8G01G03G07G11G17G22G28G30            -0.000091986
  20205083.211 7   -293684.465 7   -224510.19549  20205084.07849
  22970639.336 6  -1689671.348 6  -1276086.70749  22970641.64149
  21060461.758 7    -98505.301 7    -76009.94549  21060460.47349
  21399876.742 6    162717.137 6    126374.84848  21399874.14848
  23848344.867 5  -1174681.945 5   -896323.10249  23848343.66849
  22423249.367 6  -1158465.988 6   -888840.76648  22423246.50448
  23327346.320 5  -1585464.992 5  -1201512.59847  23327344.02047
  21533583.359 7   -834562.758 7   -644306.79749  21533583.46549
 20  5 16  5 26 20.0000000  0  8G01G03G07G11G17G22G28G30            -0.000093081
  20204952.570 7   -294371.723 7   -225045.72349  20204953.41849
  22969808.734 6  -1694035.207 6  -1279487.11749  22969811.26249
  21060425.336 7    -98698.477 7    -76160.47349  21060423.50849
  21399961.297 6    163161.121 6    126720.80548  21399958.75848
  23847758.063 5  -1177762.656 5   -898723.66049  23847757.07849
  22422690.055 6  -1161407.102 6   -891132.52748  22422687.42648
  23326530.602 5  -1589751.961 5  -1204853.09047  23326528.05547
  21533174.039 6   -836713.086 6   -645982.38349  21533174.38349
 20  5 16  5 26 21.0000000  0  8G01G03G07G11G17G22G28G30            -0.000094175
  20204822.273 7   -295058.441 7   -225580.82449  20204822.97749
  22968978.414 6  -1698399.016 6  -1282887.48449  22968980.72349
  21060388.344 7    -98891.207 7    -76310.65649  21060387.08249
  21400045.813 6    163605.219 6    127066.85248  21400043.01648
  23847172.070 5  -1180843.391 5   -901124.23049  23847171.00449
  22422130.766 6  -1164347.883 6   -893424.05148  22422127.55148
  23325714.648 5  -1594039.098 5  -1208193.71147  23325712.21947
  21532764.773 6   -838862.891 6   -647657.55149  21532765.35549
 20  5 16  5 26 22.0000000  0  8G01G03G07G11G17G22G28G30            -0.000095270
  20204691.289 7   -295744.664 7   -226115.54749  20204692.00849
  22968147.648 6  -1702762.789 6  -1286287.82849  22968150.23849
  21060351.938 7    -99083.480 7    -76460.48049  21060350.10949
  21400130.125 6    164049.398 6    127412.96948  21400127.55548
  23846585.414 5  -1183924.133 5   -903524.80149  23846584.76249
  22421570.820 6  -1167288.355 6   -895715.32848  22421568.07048
  23324898.211 5  -1598326.375 5  -1211534.44947  23324896.64547
  21532356.125 7   -841012.215 7   -649332.35249  21532356.30949
 20  5 16  5 26 23.0000000  0  8G01G03G07G11G17G22G28G30            -0.000096365
  20204560.914 7   -296430.512 7   -226649.97749  20204562.13349
  22967317.352 6  -1707126.645 6  -1289688.23849  22967319.87949
  21060315.070 6    -99275.426 6    -76610.04349  21060313.76249
  21400214.930 6    164493.605 6    127759.10548  21400212.01648
  23845999.547 5  -1187005.008 5   -905925.48049  23845998.28949
  22421011.727 6  -1170228.602 6   -898006.43048  22421008.44148
  23324082.719 5  -1602613.941 5  -1214875.39847  23324080.91447
  21531946.656 6   -843161.121 6   -651006.82449  21531947.35549
 20  5 16  5 26 24.0000000  0  8G01G03G07G11G17G22G28G30            -0.000097460
  20204430.570 7   -297115.836 7   -227183.99249  20204431.10949
  22966487.188 6  -1711490.422 6  -1293088.58249  22966489.66849
  21060278.914 7    -99466.898 7    -76759.25049  21060277.85249
  21400299.109 6    164937.926 6    128105.32448  21400296.28948
  23845413.773 5  -1190085.840 5   -908326.12149  23845412.39849
  22420452.031 6  -1173168.516 6   -900297.27748  22420448.86748
  23323267.016 5  -1606901.609 5  -1218216.44147  23323264.73447
  21531538.266 7   -845309.488 7   -652680.88349  21531538.54749
 20  5 16  5 26 25.0000000  0  8G01G03G07G11G17G22G28G30            -0.000098555
  20204300.328 7   -297800.789 7   -227717.72349  20204300.64849
  22965656.914 6  -1715854.242 6  -1296488.96549  22965659.39849
  21060242.328 6    -99658.031 6    -76908.18449  21060241.14849
  21400383.977 6    165382.246 6    128451.55148  21400381.07848
  23844826.719 5  -1193166.848 5   -910726.90649  23844825.97349
  22419892.375 6  -1176108.207 6   -902587.94948  22419889.65648
  23322451.289 5  -1611189.609 5  -1221557.74247  23322448.88747
  21531129.242 7   -847457.461 7   -654354.62149  21531129.60249
 20  5 16  5 26 26.0000000  0  8G01G03G07G11G17G22G28G30            -0.000099651
  20204170.141 7   -298485.125 7   -228250.97749  20204170.69949
  22964826.078 6  -1720217.957 6  -1299889.25849  22964828.77349
  21060206.336 6    -99848.641 6    -77056.71549  21060204.64149
  21400468.773 6    165826.762 6    128797.92648  21400465.81348
  23844241.141 5  -1196247.722 5   -913127.58849  23844239.66849
  22419332.883 6  -1179047.488 6   -904878.29748  22419330.30548
  23321635.273 5  -1615477.656 5  -1224899.08247  23321632.65247
  21530720.797 6   -849604.816 6   -656027.89149  21530720.89849
 20  5 16  5 26 27.0000000  0  8G01G03G07G11G17G22G28G30            -0.000100746
  20204039.695 7   -299169.055 7   -228783.90249  20204040.60949
  22963995.711 6  -1724581.699 6  -1303289.57449  22963998.50049
  21060170.070 6   -100038.879 6    -77204.95349  21060168.66449
  21400553.023 6    166271.320 6    129144.33248  21400550.12948
  23843654.703 5  -1199328.734 5   -915528.37549  23843653.62149
  22418773.539 6  -1181986.484 6   -907168.42248  22418771.23848
  23320819.445 5  -1619765.945 5  -1228240.60947  23320817.09847
  21530312.352 6   -851751.766 6   -657700.84049  21530312.48849
 20  5 16  5 26 28.0000000  0  8G01G03G07G11G17G22G28G30            -0.000101841
  20203909.445 7   -299852.594 7   -229316.53149  20203910.41849
  22963165.406 6  -1728945.504 6  -1306689.94149  22963167.99249
  21060133.695 7   -100228.762 7    -77352.91449  21060132.35249
  21400637.477 6    166715.859 6    129490.72348  21400634.95748
  23843068.367 5  -1202409.852 5   -917929.24249  23843067.28149
  22418214.781 6  -1184925.309 6   -909458.41048  22418212.17248
  23320002.406 5  -1624054.477 5  -1231582.32047  23320000.99647
  21529903.859 7   -853898.293 7   -659373.45749  21529904.07049
 20  5 16  5 26 29.0000000  0  8G01G03G07G11G17G22G28G30            -0.000102938
  20203779.773 7   -300535.504 7   -229848.67249  20203780.70749
  22962335.242 6  -1733309.121 6  -1310090.16449  22962338.07449
  21060098.039 7   -100418.074 7    -77500.43049  21060096.48449
  21400722.328 6    167160.648 6    129837.31648  21400719.48448
  23842482.766 5  -1205490.809 5   -920329.98449  23842480.80149
  22417655.219 6  -1187863.656 6   -911748.03148  22417652.73048
  23319187.328 5  -1628343.031 5  -1234924.04747  23319184.71947
  21529495.508 7   -856044.176 7   -661045.57449  21529495.80549
 20  5 16  5 26 30.0000000  0  8G01G03G07G11G17G22G28G30            -0.000104033
  20203649.680 7   -301218.047 7   -230380.52049  20203650.96149
  22961504.641 6  -1737672.840 6  -1313490.46149  22961507.83249
  21060062.117 7   -100607.063 7    -77647.69949  21060060.48449
  21400806.797 6    167605.434 6    130183.89848  21400804.16048
  23841895.836 5  -1208571.926 5   -922730.85249  23841894.53549
  22417096.609 6  -1190801.805 6   -914037.48848  22417093.43448
  23318370.781 5  -1632631.879 5  -1238266.01247  23318368.33247
  21529086.992 7   -858189.672 7   -662717.39149  21529087.59049
 20  5 16  5 26 31.0000000  0  8G01G03G07G11G17G22G28G30            -0.000105127
  20203520.070 7   -301900.180 7   -230912.05549  20203520.66449
  22960674.195 6  -1742036.578 6  -1316890.77349  22960677.13749
  21060026.125 6   -100795.711 6    -77794.70349  21060024.62149
  21400891.430 6    168050.223 6    130530.48448  21400888.65248
  23841309.898 5  -1211653.152 5   -925131.81349  23841308.29349
  22416537.422 6  -1193739.707 6   -916326.76248  22416534.37148
  23317554.453 5  -1636920.938 5  -1241608.12947  23317552.43047
  21528678.930 7   -860334.734 7   -664388.86349  21528679.29349
 20  5 16  5 26 32.0000000  0  8G01G03G07G11G17G22G28G30            -0.000106224
  20203390.063 7   -302581.625 7   -231443.04749  20203390.95749
  22959844.086 6  -1746400.078 6  -1320290.90649  22959846.64149
  21059990.578 7   -100983.672 7    -77941.16049  21059988.80949
  21400976.141 6    168495.355 6    130877.34448  21400973.63348
  23840723.320 5  -1214734.219 5   -927532.64549  23840722.00849
  22415978.391 6  -1196677.090 6   -918615.63748  22415975.64148
  23316738.438 5  -1641209.977 5  -1244950.23047  23316736.34447
  21528270.875 7   -862479.098 7   -666059.80149  21528271.08249
 20  5 16  5 26 33.0000000  0  8G01G03G07G11G17G22G28G30            -0.000107319
  20203260.641 7   -303262.355 7   -231973.49249  20203261.11749
  22959013.594 6  -1750763.324 6  -1323690.83649  22959016.86749
  21059954.633 7   -101171.020 7    -78087.14849  21059953.06649
  21401060.883 6    168940.785 6    131224.43048  21401058.32448
  23840136.969 5  -1217815.043 5   -929933.28949  23840135.84049
  22415419.961 6  -1199613.945 6   -920904.09448  22415417.23048
  23315922.484 5  -1645498.988 5  -1248292.31647  23315920.04347
  21527863.148 7   -864622.711 7   -667730.14849  21527863.49649
 20  5 16  5 26 34.0000000  0  8G01G03G07G11G17G22G28G30            -0.000108416
  20203131.227 7   -303942.723 7   -232503.64849  20203131.99649
  22958183.422 6  -1755126.648 6  -1327090.82849  22958186.30149
  21059919.164 7   -101358.023 7    -78232.87149  21059917.45749
  21401145.398 6    169386.238 6    131571.53148  21401143.29348
  23839550.195 5  -1220896.039 5   -932334.06649  23839549.27049
  22414860.781 6  -1202550.621 6   -923192.41848  22414857.91048
  23315105.961 6  -1649788.250 6  -1251634.60247  23315103.80547
  21527455.031 6   -866765.980 6   -669400.22749  21527455.62549
 20  5 16  5 26 35.0000000  0  8G01G03G07G11G17G22G28G30            -0.000109512
  20203001.992 7   -304622.633 7   -233033.45349  20203002.56349
  22957353.117 5  -1759489.977 5  -1330490.82449  22957356.18449
  21059883.867 7   -101544.641 7    -78378.28549  21059882.12549
  21401230.609 6    169831.758 6    131918.69148  21401227.83248
  23838964.461 5  -1223977.078 5   -934734.87549  23838963.35549
  22414301.906 6  -1205487.004 6   -925480.50848  22414299.30148
  23314289.695 6  -1654077.754 6  -1254977.06647  23314287.46947
  21527046.914 6   -868908.785 6   -671069.94949  21527047.71549
 20  5 16  5 26 36.0000000  0  8G01G03G07G11G17G22G28G30            -0.000110607
  20202872.297 7   -305302.055 7   -233562.87149  20202873.30949
  22956522.641 6  -1763853.281 6  -1333890.80149  22956526.02749
  21059848.234 7   -101730.809 7    -78523.34849  21059846.51249
  21401315.297 6    170277.383 6    132265.93048  21401312.62548
  23838378.164 5  -1227058.145 5   -937135.70349  23838376.75049
  22413743.023 6  -1208423.074 6   -927768.35548  22413740.38348
  23313473.000 6  -1658367.395 6  -1258319.64147  23313471.44547
  21526639.219 6   -871051.078 6   -672739.26249  21526640.00049
 20  5 16  5 26 37.0000000  0  8G01G03G07G11G17G22G28G30            -0.000111704
  20202743.250 7   -305980.980 7   -234091.89849  20202744.50849
  22955692.563 6  -1768216.520 6  -1337290.72349  22955695.37549
  21059813.133 7   -101916.539 7    -78668.07849  21059811.16849
  21401399.898 6    170723.105 6    132613.24648  21401397.55548
  23837791.742 5  -1230139.197 5   -939536.52449  23837790.75849
  22413184.172 6  -1211358.785 6   -930055.92648  22413181.74248
  23312656.883 6  -1662657.191 6  -1261662.34847  23312655.16047
  21526231.547 6   -873192.848 6   -674408.17249  21526232.72349
 20  5 16  5 26 38.0000000  0  8G01G03G07G11G17G22G28G30            -0.000112801
  20202614.242 7   -306659.453 7   -234620.57849  20202615.23449
  22954862.070 6  -1772579.773 6  -1340690.66449  22954865.00049
  21059777.445 7   -102101.867 7    -78812.48849  21059775.87949
  21401484.969 6    171168.879 6    132960.59848  21401482.11748
  23837205.430 5  -1233220.352 5   -941937.42649  23837204.46149
  22412625.711 6  -1214294.273 6   -932343.31648  22412622.98048
  23311840.680 6  -1666947.195 6  -1265005.21547  23311838.61747
  21525824.148 6   -875334.152 6   -676076.72749  21525824.97749
 20  5 16  5 26 39.0000000  0  8G01G03G07G11G17G22G28G30            -0.000113895
  20202485.156 7   -307337.473 7   -235148.90649  20202486.02749
  22954032.219 5  -1776943.012 5  -1344090.58249  22954035.00049
  21059742.547 7   -102286.777 7    -78956.57849  21059740.99249
  21401569.609 6    171614.719 6    133308.01248  21401567.09048
  23836619.203 5  -1236301.559 5   -944338.37149  23836617.91049
  22412067.234 6  -1217229.469 6   -934630.48048  22412064.63748
  23311023.992 5  -1671237.395 5  -1268348.21947  23311022.20347
  21525416.641 6   -877474.969 6   -677744.89149  21525417.87149
 20  5 16  5 26 40.0000000  0  8G01G03G07G11G17G22G28G30            -0.000114992
  20202356.500 7   -308014.984 7   -235676.84049  20202357.05549
  22953201.430 5  -1781306.211 5  -1347490.47349  22953205.00049
  21059707.422 7   -102471.258 7    -79100.32449  21059706.11349
  21401654.484 6    172060.695 6    133655.52348  21401651.72748
  23836032.820 5  -1239382.762 5   -946739.31349  23836031.64849
  22411508.938 6  -1220164.313 6   -936917.36748  22411506.39848
  23310208.055 6  -1675527.719 6  -1271691.32847  23310205.91047
  21525009.508 6   -879615.258 6   -679412.65249  21525010.39549
 20  5 16  5 26 41.0000000  0  8G01G03G07G11G17G22G28G30            -0.000116089
  20202227.422 7   -308692.012 7   -236204.38749  20202228.54349
  22952370.938 5  -1785669.336 5  -1350890.31349  22952374.12549
  21059672.445 7   -102655.281 7    -79243.71949  21059670.65249
  21401739.398 6    172506.742 6    134003.09448  21401737.04748
  23835446.938 5  -1242463.969 5   -949140.25049  23835445.35249
  22410950.352 6  -1223098.832 6   -939204.00448  22410947.41848
  23309391.398 5  -1679818.234 5  -1275034.57847  23309389.66447
  21524602.242 6   -881755.059 6   -681080.03149  21524603.23049
 20  5 16  5 26 42.0000000  0  8G01G03G07G11G17G22G28G30            -0.000117186
  20202098.703 7   -309368.438 7   -236731.47349  20202099.45349
  22951541.195 5  -1790032.352 5  -1354290.06349  22951544.25449
  21059637.664 7   -102838.754 7    -79386.68849  21059635.91049
  21401824.383 6    172952.996 6    134350.81648  21401822.05148
  23834860.531 5  -1245545.121 5   -951541.14549  23834858.90649
  22410392.523 6  -1226032.930 6   -941490.30948  22410389.01648
  23308574.961 5  -1684108.793 5  -1278377.86747  23308573.06347
  21524195.094 6   -883894.250 6   -682746.93849  21524196.04349
 20  5 16  5 26 43.0000000  0  8G01G03G07G11G17G22G28G30            -0.000118282
  20201969.984 7   -310044.555 7   -237258.32049  20201970.93849
  22950710.469 5  -1794395.441 5  -1357689.87149  22950713.74249
  21059602.352 7   -103021.930 7    -79529.43049  21059600.89149
  21401909.547 6    173399.199 6    134698.51248  21401907.11748
  23834273.945 5  -1248626.418 5   -953942.15249  23834272.27349
  22409834.398 6  -1228966.891 6   -943776.51248  22409830.87948
  23307758.086 5  -1688399.691 5  -1281721.42647  23307756.41847
  21523788.078 6   -886033.086 6   -684413.55949  21523789.03149
 20  5 16  5 26 44.0000000  0  8G01G03G07G11G17G22G28G30            -0.000119379
  20201841.477 7   -310720.094 7   -237784.71149  20201842.69549
  22949880.539 5  -1798758.473 5  -1361089.63749  22949883.48449
  21059567.719 7   -103204.641 7    -79671.80549  21059566.47349
  21401994.164 6    173845.527 6    135046.29748  21401991.53948
  23833687.320 5  -1251707.695 5   -956343.15249  23833686.32849
  22409275.906 6  -1231900.434 6   -946062.39548  22409272.80148
  23306941.852 5  -1692690.672 5  -1285065.03947  23306939.66447
  21523381.586 6   -888171.352 6   -686079.74249  21523382.64849
 20  5 16  5 26 45.0000000  0  8G01G03G07G11G17G22G28G30            -0.000120476
  20201713.031 7   -311395.176 7   -238310.75449  20201714.07049
  22949050.383 5  -1803121.480 5  -1364489.38349  22949053.16049
  21059533.063 7   -103386.922 7    -79813.84449  21059531.55149
  21402079.328 6    174291.969 6    135394.17648  21402076.38748
  23833100.797 5  -1254788.988 5   -958744.15649  23833100.41849
  22408717.766 6  -1234833.695 6   -948348.05148  22408714.53148
  23306125.000 5  -1696981.859 5  -1288408.82847  23306122.93047
  21522974.609 6   -890309.141 6   -687745.55949  21522975.35549
 20  5 16  5 26 46.0000000  0  8G01G03G07G11G17G22G28G30            -0.000121572
  20201584.516 7   -312069.676 7   -238836.34049  20201585.48449
  22948220.102 5  -1807484.340 5  -1367889.01249  22948222.89849
  21059498.523 7   -103568.668 7    -79955.46149  21059496.97349
  21402164.234 6    174738.594 6    135742.19148  21402161.48048
  23832514.445 5  -1257870.211 5   -961145.10949  23832513.57049
  22408159.500 6  -1237766.516 6   -950633.36748  22408156.51648
  23305308.961 5  -1701273.090 5  -1291752.64547  23305306.69147
  21522567.695 6   -892446.316 6   -689410.88749  21522568.97349
 20  5 16  5 26 47.0000000  0  8G01G03G07G11G17G22G28G30            -0.000122669
  20201456.078 7   -312743.582 7   -239361.45749  20201457.42649
  22947389.719 5  -1811847.074 5  -1371288.54349  22947392.91049
  21059463.727 6   -103749.891 6    -80096.67249  21059462.44149
  21402249.242 6    175185.410 6    136090.35548  21402246.39548
  23831928.008 5  -1260951.391 5   -963546.03149  23831927.24649
  22407601.398 6  -1240698.980 6   -952918.41048  22407598.95348
  23304492.195 5  -1705564.398 5  -1295096.52047  23304489.60247
  21522161.508 6   -894582.922 6   -691075.78149  21522162.44149
 20  5 16  5 26 48.0000000  0  8G01G03G07G11G17G22G28G30            -0.000123766
  20201328.328 7   -313417.082 7   -239886.26249  20201328.87149
  22946559.602 5  -1816209.828 5  -1374688.09049  22946562.20749
  21059429.672 7   -103930.742 7    -80237.59449  21059427.94949
  21402334.477 6    175632.258 6    136438.54348  21402331.41848
  23831341.664 5  -1264032.609 5   -965946.97749  23831341.10949
  22407043.578 6  -1243631.133 6   -955203.20348  22407040.51248
  23303675.094 5  -1709855.934 5  -1298440.57447  23303673.38347
  21521754.773 7   -896719.051 7   -692740.29749  21521755.86749
 20  5 16  5 26 49.0000000  0  8G01G03G07G11G17G22G28G30            -0.000124863
  20201200.078 7   -314090.094 7   -240410.68849  20201201.16449
  22945729.148 5  -1820572.578 5  -1378087.63349  22945731.86749
  21059395.242 7   -104111.164 7    -80378.18849  21059393.86749
  21402419.211 6    176079.168 6    136786.78548  21402416.91048
  23830755.453 5  -1267113.941 5   -968348.01649  23830754.69549
  22406485.711 6  -1246563.027 6   -957487.79348  22406483.10548
  23302858.250 6  -1714147.660 6  -1301784.77747  23302856.61747
  21521348.914 7   -898854.711 7   -694404.44549  21521349.34849
 20  5 16  5 26 50.0000000  0  8G01G03G07G11G17G22G28G30            -0.000125961
  20201071.930 7   -314762.641 7   -240934.75449  20201073.26649
  22944898.938 5  -1824935.262 5  -1381487.12149  22944901.81649
  21059360.641 7   -104291.168 7    -80518.45749  21059359.39149
  21402504.648 6    176526.188 6    137135.11748  21402501.77748
  23830169.336 5  -1270195.254 5   -970749.03149  23830167.98849
  22405927.781 6  -1249494.594 6   -959772.13348  22405924.96948
  23302041.508 5  -1718439.527 5  -1305129.09047  23302039.91447
  21520942.430 7   -900989.887 7   -696068.21549  21520942.74249
 20  5 16  5 26 51.0000000  0  8G01G03G07G11G17G22G28G30            -0.000127058
  20200944.141 7   -315434.773 7   -241458.49249  20200945.21949
  22944068.859 6  -1829298.004 6  -1384886.66049  22944071.53549
  21059326.930 6   -104470.809 6    -80658.43449  21059325.35549
  21402589.664 6    176973.219 6    137483.44948  21402586.80148
  23829582.688 5  -1273276.668 5   -973150.13349  23829581.69949
  22405370.063 6  -1252425.934 6   -962056.28948  22405366.83648
  23301225.367 5  -1722731.664 5  -1308473.60947  23301223.00847
  21520536.047 6   -903124.621 6   -697731.64849  21520536.60249
 20  5 16  5 26 52.0000000  0  8G01G03G07G11G17G22G28G30            -0.000128155
  20200816.609 7   -316106.504 7   -241981.91849  20200817.59449
  22943238.422 6  -1833660.781 6  -1388286.22349  22943240.93849
  21059292.680 7   -104650.082 7    -80798.12549  21059291.02349
  21402674.961 6    177420.281 6    137831.81648  21402672.19948
  23828996.578 5  -1276358.148 5   -975551.28549  23828995.28549
  22404812.609 6  -1255357.008 6   -964340.24248  22404809.46148
  23300408.141 5  -1727024.031 5  -1311818.31347  23300406.14147
  21520130.148 7   -905258.934 7   -699394.74649  21520130.69149
 20  5 16  5 26 53.0000000  0  8G01G03G07G11G17G22G28G30            -0.000129251
  20200688.445 7   -316777.758 7   -242504.97349  20200689.66849
  22942408.672 6  -1838023.535 6  -1391685.77049  22942411.10549
  21059258.766 7   -104828.934 7    -80937.49649  21059257.15649
  21402759.813 6    177867.414 6    138180.22748  21402757.29748
  23828409.422 5  -1279439.727 5   -977952.52049  23828409.06349
  22404254.695 6  -1258287.793 6   -966623.97348  22404251.60548
  23299591.289 5  -1731316.586 5  -1315163.15247  23299588.94547
  21519723.930 6   -907392.754 6   -701057.46149  21519724.47349
 20  5 16  5 26 54.0000000  0  8G01G03G07G11G17G22G28G30            -0.000130350
  20200561.117 7   -317448.543 7   -243027.66449  20200562.19149
  22941578.109 6  -1842386.254 6  -1395085.29349  22941580.66449
  21059224.719 7   -105007.363 7    -81076.53549  21059223.28149
  21402845.156 6    178314.641 6    138528.71948  21402842.09848
  23827823.242 5  -1282521.309 5   -980353.75049  23827822.26249
  22403696.672 6  -1261218.273 6   -968907.45748  22403693.82048
  23298774.594 5  -1735609.316 5  -1318508.14547  23298772.46547
  21519317.938 7   -909526.082 7   -702719.79749  21519318.40649
 20  5 16  5 26 55.0000000  0  8G01G03G07G11G17G22G28G30            -0.000131447
  20200433.594 7   -318118.852 7   -243549.98049  20200434.55549
  22940748.078 5  -1846748.938 5  -1398484.78549  22940750.34449
  21059190.617 6   -105185.375 6    -81215.24249  21059189.37149
  21402930.133 6    178761.934 6    138877.25448  21402927.15648
  23827237.211 5  -1285602.945 5   -982755.02049  23827236.31349
  22403139.492 6  -1264148.434 6   -971190.69548  22403136.40648
  23297957.656 5  -1739902.230 5  -1321853.27747  23297955.37547
  21518912.188 7   -911658.910 7   -704381.74249  21518912.78149
 20  5 16  5 26 56.0000000  0  8G01G03G07G11G17G22G28G30            -0.000132545
  20200305.953 7   -318788.637 7   -244071.89549  20200307.00849
  22939917.789 5  -1851111.543 5  -1401884.21549  22939920.18849
  21059157.109 7   -105362.895 7    -81353.57449  21059155.56349
  21403015.031 6    179209.375 6    139225.91048  21403012.30948
  23826651.078 5  -1288684.566 5   -985156.28149  23826649.71949
  22402581.492 6  -1267078.266 6   -973473.68448  22402578.63748
  23297140.570 5  -1744195.254 5  -1325198.49647  23297138.44547
  21518506.164 7   -913791.180 7   -706043.24649  21518506.78149
 20  5 16  5 26 57.0000000  0  8G01G03G07G11G17G22G28G30            -0.000133642
  20200178.977 7   -319457.910 7   -244593.40649  20200179.32049
  22939087.430 5  -1855474.121 5  -1405283.62549  22939089.83249
  21059123.727 7   -105539.988 7    -81491.57449  21059121.87149
  21403100.484 6    179656.898 6    139574.62548  21403097.47748
  23826064.313 5  -1291766.176 5   -987557.53949  23826063.33649
  22402024.383 6  -1270007.742 6   -975756.39148  22402021.05548
  23296323.555 5  -1748488.449 5  -1328543.84447  23296321.41847
  21518100.672 7   -915922.980 7   -707704.39549  21518101.57049
 20  5 16  5 26 58.0000000  0  8G01G03G07G11G17G22G28G30            -0.000134741
  20200051.367 7   -320126.645 7   -245114.49249  20200052.70749
  22938257.438 5  -1859836.598 5  -1408682.95749  22938259.72349
  21059090.016 7   -105716.586 7    -81629.18049  21059088.12149
  21403185.664 6    180104.602 6    139923.48048  21403183.09048
  23825478.156 5  -1294847.773 5   -989958.78549  23825476.94549
  22401466.695 6  -1272936.852 6   -978038.82048  22401463.90648
  23295506.164 5  -1752781.754 5  -1331889.28147  23295504.34447
  21517695.133 6   -918054.207 6   -709365.09449  21517695.68449
 20  5 16  5 26 59.0000000  0  8G01G03G07G11G17G22G28G30            -0.000135839
  20199924.336 7   -320794.961 7   -245635.25849  20199925.35549
  22937427.602 5  -1864199.082 5  -1412082.28949  22937429.62949
  21059056.094 7   -105892.801 7    -81766.48849  21059054.46549
  21403270.992 6    180552.359 6    140272.38348  21403267.92648
  23824891.500 5  -1297929.430 5   -992360.07849  23824890.45349
  22400909.852 6  -1275865.691 6   -980321.02748  22400906.70748
  23294689.359 5  -1757075.273 5  -1335234.87547  23294687.37147
  21517289.555 7   -920184.957 7   -711025.41849  21517289.68449
 20  5 16  5 27  0.0000000  0  8G01G03G07G11G17G22G28G30            -0.000136936
  20199797.188 7   -321462.684 7   -246155.56349  20199798.05949
  22936597.234 5  -1868561.422 5  -1415481.51649  22936599.34049
  21059022.945 7   -106068.473 7    -81903.37949  21059021.38749
  21403355.945 6    181000.301 6    140621.43048  21403353.12948
  23824305.031 5  -1301011.012 5   -994761.30949  23824304.30149
  22400352.453 6  -1278794.098 6   -982602.89848  22400349.55148
  23293872.719 5  -1761368.844 5  -1338580.51647  23293870.49247
  21516884.453 6   -922315.129 6   -712685.28549  21516884.81349
 20  5 16  5 27  1.0000000  0  8G01G03G07G11G17G22G28G30            -0.000138035
  20199670.266 7   -322129.898 7   -246675.47349  20199671.17249
  22935767.641 6  -1872923.695 6  -1418880.69149  22935768.97749
  21058989.195 7   -106243.691 7    -82039.91449  21058987.91049
  21403441.008 6    181448.359 6    140970.56648  21403438.26648
  23823719.000 5  -1304092.598 5   -997162.54349  23823717.79749
  22399795.141 6  -1281722.188 6   -984884.52748  22399792.04348
  23293055.555 5  -1765662.551 5  -1341926.25847  23293053.16847
  21516479.070 6   -924444.766 6   -714344.74649  21516479.64549
 20  5 16  5 27  2.0000000  0  8G01G03G07G11G17G22G28G30            -0.000139133
  20199543.156 7   -322796.699 7   -247195.05549  20199544.25849
  22934936.953 5  -1877286.035 5  -1422279.91449  22934938.57849
  21058956.133 7   -106418.551 7    -82176.16449  21058954.57849
  21403526.703 6    181896.438 6    141319.71548  21403523.48848
  23823132.078 5  -1307174.289 5   -999563.85949  23823131.43049
  22399238.133 6  -1284650.020 6   -987165.95748  22399234.68048
  23292238.313 5  -1769956.531 5  -1345272.22747  23292236.27747
  21516074.000 6   -926573.973 6   -716003.87549  21516074.46549
 20  5 16  5 27  3.0000000  0  8G01G03G07G11G17G22G28G30            -0.000140230
  20199416.453 7   -323463.176 7   -247714.39149  20199417.61749
  22934106.805 5  -1881648.445 5  -1425679.19549  22934108.44949
  21058922.836 7   -106593.129 7    -82312.19949  21058921.36749
  21403611.695 6    182344.484 6    141668.84048  21403608.81348
  23822545.375 5  -1310256.152 5  -1001965.31349  23822544.98849
  22398680.750 6  -1287577.695 6   -989447.26248  22398677.80948
  23291421.086 5  -1774250.809 5  -1348618.41047  23291418.79747
  21515668.938 7   -928702.824 7   -717662.71949  21515669.35949
 20  5 16  5 27  4.0000000  0  8G01G03G07G11G17G22G28G30            -0.000141329
  20199289.805 7   -324128.988 7   -248233.20749  20199290.68049
  22933276.695 5  -1886010.672 5  -1429078.33249  22933278.62949
  21058889.859 6   -106767.109 6    -82447.77349  21058887.96949
  21403697.148 6    182792.746 6    142018.12948  21403694.18448
  23821958.797 5  -1313337.871 5  -1004366.65249  23821958.50849
  22398123.773 6  -1290504.875 6   -991728.17248  22398120.89848
  23290604.086 5  -1778545.105 5  -1351964.61347  23290601.72347
  21515263.961 7   -930831.012 7   -719321.04349  21515264.52349
 20  5 16  5 27  5.0000000  0  8G01G03G07G11G17G22G28G30            -0.000142427
  20199163.297 7   -324794.289 7   -248751.62549  20199164.28549
  22932446.711 5  -1890372.824 5  -1432477.41049  22932448.39549
  21058856.891 7   -106940.621 7    -82582.98049  21058855.28949
  21403782.141 6    183241.164 6    142367.55148  21403779.34048
  23821372.289 5  -1316419.590 5  -1006767.99249  23821371.68049
  22397567.008 6  -1293431.719 6   -994008.83248  22397563.74648
  23289787.070 5  -1782839.492 5  -1355310.89147  23289784.35547
  21514859.008 7   -932958.668 7   -720978.96549  21514859.31649
 20  5 16  5 27  6.0000000  0  8G01G03G07G11G17G22G28G30            -0.000143526
  20199036.695 7   -325459.129 7   -249269.68049  20199037.92649
  22931616.297 5  -1894734.957 5  -1435876.47349  22931618.15649
  21058824.102 7   -107113.723 7    -82717.85949  21058822.40249
  21403867.695 6    183689.664 6    142717.02748  21403864.76648
  23820786.375 5  -1319501.355 5  -1009169.37149  23820785.49649
  22397010.164 6  -1296358.273 6   -996289.26648  22397006.80148
  23288969.914 5  -1787134.117 5  -1358657.35247  23288966.77747
  21514454.297 7   -935085.844 7   -722636.50449  21514454.52749
 20  5 16  5 27  7.0000000  0  8G01G03G07G11G17G22G28G30            -0.000144625
  20198910.195 7   -326123.609 7   -249787.46149  20198911.04749
  22930786.430 5  -1899097.184 5  -1439275.60949  22930788.10249
  21058791.188 7   -107286.512 7    -82852.50849  21058789.48449
  21403952.961 6    184138.137 6    143066.48848  21403950.09448
  23820199.586 5  -1322583.250 5  -1011570.84449  23820199.30949
  22396453.219 6  -1299284.613 6   -998569.53548  22396449.71948
  23288152.727 5  -1791428.980 5  -1362004.00447  23288149.65647
  21514049.492 7   -937212.621 7   -724293.73049  21514049.73849
 20  5 16  5 27  8.0000000  0  8G01G03G07G11G17G22G28G30            -0.000145723
  20198784.039 7   -326787.520 7   -250304.78549  20198784.91449
  22929956.516 5  -1903459.277 5  -1442674.64149  22929957.54349
  21058758.266 7   -107458.777 7    -82986.73849  21058756.77049
  21404038.508 6    184586.785 6    143416.08248  21404035.57448
  23819612.953 5  -1325665.078 5  -1013972.27049  23819612.55949
  22395896.250 6  -1302210.547 6  -1000849.48048  22395893.08648
  23287335.398 5  -1795723.926 5  -1365350.71147  23287332.38747
  21513644.992 7   -939338.813 7   -725950.50449  21513645.40649
 20  5 16  5 27  9.0000000  0  8G01G03G07G11G17G22G28G30            -0.000146822
  20198657.617 7   -327450.992 7   -250821.78149  20198658.38349
  22929126.523 5  -1907821.371 5  -1446073.67249  22929127.89549
  21058725.727 7   -107630.672 7    -83120.68449  21058723.68049
  21404123.969 6    185035.441 6    143765.68448  21404120.85948
  23819026.836 5  -1328747.008 5  -1016373.76649  23819026.27049
  22395339.406 6  -1305136.219 6  -1003129.21948  22395336.36348
  23286517.852 5  -1800019.121 5  -1368697.61347  23286514.96147
  21513240.477 7   -941464.563 7   -727606.93849  21513240.50849
 20  5 16  5 27 10.0000000  0  8G01G03G07G11G17G22G28G30            -0.000147921
  20198531.563 7   -328113.961 7   -251338.38349  20198532.72749
  22928296.750 5  -1912183.398 5  -1449472.64849  22928297.60949
  21058693.109 7   -107802.098 7    -83254.26649  21058691.27349
  21404209.367 6    185484.277 6    144115.42648  21404206.34448
  23818440.383 5  -1331828.918 5  -1018775.25049  23818439.85549
  22394782.938 6  -1308061.570 6  -1005408.71148  22394779.54348
  23285700.547 5  -1804314.426 5  -1372044.60247  23285697.63347
  21512836.203 7   -943589.770 7   -729262.94149  21512836.50849
 20  5 16  5 27 11.0000000  0  8G01G03G07G11G17G22G28G30            -0.000149019
  20198405.172 7   -328776.484 7   -251854.62949  20198406.47349
  22927466.414 5  -1916545.445 5  -1452871.64549  22927467.61349
  21058660.555 7   -107973.129 7    -83387.53549  21058658.50049
  21404294.508 6    185933.145 6    144465.19148  21404291.73448
  23817853.281 5  -1334910.910 5  -1021176.80149  23817852.83649
  22394226.703 6  -1310986.598 6  -1007687.94548  22394223.01648
  23284883.195 5  -1808609.938 5  -1375391.75047  23284880.11747
  21512431.820 7   -945714.527 7   -730918.59849  21512432.23849
 20  5 16  5 27 12.0000000  0  8G01G03G07G11G17G22G28G30            -0.000150118
  20198279.453 7   -329438.570 7   -252370.54349  20198280.46949
  22926636.656 5  -1920907.508 5  -1456270.64549  22926637.46549
  21058628.063 7   -108143.793 7    -83520.52349  21058626.25449
  21404380.008 6    186382.047 6    144814.98048  21404377.10548
  23817266.695 5  -1337992.977 5  -1023578.41449  23817266.58249
  22393669.789 6  -1313911.395 6  -1009967.00848  22393666.68848
  23284066.133 5  -1812905.715 5  -1378739.11347  23284063.05947
  21512027.688 7   -947838.848 7   -732573.91049  21512028.05149
 20  5 16  5 27 13.0000000  0  8G01G03G07G11G17G22G28G30            -0.000151218
  20198153.727 7   -330100.027 7   -252885.96949  20198154.58649
  22925806.000 5  -1925269.371 5  -1459669.50049  22925807.14549
  21058595.875 7   -108313.855 7    -83653.03949  21058593.66049
  21404465.375 6    186831.172 6    145164.94948  21404462.59448
  23816680.906 5  -1341074.930 5  -1025979.92649  23816680.22749
  22393113.602 6  -1316835.730 6  -1012245.71148  22393109.74648
  23283248.180 6  -1817201.484 6  -1382086.46547  23283245.17247
  21511623.320 7   -949962.508 7   -734228.71149  21511623.61749
 20  5 16  5 27 14.0000000  0  8G01G03G07G11G17G22G28G30            -0.000152317
  20198027.633 7   -330760.859 7   -253400.89849  20198028.88349
  22924976.156 6  -1929631.082 6  -1463068.23449  22924977.62949
  21058563.289 7   -108483.375 7    -83785.13349  21058561.51649
  21404550.914 6    187280.551 6    145515.11748  21404548.03548
  23816094.656 5  -1344156.754 5  -1028381.34849  23816093.90649
  22392556.805 6  -1319759.602 6  -1014524.05948  22392553.39848
  23282430.781 6  -1821497.281 6  -1385433.84847  23282427.57847
  21511219.133 7   -952085.531 7   -735883.02049  21511219.66049
 20  5 16  5 27 15.0000000  0  8G01G03G07G11G17G22G28G30            -0.000153416
  20197902.031 7   -331421.242 7   -253915.48449  20197903.06349
  22924146.438 5  -1933992.762 5  -1466466.94149  22924147.09849
  21058530.992 7   -108652.488 7    -83916.90649  21058529.30949
  21404636.094 6    187730.016 6    145865.34448  21404633.69148
  23815507.867 5  -1347238.641 5  -1030782.82049  23815507.03149
  22392001.016 6  -1322683.176 6  -1016802.16448  22391997.25048
  23281612.883 6  -1825793.277 6  -1388781.37147  23281610.60547
  21510815.086 7   -954208.086 7   -737536.95349  21510815.73849
 20  5 16  5 27 16.0000000  0  8G01G03G07G11G17G22G28G30            -0.000154514
  20197776.500 7   -332080.871 7   -254429.48449  20197777.53549
  22923315.914 5  -1938354.076 5  -1469865.36849  22923317.28149
  21058499.172 7   -108820.859 7    -84048.10549  21058497.40649
  21404721.984 6    188179.840 6    146215.85948  21404719.21948
  23814921.703 5  -1350320.242 5  -1033184.06349  23814920.68049
  22391444.414 6  -1325606.148 6  -1019079.81348  22391441.02748
  23280795.930 5  -1830089.137 5  -1392128.79347  23280792.93847
  21510411.367 6   -956329.836 6   -739190.26649  21510412.12549
 20  5 16  5 27 17.0000000  0  8G01G03G07G11G17G22G28G30            -0.000155613
  20197651.211 7   -332740.039 7   -254943.12149  20197652.02349
  22922486.570 5  -1942715.473 5  -1473263.85549  22922487.59849
  21058467.094 7   -108988.852 7    -84179.01649  21058465.69149
  21404807.719 6    188629.734 6    146566.42648  21404804.98848
  23814335.297 5  -1353401.922 5  -1035585.37149  23814334.49649
  22390888.227 6  -1328528.836 6  -1021357.22348  22390884.91048
  23279978.672 6  -1834385.211 6  -1395476.38347  23279975.33247
  21510007.953 6   -958451.137 6   -740843.23449  21510008.42249
 20  5 16  5 27 18.0000000  0  8G01G03G07G11G17G22G28G30            -0.000156713
  20197525.930 7   -333398.777 7   -255456.42249  20197526.56349
  22921656.320 5  -1947076.816 5  -1476662.30149  22921657.56649
  21058435.266 7   -109156.453 7    -84309.60949  21058433.74649
  21404893.695 6    189079.688 6    146917.03148  21404890.78148
  23813748.914 5  -1356483.688 5  -1037986.75049  23813747.84049
  22390332.164 6  -1331451.238 6  -1023634.42248  22390328.53148
  23279161.063 6  -1838681.492 6  -1398824.14147  23279157.97347
  21509604.109 7   -960571.980 7   -742495.84449  21509604.87549
 20  5 16  5 27 19.0000000  0  8G01G03G07G11G17G22G28G30            -0.000157812
  20197400.508 7   -334056.953 7   -255969.28149  20197401.12149
  22920826.398 5  -1951438.027 5  -1480060.64149  22920827.60949
  21058403.609 7   -109323.559 7    -84439.82049  21058401.68449
  21404979.273 6    189529.789 6    147267.76248  21404976.07448
  23813162.680 5  -1359565.391 5  -1040388.07849  23813161.61349
  22389776.016 6  -1334373.277 6  -1025911.33248  22389772.61748
  23278342.695 6  -1842977.875 6  -1402171.96947  23278340.09847
  21509200.859 7   -962692.230 7   -744147.98849  21509201.03149
 20  5 16  5 27 20.0000000  0  8G01G03G07G11G17G22G28G30            -0.000158911
  20197275.391 7   -334714.781 7   -256481.87949  20197276.53549
  22919996.578 5  -1955799.383 5  -1483459.10249  22919997.80949
  21058371.438 7   -109490.363 7    -84569.80549  21058369.44149
  21405064.625 6    189979.855 6    147618.46548  21405061.65648
  23812575.570 5  -1362647.238 5  -1042789.51649  23812574.88749
  22389220.070 6  -1337295.129 6  -1028188.10248  22389216.71948
  23277525.617 5  -1847274.535 5  -1405520.01647  23277522.71147
  21508797.617 7   -964812.133 7   -745799.85949  21508797.71549
 20  5 16  5 27 21.0000000  0  8G01G03G07G11G17G22G28G30            -0.000160011
  20197150.305 7   -335372.133 7   -256994.10549  20197151.07449
  22919166.914 5  -1960160.660 5  -1486857.49649  22919167.86349
  21058339.938 7   -109656.730 7    -84699.43849  21058338.66849
  21405150.477 6    190430.023 6    147969.24248  21405147.32848
  23811989.547 5  -1365729.133 5  -1045190.98449  23811988.51649
  22388664.250 6  -1340216.648 6  -1030464.60948  22388660.48048
  23276707.414 6  -1851571.387 6  -1408868.21547  23276704.80947
  21508394.461 7   -966931.512 7   -747451.32849  21508394.51649
 20  5 16  5 27 22.0000000  0  8G01G03G07G11G17G22G28G30            -0.000161110
  20197025.453 7   -336028.895 7   -257505.86349  20197026.51249
  22918336.609 5  -1964521.813 5  -1490255.79749  22918337.93049
  21058308.648 7   -109822.547 7    -84828.64849  21058306.50049
  21405236.313 6    190880.379 6    148320.16448  21405233.30148
  23811403.305 5  -1368810.953 5  -1047592.40649  23811402.00449
  22388108.000 6  -1343137.734 6  -1032740.77748  22388104.47348
  23275889.938 6  -1855868.297 6  -1412216.45347  23275886.84047
  21507991.281 6   -969050.289 6   -749102.32849  21507991.59049
 20  5 16  5 27 23.0000000  0  8G01G03G07G11G17G22G28G30            -0.000162210
  20196900.539 7   -336685.070 7   -258017.16849  20196901.48049
  22917506.875 5  -1968882.809 5  -1493653.96949  22917508.08649
  21058276.938 7   -109987.855 7    -84957.46549  21058275.17249
  21405322.000 6    191330.930 6    148671.24248  21405318.86748
  23810816.945 5  -1371892.660 5  -1049993.73449  23810815.46949
  22387552.875 6  -1346058.414 6  -1035016.62948  22387548.51648
  23275072.523 6  -1860165.266 6  -1415564.75047  23275069.28147
  21507588.078 7   -971168.477 7   -750752.86349  21507588.48449
 20  5 16  5 27 24.0000000  0  8G01G03G07G11G17G22G28G30            -0.000163309
  20196775.633 7   -337340.715 7   -258528.06349  20196776.52749
  22916676.766 5  -1973243.680 5  -1497052.04749  22916678.29749
  21058245.945 7   -110152.648 7    -85085.87549  21058244.27749
  21405407.547 6    191781.652 6    149022.45348  21405404.51248
  23810230.047 5  -1374974.336 5  -1052395.03949  23810229.03549
  22386996.656 6  -1348978.711 6  -1037292.18448  22386992.94948
  23274254.602 6  -1864462.309 6  -1418913.09447  23274251.57447
  21507185.172 7   -973286.078 7   -752402.94949  21507185.20749
 20  5 16  5 27 25.0000000  0  8G01G03G07G11G17G22G28G30            -0.000164410
  20196651.023 7   -337995.688 7   -259038.43049  20196651.97349
  22915847.023 5  -1977604.402 5  -1500450.00849  22915848.65649
  21058214.750 7   -110316.867 7    -85213.84049  21058212.85949
  21405493.477 6    192232.602 6    149373.84448  21405490.35548
  23809643.523 5  -1378055.914 5  -1054796.27349  23809642.48049
  22386441.047 6  -1351898.543 6  -1039567.37948  22386437.48448
  23273436.813 6  -1868759.418 6  -1422261.49247  23273434.04347
  21506782.367 7   -975403.039 7   -754052.52349  21506782.59449
 20  5 16  5 27 26.0000000  0  8G01G03G07G11G17G22G28G30            -0.000165508
  20196526.508 7   -338650.445 7   -259548.62949  20196527.55549
  22915017.602 5  -1981965.293 5  -1503848.10549  22915018.51249
  21058183.375 7   -110480.887 7    -85341.64849  21058181.39849
  21405579.203 6    192683.414 6    149725.12948  21405576.09448
  23809057.664 5  -1381137.723 5  -1057197.68449  23809056.37149
  22385885.313 6  -1354818.277 6  -1041842.49648  22385881.62948
  23272619.430 6  -1873056.855 6  -1425610.14547  23272616.55947
  21506379.516 7   -977519.734 7   -755701.89849  21506379.40249
 20  5 16  5 27 27.0000000  0  8G01G03G07G11G17G22G28G30            -0.000166609
  20196401.930 7   -339304.793 7   -260058.51249  20196402.87949
  22914187.625 5  -1986326.266 5  -1507246.26249  22914188.79349
  21058152.172 7   -110644.551 7    -85469.17649  21058150.20749
  21405664.773 6    193134.246 6    150076.42248  21405661.91448
  23808470.969 5  -1384219.664 5  -1059599.19549  23808469.93049
  22385330.031 6  -1357737.766 6  -1044117.41848  22385326.03548
  23271801.297 6  -1877354.598 6  -1428959.03547  23271798.43047
  21505976.914 7   -979636.008 7   -757350.94549  21505976.98049
 20  5 16  5 27 28.0000000  0  8G01G03G07G11G17G22G28G30            -0.000167709
  20196277.477 7   -339958.465 7   -260567.86349  20196278.46549
  22913357.641 5  -1990686.965 5  -1510644.20349  22913358.73049
  21058121.203 7   -110807.594 7    -85596.22749  21058119.49649
  21405750.719 6    193585.375 6    150427.94548  21405748.23448
  23807884.352 5  -1387301.449 5  -1062000.58649  23807883.39149
  22384774.180 6  -1360656.777 6  -1046391.96948  22384770.58248
  23270983.242 5  -1881652.297 5  -1432307.88747  23270980.57447
  21505574.180 7   -981751.574 7   -758999.44149  21505574.45749
 20  5 16  5 27 29.0000000  0  8G01G03G07G11G17G22G28G30            -0.000168808
  20196153.359 7   -340611.730 7   -261076.90249  20196154.03549
  22912527.844 5  -1995047.707 5  -1514042.18449  22912529.18449
  21058090.445 7   -110970.250 7    -85722.96949  21058088.33649
  21405836.469 6    194036.535 6    150779.50048  21405833.59048
  23807298.109 5  -1390383.320 5  -1064402.04749  23807296.66449
  22384219.086 6  -1363575.516 6  -1048666.31348  22384215.21948
  23270165.578 5  -1885950.211 5  -1435656.91847  23270162.59047
  21505171.656 7   -983866.730 7   -760647.61749  21505171.97349
 20  5 16  5 27 30.0000000  0  8G01G03G07G11G17G22G28G30            -0.000169909
  20196028.984 7   -341264.488 7   -261585.54749  20196030.14849
  22911697.664 5  -1999408.379 5  -1517440.10549  22911699.21549
  21058059.297 7   -111132.473 7    -85849.37949  21058057.40249
  21405922.477 6    194487.770 6    151131.11348  21405919.51248
  23806711.539 5  -1393465.195 5  -1066803.50849  23806710.69549
  22383663.594 6  -1366493.898 6  -1050940.37548  22383659.94548
  23269347.352 6  -1890248.297 6  -1439006.07447  23269345.01647
  21504769.313 7   -985981.352 7   -762295.36749  21504769.34049
 20  5 16  5 27 31.0000000  0  8G01G03G07G11G17G22G28G30            -0.000171009
  20195904.820 7   -341916.762 7   -262093.82049  20195905.87949
  22910867.875 5  -2003769.012 5  -1520838.00049  22910869.37949
  21058028.219 7   -111294.273 7    -85975.45749  21058026.68049
  21406008.328 6    194939.109 6    151482.80948  21406005.46148
  23806125.148 5  -1396547.105 5  -1069204.99249  23806124.10249
  22383108.508 6  -1369412.000 6  -1053214.22748  22383104.35948
  23268529.609 6  -1894546.555 6  -1442355.37147  23268526.75047
  21504367.000 7   -988095.473 7   -763942.73849  21504367.48449
 20  5 16  5 27 32.0000000  0  8G01G03G07G11G17G22G28G30            -0.000172110
  20195780.859 7   -342568.539 7   -262601.69549  20195781.33249
  22910038.367 5  -2008129.594 5  -1524235.85549  22910039.16449
  21057997.883 7   -111455.602 7    -86101.17649  21057995.85949
  21406094.180 6    195390.566 6    151834.59448  21406091.49248
  23805538.719 5  -1399629.016 5  -1071606.47749  23805537.52349
  22382553.039 6  -1372329.734 6  -1055487.78548  22382549.45748
  23267712.172 6  -1898844.953 6  -1445704.77747  23267709.03547
  21503964.789 7   -990209.078 7   -765589.70749  21503965.12549
 20  5 16  5 27 33.0000000  0  8G01G03G07G11G17G22G28G30            -0.000173208
  20195656.766 7   -343219.813 7   -263109.18049  20195657.79349
  22909209.164 5  -2012490.074 5  -1527633.62949  22909210.00049
  21057967.086 7   -111616.500 7    -86226.54749  21057965.11749
  21406180.352 6    195842.125 6    152186.45348  21406177.15248
  23804951.758 5  -1402710.945 5  -1074007.97349  23804950.92649
  22381998.227 6  -1375247.156 6  -1057761.09048  22381994.21548
  23266893.820 6  -1903143.469 6  -1449054.26647  23266890.75047
  21503562.500 7   -992322.152 7   -767236.25849  21503562.87549
 20  5 16  5 27 34.0000000  0  8G01G03G07G11G17G22G28G30            -0.000174309
  20195533.164 7   -343870.426 7   -263616.15649  20195534.36749
  22908378.820 5  -2016850.391 5  -1531031.27749  22908380.03949
  21057936.680 7   -111776.777 7    -86351.44149  21057934.75449
  21406266.156 6    196293.957 6    152538.52748  21406263.09848
  23804365.664 5  -1405792.730 5  -1076409.36349  23804364.77349
  22381442.969 6  -1378164.047 6  -1060033.99648  22381439.03948
  23266075.648 6  -1907442.000 6  -1452403.77347  23266072.78947
  21503160.664 7   -994434.555 7   -768882.27749  21503161.03949
 20  5 16  5 27 35.0000000  0  8G01G03G07G11G17G22G28G30            -0.000175409
  20195409.320 7   -344520.656 7   -264122.82449  20195410.26649
  22907549.141 5  -2021210.723 5  -1534428.93849  22907550.36749
  21057906.250 7   -111936.691 7    -86476.04749  21057904.16049
  21406352.539 6    196745.816 6    152890.62548  21406349.00848
  23803778.930 5  -1408874.605 5  -1078810.82849  23803778.07049
  22380887.586 6  -1381080.715 6  -1062306.72748  22380883.87148
  23265257.531 6  -1911740.758 6  -1455753.45347  23265254.93447
  21502758.305 7   -996546.551 7   -770527.99649  21502758.94149
 20  5 16  5 27 36.0000000  0  8G01G03G07G11G17G22G28G30            -0.000176510
  20195285.922 7   -345170.445 7   -264629.15249  20195286.90249
  22906719.320 5  -2025571.066 5  -1537826.60549  22906720.71549
  21057876.000 7   -112096.250 7    -86600.37949  21057874.14849
  21406437.875 6    197197.691 6    153242.73848  21406435.22748
  23803192.641 5  -1411956.559 5  -1081212.34849  23803191.81649
  22380332.727 6  -1383997.113 6  -1064579.24648  22380328.80548
  23264439.750 6  -1916039.734 6  -1459103.30147  23264436.95347
  21502356.820 7   -998658.070 7   -772173.34049  21502357.16849
 20  5 16  5 27 37.0000000  0  8G01G03G07G11G17G22G28G30            -0.000177610
  20195162.227 7   -345819.703 7   -265135.07049  20195163.28949
  22905889.617 5  -2029931.320 5  -1541224.21149  22905891.12949
  21057845.391 7   -112255.328 7    -86724.34449  21057843.59049
  21406524.125 6    197649.715 6    153594.96548  21406520.97748
  23802606.625 5  -1415038.469 5  -1083613.83249  23802605.24249
  22379778.000 6  -1386913.129 6  -1066851.46548  22379774.08648
  23263621.586 6  -1920338.824 6  -1462453.24647  23263619.20747
  21501955.117 7  -1000769.031 7   -773818.24649  21501955.59049
 20  5 16  5 27 38.0000000  0  8G01G03G07G11G17G22G28G30            -0.000178711
  20195038.539 7   -346468.391 7   -265640.53949  20195039.64149
  22905060.266 5  -2034291.418 5  -1544621.69149  22905061.61749
  21057815.359 7   -112413.855 7    -86847.86749  21057813.60949
  21406610.695 6    198101.934 6    153947.33648  21406607.17648
  23802019.766 5  -1418120.328 5  -1086015.27749  23802018.47749
  22379223.109 6  -1389828.727 6  -1069123.35948  22379218.91048
  23262803.609 6  -1924637.980 6  -1465803.23447  23262800.86347
  21501553.461 7  -1002879.414 7   -775462.70349  21501553.69549
 20  5 16  5 27 39.0000000  0  8G01G03G07G11G17G22G28G30            -0.000179811
  20194915.406 7   -347116.660 7   -266145.68449  20194916.44949
  22904230.563 5  -2038651.555 5  -1548019.19549  22904231.67649
  21057785.383 7   -112572.035 7    -86971.13349  21057783.46149
  21406696.578 6    198554.195 6    154299.74648  21406693.39148
  23801433.391 5  -1421202.309 5  -1088416.81649  23801432.09449
  22378668.445 6  -1392744.098 6  -1071395.07448  22378664.14548
  23261985.602 6  -1928937.363 6  -1469153.40247  23261982.69547
  21501152.039 6  -1004989.355 6   -777106.80949  21501152.49249
 20  5 16  5 27 40.0000000  0  8G01G03G07G11G17G22G28G30            -0.000180912
  20194792.078 7   -347764.449 7   -266650.46149  20194793.19549
  22903400.602 5  -2043011.633 5  -1551416.65649  22903401.82449
  21057755.008 7   -112729.797 7    -87094.06349  21057753.38349
  21406782.367 6    199006.512 6    154652.20348  21406779.26248
  23800847.094 5  -1424284.262 5  -1090818.33649  23800845.98049
  22378113.844 6  -1395659.148 6  -1073666.54348  22378109.73048
  23261166.930 5  -1933236.926 5  -1472503.71947  23261164.38347
  21500750.164 6  -1007098.801 6   -778750.53549  21500750.62149
 20  5 16  5 27 41.0000000  0  8G01G03G07G11G17G22G28G30            -0.000182014
  20194669.367 7   -348411.766 7   -267154.85949  20194670.02049
  22902570.859 5  -2047371.695 5  -1554814.10549  22902572.43849
  21057725.078 7   -112887.141 7    -87216.66849  21057723.46549
  21406868.391 6    199458.926 6    155004.73448  21406865.61348
  23800260.531 5  -1427366.273 5  -1093219.89849  23800259.38749
  22377559.016 6  -1398573.887 6  -1075937.76648  22377554.84048
  23260349.266 5  -1937536.680 5  -1475854.18447  23260346.38747
  21500349.367 7  -1009207.750 7   -780393.86749  21500349.47349
 20  5 16  5 27 42.0000000  0  8G01G03G07G11G17G22G28G30            -0.000183115
  20194545.914 7   -349058.574 7   -267658.86749  20194546.98049
  22901741.180 5  -2051731.684 5  -1558211.50049  22901742.78549
  21057695.258 7   -113044.000 7    -87338.89849  21057693.45749
  21406954.773 6    199911.488 6    155357.37548  21406951.52048
  23799673.859 5  -1430448.289 5  -1095621.46549  23799672.32449
  22377004.422 6  -1401488.266 6  -1078208.70748  22377000.47748
  23259530.727 5  -1941836.520 5  -1479204.70347  23259528.23447
  21499948.000 7  -1011316.180 7   -782036.80549  21499948.59849
 20  5 16  5 27 43.0000000  0  8G01G03G07G11G17G22G28G30            -0.000184216
  20194423.203 7   -349705.008 7   -268162.58249  20194424.03549
  22900911.625 5  -2056091.730 5  -1561608.93449  22900913.48849
  21057665.609 7   -113200.582 7    -87460.91049  21057663.74649
  21407041.000 6    200363.973 6    155709.96548  21407037.63348
  23799087.422 5  -1433530.451 5  -1098023.15149  23799086.06349
  22376449.781 6  -1404402.477 6  -1080479.52048  22376446.31648
  23258712.820 5  -1946136.672 5  -1482555.46147  23258709.82847
  21499547.023 7  -1013424.207 7   -783679.42649  21499547.18449
 20  5 16  5 27 44.0000000  0  8G01G03G07G11G17G22G28G30            -0.000185316
  20194299.992 7   -350351.160 7   -268666.07849  20194300.91049
  22900081.789 5  -2060451.922 5  -1565006.48849  22900083.77749
  21057635.719 7   -113356.914 7    -87582.73049  21057634.13749
  21407126.914 6    200816.406 6    156062.50848  21407123.88748
  23798500.930 5  -1436612.770 5  -1100424.95749  23798499.19949
  22375895.242 6  -1407316.492 6  -1082750.18048  22375891.47748
  23257894.273 5  -1950437.152 5  -1485906.47747  23257891.85247
  21499146.070 7  -1015531.918 7   -785321.79349  21499146.19149
 20  5 16  5 27 45.0000000  0  8G01G03G07G11G17G22G28G30            -0.000186419
  20194177.063 7   -350996.859 7   -269169.21949  20194178.05549
  22899251.938 5  -2064812.121 5  -1568404.04749  22899253.94149
  21057606.227 7   -113512.832 7    -87704.21949  21057604.19149
  21407213.070 6    201268.879 6    156415.08648  21407210.00048
  23797914.641 5  -1439695.199 5  -1102826.84849  23797912.99249
  22375340.969 6  -1410230.266 6  -1085020.65248  22375336.82848
  23257075.883 6  -1954737.879 6  -1489257.69547  23257072.86747
  21498744.797 7  -1017639.176 7   -786963.81649  21498745.12549
 20  5 16  5 27 46.0000000  0  8G01G03G07G11G17G22G28G30            -0.000187519
  20194054.227 7   -351642.035 7   -269671.95349  20194055.54349
  22898422.430 5  -2069172.250 5  -1571801.54749  22898424.56649
  21057576.922 7   -113668.316 7    -87825.38349  21057575.11349
  21407298.938 6    201721.480 6    156767.75848  21407295.75848
  23797328.109 5  -1442777.629 5  -1105228.74249  23797326.48449
  22374786.258 6  -1413143.684 6  -1087290.85248  22374782.81348
  23256257.383 6  -1959038.695 6  -1492608.98447  23256254.89547
  21498343.945 7  -1019745.891 7   -788605.41049  21498344.35549
 20  5 16  5 27 47.0000000  0  8G01G03G07G11G17G22G28G30            -0.000188622
  20193931.648 7   -352286.621 7   -270174.23449  20193932.71949
  22897593.102 5  -2073532.223 5  -1575198.92649  22897594.64849
  21057546.891 7   -113823.223 7    -87946.09449  21057545.29349
  21407384.805 6    202174.305 6    157120.60548  21407382.19148
  23796741.133 5  -1445859.930 5  -1107630.53549  23796739.76649
  22374231.820 6  -1416056.629 6  -1089560.68048  22374228.21148
  23255439.461 6  -1963339.555 6  -1495960.31347  23255436.32447
  21497942.734 7  -1021851.977 7   -790246.51649  21497943.57849
 20  5 16  5 27 48.0000000  0  8G01G03G07G11G17G22G28G30            -0.000189722
  20193809.219 7   -352930.668 7   -270676.08649  20193809.74649
  22896763.172 5  -2077892.043 5  -1578596.18849  22896765.32049
  21057517.656 7   -113977.652 7    -88066.43049  21057515.84449
  21407471.367 6    202627.270 6    157473.56348  21407468.32448
  23796154.477 5  -1448942.254 5  -1110032.34449  23796153.18049
  22373677.625 6  -1418969.230 6  -1091830.23448  22373674.00848
  23254620.703 6  -1967640.547 6  -1499311.73847  23254617.97747
  21497542.273 7  -1023957.523 7   -791887.20349  21497542.93849
 20  5 16  5 27 49.0000000  0  8G01G03G07G11G17G22G28G30            -0.000190825
  20193686.859 7   -353574.168 7   -271177.51649  20193687.62149
  22895933.539 5  -2082251.836 5  -1581993.42649  22895935.38749
  21057488.398 7   -114131.621 7    -88186.40649  21057486.57849
  21407557.414 6    203080.352 6    157826.61748  21407554.25848
  23795568.266 5  -1452024.516 5  -1112434.10549  23795566.56649
  22373123.891 6  -1421881.473 6  -1094099.51648  22373120.08248
  23253802.125 6  -1971941.648 6  -1502663.23847  23253799.44547
  21497141.563 6  -1026062.508 6   -793527.45349  21497142.51249
 20  5 16  5 27 50.0000000  0  8G01G03G07G11G17G22G28G30            -0.000191925
  20193564.398 7   -354217.145 7   -271678.53949  20193565.11749
  22895103.492 5  -2086611.488 5  -1585390.56349  22895106.20349
  21057459.023 7   -114285.070 7    -88305.97749  21057457.07849
  21407643.922 6    203533.629 6    158179.82048  21407640.94948
  23794981.195 5  -1455106.719 5  -1114835.81649  23794979.85549
  22372569.250 6  -1424793.281 6  -1096368.45748  22372565.84848
  23252983.492 6  -1976242.824 6  -1506014.80147  23252980.94947
  21496741.305 6  -1028166.906 6   -795167.23849  21496741.85949
 20  5 16  5 27 51.0000000  0  8G01G03G07G11G17G22G28G30            -0.000193027
  20193442.242 7   -354859.602 7   -272179.16049  20193442.84849
  22894274.102 5  -2090971.047 5  -1588787.61749  22894276.36349
  21057430.023 7   -114438.063 7    -88425.19549  21057428.11749
  21407730.539 6    203987.023 6    158533.10948  21407726.75048
  23794395.047 5  -1458188.938 5  -1117237.54749  23794393.43049
  22372015.594 6  -1427704.762 6  -1098637.14548  22372011.66048
  23252164.914 6  -1980544.148 6  -1509366.47747  23252162.38747
  21496340.844 6  -1030270.785 6   -796806.62549  21496341.25849
 20  5 16  5 27 52.0000000  0  8G01G03G07G11G17G22G28G30            -0.000194128
  20193319.891 7   -355501.730 7   -272679.52049  20193320.78949
  22893444.609 5  -2095330.734 5  -1592184.77049  22893446.80549
  21057401.234 7   -114590.777 7    -88544.19949  21057399.27749
  21407816.359 6    204440.324 6    158886.33248  21407813.22348
  23793808.156 5  -1461271.340 5  -1119639.41848  23793807.16448
  22371461.336 6  -1430616.078 6  -1100905.69948  22371457.68048
  23251346.734 6  -1984845.793 6  -1512718.41047  23251343.95347
  21495940.695 6  -1032374.316 6   -798445.74649  21495941.46149
 20  5 16  5 27 53.0000000  0  8G01G03G07G11G17G22G28G30            -0.000195230
  20193197.602 7   -356143.355 7   -273179.48449  20193199.10249
  22892614.977 5  -2099690.340 5  -1595581.86349  22892617.36749
  21057371.914 7   -114743.039 7    -88662.84449  21057370.21149
  21407902.961 6    204893.789 6    159239.68448  21407899.48448
  23793221.586 5  -1464353.762 5  -1122041.30548  23793220.53948
  22370907.328 6  -1433527.047 6  -1103173.98848  22370903.83248
  23250527.945 6  -1989147.551 6  -1516070.43447  23250525.30147
  21495540.281 6  -1034477.320 6   -800084.44949  21495541.00049
 20  5 16  5 27 54.0000000  0  8G01G03G07G11G17G22G28G30            -0.000196333
  20193075.773 7   -356784.523 7   -273679.09849  20193076.41049
  22891785.156 5  -2104049.945 5  -1598978.95749  22891787.41849
  21057343.227 7   -114894.930 7    -88781.20349  21057341.15649
  21407989.117 6    205347.301 6    159593.07048  21407986.28548
  23792635.000 5  -1467436.203 5  -1124443.21149  23792633.73449
  22370353.031 6  -1436437.703 6  -1105442.03548  22370349.83648
  23249709.328 6  -1993449.527 6  -1519422.62147  23249706.96547
  21495140.250 7  -1036579.848 7   -801722.78149  21495140.89849
 20  5 16  5 27 55.0000000  0  8G01G03G07G11G17G22G28G30            -0.000197435
  20192953.773 7   -357425.336 7   -274178.43049  20192954.68449
  22890955.844 5  -2108409.578 5  -1602376.06649  22890957.72749
  21057314.531 7   -115046.461 7    -88899.27749  21057312.64149
  21408075.453 6    205800.793 6    159946.44148  21408072.34048
  23792048.133 5  -1470518.797 5  -1126845.23049  23792047.23049
  22369799.711 6  -1439348.160 6  -1107709.92648  22369795.68448
  23248890.508 6  -1997751.770 6  -1522775.01647  23248888.02047
  21494740.641 7  -1038681.973 7   -803360.80149  21494740.85549
 20  5 16  5 27 56.0000000  0  8G01G03G07G11G17G22G28G30            -0.000198536
  20192831.734 7   -358065.660 7   -274677.38749  20192832.85949
  22890125.750 5  -2112769.227 5  -1605773.19949  22890128.54749
  21057285.672 7   -115197.602 7    -89017.05149  21057283.50049
  21408161.836 6    206254.367 6    160299.87148  21408158.79348
  23791461.930 5  -1473601.410 5  -1129247.26249  23791460.37549
  22369245.617 6  -1442258.313 6  -1109977.57048  22369242.16048
  23248071.930 6  -2002054.203 6  -1526127.55547  23248069.46547
  21494340.734 6  -1040783.613 6   -804998.44149  21494340.80549
 20  5 16  5 27 57.0000000  0  8G01G03G07G11G17G22G28G30            -0.000199638
  20192710.242 7   -358705.496 7   -275175.96149  20192711.10249
  22889296.219 5  -2117128.785 5  -1609170.25049  22889298.87149
  21057256.875 7   -115348.289 7    -89134.47349  21057255.31349
  21408247.766 6    206708.055 6    160653.39548  21408245.03548
  23790875.430 5  -1476684.066 5  -1131649.32849  23790874.05149
  22368691.766 6  -1445168.121 6  -1112244.95348  22368688.02348
  23247253.063 6  -2006356.754 6  -1529480.19147  23247250.66447
  21493940.211 6  -1042884.723 6   -806635.67249  21493940.93449
 20  5 16  5 27 58.0000000  0  8G01G03G07G11G17G22G28G30            -0.000200741
  20192588.438 7   -359344.816 7   -275674.12949  20192589.35949
  22888466.695 5  -2121488.262 5  -1612567.24249  22888469.10949
  21057228.508 7   -115498.504 7    -89251.52349  21057226.37149
  21408334.406 6    207161.867 6    161007.01248  21408331.50848
  23790288.445 5  -1479766.672 5  -1134051.36349  23790287.20349
  22368138.336 6  -1448077.570 6  -1114512.05948  22368134.78148
  23246434.391 6  -2010659.441 6  -1532832.93847  23246431.64147
  21493541.023 6  -1044985.309 6   -808272.49649  21493541.48449
 20  5 16  5 27 59.0000000  0  8G01G03G07G11G17G22G28G30            -0.000201843
  20192466.711 7   -359983.414 7   -276171.73849  20192467.86749
  22887637.328 5  -2125847.477 5  -1615964.03549  22887639.62549
  21057200.148 7   -115648.078 7    -89368.07449  21057198.12149
  21408420.695 6    207616.000 6    161360.88348  21408417.60248
  23789702.188 5  -1482849.137 5  -1136453.28149  23789700.77749
  22367584.945 6  -1450986.465 6  -1116778.72748  22367581.25448
  23245615.750 6  -2014962.070 6  -1536185.64147  23245613.49647
  21493141.281 6  -1047085.145 6   -809908.73449  21493141.80949
 20  5 16  5 28  0.0000000  0  8G01G03G07G11G17G22G28G30            -0.000202946
  20192345.563 7   -360621.602 7   -276669.02049  20192346.50849
  22886807.750 5  -2130206.691 5  -1619360.82049  22886810.00049
  21057171.398 7   -115797.277 7    -89484.33649  21057169.54749
  21408507.023 6    208070.172 6    161714.77748  21408504.12148
  23789115.695 5  -1485931.625 5  -1138855.21949  23789114.18849
  22367031.492 6  -1453895.102 6  -1119045.19548  22367028.04748
  23244796.391 6  -2019264.934 6  -1539538.52047  23244794.62947
  21492741.750 6  -1049184.563 6   -811544.64549  21492742.41449
 20  5 16  5 28  1.0000000  0  8G01G03G07G11G17G22G28G30            -0.000204048
  20192224.023 7   -361259.184 7   -277165.84049  20192225.43049
  22885978.500 5  -2134565.699 5  -1622757.44549  22885980.81349
  21057143.383 7   -115945.883 7    -89600.13349  21057141.23049
  21408593.727 6    208524.551 6    162068.84048  21408590.55548
  23788529.617 5  -1489014.008 5  -1141257.07049  23788527.44549
  22366477.703 6  -1456803.285 6  -1121311.31648  22366474.13748
  23243978.180 6  -2023567.797 6  -1542891.40647  23243975.69947
  21492342.688 6  -1051283.316 6   -813180.03549  21492343.02749
 20  5 16  5 28  2.0000000  0  8G01G03G07G11G17G22G28G30            -0.000205151
  20192103.102 7   -361896.309 7   -277662.30549  20192104.05549
  22885149.031 5  -2138924.750 5  -1626154.10949  22885151.46149
  21057115.156 7   -116094.172 7    -89715.68849  21057112.78149
  21408680.211 6    208979.004 6    162422.95748  21408677.10548
  23787942.328 5  -1492096.512 5  -1143659.02349  23787941.23849
  22365924.563 6  -1459711.184 6  -1123577.21148  22365921.36348
  23243159.406 6  -2027870.887 6  -1546244.45747  23243156.87547
  21491943.188 6  -1053381.660 6   -814815.10549  21491943.73849
 20  5 16  5 28  3.0000000  0  8G01G03G07G11G17G22G28G30            -0.000206253
  20191981.922 7   -362532.895 7   -278158.34449  20191982.82849
  22884319.453 5  -2143283.680 5  -1629550.67249  22884321.81649
  21057086.984 7   -116241.906 7    -89830.80149  21057084.90649
  21408766.734 6    209433.613 6    162777.19948  21408763.67248
  23787356.313 5  -1495178.918 5  -1146060.89849  23787354.29349
  22365371.211 6  -1462618.680 6  -1125842.78948  22365367.73848
  23242340.344 6  -2032174.063 6  -1549597.57847  23242338.05147
  21491544.266 6  -1055479.391 6   -816449.69949  21491544.39549
 20  5 16  5 28  4.0000000  0  8G01G03G07G11G17G22G28G30            -0.000207355
  20191860.906 7   -363168.898 7   -278653.93449  20191861.69949
  22883490.117 5  -2147642.426 5  -1632947.10249  22883492.70749
  21057058.672 7   -116389.102 7    -89945.50449  21057057.20749
  21408853.227 6    209888.434 6    163131.60248  21408850.26248
  23786769.992 5  -1498261.270 5  -1148462.73048  23786767.78948
  22364818.641 6  -1465525.750 6  -1128108.03548  22364814.65648
  23241521.414 6  -2036477.270 6  -1552950.71947  23241519.00047
  21491144.844 7  -1057576.496 7   -818083.80949  21491145.48049
 20  5 16  5 28  5.0000000  0  8G01G03G07G11G17G22G28G30            -0.000208458
  20191739.867 7   -363804.516 7   -279149.21949  20191740.76649
  22882660.203 5  -2152001.270 5  -1636343.60249  22882663.02049
  21057030.938 6   -116535.984 6    -90059.95349  21057028.89549
  21408939.852 6    210343.215 6    163485.97348  21408937.06348
  23786183.125 5  -1501343.750 5  -1150864.66448  23786181.52348
  22364265.172 6  -1468432.621 6  -1130373.12948  22364261.44548
  23240702.180 6  -2040780.766 6  -1556304.09447  23240700.17247
  21490745.797 7  -1059673.238 7   -819717.64149  21490746.18449
 20  5 16  5 28  6.0000000  0  8G01G03G07G11G17G22G28G30            -0.000209560
  20191619.258 7   -364439.648 7   -279644.12549  20191619.87149
  22881830.492 5  -2156360.039 5  -1639740.04349  22881833.46549
  21057003.148 6   -116682.441 6    -90174.08249  21057001.18449
  21409026.219 6    210798.117 6    163840.44148  21409023.17648
  23785596.578 5  -1504426.234 5  -1153266.60548  23785594.65648
  22363711.820 6  -1471339.156 6  -1132637.95748  22363708.33248
  23239883.375 6  -2045084.414 6  -1559657.59047  23239881.41447
  21490347.102 6  -1061769.441 6   -821351.04749  21490347.53549
 20  5 16  5 28  7.0000000  0  8G01G03G07G11G17G22G28G30            -0.000210665
  20191498.203 7   -365074.320 7   -280138.68049  20191498.80549
  22881001.406 5  -2160718.797 5  -1643136.47749  22881004.41849
  21056975.203 7   -116828.492 7    -90287.89549  21056973.36749
  21409112.664 6    211253.082 6    164194.95748  21409110.16848
  23785009.297 5  -1507508.754 5  -1155668.56648  23785008.22748
  22363159.125 6  -1474245.387 6  -1134902.55548  22363155.61748
  23239064.492 6  -2049388.234 6  -1563011.21947  23239062.19547
  21489948.234 7  -1063865.180 7   -822984.09049  21489948.80149
 20  5 16  5 28  8.0000000  0  8G01G03G07G11G17G22G28G30            -0.000211767
  20191377.844 7   -365708.465 7   -280632.82049  20191378.66849
  22880172.477 5  -2165077.410 5  -1646532.79749  22880174.73449
  21056947.375 7   -116974.031 7    -90401.30149  21056945.63749
  21409199.219 6    211708.215 6    164549.60548  21409196.57448
  23784423.125 5  -1510591.281 5  -1158070.53548  23784421.44948
  22362606.227 6  -1477151.223 6  -1137166.84448  22362602.33648
  23238245.406 5  -2053692.152 5  -1566364.91847  23238243.30147
  21489549.477 7  -1065960.348 7   -824616.68849  21489550.05149
 20  5 16  5 28  9.0000000  0  8G01G03G07G11G17G22G28G30            -0.000212870
  20191256.992 7   -366342.000 7   -281126.48049  20191257.63749
  22879343.172 5  -2169435.875 5  -1649929.00049  22879345.62549
  21056920.078 7   -117119.039 7    -90514.29349  21056917.88349
  21409286.328 6    212163.539 6    164904.40648  21409283.22748
  23783836.469 5  -1513673.703 5  -1160472.42648  23783834.73448
  22362052.781 6  -1480056.645 6  -1139430.80548  22362049.56648
  23237426.383 5  -2057996.160 5  -1569718.69147  23237424.22747
  21489150.977 7  -1068054.902 7   -826248.80949  21489151.37549
 20  5 16  5 28 10.0000000  0  8G01G03G07G11G17G22G28G30            -0.000213972
  20191136.508 7   -366974.988 7   -281619.72349  20191137.43849
  22878513.156 5  -2173794.242 5  -1653325.13349  22878516.15649
  21056892.617 7   -117263.547 7    -90626.89549  21056890.68049
  21409372.266 6    212619.012 6    165259.32048  21409369.72748
  23783250.117 5  -1516756.070 5  -1162874.26648  23783248.52048
  22361500.352 6  -1482961.652 6  -1141694.44948  22361496.79348
  23236607.711 6  -2062300.227 6  -1573072.50847  23236605.37947
  21488752.453 7  -1070148.898 7   -827880.49249  21488752.74649
 20  5 16  5 28 11.0000000  0  8G01G03G07G11G17G22G28G30            -0.000215075
  20191016.148 7   -367607.371 7   -282112.49249  20191017.01249
  22877684.063 5  -2178152.434 5  -1656721.12149  22877686.77049
  21056864.953 7   -117407.516 7    -90739.07849  21056863.15249
  21409459.414 6    213074.711 6    165614.40648  21409456.70748
  23782663.328 5  -1519838.332 5  -1165276.02748  23782661.78548
  22360947.664 6  -1485866.211 6  -1143957.73848  22360943.79348
  23235787.977 6  -2066604.320 6  -1576426.35247  23235786.17247
  21488354.188 7  -1072242.234 7   -829511.66849  21488354.51649
 20  5 16  5 28 12.0000000  0  8G01G03G07G11G17G22G28G30            -0.000216179
  20190895.984 7   -368239.191 7   -282604.81349  20190896.96549
  22876854.742 5  -2182510.480 5  -1660116.99649  22876857.52349
  21056838.125 7   -117550.934 7    -90850.84049  21056835.87549
  21409545.953 6    213530.602 6    165969.64148  21409543.58648
  23782076.789 5  -1522920.566 5  -1167677.77048  23782075.72748
  22360394.813 6  -1488770.367 6  -1146220.72348  22360391.42648
  23234969.766 5  -2070908.488 5  -1579780.23847  23234967.58647
  21487955.648 7  -1074334.992 7   -831142.38749  21487956.32449
 20  5 16  5 28 13.0000000  0  8G01G03G07G11G17G22G28G30            -0.000217281
  20190775.977 7   -368870.492 7   -283096.73849  20190776.94149
  22876025.398 5  -2186868.441 5  -1663512.81349  22876027.74649
  21056810.781 7   -117693.926 7    -90962.26649  21056808.57849
  21409633.055 6    213986.578 6    166324.94148  21409630.09448
  23781490.180 5  -1526002.789 5  -1170079.50048  23781488.59048
  22359842.211 6  -1491674.188 6  -1148483.43448  22359838.91848
  23234150.039 5  -2075212.828 5  -1583134.27747  23234148.33247
  21487557.688 7  -1076427.230 7   -832772.70349  21487558.33249
 20  5 16  5 28 14.0000000  0  8G01G03G07G11G17G22G28G30            -0.000218384
  20190655.672 7   -369501.320 7   -283588.28949  20190656.76249
  22875196.141 5  -2191226.355 5  -1666908.59449  22875198.77749
  21056783.609 7   -117836.488 7    -91073.34849  21056781.52749
  21409719.594 6    214442.688 6    166680.35548  21409716.90248
  23780903.508 5  -1529085.016 5  -1172481.23848  23780902.60248
  22359289.273 6  -1494577.668 6  -1150745.89148  22359286.47348
  23233330.836 6  -2079517.289 6  -1586488.39847  23233329.15647
  21487159.680 7  -1078518.945 7   -834402.60949  21487160.21149
 20  5 16  5 28 15.0000000  0  8G01G03G07G11G17G22G28G30            -0.000219488
  20190535.703 7   -370131.672 7   -284079.47749  20190536.92649
  22874366.539 5  -2195584.234 5  -1670304.34449  22874369.68849
  21056756.563 7   -117978.590 7    -91184.08249  21056754.47749
  21409806.313 6    214898.879 6    167035.82848  21409803.77748
  23780317.336 5  -1532167.293 5  -1174883.01248  23780315.89548
  22358737.438 6  -1497480.816 6  -1153008.08248  22358734.11748
  23232511.773 6  -2083821.934 6  -1589842.67247  23232509.53547
  21486761.734 7  -1080610.172 7   -836032.13749  21486762.41449
 20  5 16  5 28 16.0000000  0  8G01G03G07G11G17G22G28G30            -0.000220591
  20190415.758 7   -370761.664 7   -284570.38349  20190416.68449
  22873537.602 5  -2199942.191 5  -1673700.15249  22873540.54349
  21056729.516 7   -118120.422 7    -91294.59849  21056727.64149
  21409893.422 6    215355.004 6    167391.25048  21409890.40248
  23779730.781 5  -1535249.691 5  -1177284.87548  23779729.14548
  22358185.031 6  -1500383.781 6  -1155270.12548  22358181.53148
  23231692.539 6  -2088126.867 6  -1593197.16447  23231690.30547
  21486363.594 7  -1082701.035 7   -837661.38749  21486364.22349
 20  5 16  5 28 17.0000000  0  8G01G03G07G11G17G22G28G30            -0.000221695
  20190296.391 7   -371391.184 7   -285060.91449  20190297.55149
  22872708.320 5  -2204300.086 5  -1677095.91049  22872711.19549
  21056702.680 7   -118261.805 7    -91404.77049  21056700.53149
  21409980.008 6    215811.238 6    167746.75048  21409977.53948
  23779143.984 5  -1538332.168 5  -1179686.80548  23779142.86748
  22357632.953 6  -1503286.422 6  -1157531.91848  22357629.42648
  23230873.844 6  -2092431.953 6  -1596551.78147  23230871.39847
  21485966.055 7  -1084791.375 7   -839290.22749  21485966.54349
 20  5 16  5 28 18.0000000  0  8G01G03G07G11G17G22G28G30            -0.000222797
  20190176.367 7   -372020.129 7   -285551.00049  20190177.55149
  22871878.891 5  -2208657.859 5  -1680491.57849  22871882.05949
  21056676.016 7   -118402.699 7    -91514.55549  21056674.00049
  21410066.891 6    216267.637 6    168102.39148  21410064.15648
  23778557.797 5  -1541414.559 5  -1182088.66448  23778556.34048
  22357080.445 6  -1506188.637 6  -1159793.38748  22357076.71548
  23230054.516 6  -2096737.121 6  -1599906.46147  23230051.98447
  21485568.750 7  -1086881.141 7   -840918.61349  21485568.77049
 20  5 16  5 28 19.0000000  0  8G01G03G07G11G17G22G28G30            -0.000223902
  20190056.625 7   -372648.660 7   -286040.76649  20190057.79749
  22871049.797 5  -2213015.637 5  -1683887.24649  22871052.69549
  21056649.031 7   -118543.203 7    -91624.04349  21056647.34449
  21410153.625 6    216724.086 6    168458.06348  21410150.96548
  23777971.242 5  -1544497.023 5  -1184490.59048  23777969.67248
  22356528.133 6  -1509090.605 6  -1162054.65648  22356524.99648
  23229235.117 6  -2101042.500 6  -1603261.29747  23229232.41847
  21485170.852 7  -1088970.457 7   -842546.65249  21485171.17649
 20  5 16  5 28 20.0000000  0  8G01G03G07G11G17G22G28G30            -0.000225004
  20189937.352 7   -373276.727 7   -286530.17249  20189938.36749
  22870220.047 5  -2217373.398 5  -1687282.90249  22870223.48849
  21056622.273 7   -118683.301 7    -91733.21149  21056620.46549
  21410240.492 6    217180.625 6    168813.80548  21410237.75848
  23777384.008 5  -1547579.523 5  -1186892.53548  23777382.93448
  22355976.438 6  -1511992.258 6  -1164315.69548  22355972.38748
  23228415.367 6  -2105348.063 6  -1606616.28147  23228413.51247
  21484773.727 7  -1091059.262 7   -844174.29349  21484773.58249
 20  5 16  5 28 21.0000000  0  8G01G03G07G11G17G22G28G30            -0.000226109
  20189817.930 7   -373904.113 7   -287019.04349  20189818.70349
  22869391.336 5  -2221730.879 5  -1690678.34049  22869394.28149
  21056595.813 7   -118822.746 7    -91841.87549  21056593.77749
  21410327.586 6    217637.434 6    169169.76248  21410325.17248
  23776798.203 5  -1550661.871 5  -1189294.35949  23776796.61349
  22355424.039 6  -1514893.363 6  -1166576.29348  22355420.45748
  23227596.438 6  -2109653.582 6  -1609971.23047  23227594.06647
  21484376.156 7  -1093147.387 7   -845801.40649  21484376.08249
 20  5 16  5 28 22.0000000  0  8G01G03G07G11G17G22G28G30            -0.000227213
  20189698.617 7   -374531.027 7   -287507.54749  20189699.35549
  22868561.906 5  -2226088.383 5  -1694073.79749  22868564.78549
  21056569.469 7   -118961.801 7    -91950.23049  21056567.48849
  21410414.281 6    218094.309 6    169525.76648  21410411.82848
  23776211.172 5  -1553744.230 5  -1191696.19948  23776209.96148
  22354871.992 6  -1517794.199 6  -1168836.68448  22354868.59448
  23226777.148 6  -2113959.297 6  -1613326.33647  23226774.46947
  21483978.805 7  -1095235.020 7   -847428.13749  21483979.26249
 20  5 16  5 28 23.0000000  0  8G01G03G07G11G17G22G28G30            -0.000228315
  20189579.469 7   -375157.469 7   -287995.68049  20189580.39849
  22867733.070 5  -2230445.766 5  -1697469.15649  22867735.84849
  21056543.102 7   -119100.410 7    -92058.24249  21056540.95349
  21410501.414 6    218551.348 6    169881.89848  21410498.61748
  23775624.766 5  -1556826.609 5  -1194098.05148  23775623.31648
  22354319.992 6  -1520694.668 6  -1171096.78948  22354316.26248
  23225957.477 6  -2118265.125 6  -1616681.52047  23225954.73047
  21483581.820 7  -1097322.117 7   -849054.44549  21483581.93449
 20  5 16  5 28 24.0000000  0  8G01G03G07G11G17G22G28G30            -0.000229420
  20189460.422 7   -375783.363 7   -288483.39149  20189461.18049
  22866903.914 5  -2234803.070 5  -1700864.45349  22866906.62949
  21056516.844 7   -119238.535 7    -92165.86749  21056514.72349
  21410588.039 6    219008.480 6    170238.10948  21410585.75448
  23775038.578 5  -1559908.984 5  -1196499.90248  23775036.60548
  22353768.172 6  -1523594.742 6  -1173356.58648  22353764.82048
  23225138.367 6  -2122571.078 6  -1620036.80947  23225135.83247
  21483184.781 7  -1099408.672 7   -850680.32849  21483184.82449
 20  5 16  5 28 25.0000000  0  8G01G03G07G11G17G22G28G30            -0.000230524
  20189341.328 7   -376408.703 7   -288970.67249  20189342.26249
  22866074.578 5  -2239160.254 5  -1704259.66449  22866077.38349
  21056490.422 7   -119376.148 7    -92273.09849  21056488.58649
  21410675.414 6    219465.766 6    170594.43448  21410672.84048
  23774452.320 5  -1562991.305 5  -1198901.71148  23774450.09448
  22353216.227 6  -1526494.461 6  -1175616.10248  22353212.84448
  23224318.891 6  -2126877.105 6  -1623392.14847  23224316.22347
  21482787.625 7  -1101494.648 7   -852305.77349  21482788.03949
 20  5 16  5 28 26.0000000  0  8G01G03G07G11G17G22G28G30            -0.000231627
  20189222.539 7   -377033.430 7   -289457.46549  20189222.97749
  22865245.328 5  -2243517.258 5  -1707654.72749  22865248.42649
  21056464.406 7   -119513.203 7    -92379.89849  21056462.63749
  21410762.695 6    219923.313 6    170950.96548  21410760.11348
  23773865.414 5  -1566073.512 5  -1201303.42649  23773863.61349
  22352664.680 6  -1529393.668 6  -1177875.21948  22352661.12148
  23223499.664 6  -2131183.125 6  -1626747.48447  23223497.21947
  21482391.078 7  -1103579.973 7   -853930.69949  21482391.05949
 20  5 16  5 28 27.0000000  0  8G01G03G07G11G17G22G28G30            -0.000232731
  20189103.828 7   -377657.738 7   -289943.94549  20189104.22349
  22864416.430 5  -2247874.238 5  -1711049.77349  22864419.41049
  21056438.375 7   -119649.902 7    -92486.42249  21056436.50449
  21410849.563 6    220380.895 6    171307.52348  21410846.93848
  23773278.438 5  -1569155.773 5  -1203705.18449  23773276.81349
  22352112.680 6  -1532292.652 6  -1180134.16448  22352109.03148
  23222680.148 6  -2135489.414 6  -1630103.03547  23222677.40247
  21481994.164 7  -1105664.883 7   -855555.30549  21481994.52749
 20  5 16  5 28 28.0000000  0  8G01G03G07G11G17G22G28G30            -0.000233835
  20188984.969 7   -378281.410 7   -290429.92249  20188985.82049
  22863587.344 5  -2252231.039 5  -1714444.68049  22863590.00449
  21056412.961 7   -119786.020 7    -92592.48849  21056410.88749
  21410936.648 6    220838.688 6    171664.24248  21410934.41848
  23772692.523 5  -1572237.973 5  -1206106.89549  23772690.71149
  22351561.625 6  -1535191.156 6  -1182392.73848  22351557.98448
  23221860.500 6  -2139795.703 6  -1633458.58647  23221858.10547
  21481597.531 7  -1107749.117 7   -857179.38349  21481597.64849
 20  5 16  5 28 29.0000000  0  8G01G03G07G11G17G22G28G30            -0.000234940
  20188866.281 7   -378904.734 7   -290915.63749  20188867.51249
  22862758.313 5  -2256587.941 5  -1717839.66849  22862761.10949
  21056386.820 7   -119921.836 7    -92698.31649  21056384.74649
  21411023.820 6    221296.473 6    172020.95748  21411021.43448
  23772105.781 5  -1575320.293 5  -1208508.70749  23772104.05549
  22351009.867 6  -1538089.441 6  -1184651.14548  22351006.39148
  23221041.039 6  -2144102.266 6  -1636814.35247  23221038.50047
  21481200.992 7  -1109832.980 7   -858803.17249  21481201.30549
 20  5 16  5 28 30.0000000  0  8G01G03G07G11G17G22G28G30            -0.000236044
  20188747.906 7   -379527.648 7   -291401.02049  20188748.96549
  22861929.141 5  -2260944.805 5  -1721234.62549  22861931.98049
  21056360.805 7   -120057.285 7    -92803.86349  21056359.42649
  21411110.977 6    221754.285 6    172377.69148  21411108.26648
  23771519.703 5  -1578402.695 5  -1210910.57849  23771517.55149
  22350458.211 6  -1540987.477 6  -1186909.35548  22350454.73848
  23220221.531 6  -2148409.063 6  -1640170.29747  23220219.02347
  21480804.578 7  -1111916.367 7   -860426.59849  21480805.02349
 20  5 16  5 28 31.0000000  0  8G01G03G07G11G17G22G28G30            -0.000237148
  20188629.344 7   -380150.031 7   -291885.99249  20188630.20749
  22861100.156 5  -2265301.605 5  -1724629.52349  22861102.86749
  21056335.539 7   -120192.230 7    -92909.02349  21056333.31649
  21411197.813 6    222212.242 6    172734.54348  21411195.44548
  23770933.125 5  -1581485.102 5  -1213312.45349  23770930.89549
  22349907.188 6  -1543885.141 6  -1189167.27348  22349903.50448
  23219401.578 6  -2152715.977 6  -1643526.34047  23219399.53547
  21480408.375 7  -1113999.254 7   -862049.62949  21480408.53949
 20  5 16  5 28 32.0000000  0  8G01G03G07G11G17G22G28G30            -0.000238253
  20188511.063 7   -380771.785 7   -292370.47749  20188511.93049
  22860271.086 5  -2269658.215 5  -1728024.28549  22860274.04349
  21056309.977 7   -120326.637 7    -93013.75449  21056307.88349
  21411285.391 6    222670.395 6    173091.54748  21411282.79748
  23770346.313 5  -1584567.375 5  -1215714.22749  23770344.40649
  22349355.969 6  -1546782.320 6  -1191424.80948  22349351.93848
  23218582.539 6  -2157022.895 6  -1646882.38347  23218580.00447
  21480012.039 7  -1116081.477 7   -863672.14149  21480012.11349
 20  5 16  5 28 33.0000000  0  8G01G03G07G11G17G22G28G30            -0.000239357
  20188392.641 7   -381393.113 7   -292854.62949  20188393.87949
  22859442.102 5  -2274014.793 5  -1731419.02349  22859444.58649
  21056284.477 7   -120460.672 7    -93118.20349  21056282.42249
  21411372.633 6    223128.613 6    173448.60248  21411369.92248
  23769759.922 5  -1587649.703 5  -1218116.03549  23769758.07449
  22348804.422 6  -1549679.215 6  -1193682.12948  22348800.77348
  23217762.500 6  -2161330.020 6  -1650238.58647  23217759.94547
  21479615.727 7  -1118163.246 7   -865294.30149  21479616.12949
