     2.10           OBSERVATION DATA    GPS(GPS)            RINEX VERSION / TYPE
cnvtToRINEX 3.07.0  convertToRINEX OPR  19-May-20 12:30 UTC PGM / RUN BY / DATE 
----------------------------------------------------------- COMMENT             
GI03                                                        MARKER NAME         
GI03                                                        MARKER NUMBER       
GNSS Observer       Trimble                                 OBSERVER / AGENCY   
0220327801          5700                2.32                REC # / TYPE / VERS 
                    TRM39105.00                             ANT # / TYPE        
 -3050562.1698  4928000.2859  2653872.6138                  APPROX POSITION XYZ 
       -0.0460        0.0000        0.0000                  ANTENNA: DELTA H/E/N
     1     1     0                                          WAVELENGTH FACT L1/2
     4    C1    L1    L2    P2                              # / TYPES OF OBSERV 
  2020     5    16     0    13   13.0000000     GPS         TIME OF FIRST OBS   
  2020     5    16     1    34    6.0000000     GPS         TIME OF LAST OBS    
     0                                                      RCV CLOCK OFFS APPL 
    18                                                      LEAP SECONDS        
    10                                                      # OF SATELLITES     
   G04  4823  4822  4823  4823                              PRN / # OF OBS      
   G08  4853  4852  4848  4848                              PRN / # OF OBS      
   G09  2927  2927  2927  2927                              PRN / # OF OBS      
   G11  1818  1818  1818  1818                              PRN / # OF OBS      
   G14  2967  2966  2967  2967                              PRN / # OF OBS      
   G16  4854  4853  4854  4854                              PRN / # OF OBS      
   G21  3597  3596  3597  3597                              PRN / # OF OBS      
   G26  4847  4846  4847  4847                              PRN / # OF OBS      
   G27  4854  4853  4854  4854                              PRN / # OF OBS      
   G31  4854  4853  4854  4854                              PRN / # OF OBS      
CARRIER PHASE MEASUREMENTS: PHASE SHIFTS REMOVED            COMMENT             
                                                            END OF HEADER       
 20  5 16  0 13 13.0000000  0  3G16G27G31                            0.000245670
  20724011.93017    -81864.32817    -51020.51259  20724008.87159
  21248373.07817   -289902.96517   -182693.36359  21248372.65659
  21906500.07016    -27516.42216    -16964.00058  21906497.52758
 20  5 16  0 13 14.0000000  0  5G08G14G16G27G31                      0.000244869
  23505019.03914   -183943.02314    -89868.31658  23505020.41058
  22245324.82016     87618.18016     61011.65658  22245322.47758
  20723793.000 7    -83015.805 7    -51917.75849  20723789.69549
  21247607.758 7   -293925.188 7   -185827.55949  21247607.65249
  21906425.227 6    -27910.645 6    -17271.18848  21906422.49648
 20  5 16  0 13 15.0000000  0  5G08G14G16G27G31                      0.000243996
  23504063.898 4   -188962.789 4    -93779.81648  23504065.46548
  22245642.531 6     89289.199 6     62313.74648  22245640.69548
  20723573.914 7    -84167.457 7    -52815.15249  20723570.79349
  21246842.445 7   -297947.391 7   -188961.74249  21246842.13749
  21906349.813 6    -28305.141 6    -17578.59048  21906347.32848
 20  5 16  0 13 16.0000000  0  5G08G14G16G27G31                      0.000243122
  23503108.594 4   -193982.859 4    -97691.55948  23503110.07448
  22245960.648 6     90960.063 6     63615.71948  22245958.74248
  20723354.414 6    -85319.258 6    -53712.65649  20723351.42249
  21246077.031 7   -301969.598 7   -192095.93049  21246076.76249
  21906274.875 6    -28699.879 6    -17886.18048  21906272.64848
 20  5 16  0 13 17.0000000  0  5G08G14G16G27G31                      0.000242249
  23502153.398 5   -199003.465 5   -101603.71948  23502154.55148
  22246279.047 6     92630.582 6     64917.41848  22246276.57048
  20723135.641 6    -86471.402 6    -54610.43849  20723132.42249
  21245311.750 7   -305992.016 7   -195230.28549  21245311.41849
  21906199.867 6    -29095.109 6    -18194.16048  21906197.25448
 20  5 16  0 13 18.0000000  0  5G08G14G16G27G31                      0.000241375
  23501198.102 4   -204024.480 4   -105516.19548  23501199.14148
  22246596.172 6     94300.867 6     66218.93447  22246594.44547
  20722915.992 6    -87623.777 6    -55508.39149  20722913.03949
  21244545.961 7   -310014.477 7   -198364.66849  21244545.90649
  21906124.570 6    -29490.648 6    -18502.36748  21906121.74648
 20  5 16  0 13 19.0000000  0  5G08G14G16G27G31                      0.000240501
  23500242.406 4   -209045.773 4   -109428.88748  23500243.56348
  22246914.031 6     95971.059 6     67520.37948  22246912.42248
  20722696.648 6    -88776.289 6    -56406.45749  20722693.61349
  21243780.945 7   -314036.941 7   -201499.05949  21243780.36749
  21906049.078 6    -29886.453 6    -18810.78548  21906046.30148
 20  5 16  0 13 20.0000000  0  6G08G14G16G26G27G31                   0.000239626
  23499286.297 5   -214067.258 5   -113341.73048  23499287.89848
  22247231.875 6     97641.184 6     68821.77348  22247229.87948
  20722477.281 6    -89928.828 6    -57304.54349  20722474.43849
  21305180.54717      5894.60917      2856.68059  21305180.89559
  21243015.406 7   -318059.297 7   -204633.35949  21243014.64149
  21905974.023 6    -30282.402 6    -19119.32448  21905971.25848
 20  5 16  0 13 21.0000000  0  6G08G14G16G26G27G31                   0.000238752
  23498331.914 4   -219089.165 4   -117254.90948  23498331.98848
  22247549.898 6     99311.098 6     70123.00448  22247547.63348
  20722258.188 6    -91081.605 6    -58202.80949  20722254.79349
  21305210.148 7      6049.723 7      2977.54749  21305210.23849
  21242249.758 7   -322081.730 7   -207767.72349  21242249.58249
  21905898.844 6    -30678.691 6    -19428.12148  21905895.77348
 20  5 16  0 13 22.0000000  0  6G08G14G16G26G27G31                   0.000237877
  23497375.102 4   -224111.332 4   -121168.29748  23497376.45748
  22247867.711 6    100980.852 6     71424.11348  22247865.29748
  20722038.648 6    -92234.547 6    -59101.19949  20722035.71149
  21305239.609 7      6204.426 7      3098.09849  21305239.62549
  21241484.313 7   -326104.145 7   -210902.07449  21241484.13349
  21905822.891 6    -31075.270 6    -19737.14548  21905820.30548
 20  5 16  0 13 23.0000000  0  6G08G14G16G26G27G31                   0.000237001
  23496418.914 5   -229134.098 5   -125082.14548  23496420.56348
  22248185.336 6    102650.313 6     72724.99248  22248183.21548
  20721819.227 6    -93387.824 6    -59999.86348  20721815.80148
  21305268.805 6      6358.594 6      3218.22349  21305269.21949
  21240718.789 7   -330126.766 7   -214036.58649  21240718.39149
  21905746.875 6    -31472.273 6    -20046.50448  21905744.74648
 20  5 16  0 13 24.0000000  0  6G08G14G16G26G27G31                   0.000236126
  23495463.711 5   -234157.047 5   -128996.11748  23495465.23048
  22248503.016 6    104319.652 6     74025.78148  22248500.94548
  20721599.867 6    -94541.199 6    -60898.59049  20721596.32849
  21305298.273 7      6512.453 7      3338.11749  21305298.52349
  21239953.242 7   -334149.301 7   -217171.02349  21239953.17649
  21905671.516 6    -31869.473 6    -20356.00848  21905669.54748
 20  5 16  0 13 25.0000000  0  6G08G14G16G26G27G31                   0.000235249
  23494507.961 4   -239180.199 4   -132910.26648  23494509.20348
  22248820.648 6    105989.008 6     75326.57048  22248818.48048
  20721380.531 6    -95694.574 6    -61797.32449  20721377.12549
  21305327.391 7      6666.070 7      3457.81649  21305327.74649
  21239187.984 7   -338171.707 7   -220305.37549  21239188.07449
  21905595.961 6    -32266.828 6    -20665.63348  21905593.71548
 20  5 16  0 13 26.0000000  0  6G08G14G16G26G27G31                   0.000234373
  23493551.602 5   -244203.727 5   -136824.69948  23493553.16448
  22249138.422 6    107658.125 6     76627.17648  22249136.28548
  20721160.664 6    -96848.180 6    -62696.23049  20721157.15649
  21305356.602 7      6819.238 7      3577.16849  21305356.62549
  21238422.563 7   -342194.180 7   -223439.77349  21238422.26249
  21905520.492 6    -32664.488 6    -20975.50448  21905517.62548
 20  5 16  0 13 27.0000000  0  6G08G14G16G26G27G31                   0.000233496
  23492596.672 5   -249227.645 5   -140739.43848  23492597.16048
  22249455.828 6    109327.012 6     77927.60248  22249453.87148
  20720941.250 6    -98002.043 6    -63595.34849  20720937.97349
  21305385.898 7      6971.945 7      3696.16049  21305385.76649
  21237656.695 7   -346216.758 7   -226574.25049  21237656.53149
  21905444.617 6    -33062.547 6    -21285.67248  21905442.04348
 20  5 16  0 13 28.0000000  0  6G08G14G16G26G27G31                   0.000232620
  23491639.836 5   -254251.785 5   -144654.35548  23491640.93848
  22249773.445 6    110995.852 6     79227.99648  22249771.43848
  20720721.867 6    -99155.953 6    -64494.50049  20720718.35249
  21305414.711 7      7124.367 7      3814.93449  21305414.46549
  21236891.586 7   -350239.223 7   -229708.63749  21236891.23849
  21905368.953 6    -33460.734 6    -21595.95348  21905366.57448
 20  5 16  0 13 29.0000000  0  6G08G14G16G26G27G31                   0.000231743
  23490684.055 5   -259276.285 5   -148569.54748  23490684.98848
  22250090.977 6    112664.492 6     80528.23848  22250089.00048
  20720502.109 6   -100310.082 6    -65393.82449  20720498.68449
  21305443.664 7      7276.363 7      3933.37149  21305443.42249
  21236126.211 7   -354261.742 7   -232843.06649  21236125.65649
  21905293.234 6    -33859.250 6    -21906.48448  21905290.41848
 20  5 16  0 13 30.0000000  0  6G08G14G16G26G27G31                   0.000230864
  23489727.836 5   -264301.145 5   -152485.02348  23489728.96148
  22250408.500 6    114332.930 6     81828.31648  22250406.47348
  20720282.703 6   -101464.414 6    -66293.30549  20720279.40249
  21305472.445 7      7427.918 7      4051.46149  21305472.76249
  21235360.242 7   -358284.320 7   -235977.54349  21235360.39149
  21905217.219 6    -34258.074 6    -22217.25848  21905214.53148
 20  5 16  0 13 31.0000000  0  6G08G14G16G26G27G31                   0.000229986
  23488771.367 5   -269326.293 5   -156400.71948  23488772.44948
  22250725.508 6    116001.266 6     83128.31648  22250723.88348
  20720062.398 6   -102618.871 6    -67192.88749  20720059.39849
  21305501.336 7      7579.160 7      4169.31349  21305501.28949
  21234595.203 7   -362306.875 7   -239112.00449  21234594.96549
  21905141.117 6    -34657.137 6    -22528.21548  21905138.97748
 20  5 16  0 13 32.0000000  0  6G08G14G16G26G27G31                   0.000229109
  23487815.266 5   -274351.660 5   -160316.59448  23487815.71548
  22251043.313 6    117669.492 6     84428.23448  22251041.11748
  20719843.109 6   -103773.406 6    -68092.52349  20719840.00049
  21305530.164 6      7730.086 6      4286.91049  21305530.52749
  21233829.563 7   -366329.332 7   -242246.38349  21233829.54349
  21905065.586 6    -35056.430 6    -22839.35248  21905062.78548
 20  5 16  0 13 33.0000000  0  6G08G14G16G26G27G31                   0.000228230
  23486859.055 5   -279377.320 5   -164232.69148  23486859.77348
  22251360.516 6    119337.641 6     85728.09048  22251358.66848
  20719623.164 6   -104928.078 6    -68992.27349  20719619.98049
  21305558.422 7      7880.652 7      4404.23449  21305558.85549
  21233064.125 7   -370351.777 7   -245380.75449  21233064.08249
  21904989.273 6    -35455.941 6    -23150.66848  21904986.96948
 20  5 16  0 13 34.0000000  0  6G08G14G16G26G27G31                   0.000227350
  23485902.695 5   -284403.277 5   -168149.02348  23485903.29348
  22251678.047 6    121005.688 6     87027.86348  22251675.98048
  20719403.633 6   -106082.793 6    -69892.05149  20719400.00849
  21305587.117 6      8030.910 6      4521.32049  21305587.01249
  21232299.188 7   -374374.145 7   -248515.06649  21232298.55549
  21904913.656 6    -35855.625 6    -23462.10248  21904911.07448
 20  5 16  0 13 35.0000000  0  6G08G14G16G26G27G31                   0.000226471
  23484945.961 4   -289429.578 4   -172065.62148  23484947.18048
  22251995.758 6    122673.523 6     88327.47348  22251993.50448
  20719183.531 7   -107237.770 7    -70792.03949  20719180.74249
  21305615.703 6      8180.695 6      4638.03949  21305616.09449
  21231533.492 7   -378396.590 7   -251649.43849  21231533.19949
  21904837.094 6    -36255.691 6    -23773.84448  21904834.55948
 20  5 16  0 13 36.0000000  0  6G08G14G16G26G27G31                   0.000225592
  23483989.391 5   -294456.234 5   -175982.49248  23483990.40248
  22252313.039 6    124341.129 6     89626.90648  22252310.69548
  20718963.805 7   -108392.953 7    -71692.18049  20718960.82849
  21305644.305 7      8330.086 7      4754.46149  21305644.75849
  21230767.922 7   -382419.109 7   -254783.86749  21230767.73849
  21904761.164 6    -36656.055 6    -24085.82048  21904758.33648
 20  5 16  0 13 37.0000000  0  6G08G14G16G26G27G31                   0.000224712
  23483032.586 5   -299483.199 5   -179899.61348  23483033.68048
  22252630.180 6    126008.648 6     90926.27348  22252628.20348
  20718744.055 7   -109548.242 7    -72592.39849  20718740.78949
  21305672.727 7      8479.141 7      4870.60249  21305672.71949
  21230002.461 7   -386441.566 7   -257918.25449  21230002.28949
  21904684.875 6    -37056.652 6    -24397.98048  21904682.02348
 20  5 16  0 13 38.0000000  0  6G08G14G16G26G27G31                   0.000223833
  23482076.328 5   -304510.520 5   -183817.00048  23482077.33248
  22252947.391 6    127675.961 6     92225.47748  22252945.50848
  20718524.141 7   -110703.746 7    -73492.79749  20718521.01649
  21305700.758 6      8627.758 6      4986.39549  21305700.70349
  21229237.031 7   -390464.078 7   -261052.68049  21229236.95749
  21904608.164 6    -37457.523 6    -24710.34848  21904605.88748
 20  5 16  0 13 39.0000000  0  6G08G14G16G26G27G31                   0.000222952
  23481119.148 5   -309538.160 5   -187734.63348  23481120.62548
  22253264.867 6    129343.133 6     93524.57048  22253262.68048
  20718304.211 7   -111859.406 7    -74393.31349  20718301.22349
  21305728.602 6      8775.992 6      5101.90249  21305729.42649
  21228471.734 7   -394486.590 7   -264187.10249  21228471.23449
  21904532.094 6    -37858.730 6    -25022.98048  21904529.41048
 20  5 16  0 13 40.0000000  0  6G08G14G16G26G27G31                   0.000222071
  23480162.680 5   -314566.137 5   -191652.54348  23480163.57848
  22253581.883 6    131010.098 6     94823.50048  22253580.00848
  20718084.102 7   -113015.285 7    -75293.99248  20718081.34048
  21305756.906 6      8923.805 6      5217.07049  21305757.17249
  21227706.313 6   -398509.164 6   -267321.57849  21227706.20749
  21904455.695 6    -38260.242 6    -25335.84848  21904452.89548
 20  5 16  0 13 41.0000000  0  6G08G14G16G26G27G31                   0.000221191
  23479205.945 5   -319594.492 5   -195570.74648  23479206.51248
  22253899.172 6    132676.840 6     96122.25448  22253897.18848
  20717864.258 7   -114171.387 7    -76194.85948  20717861.18048
  21305785.055 6      9071.137 6      5331.87149  21305785.50449
  21226940.320 7   -402531.801 7   -270456.09849  21226940.50849
  21904379.156 6    -38662.063 6    -25648.94948  21904376.69148
 20  5 16  0 13 42.0000000  0  6G08G14G16G26G27G31                   0.000220308
  23478248.992 5   -324623.207 5   -199489.23448  23478249.81348
  22254216.422 6    134343.445 6     97420.89848  22254214.37148
  20717644.172 7   -115327.629 7    -77095.82049  20717640.91849
  21305813.172 6      9218.137 6      5446.42249  21305813.44949
  21226175.375 7   -406554.434 7   -273590.60949  21226174.79749
  21904302.734 6    -39064.156 6    -25962.27748  21904300.19148
 20  5 16  0 13 43.0000000  0  6G08G14G16G26G27G31                   0.000219427
  23477291.844 5   -329652.047 5   -203407.81348  23477292.74648
  22254533.586 6    136010.000 6     98719.50448  22254531.69948
  20717424.352 7   -116483.930 7    -77996.83649  20717421.13349
  21305841.086 6      9364.867 6      5560.75849  21305841.08649
  21225409.563 7   -410576.922 7   -276725.02049  21225409.75449
  21904226.320 6    -39466.398 6    -26275.71548  21904223.42248
 20  5 16  0 13 44.0000000  0  7G04G08G14G16G26G27G31                0.000218544
  22541196.93816   -130233.16016    -91964.72757  22541196.09057
  23476335.102 5   -334681.102 5   -207326.56348  23476335.50048
  22254850.414 6    137676.543 6    100018.11348  22254848.77748
  20717204.430 7   -117640.246 7    -78897.86748  20717200.79748
  21305868.773 6      9511.344 6      5674.89149  21305869.28149
  21224644.156 7   -414599.305 7   -279859.34849  21224644.08649
  21904149.852 6    -39868.754 6    -26589.23848  21904147.27348
 20  5 16  0 13 45.0000000  0  7G04G08G14G16G26G27G31                0.000217661
  22540457.625 5   -134116.160 5    -94990.44147  22540457.27747
  23475378.266 5   -339710.426 5   -211245.52048  23475379.14548
  22255168.023 6    139343.012 6    101316.66448  22255165.63748
  20716984.289 7   -118796.676 7    -79798.97748  20716980.78948
  21305896.703 6      9657.508 6      5788.78949  21305897.09449
  21223878.703 7   -418621.621 7   -282993.62149  21223878.53549
  21904073.320 6    -40271.336 6    -26902.93848  21904070.75448
 20  5 16  0 13 46.0000000  0  7G04G08G14G16G26G27G31                0.000216780
  22539719.445 5   -137999.301 5    -98016.25847  22539718.26647
  23474420.383 5   -344740.141 5   -215164.77048  23474421.67648
  22255484.656 6    141009.227 6    102615.02048  22255482.54748
  20716763.867 7   -119953.344 7    -80700.27748  20716760.85548
  21305924.555 6      9803.211 6      5902.31649  21305924.39849
  21223113.492 7   -422644.016 7   -286127.95349  21223113.24249
  21903996.461 6    -40674.277 6    -27216.91848  21903993.94948
 20  5 16  0 13 47.0000000  0  7G04G08G14G16G26G27G31                0.000215897
  22538979.734 6   -141882.539 6   -101042.17247  22538979.17247
  23473463.680 5   -349770.242 5   -219084.31648  23473464.46148
  22255801.328 6    142675.242 6    103913.21548  22255799.98848
  20716543.633 6   -121110.227 6    -81601.74649  20716540.67649
  21305952.070 7      9948.480 7      6015.52049  21305952.27349
  21222347.953 7   -426666.492 7   -289262.35549  21222347.92649
  21903919.352 6    -41077.527 6    -27531.14148  21903917.21148
 20  5 16  0 13 48.0000000  0  7G04G08G14G16G26G27G31                0.000215014
  22538241.203 5   -145765.723 5   -104068.04747  22538240.43047
  23472505.711 5   -354800.484 5   -223003.97348  23472507.33248
  22256118.656 6    144341.246 6    105211.39548  22256116.63348
  20716323.680 7   -122267.117 7    -82503.21549  20716320.52049
  21305979.211 6     10093.508 6      6128.53149  21305979.98849
  21221582.633 6   -430688.805 6   -292396.62949  21221582.52749
  21903842.914 6    -41480.910 6    -27845.46948  21903840.13748
 20  5 16  0 13 49.0000000  0  7G04G08G14G16G26G27G31                0.000214128
  22537502.094 6   -149649.000 6   -107093.99648  22537501.51248
  23471549.297 5   -359831.105 5   -226923.94948  23471549.99248
  22256435.961 6    146007.098 6    106509.45348  22256433.68448
  20716103.375 7   -123424.188 7    -83404.82449  20716100.60549
  21306006.992 6     10238.145 6      6241.22749  21306007.47349
  21220816.992 6   -434711.145 6   -295530.91849  21220817.01249
  21903765.977 6    -41884.559 6    -28159.99248  21903763.37948
 20  5 16  0 13 50.0000000  0  7G04G08G14G16G26G27G31                0.000213245
  22536763.047 6   -153532.367 6   -110120.01248  22536762.16048
  23470591.836 4   -364861.957 4   -230844.06648  23470592.70348
  22256752.625 6    147672.820 6    107807.41848  22256750.81648
  20715883.391 7   -124581.406 7    -84306.55549  20715880.39849
  21306034.633 7     10382.430 7      6353.66449  21306035.00849
  21220051.656 7   -438733.422 7   -298665.16449  21220051.44549
  21903689.047 6    -42288.480 6    -28474.73448  21903686.75448
 20  5 16  0 13 51.0000000  0  7G04G08G14G16G26G27G31                0.000212360
  22536024.242 6   -157415.754 6   -113146.02348  22536023.23848
  23469633.992 5   -369893.184 5   -234764.48848  23469635.21948
  22257069.570 6    149338.414 6    109105.29347  22257067.70347
  20715662.906 7   -125738.789 7    -85208.41449  20715660.03149
  21306061.953 7     10526.305 7      6465.76649  21306062.04749
  21219286.406 7   -442755.738 7   -301799.44549  21219285.85249
  21903612.461 6    -42692.660 6    -28789.68048  21903609.26248
 20  5 16  0 13 52.0000000  0  7G04G08G14G16G26G27G31                0.000211477
  22535285.234 6   -161299.227 6   -116172.10248  22535284.28548
  23468676.414 5   -374924.695 5   -238685.15248  23468677.73448
  22257386.594 6    151003.797 6    110402.96948  22257384.72748
  20715442.797 7   -126896.328 7    -86110.38349  20715439.73449
  21306089.336 7     10669.805 7      6577.58249  21306089.44549
  21218520.953 7   -446778.094 7   -304933.76649  21218520.53949
  21903535.078 6    -43097.117 6    -29104.81348  21903532.73048
 20  5 16  0 13 53.0000000  0  7G04G08G14G16G26G27G31                0.000210592
  22534546.141 6   -165182.711 6   -119198.19548  22534545.19548
  23467719.383 5   -379956.469 5   -242606.03148  23467720.05148
  22257703.641 6    152669.105 6    111700.58248  22257701.50848
  20715222.602 7   -128053.969 7    -87012.44149  20715219.13749
  21306116.430 6     10812.980 6      6689.14549  21306116.46149
  21217755.398 7   -450800.344 7   -308067.99649  21217755.53949
  21903458.227 6    -43501.781 6    -29420.12948  21903455.69148
 20  5 16  0 13 54.0000000  0  7G04G08G14G16G26G27G31                0.000209707
  22533807.430 6   -169066.164 6   -122224.25448  22533806.03148
  23466761.219 5   -384988.410 5   -246527.03548  23466762.34848
  22258020.477 6    154334.352 6    112998.16048  22258018.20348
  20715002.016 7   -129211.680 7    -87914.55949  20714998.60249
  21306143.828 6     10955.883 6      6800.50849  21306144.16849
  21216990.070 7   -454822.512 7   -311202.15249  21216989.72749
  21903381.219 6    -43906.609 6    -29735.59048  21903379.03948
 20  5 16  0 13 55.0000000  0  7G04G08G14G16G26G27G31                0.000208822
  22533068.461 6   -172949.672 6   -125250.36348  22533067.27048
  23465803.430 5   -390020.699 5   -250448.30148  23465804.77348
  22258337.555 6    155999.469 6    114295.64848  22258335.49648
  20714782.234 6   -130369.523 6    -88816.77349  20714778.77749
  21306171.008 7     11098.434 7      6911.59049  21306171.06649
  21216224.867 7   -458844.652 7   -314336.27749  21216224.40649
  21903304.375 6    -44311.668 6    -30051.23848  21903301.42248
 20  5 16  0 13 56.0000000  0  7G04G08G14G16G26G27G31                0.000207935
  22532329.352 6   -176833.141 6   -128276.43848  22532328.64848
  23464846.375 5   -395053.191 5   -254369.71148  23464847.44548
  22258653.531 6    157664.469 6    115593.07447  22258652.25447
  20714561.586 6   -131527.480 6    -89719.08649  20714558.27749
  21306198.047 6     11240.656 6      7022.41449  21306198.06649
  21215459.289 7   -462866.742 7   -317470.36349  21215459.13349
  21903227.023 6    -44716.980 6    -30367.07848  21903224.38748
 20  5 16  0 13 57.0000000  0  7G04G08G14G16G26G27G31                0.000207050
  22531589.805 6   -180716.840 6   -131302.70748  22531589.44548
  23463889.359 5   -400086.113 5   -258291.47349  23463889.77049
  22258970.789 6    159329.305 6    116890.39147  22258968.55947
  20714341.172 6   -132685.629 6    -90621.54348  20714337.93848
  21306224.898 7     11382.449 7      7132.89849  21306225.18049
  21214693.844 7   -466888.859 7   -320604.47749  21214693.66849
  21903149.672 7    -45122.598 7    -30683.14548  21903146.89148
 20  5 16  0 13 58.0000000  0  7G04G08G14G16G26G27G31                0.000206163
  22530851.203 6   -184600.531 6   -134328.95748  22530850.28148
  23462931.188 5   -405119.355 5   -262213.47349  23462931.85949
  22259287.625 6    160993.965 6    118187.55147  22259285.74647
  20714120.523 6   -133843.957 6    -91524.14848  20714117.53948
  21306251.578 7     11523.836 7      7243.07449  21306252.33249
  21213928.453 7   -470910.996 7   -323738.61349  21213928.22749
  21903072.750 6    -45528.461 6    -30999.39548  21903069.60948
 20  5 16  0 13 59.0000000  0  7G04G08G14G16G26G27G31                0.000205276
  22530112.336 6   -188484.215 6   -137355.20748  22530111.21148
  23461973.250 5   -410152.781 5   -266135.61749  23461973.90249
  22259604.313 6    162658.582 6    119484.65247  22259602.25047
  20713900.164 6   -135002.324 6    -92426.76648  20713897.10548
  21306278.906 7     11664.969 7      7353.05549  21306279.35249
  21213163.266 7   -474933.016 7   -326872.66049  21213163.10949
  21902995.359 6    -45934.484 6    -31315.77048  21902992.86748
 20  5 16  0 14  0.0000000  0  7G04G08G14G16G26G27G31                0.000204390
  22529372.750 6   -192367.891 6   -140381.45348  22529372.10248
  23461015.250 6   -415186.484 6   -270057.97349  23461016.00449
  22259921.195 6    164323.105 6    120781.66047  22259918.76647
  20713679.898 6   -136160.809 6    -93329.47748  20713676.72348
  21306305.484 6     11805.770 6      7462.77749  21306306.10549
  21212397.773 7   -478955.035 7   -330006.70349  21212397.50049
  21902918.219 6    -46340.734 6    -31632.35549  21902915.27749
 20  5 16  0 14  1.0000000  0  7G04G08G14G16G26G27G31                0.000203503
  22528633.844 5   -196251.508 5   -143407.64147  22528633.26647
  23460057.648 6   -420220.316 6   -273980.46549  23460057.70349
  22260238.063 6    165987.574 6    122078.62947  22260236.08247
  20713459.219 6   -137319.316 6    -94232.22348  20713456.31648
  21306332.117 6     11946.355 6      7572.32049  21306332.82449
  21211632.414 7   -482976.867 7   -333140.60549  21211632.35249
  21902840.664 6    -46747.129 6    -31949.04348  21902838.18048
 20  5 16  0 14  2.0000000  0  7G04G08G14G16G26G27G31                0.000202616
  22527895.211 5   -200135.109 5   -146433.80147  22527894.02347
  23459099.477 6   -425254.469 6   -277903.22749  23459099.94149
  22260554.695 6    167651.957 6    123375.55547  22260552.58247
  20713238.930 6   -138477.922 6    -95135.03148  20713235.62948
  21306358.820 7     12086.574 7      7681.55549  21306359.28149
  21210867.203 7   -486998.664 7   -336274.46149  21210867.12149
  21902763.648 6    -47153.734 6    -32265.87948  21902760.81648
 20  5 16  0 14  3.0000000  0  7G04G08G14G16G26G27G31                0.000201729
  22527155.680 5   -204018.648 5   -149459.92647  22527155.05947
  23458141.531 6   -430288.777 6   -281826.08249  23458141.63749
  22260871.039 6    169316.348 6    124672.49647  22260869.04747
  20713018.328 6   -139636.547 6    -96037.85948  20713015.01648
  21306385.430 7     12226.563 7      7790.62149  21306385.99649
  21210101.742 7   -491020.340 7   -339408.23849  21210101.76649
  21902685.898 6    -47560.484 6    -32582.81648  21902683.23848
 20  5 16  0 14  4.0000000  0  7G04G08G14G16G26G27G31                0.000200840
  22526416.313 5   -207902.414 5   -152486.25047  22526415.57447
  23457183.305 5   -435323.555 5   -285749.27049  23457184.13349
  22261187.875 6    170980.453 6    125969.21547  22261185.84447
  20712797.852 6   -140795.496 6    -96940.93048  20712794.55148
  21306412.000 7     12366.027 7      7899.29749  21306411.75449
  21209336.727 7   -495042.145 7   -342542.10949  21209336.58249
  21902608.141 7    -47967.602 7    -32900.04348  21902605.93448
 20  5 16  0 14  5.0000000  0  7G04G08G14G16G26G27G31                0.000199953
  22525677.422 5   -211786.137 5   -155512.53547  22525677.10547
  23456225.227 4   -440358.418 4   -289672.52348  23456226.05548
  22261504.625 6    172644.559 6    127265.90648  22261503.73448
  20712577.742 6   -141954.434 6    -97843.98448  20712574.36348
  21306438.523 7     12505.234 7      8007.78149  21306438.91049
  21208571.156 6   -499063.852 6   -345675.89149  21208571.08249
  21902530.789 6    -48374.891 6    -33217.40248  21902528.52048
 20  5 16  0 14  6.0000000  0  7G04G08G14G16G26G27G31                0.000199064
  22524938.828 4   -215669.754 4   -158538.73446  22524938.11746
  23455267.445 5   -445393.598 5   -293596.06649  23455267.98449
  22261821.242 6    174308.555 6    128562.47748  22261819.55548
  20712356.797 6   -143113.449 6    -98747.10948  20712353.46148
  21306464.758 6     12644.191 6      8116.07049  21306464.89549
  21207805.750 7   -503085.391 7   -348809.54749  21207805.69149
  21902452.945 6    -48782.320 6    -33534.86748  21902450.66048
 20  5 16  0 14  7.0000000  0  7G04G08G14G16G26G27G31                0.000198175
  22524199.344 5   -219553.496 5   -161565.02046  22524198.84046
  23454308.891 6   -450429.066 6   -297519.84449  23454309.88749
  22262137.555 6    175972.406 6    129858.95748  22262136.07848
  20712136.453 6   -144272.648 6    -99650.37548  20712133.21148
  21306491.352 6     12782.734 6      8224.02749  21306492.01249
  21207040.602 7   -507106.941 7   -351943.21949  21207040.59049
  21902375.992 6    -49190.035 6    -33852.57848  21902373.08248
 20  5 16  0 14  8.0000000  0  7G04G08G14G16G26G27G31                0.000197287
  22523460.586 5   -223437.336 5   -164591.36747  22523459.89547
  23453350.406 6   -455464.766 6   -301443.76249  23453351.65649
  22262453.914 6    177636.078 6    131155.33648  22262452.48048
  20711915.430 6   -145432.020 6   -100553.78948  20711912.75848
  21306517.797 6     12920.898 6      8331.68449  21306518.13749
  21206275.234 7   -511128.453 7   -355076.86749  21206274.78549
  21902298.281 6    -49598.008 6    -34170.49648  21902295.84848
 20  5 16  0 14  9.0000000  0  7G04G08G14G16G26G27G31                0.000196396
  22522721.703 5   -227320.988 5   -167617.58647  22522720.57447
  23452392.055 5   -460500.609 5   -305367.77749  23452393.25849
  22262770.797 6    179299.836 6    132451.81647  22262769.46947
  20711695.039 6   -146591.305 6   -101457.12948  20711691.82048
  21306543.844 6     13058.902 6      8439.21149  21306544.33649
  21205509.961 7   -515149.801 7   -358210.40649  21205509.75449
  21902220.328 6    -50006.047 6    -34488.45748  21902218.05148
 20  5 16  0 14 10.0000000  0  7G04G08G14G16G26G27G31                0.000195507
  22521982.711 5   -231204.648 5   -170643.81347  22521981.52347
  23451434.375 6   -465536.723 6   -309292.01249  23451434.80949
  22263087.242 6    180963.527 6    133748.23047  22263086.03947
  20711474.250 6   -147750.711 6   -102360.57048  20711471.25848
  21306569.969 6     13196.598 6      8546.50849  21306570.97749
  21204744.852 7   -519171.090 7   -361343.89149  21204744.60249
  21902143.117 6    -50414.297 6    -34806.57048  21902140.12948
 20  5 16  0 14 11.0000000  0  7G04G08G14G16G26G27G31                0.000194618
  22521243.484 5   -235088.359 5   -173670.08647  22521242.54747
  23450475.414 5   -470573.145 5   -313216.48849  23450476.13749
  22263404.133 6    182627.031 6    135044.48847  22263402.75847
  20711253.594 6   -148910.242 6   -103264.09848  20711250.69548
  21306596.422 7     13333.887 7      8653.48049  21306596.77349
  21203979.719 7   -523192.352 7   -364477.34449  21203979.54349
  21902065.086 6    -50822.781 6    -35124.87548  21902062.24248
 20  5 16  0 14 12.0000000  0  7G04G08G14G16G26G27G31                0.000193727
  22520504.414 5   -238971.973 5   -176696.29347  22520503.75047
  23449516.938 5   -475609.656 5   -317141.04349  23449517.91049
  22263720.953 6    184290.645 6    136340.81647  22263718.96147
  20711032.930 6   -150069.770 6   -104167.63348  20711030.07848
  21306622.313 7     13471.023 7      8760.34449  21306622.89849
  21203214.461 7   -527213.422 7   -367610.64549  21203214.59049
  21901987.273 6    -51231.352 6    -35443.23048  21901984.85248
 20  5 16  0 14 13.0000000  0  7G04G08G14G16G26G27G31                0.000192837
  22519765.242 5   -242855.711 5   -179722.58647  22519764.27047
  23448558.773 6   -480646.625 6   -321065.95349  23448559.46549
  22264036.945 6    185953.934 6    137636.87547  22264035.39547
  20710812.367 6   -151229.535 6   -105071.34448  20710809.09448
  21306648.188 7     13607.664 7      8866.81349  21306649.04749
  21202449.156 7   -531234.613 7   -370744.03949  21202449.08649
  21901909.563 6    -51640.285 6    -35761.87948  21901906.43048
 20  5 16  0 14 14.0000000  0  7G04G08G14G16G26G27G31                0.000191946
  22519025.898 5   -246739.512 5   -182748.91447  22519025.34847
  23447600.086 6   -485683.918 6   -324991.11749  23447600.86749
  22264354.109 6    187617.156 6    138932.87947  22264351.60247
  20710591.688 6   -152389.445 6   -105975.16048  20710588.71948
  21306674.117 7     13743.980 7      8973.03149  21306674.79349
  21201684.016 7   -535255.777 7   -373877.41049  21201683.92249
  21901831.633 6    -52049.457 6    -36080.71948  21901829.16048
 20  5 16  0 14 15.0000000  0  7G04G08G14G16G26G27G31                0.000191055
  22518286.906 4   -250623.223 4   -185775.17247  22518286.24247
  23446641.281 4   -490721.313 4   -328916.35948  23446641.87948
  22264670.102 6    189280.297 6    140228.77748  22264668.09448
  20710370.758 6   -153549.277 6   -106878.93448  20710368.16448
  21306700.234 6     13880.098 6      9079.09049  21306700.70349
  21200919.008 6   -539276.707 6   -377010.57049  21200918.89149
  21901753.828 6    -52458.711 6    -36399.62148  21901751.18848
 20  5 16  0 14 16.0000000  0  7G04G08G14G16G26G27G31                0.000190165
  22517548.789 4   -254506.957 4   -188801.46146  22517547.15646
  23445682.594 4   -495759.031 4   -332841.86348  23445683.22348
  22264986.578 6    190943.355 6    141524.64147  22264984.93847
  20710149.938 6   -154709.355 6   -107782.89848  20710147.59448
  21306726.031 6     14015.789 6      9184.81649  21306726.76249
  21200154.273 6   -543297.691 6   -380143.76249  21200153.65249
  21901675.891 6    -52868.277 6    -36718.75848  21901673.21948
 20  5 16  0 14 17.0000000  0  7G04G08G14G16G26G27G31                0.000189272
  22516809.125 4   -258390.789 4   -191827.82846  22516808.18446
  23444724.461 5   -500797.027 5   -336767.57047  23444724.27047
  22265303.563 6    192606.238 6    142820.37948  22265301.27048
  20709929.234 6   -155869.594 6   -108686.98048  20709926.45348
  21306751.922 7     14151.082 7      9290.23849  21306752.31649
  21199388.594 6   -547318.691 6   -383276.99649  21199388.30949
  21901598.016 6    -53278.082 6    -37038.08248  21901595.29748
 20  5 16  0 14 18.0000000  0  7G04G08G14G16G26G27G31                0.000188381
  22516070.133 4   -262274.656 4   -194854.23846  22516069.16046
  23443765.586 5   -505835.348 5   -340693.53147  23443765.41447
  22265619.453 6    194268.965 6    144116.00448  22265617.87148
  20709708.086 6   -157029.949 6   -109591.15648  20709706.02748
  21306777.547 7     14286.020 7      9395.38749  21306778.70749
  21198623.281 6   -551339.645 6   -386410.21949  21198623.21549
  21901520.195 6    -53688.152 6    -37357.62548  21901517.07048
 20  5 16  0 14 19.0000000  0  7G04G08G14G16G26G27G31                0.000187489
  22515330.875 4   -266158.809 4   -197880.85246  22515329.59046
  23442807.141 4   -510874.152 4   -344619.87947  23442806.70747
  22265936.063 6    195931.371 6    145411.39548  22265933.75048
  20709487.281 6   -158190.637 6   -110495.59048  20709485.11748
  21306802.906 7     14420.434 7      9500.12949  21306803.78149
  21197858.070 6   -555360.762 6   -389543.56349  21197857.90249
  21901441.555 6    -54098.652 6    -37677.50048  21901439.10548
 20  5 16  0 14 20.0000000  0  7G04G08G14G16G26G27G31                0.000186596
  22514592.313 4   -270042.891 4   -200907.40246  22514591.01246
  23441847.727 4   -515913.125 4   -348546.34047  23441847.79347
  22266252.281 6    197593.727 6    146706.75048  22266249.91448
  20709266.273 6   -159351.402 6   -111400.07848  20709264.10948
  21306828.633 6     14554.535 6      9604.62149  21306829.23849
  21197093.305 6   -559381.789 6   -392676.83649  21197092.60949
  21901363.672 6    -54509.324 6    -37997.50848  21901361.42248
 20  5 16  0 14 21.0000000  0  7G04G08G14G16G26G27G31                0.000185703
  22513852.914 4   -273926.926 4   -203933.91846  22513851.87946
  23440889.070 5   -520952.363 5   -352473.00847  23440888.16847
  22266568.563 6    199256.027 6    148002.05948  22266566.47348
  20709045.898 6   -160512.219 6   -112304.60948  20709043.23848
  21306853.883 7     14688.355 7      9708.89849  21306854.82449
  21196328.008 6   -563402.727 6   -395810.04749  21196327.54349
  21901285.375 6    -54920.188 6    -38317.66448  21901282.83648
 20  5 16  0 14 22.0000000  0  7G04G08G14G16G26G27G31                0.000184809
  22513113.258 4   -277810.867 4   -206960.37546  22513112.57846
  23439929.484 5   -525991.715 5   -356399.77347  23439929.46547
  22266884.922 6    200918.336 6    149297.36748  22266883.12148
  20708824.859 6   -161673.016 6   -113209.12548  20708822.62948
  21306879.367 6     14821.988 6      9813.02749  21306880.16849
  21195562.680 6   -567423.473 6   -398943.09449  21195562.54749
  21901207.336 6    -55331.109 6    -38637.86348  21901204.53948
 20  5 16  0 14 23.0000000  0  7G04G08G14G16G26G27G31                0.000183916
  22512374.516 4   -281694.645 4   -209986.68046  22512373.48846
  23438971.094 5   -531031.109 5   -360326.58247  23438970.53947
  22267200.977 6    202580.730 6    150592.73048  22267199.27748
  20708603.836 6   -162833.758 6   -114113.59848  20708601.64148
  21306904.648 6     14955.434 6      9917.01649  21306905.64149
  21194797.445 6   -571444.016 6   -402075.98049  21194797.54349
  21901128.836 6    -55742.082 6    -38958.10248  21901126.41848
 20  5 16  0 14 24.0000000  0  7G04G08G14G16G26G27G31                0.000183023
  22511635.656 5   -285578.492 5   -213013.04346  22511634.34046
  23438011.781 4   -536070.828 4   -364253.63747  23438011.53147
  22267517.813 6    204243.016 6    151888.00848  22267515.59848
  20708382.828 6   -163994.641 6   -115018.18448  20708380.41848
  21306930.094 6     15088.566 6     10020.75449  21306931.16449
  21194032.492 6   -575464.484 6   -405208.81649  21194032.26249
  21901051.195 6    -56153.277 6    -39278.50848  21901048.28948
 20  5 16  0 14 25.0000000  0  7G04G08G14G16G26G27G31                0.000182129
  22510896.422 4   -289462.414 4   -216039.48046  22510895.55146
  23437053.453 5   -541110.898 5   -368180.95747  23437052.49647
  22267834.242 6    205905.055 6    153183.10248  22267832.26248
  20708162.117 6   -165155.719 6   -115922.91448  20708159.49648
  21306955.352 6     15221.258 6     10124.14549  21306956.21149
  21193267.563 6   -579485.035 6   -408341.70749  21193267.68849
  21900972.359 6    -56564.813 6    -39599.19148  21900969.91848
 20  5 16  0 14 26.0000000  0  7G04G08G14G16G26G27G31                0.000181234
  22510156.984 4   -293346.313 4   -219065.89846  22510156.75446
  23436093.930 5   -546151.196 5   -372108.45547  23436092.80547
  22268149.898 6    207567.066 6    154478.17648  22268148.35248
  20707941.211 6   -166316.844 6   -116827.69548  20707938.59448
  21306980.484 6     15353.672 6     10227.31349  21306981.44149
  21192502.156 6   -583505.461 6   -411474.50049  21192502.34049
  21900894.242 6    -56976.492 6    -39919.97748  21900891.87148
 20  5 16  0 14 27.0000000  0  7G04G08G14G16G26G27G31                0.000180340
  22509418.391 5   -297230.230 5   -222092.32846  22509417.17246
  23435134.727 4   -551191.730 4   -376036.15647  23435134.22347
  22268466.523 6    209228.961 6    155773.16847  22268464.71947
  20707720.305 6   -167478.090 6   -117732.56648  20707717.71548
  21307005.859 6     15485.754 6     10330.22749  21307007.10949
  21191737.047 6   -587525.781 6   -414607.21549  21191737.01649
  21900815.750 6    -57388.367 6    -40240.91848  21900813.24648
 20  5 16  0 14 28.0000000  0  7G04G08G14G16G26G27G31                0.000179445
  22508678.883 5   -301114.262 5   -225118.87146  22508678.07846
  23434176.078 3   -556232.641 3                
  22268782.586 6    210890.633 6    157068.00447  22268781.29747
  20707499.523 6   -168639.566 6   -118637.62148  20707496.58648
  21307030.531 6     15617.398 6     10432.80549  21307031.91849
  21190972.305 6   -591546.164 6   -417739.98449  21190971.89149
  21900737.445 6    -57800.570 6    -40562.11348  21900734.94948
 20  5 16  0 14 29.0000000  0  7G04G08G14G16G26G27G31                0.000178551
  22507939.391 5   -304998.285 5   -228145.38346  22507939.30546
  23433216.023 3   -561273.711 3                
  22269099.094 6    212552.273 6    158362.79347  22269096.73447
  20707278.273 6   -169801.090 6   -119542.70348  20707275.66848
  21307055.789 6     15748.734 6     10535.14549  21307056.46549
  21190207.453 6   -595566.527 6   -420872.73449  21190206.67649
  21900658.805 6    -58212.977 6    -40883.47348  21900656.27348
 20  5 16  0 14 30.0000000  0  7G04G08G14G16G26G27G31                0.000177656
  22507200.656 5   -308882.297 5   -231171.88746  22507199.98846
  23432257.297 3   -566315.047 3                
  22269415.133 6    214213.797 6    159657.48447  22269413.04347
  20707057.055 6   -170962.758 6   -120447.89848  20707054.69948
  21307080.461 6     15879.762 6     10637.24649  21307081.71149
  21189442.102 6   -599586.797 6   -424005.40649  21189441.95349
  21900580.258 6    -58625.578 6    -41204.98048  21900577.98848
 20  5 16  0 14 31.0000000  0  7G04G08G14G16G26G27G31                0.000176760
  22506461.102 4   -312766.207 4   -234198.30146  22506460.76646
  23431297.156 3   -571356.570 3                
  22269731.398 6    215875.313 6    160952.16447  22269729.26647
  20706835.727 6   -172124.414 6   -121353.07848  20706833.23048
  21307105.477 6     16010.547 6     10739.15649  21307106.37149
  21188677.195 6   -603606.906 6   -427137.95349  21188676.77049
  21900501.609 6    -59038.293 6    -41526.57848  21900499.36348
 20  5 16  0 14 32.0000000  0  7G04G08G14G16G26G27G31                0.000175863
  22505722.445 4   -316650.156 4   -237224.74246  22505721.82046
  23430338.156 3   -576398.371 3                
  22270047.289 6    217536.730 6    162246.77747  22270045.52347
  20706614.922 6   -173286.180 6   -122258.34848  20706612.49248
  21307130.484 6     16141.020 6     10840.82449  21307131.45749
  21187911.922 5   -607626.941 5   -430270.45349  21187911.72349
  21900423.266 6    -59451.223 6    -41848.34048  21900420.99248
 20  5 16  0 14 33.0000000  0  7G04G08G14G16G26G27G31                0.000174969
  22504983.492 5   -320534.098 5   -240251.18846  22504983.02046
  23429379.375 3   -581440.438 3   -380750.33256  23429374.43456
  22270363.617 6    219198.059 6    163541.32047  22270361.50047
  20706393.922 6   -174448.047 6   -123163.69948  20706391.27048
  21307154.813 6     16271.188 6     10942.25849  21307156.21949
  21187146.820 5   -611646.922 5   -433402.90249  21187146.47349
  21900344.875 6    -59864.344 6    -42170.25848  21900342.49248
 20  5 16  0 14 34.0000000  0  7G04G08G14G16G26G27G31                0.000174072
  22504244.906 5   -324417.918 5   -243277.55146  22504244.08646
  23428420.711 2   -586482.547 2   -384679.16046  23428415.37546
  22270680.000 6    220859.434 6    164835.90647  22270677.76647
  20706172.820 6   -175609.883 6   -124069.02748  20706170.38748
  21307179.648 6     16401.109 6     11043.49249  21307180.93049
  21186382.133 5   -615666.734 5   -436535.23049  21186381.70749
  21900265.594 6    -60277.547 6    -42492.24248  21900262.99248
 20  5 16  0 14 35.0000000  0  7G04G08G14G16G26G27G31                0.000173176
  22503505.820 6   -328301.734 6   -246303.90647  22503504.86747
  23427459.789 6   -591524.836 6   -388608.30149  23427458.49649
  22270995.648 6    222520.730 6    166130.41447  22270993.76247
  20705952.117 7   -176771.879 7   -124974.47748  20705948.85548
  21307204.742 7     16530.711 7     11144.48449  21307205.12549
  21185617.563 6   -619686.520 6   -439667.54749  21185617.56349
  21900187.203 6    -60691.016 6    -42814.43848  21900184.51648
 20  5 16  0 14 36.0000000  0  7G04G08G14G16G26G27G31                0.000172279
  22502766.914 6   -332185.508 6   -249330.23047  22502765.34847
  23426499.758 5   -596567.492 5   -392537.82049  23426500.60549
  22271311.703 6    224181.898 6    167424.82847  22271309.98847
  20705730.609 7   -177933.879 7   -125879.93449  20705727.60949
  21307229.805 7     16660.047 7     11245.26249  21307229.92249
  21184852.672 6   -623706.145 6   -442799.75049  21184852.40649
  21900108.688 6    -61104.578 6    -43136.69548  21900105.96548
 20  5 16  0 14 37.0000000  0  7G04G08G14G16G26G27G31                0.000171381
  22502027.906 5   -336069.137 5   -252356.44547  22502026.42247
  23425540.148 5   -601610.195 5   -396467.29749  23425540.71949
  22271627.875 6    225843.164 6    168719.30947  22271626.04747
  20705509.680 7   -179095.820 7   -126785.34449  20705506.70749
  21307254.078 7     16789.230 7     11345.92649  21307254.37549
  21184087.914 6   -627725.551 6   -445931.76249  21184087.77349
  21900029.852 6    -61518.191 6    -43458.99648  21900027.20348
 20  5 16  0 14 38.0000000  0  7G04G08G14G16G26G27G31                0.000170485
  22501289.172 6   -339952.566 6   -255382.48448  22501287.54348
  23424580.227 5   -606652.969 5   -400396.75849  23424582.86349
  22271944.586 6    227504.531 6    170013.88747  22271942.66047
  20705288.484 7   -180257.676 7   -127690.68049  20705285.80549
  21307278.867 7     16918.293 7     11446.49649  21307278.52349
  21183322.578 7   -631744.703 7   -449063.56349  21183322.37949
  21899950.883 6    -61931.855 6    -43781.33248  21899948.26248
 20  5 16  0 14 39.0000000  0  7G04G08G14G16G26G27G31                0.000169586
  22500549.781 6   -343835.930 6   -258408.47748  22500548.65648
  23423620.641 5   -611695.879 5   -404326.28149  23423624.50449
  22272260.344 6    229165.895 6    171308.46148  22272258.70348
  20705067.391 7   -181419.543 7   -128596.03949  20705064.63349
  21307303.086 7     17047.113 7     11546.87949  21307303.37149
  21182557.672 6   -635763.719 6   -452195.25849  21182557.73849
  21899872.414 6    -62345.625 6    -44103.75048  21899869.88748
 20  5 16  0 14 40.0000000  0  7G04G08G14G16G26G27G31                0.000168690
  22499810.906 6   -347719.348 6   -261434.52048  22499809.38348
  23422660.805 5   -616739.125 5   -408256.04749  23422662.62949
  22272576.500 6    230827.102 6    172602.90248  22272574.58648
  20704846.273 6   -182581.582 6   -129501.52349  20704843.39549
  21307327.414 7     17175.547 7     11646.95349  21307327.77049
  21181793.102 6   -639782.711 6   -455326.93449  21181793.32449
  21899793.352 6    -62759.656 6    -44426.37548  21899790.80148
 20  5 16  0 14 41.0000000  0  7G04G08G14G16G26G27G31                0.000167791
  22499071.898 6   -351602.926 6   -264460.68448  22499070.66848
  23421701.570 5   -621782.762 5   -412186.11749  23421702.45749
  22272892.563 6    232488.055 6    173897.15248  22272890.76248
  20704624.930 6   -183743.859 6   -130407.19549  20704622.20349
  21307351.781 7     17303.523 7     11746.67249  21307352.04349
  21181028.336 6   -643801.781 6   -458458.67249  21181028.03549
  21899714.898 6    -63174.027 6    -44749.26248  21899712.00848
 20  5 16  0 14 42.0000000  0  7G04G08G14G16G26G27G31                0.000166893
  22498332.805 6   -355486.488 6   -267486.83648  22498331.19948
  23420741.523 5   -626826.582 5   -416116.35249  23420742.39149
  22273208.352 6    234148.910 6    175191.32047  22273207.13747
  20704404.039 6   -184906.242 6   -131312.94949  20704401.24249
  21307376.148 7     17431.164 7     11846.13749  21307376.50049
  21180263.430 6   -647820.797 6   -461590.37149  21180263.19949
  21899636.203 6    -63588.625 6    -45072.32848  21899633.39848
 20  5 16  0 14 43.0000000  0  7G04G08G14G16G26G27G31                0.000165995
  22497593.344 6   -359369.938 6   -270512.89848  22497592.47348
  23419781.469 5   -631870.582 5   -420046.73849  23419782.36749
  22273524.656 6    235809.813 6    176485.52748  22273523.15648
  20704182.625 6   -186068.609 6   -132218.68849  20704179.62149
  21307400.422 7     17558.613 7     11945.44149  21307400.89549
  21179498.727 6   -651839.621 6   -464721.91849  21179498.69549
  21899557.250 6    -64003.301 6    -45395.45348  21899554.11348
 20  5 16  0 14 44.0000000  0  7G04G08G14G16G26G27G31                0.000165096
  22496854.742 6   -363253.379 6   -273538.96148  22496853.58248
  23418821.672 5   -636914.793 5   -423977.29749  23418822.77349
  22273840.617 6    237470.613 6    177779.65648  22273838.23448
  20703961.531 6   -187231.063 6   -133124.49649  20703958.40249
  21307424.586 7     17685.734 7     12044.49649  21307425.15249
  21178733.953 6   -655858.352 6   -467853.39849  21178733.88349
  21899478.125 6    -64418.133 6    -45718.70348  21899475.00048
 20  5 16  0 14 45.0000000  0  7G04G08G14G16G26G27G31                0.000164196
  22496115.555 6   -367136.738 6   -276564.94947  22496114.43047
  23417862.164 5   -641959.168 5   -427907.98849  23417862.75449
  22274157.109 6    239131.418 6    179073.78947  22274154.97747
  20703740.344 7   -188393.520 7   -134030.30949  20703737.34049
  21307448.547 7     17812.660 7     12143.40249  21307449.00049
  21177969.203 6   -659876.945 6   -470984.77349  21177969.08249
  21899399.039 6    -64833.129 6    -46042.07848  21899396.25448
 20  5 16  0 14 46.0000000  0  7G04G08G14G16G26G27G31                0.000163298
  22495376.805 6   -371019.898 6   -279590.80147  22495375.77347
  23416902.289 5   -647003.602 5   -431838.71949  23416902.76249
  22274472.773 6    240792.324 6    180368.00048  22274470.86748
  20703518.906 6   -189555.887 6   -134936.04749  20703515.92649
  21307472.719 7     17939.445 7     12242.19549  21307473.11749
  21177204.633 6   -663895.270 6   -474115.93849  21177204.78149
  21899320.203 6    -65248.109 6    -46365.43848  21899317.34448
 20  5 16  0 14 47.0000000  0  7G04G08G14G16G26G27G31                0.000162397
  22494637.867 6   -374903.074 6   -282616.65247  22494636.98847
  23415942.195 5   -652048.301 5   -435769.66449  23415942.74649
  22274788.508 6    242453.105 6    181662.11747  22274786.76647
  20703297.969 6   -190718.359 6   -135841.86749  20703294.71549
  21307496.750 7     18065.895 7     12340.73049  21307496.91449
  21176439.789 6   -667913.555 6   -477247.06649  21176439.90649
  21899241.336 6    -65663.324 6    -46688.98448  21899238.49648
 20  5 16  0 14 48.0000000  0  7G04G08G14G16G26G27G31                0.000161499
  22493898.633 6   -378786.297 6   -285642.54348  22493897.74648
  23414982.641 5   -657093.297 5   -439700.82849  23414982.94549
  22275104.836 6    244113.746 6    182956.12147  22275102.93047
  20703076.945 7   -191880.992 7   -136747.81649  20703073.78549
  21307520.664 7     18191.957 7     12438.95749  21307520.94149
  21175674.969 6   -671931.805 6   -480378.17249  21175675.27349
  21899162.188 6    -66078.766 6    -47012.70348  21899159.36348
 20  5 16  0 14 49.0000000  0  7G04G08G14G16G26G27G31                0.000160599
  22493159.977 6   -382669.512 6   -288668.42248  22493158.71948
  23414022.070 5   -662138.512 5   -443632.16049  23414022.75449
  22275420.836 6    245774.316 6    184250.07048  22275419.25448
  20702855.117 6   -193043.711 6   -137653.82849  20702852.24649
  21307544.719 7     18317.762 7     12536.98449  21307545.16449
  21174910.703 6   -675949.965 6   -483509.20749  21174910.84449
  21899083.359 6    -66494.410 6    -47336.59048  21899080.19948
 20  5 16  0 14 50.0000000  0  7G04G08G14G16G26G27G31                0.000159698
  22492420.797 6   -386552.691 6   -291694.27747  22492419.57847
  23413062.500 5   -667183.914 5   -447563.64549  23413062.33649
  22275736.734 6    247434.832 6    185543.97348  22275734.89548
  20702633.945 7   -194206.496 7   -138559.89549  20702631.08649
  21307568.328 7     18443.250 7     12634.76649  21307569.07849
  21174146.109 6   -679968.027 6   -486640.16049  21174146.07449
  21899003.836 6    -66910.223 6    -47660.60248  21899001.08248
 20  5 16  0 14 51.0000000  0  7G04G08G14G16G26G27G31                0.000158798
  22491682.289 6   -390435.770 6   -294720.04747  22491680.66447
  23412101.797 5   -672229.484 5   -451495.25849  23412102.59049
  22276052.477 6    249095.352 6    186837.88748  22276050.87948
  20702412.922 7   -195369.266 7   -139465.95349  20702409.68849
  21307592.656 6     18568.516 6     12732.37149  21307592.77049
  21173381.766 6   -683985.926 6   -489770.99249  21173381.38749
  21898924.688 6    -67326.145 6    -47984.69548  21898921.73848
 20  5 16  0 14 52.0000000  0  7G04G08G14G16G26G27G31                0.000157896
  22490943.039 6   -394318.672 6   -297745.68048  22490941.88748
  23411141.766 5   -677275.109 5   -455426.91449  23411142.22749
  22276368.766 6    250755.961 6    188131.86347  22276367.06347
  20702191.461 7   -196531.965 7   -140371.95349  20702188.67249
  21307616.453 7     18693.637 7     12829.87149  21307616.62949
  21172616.906 6   -688003.578 6   -492901.63349  21172616.74649
  21898845.867 6    -67742.074 6    -48308.79748  21898842.68448
 20  5 16  0 14 53.0000000  0  7G04G08G14G16G26G27G31                0.000156996
  22490204.523 6   -398201.539 6   -300771.29748  22490202.52348
  23410181.953 5   -682320.973 5   -459358.75049  23410182.18849
  22276684.758 6    252416.480 6    189425.77347  22276683.35947
  20701970.414 6   -197694.773 6   -141278.04349  20701967.66849
  21307640.570 7     18818.449 7     12927.12949  21307640.53949
  21171852.406 6   -692021.156 6   -496032.21149  21171852.54749
  21898766.563 6    -68158.211 6    -48633.05948  21898763.48048
 20  5 16  0 14 54.0000000  0  7G04G08G14G16G26G27G31                0.000156094
  22489465.844 6   -402084.527 6   -303796.99648  22489464.11348
  23409221.328 5   -687367.219 5   -463290.89549  23409221.78149
  22277001.000 6    254076.809 6    190719.53547  22276999.03147
  20701749.039 7   -198857.766 7   -142184.26649  20701746.14849
  21307664.180 7     18942.852 7     13024.05949  21307663.79749
  21171087.727 7   -696038.773 7   -499162.82049  21171087.80949
  21898687.234 6    -68574.648 6    -48957.55948  21898684.22348
 20  5 16  0 14 55.0000000  0  7G04G08G14G16G26G27G31                0.000155193
  22488726.266 6   -405967.461 6   -306822.66847  22488725.10947
  23408260.844 5   -692413.645 5   -467223.17249  23408261.56349
  22277316.531 6    255737.090 6    192013.26247  22277314.98447
  20701527.867 7   -200020.781 7   -143090.51249  20701524.89549
  21307687.492 7     19066.988 7     13120.78949  21307687.71949
  21170323.367 7   -700056.262 7   -502293.33249  21170323.43049
  21898607.969 6    -68991.219 6    -49282.16448  21898604.96148
 20  5 16  0 14 56.0000000  0  7G04G08G14G16G26G27G31                0.000154291
  22487987.414 6   -409850.379 6   -309848.31348  22487986.23448
  23407300.719 5   -697460.289 5   -471155.61349  23407301.06349
  22277632.711 6    257397.285 6    193306.91847  22277630.89147
  20701306.484 7   -201183.906 7   -143996.84849  20701303.80949
  21307710.836 7     19190.828 7     13217.28949  21307710.99649
  21169558.602 6   -704073.637 6   -505423.75849  21169558.86349
  21898528.359 6    -69407.988 6    -49606.92248  21898525.77048
 20  5 16  0 14 57.0000000  0  7G04G08G14G16G26G27G31                0.000153389
  22487248.602 6   -413733.281 6   -312873.95348  22487247.75048
  23406340.594 5   -702507.160 5   -475088.24249  23406340.67649
  22277948.453 6    259057.438 6    194600.54748  22277946.93048
  20701085.039 6   -202347.102 6   -144903.22749  20701082.00849
  21307734.391 7     19314.363 7     13313.55149  21307734.78149
  21168794.227 7   -708090.941 7   -508554.12549  21168794.55949
  21898448.945 6    -69824.941 6    -49931.82048  21898446.39548
 20  5 16  0 14 58.0000000  0  7G04G08G14G16G26G27G31                0.000152487
  22486509.273 5   -417616.039 5   -315899.47747  22486508.63747
  23405379.758 5   -707554.156 5   -479020.96949  23405380.25049
  22278264.539 6    260717.582 6    195894.16847  22278262.67647
  20700863.797 7   -203510.273 7   -145809.59049  20700860.54749
  21307758.250 7     19437.676 7     13409.63749  21307758.20349
  21168029.688 6   -712108.059 6   -511684.34449  21168029.77749
  21898369.750 6    -70241.980 6    -50256.78548  21898367.05948
 20  5 16  0 14 59.0000000  0  7G04G08G14G16G26G27G31                0.000151585
  22485770.586 5   -421498.805 5   -318925.01648  22485770.00048
  23404418.719 5   -712601.406 5   -482953.89849  23404419.96149
  22278579.945 6    262377.660 6    197187.73048  22278578.31348
  20700642.477 7   -204673.547 7   -146716.04349  20700639.48449
  21307781.359 6     19560.715 6     13505.51249  21307781.37549
  21167265.609 7   -716125.113 7   -514814.51649  21167265.66049
  21898290.633 6    -70659.199 6    -50581.89148  21898287.87548
 20  5 16  0 15  0.0000000  0  7G04G08G14G16G26G27G31                0.000150681
  22485031.852 6   -425381.539 6   -321950.51647  22485030.88347
  23403459.164 5   -717648.809 5   -486886.93849  23403459.32449
  22278896.125 6    264037.652 6    198481.23047  22278894.57047
  20700421.156 7   -205836.898 7   -147622.55949  20700417.95349
  21307804.617 6     19683.438 6     13601.13749  21307804.87149
  21166501.133 7   -720142.055 7   -517944.60249  21166500.94149
  21898211.031 6    -71076.590 6    -50907.13348  21898208.12548
 20  5 16  0 15  1.0000000  0  7G04G08G14G16G26G27G31                0.000149778
  22484293.477 6   -429264.180 6   -324975.94947  22484291.99247
  23402498.570 5   -722696.402 5   -490820.12949  23402498.70349
  22279212.094 6    265697.629 6    199774.71147  22279210.22347
  20700199.750 7   -207000.258 7   -148529.07049  20700196.61349
  21307827.969 6     19805.918 6     13696.57849  21307827.91849
  21165736.500 7   -724158.844 7   -521074.56349  21165736.29349
  21898131.719 6    -71494.121 6    -51232.48448  21898128.47748
 20  5 16  0 15  2.0000000  0  7G04G08G14G16G26G27G31                0.000148874
  22483554.703 6   -433146.969 6   -328001.50448  22483553.77748
  23401537.695 5   -727744.371 5   -494753.60949  23401538.00849
  22279527.820 6    267357.402 6    201068.03948  22279526.29748
  20699978.344 7   -208163.836 7   -149435.75849  20699975.30949
  21307851.203 7     19927.980 7     13791.68849  21307851.50049
  21164972.336 7   -728175.676 7   -524204.56649  21164972.32449
  21898051.953 6    -71911.957 6    -51558.07848  21898049.16848
 20  5 16  0 15  3.0000000  0  7G04G08G14G16G26G27G31                0.000147972
  22482815.609 6   -437029.707 6   -331027.01647  22482814.76247
  23400577.344 5   -732792.531 5   -498687.23849  23400577.72749
  22279843.641 6    269017.086 6    202361.30147  22279841.98047
  20699756.742 7   -209327.516 7   -150342.52349  20699753.89849
  21307874.273 7     20049.715 7     13886.54749  21307874.24649
  21164208.094 7   -732192.441 7   -527334.51249  21164207.97349
  21897972.563 6    -72329.996 6    -51883.82048  21897969.35948
 20  5 16  0 15  4.0000000  0  7G04G08G14G16G26G27G31                0.000147068
  22482076.680 5   -440912.480 5   -334052.55948  22482075.50848
  23399616.734 5   -737840.973 5   -502621.08249  23399616.64149
  22280159.164 6    270676.648 6    203654.46547  22280157.70347
  20699534.953 7   -210491.289 7   -151249.35949  20699532.31649
  21307897.438 7     20171.113 7     13981.13749  21307897.71549
  21163443.648 6   -736209.156 6   -530464.42249  21163443.37949
  21897893.266 6    -72748.266 6    -52209.74648  21897889.85948
 20  5 16  0 15  5.0000000  0  7G04G08G14G16G26G27G31                0.000146164
  22481337.766 6   -444795.246 6   -337078.08647  22481336.73047
  23398656.383 5   -742889.621 5   -506555.09049  23398656.29749
  22280475.414 6    272336.125 6    204947.56647  22280473.41847
  20699313.875 7   -211655.172 7   -152156.27349  20699310.93849
  21307920.523 7     20292.199 7     14075.48849  21307920.62149
  21162679.078 6   -740225.766 6   -533594.25049  21162679.31349
  21897813.516 6    -73166.691 6    -52535.79748  21897810.11348
 20  5 16  0 15  6.0000000  0  7G04G08G14G16G26G27G31                0.000145258
  22480598.695 6   -448677.906 6   -340103.54347  22480597.77047
  23397695.023 5   -747938.461 5   -510489.25449  23397695.41049
  22280791.266 6    273995.609 6    206240.66847  22280789.50847
  20699092.484 7   -212819.043 7   -153063.19149  20699089.57849
  21307943.586 7     20413.074 7     14169.68049  21307943.75849
  21161915.172 7   -744242.250 7   -536723.97749  21161914.96549
  21897733.695 6    -73585.234 6    -52861.93448  21897730.87548
 20  5 16  0 15  7.0000000  0  7G04G08G14G16G26G27G31                0.000144354
  22479860.242 6   -452560.543 6   -343128.96947  22479858.68447
  23396734.484 5   -752987.512 5   -514423.58249  23396734.73049
  22281106.727 6    275655.031 6    207533.71947  22281105.15247
  20698870.703 7   -213982.996 7   -153970.16449  20698867.77749
  21307966.688 7     20533.660 7     14263.64549  21307966.68049
  21161151.172 6   -748258.598 6   -539853.59849  21161150.83649
  21897653.922 6    -74003.977 6    -53188.22748  21897650.92248
 20  5 16  0 15  8.0000000  0  7G04G08G14G16G26G27G31                0.000143450
  22479121.219 6   -456442.988 6   -346154.25448  22479120.03948
  23395773.617 5   -758036.641 5   -518357.96549  23395774.06649
  22281422.453 6    277314.527 6    208826.82847  22281420.87547
  20698649.344 7   -215146.891 7   -154877.09849  20698646.42249
  21307989.383 7     20654.066 7     14357.46949  21307989.44549
  21160386.656 6   -752274.703 6   -542983.03149  21160386.40249
  21897574.367 6    -74422.758 6    -53514.55548  21897571.71148
 20  5 16  0 15  9.0000000  0  7G04G08G14G16G26G27G31                0.000142544
  22478382.594 6   -460325.508 6   -349179.58247  22478381.53147
  23394812.914 5   -763086.047 5   -522292.57049  23394812.65649
  22281738.758 6    278973.852 6    210119.80947  22281736.59847
  20698428.188 7   -216310.918 7   -155784.13349  20698424.90249
  21308012.313 6     20774.133 6     14451.02349  21308012.68849
  21159622.109 6   -756290.813 6   -546112.46949  21159621.90649
  21897494.648 6    -74841.781 6    -53841.06348  21897491.68448
 20  5 16  0 15 10.0000000  0  7G04G08G14G16G26G27G31                0.000141638
  22477643.266 6   -464207.988 6   -352204.89547  22477642.57847
  23393851.484 5   -768135.703 5   -526227.36349  23393851.71549
  22282054.117 6    280633.121 6    211412.74647  22282052.10947
  20698206.586 7   -217475.035 7   -156691.24249  20698203.24649
  21308035.164 7     20893.879 7     14544.32849  21308035.52749
  21158857.883 6   -760306.813 6   -549241.81649  21158857.68049
  21897415.078 6    -75260.949 6    -54167.69548  21897411.59048
 20  5 16  0 15 11.0000000  0  7G04G08G14G16G26G27G31                0.000140732
  22476904.758 6   -468090.316 6   -355230.08648  22476903.54748
  23392890.383 5   -773185.422 5   -530162.21149  23392891.18449
  22282370.203 6    282292.457 6    212705.73447  22282368.23447
  20697984.805 7   -218639.086 7   -157598.29349  20697982.08649
  21308058.188 7     21013.445 7     14637.49649  21308058.10549
  21158093.813 6   -764322.633 6   -552371.02749  21158093.54749
  21897335.195 6    -75680.211 6    -54494.39148  21897332.01648
 20  5 16  0 15 12.0000000  0  7G04G08G14G16G26G27G31                0.000139826
  22476165.859 6   -471972.824 6   -358255.41848  22476165.27348
  23391929.625 5   -778235.551 5   -534097.37549  23391930.14149
  22282685.813 6    283951.512 6    213998.50447  22282683.77047
  20697763.477 7   -219803.430 7   -158505.57449  20697760.61749
  21308081.086 7     21132.563 7     14730.31649  21308080.50849
  21157329.523 6   -768338.520 6   -555500.28549  21157329.72749
  21897255.258 6    -76099.801 6    -54821.34848  21897252.04348
 20  5 16  0 15 13.0000000  0  7G04G08G14G16G26G27G31                0.000138920
  22475427.383 6   -475855.305 6   -361280.73447  22475426.17647
  23390968.758 5   -783285.906 5   -538032.72349  23390969.19149
  22283000.828 6    285610.504 6    215291.21947  22282999.40247
  20697541.625 7   -220967.836 7   -159412.90649  20697538.67649
  21308103.367 7     21251.352 7     14822.87949  21308103.19149
  21156565.414 6   -772354.309 6   -558629.47349  21156565.38349
  21897175.313 6    -76519.594 6    -55148.46148  21897172.60948
 20  5 16  0 15 14.0000000  0  7G04G08G14G16G26G27G31                0.000138014
  22474688.078 6   -479737.617 6   -364305.91848  22474687.47348
  23390007.336 5   -788336.355 5   -541968.13749  23390007.63349
  22283316.867 6    287269.527 6    216583.96547  22283315.17647
  20697319.758 7   -222132.191 7   -160320.19549  20697316.97349
  21308125.672 7     21369.980 7     14915.31649  21308125.66049
  21155801.281 7   -776369.883 7   -561758.49649  21155801.10949
  21897095.281 6    -76939.441 6    -55475.61748  21897092.50848
 20  5 16  0 15 15.0000000  0  7G04G08G14G16G26G27G31                0.000137108
  22473949.438 6   -483619.828 6   -367331.01247  22473948.43447
  23389046.758 5   -793386.965 5   -545903.67649  23389046.73849
  22283632.719 6    288928.594 6    217876.74247  22283631.03147
  20697098.461 7   -223296.551 7   -161227.48849  20697095.41849
  21308148.031 7     21488.398 7     15007.58249  21308148.39849
  21155037.547 6   -780385.289 6   -564887.38349  21155036.85949
  21897015.625 6    -77359.367 6    -55802.82848  21897012.73048
 20  5 16  0 15 16.0000000  0  7G04G08G14G16G26G27G31                0.000136200
  22473210.961 6   -487501.859 6   -370355.96948  22473210.00448
  23388085.125 5   -798437.609 5   -549839.23849  23388085.90649
  22283947.719 6    290587.727 6    219169.57047  22283946.59047
  20696877.016 7   -224460.809 7   -162134.70349  20696874.19149
  21308170.594 7     21606.676 7     15099.75449  21308170.93449
  21154272.984 6   -784400.430 6   -568016.06349  21154273.37549
  21896935.625 6    -77779.324 6    -56130.07448  21896932.64848
 20  5 16  0 15 17.0000000  0  7G04G08G14G16G26G27G31                0.000135294
  22472471.742 6   -491383.836 6   -373380.87948  22472471.11348
  23387123.742 5   -803488.441 5   -553774.95349  23387124.92649
  22284264.313 6    292246.809 6    220462.36747  22284262.45747
  20696655.703 7   -225625.129 7   -163041.96149  20696652.50449
  21308193.180 7     21724.684 7     15191.70749  21308193.55549
  21153509.234 6   -788415.430 6   -571144.63749  21153509.10549
  21896855.766 6    -78199.422 6    -56457.42248  21896852.69148
 20  5 16  0 15 18.0000000  0  7G04G08G14G16G26G27G31                0.000134386
  22471733.133 6   -495265.746 6   -376405.74247  22471732.36747
  23386163.094 5   -808539.527 5   -557710.85948  23386163.12148
  22284580.031 6    293905.871 6    221755.13747  22284578.19947
  20696434.156 6   -226789.484 6   -163949.25849  20696431.13349
  21308215.594 6     21842.422 6     15283.45349  21308215.68049
  21152745.086 6   -792430.348 6   -574273.14549  21152745.14549
  21896775.438 6    -78619.711 6    -56784.92248  21896772.60948
 20  5 16  0 15 19.0000000  0  7G04G08G14G16G26G27G31                0.000133478
  22470994.781 6   -499147.477 6   -379430.46548  22470993.77748
  23385201.430 5   -813590.637 5   -561646.78549  23385202.25049
  22284895.602 6    295564.961 6    223047.92647  22284893.74247
  20696212.148 6   -227953.809 6   -164856.52349  20696209.26649
  21308238.109 7     21959.992 7     15375.06349  21308238.34049
  21151981.281 6   -796445.000 6   -577401.43849  21151980.89849
  21896695.531 6    -79040.012 6    -57112.43048  21896692.55548
 20  5 16  0 15 20.0000000  0  7G04G08G14G16G26G27G31                0.000132570
  22470256.641 6   -503029.203 6   -382455.18848  22470255.06348
  23384239.883 5   -818641.953 5   -565582.87948  23384240.99248
  22285211.477 6    297224.027 6    224340.69947  22285209.56347
  20695990.594 6   -229118.180 6   -165763.82849  20695987.74649
  21308260.250 7     22077.293 7     15466.46149  21308260.55949
  21151217.117 6   -800459.574 6   -580529.67649  21151217.05149
  21896615.758 6    -79460.477 6    -57440.07048  21896612.57848
 20  5 16  0 15 21.0000000  0  7G04G08G14G16G26G27G31                0.000131662
  22469517.453 6   -506911.016 6   -385479.98047  22469516.21147
  23383279.188 5   -823693.645 5   -569519.26248  23383279.22348
  22285526.859 6    298882.859 6    225633.30147  22285525.12547
  20695768.984 6   -230282.762 6   -166671.28949  20695766.13349
  21308282.398 7     22194.141 7     15557.50449  21308282.71149
  21150452.953 6   -804474.152 6   -583657.91449  21150453.12949
  21896535.664 6    -79881.219 6    -57767.91848  21896532.37948
 20  5 16  0 15 22.0000000  0  7G04G08G14G16G26G27G31                0.000130754
  22468778.883 6   -510792.793 6   -388504.74248  22468777.86748
  23382317.773 5   -828745.480 5   -573455.75048  23382318.42248
  22285842.586 6    300541.664 6    226925.87147  22285840.46147
  20695547.555 7   -231447.398 7   -167578.80149  20695544.64849
  21308304.727 7     22310.746 7     15648.36349  21308305.09849
  21149688.891 6   -808488.629 6   -586786.08249  21149689.04349
  21896455.602 6    -80302.160 6    -58095.93048  21896452.47748
 20  5 16  0 15 23.0000000  0  7G04G08G14G16G26G27G31                0.000129847
  22468040.070 6   -514674.566 6   -391529.50848  22468039.08648
  23381356.039 5   -833797.605 5   -577392.46948  23381356.71148
  22286158.234 6    302200.336 6    228218.34047  22286156.33247
  20695325.930 7   -232612.160 7   -168486.41049  20695323.10949
  21308326.898 7     22426.988 7     15738.94149  21308326.94949
  21148925.453 7   -812503.051 7   -589914.19949  21148925.52349
  21896375.102 6    -80723.301 6    -58424.09448  21896372.13748
 20  5 16  0 15 24.0000000  0  7G04G08G14G16G26G27G31                0.000128937
  22467301.250 6   -518556.211 6   -394554.17247  22467300.01247
  23380395.031 5   -838849.836 5   -581329.27048  23380395.34848
  22286474.219 6    303859.063 6    229510.84848  22286472.08648
  20695104.102 7   -233776.895 7   -169393.99649  20695101.23049
  21308348.961 7     22543.063 7     15829.38749  21308349.24249
  21148161.617 6   -816517.246 6   -593042.14149  21148161.41449
  21896295.359 6    -81144.500 6    -58752.30548  21896292.33648
 20  5 16  0 15 25.0000000  0  7G04G08G14G16G26G27G31                0.000128027
  22466562.703 6   -522437.746 6   -397578.73848  22466561.53148
  23379433.477 5   -843902.188 5   -585266.17248  23379434.05948
  22286789.047 6    305517.793 6    230803.36748  22286787.70748
  20694882.555 7   -234941.609 7   -170301.55949  20694879.34449
  21308371.313 7     22658.918 7     15919.66849  21308371.43449
  21147397.781 6   -820531.301 6   -596169.98049  21147397.52349
  21896215.016 6    -81565.777 6    -59080.57448  21896212.12148
 20  5 16  0 15 26.0000000  0  7G04G08G14G16G26G27G31                0.000127119
  22465824.203 6   -526319.156 6   -400603.21948  22465822.80948
  23378472.719 5   -848954.684 5   -589203.18048  23378472.64848
  22287105.281 6    307176.551 6    232095.90648  22287103.48848
  20694661.000 7   -236106.309 7   -171209.12549  20694657.57449
  21308393.125 7     22774.570 7     16009.78149  21308393.35249
  21146633.727 6   -824545.125 6   -599297.63749  21146633.67249
  21896134.945 6    -81987.195 6    -59408.94948  21896131.81648
 20  5 16  0 15 27.0000000  0  7G04G08G14G16G26G27G31                0.000126209
  22465085.711 6   -530200.625 6   -403627.73048  22465084.34848
  23377510.742 5   -854007.438 5   -593140.39548  23377511.12548
  22287420.781 6    308835.137 6    233388.30947  22287418.78147
  20694439.531 7   -237271.184 7   -172116.82049  20694436.38749
  21308414.992 7     22889.844 7     16099.60249  21308415.14849
  21145869.984 6   -828558.977 6   -602425.31349  21145869.99649
  21896054.891 6    -82408.844 6    -59737.50848  21896051.80548
 20  5 16  0 15 28.0000000  0  7G04G08G14G16G26G27G31                0.000125299
  22464347.383 6   -534082.082 6   -406652.24647  22464345.86747
  23376548.609 5   -859060.473 5   -597077.82448  23376549.67248
  22287737.039 6    310493.645 6    234680.64547  22287734.47347
  20694217.516 7   -238436.129 7   -173024.57449  20694215.19549
  21308436.672 7     23004.793 7     16189.17249  21308436.95349
  21145106.281 6   -832572.711 6   -605552.89549  21145106.21149
  21895973.992 6    -82830.664 6    -60066.20348  21895971.00448
 20  5 16  0 15 29.0000000  0  7G04G08G14G16G26G27G31                0.000124390
  22463608.023 6   -537963.539 6   -409676.75447  22463606.97747
  23375587.727 5   -864113.754 5   -601015.44548  23375588.23448
  22288051.891 6    312152.035 6    235972.90248  22288050.28148
  20693996.117 7   -239601.207 7   -173932.42649  20693992.81649
  21308458.555 7     23119.410 7     16278.48849  21308459.35949
  21144342.500 6   -836586.402 6   -608680.44949  21144342.68849
  21895893.977 6    -83252.727 6    -60395.08248  21895891.06648
 20  5 16  0 15 30.0000000  0  7G04G08G14G16G26G27G31                0.000123478
  22462870.031 6   -541844.801 6   -412701.11748  22462868.80148
  23374625.883 5   -869167.051 5   -604953.07848  23374626.40648
  22288368.180 6    313810.543 6    237265.24247  22288366.19547
  20693774.016 7   -240766.176 7   -174840.18449  20693771.22749
  21308480.500 7     23233.926 7     16367.71549  21308480.74249
  21143578.828 6   -840599.801 6   -611807.77349  21143578.79749
  21895813.438 6    -83674.773 6    -60723.95748  21895810.76248
 20  5 16  0 15 31.0000000  0  7G04G08G14G16G26G27G31                0.000122568
  22462131.031 6   -545725.945 6   -415725.38748  22462129.88748
  23373664.195 5   -874220.535 5   -608890.85248  23373664.67648
  22288683.609 6    315469.031 6    238557.57047  22288681.55547
  20693552.320 7   -241931.145 7   -175747.95749  20693549.44949
  21308501.656 7     23348.207 7     16456.76649  21308502.41049
  21142814.875 6   -844613.051 6   -614934.97749  21142815.27349
  21895733.180 6    -84096.906 6    -61052.89148  21895730.60548
 20  5 16  0 15 32.0000000  0  7G04G08G14G16G26G27G31                0.000121656
  22461392.984 6   -549606.984 6   -418749.57848  22461391.48048
  23372702.750 5   -879274.141 5   -612828.72348  23372702.87148
  22288999.102 6    317127.547 6    239849.92247  22288997.04747
  20693330.609 7   -243096.109 7   -176655.72349  20693327.70749
  21308523.719 7     23462.266 7     16545.64149  21308524.48849
  21142051.109 6   -848626.121 6   -618062.04749  21142051.59849
  21895652.953 6    -84519.156 6    -61381.92248  21895649.94948
 20  5 16  0 15 33.0000000  0  7G04G08G14G16G26G27G31                0.000120747
  22460654.070 6   -553487.984 6   -421773.73048  22460652.86348
  23371740.539 5   -884327.910 5   -616766.72748  23371741.19148
  22289314.766 6    318786.000 6    241142.22347  22289312.72747
  20693109.063 7   -244261.121 7   -177563.52749  20693105.98449
  21308545.555 7     23576.051 7     16634.30949  21308545.79749
  21141287.688 6   -852639.063 6   -621189.01249  21141287.55549
  21895572.633 6    -84941.559 6    -61711.06348  21895569.79348
 20  5 16  0 15 34.0000000  0  7G04G08G14G16G26G27G31                0.000119835
  22459915.563 6   -557368.871 6   -424797.80147  22459914.16847
  23370778.930 5   -889381.844 5   -620704.85248  23370779.88748
  22289630.172 6    320444.441 6    242434.50847  22289628.49247
  20692887.484 7   -245426.180 7   -178471.36749  20692884.36349
  21308566.891 7     23689.590 7     16722.77749  21308567.57849
  21140523.852 6   -856651.859 6   -624315.87549  21140524.20749
  21895492.203 6    -85364.102 6    -62040.32448  21895489.15648
 20  5 16  0 15 35.0000000  0  7G04G08G14G16G26G27G31                0.000118923
  22459177.281 6   -561249.629 6   -427821.76247  22459175.57047
  23369817.078 5   -894435.852 5   -624643.03948  23369817.75848
  22289945.586 6    322102.945 6    243726.84447  22289943.80947
  20692665.516 7   -246591.152 7   -179379.13749  20692662.87549
  21308588.992 7     23803.000 7     16811.14849  21308588.97749
  21139760.406 6   -860664.410 6   -627442.53549  21139760.28549
  21895412.078 6    -85786.641 6    -62369.57448  21895408.76648
 20  5 16  0 15 36.0000000  0  7G04G08G14G16G26G27G31                0.000118011
  22458439.047 6   -565130.242 6   -430845.62147  22458437.37947
  23368855.227 5   -899489.934 5   -628581.28549  23368855.68849
  22290261.234 6    323761.465 6    245019.19147  22290259.27047
  20692444.109 7   -247756.121 7   -180286.90249  20692441.12949
  21308610.313 7     23916.172 7     16899.34049  21308610.80949
  21138996.898 6   -864676.797 6   -630569.06649  21138996.61749
  21895331.289 6    -86209.281 6    -62698.90648  21895328.25848
 20  5 16  0 15 37.0000000  0  7G04G08G14G16G26G27G31                0.000117102
  22457700.023 6   -569010.789 6   -433869.42248  22457699.01648
  23367893.516 5   -904544.242 5   -632519.71148  23367894.52748
  22290576.953 6    325419.938 6    246311.51647  22290574.88747
  20692222.438 7   -248921.125 7   -181194.69949  20692219.37949
  21308631.680 7     24029.086 7     16987.32049  21308632.13349
  21138233.023 6   -868689.008 6   -633695.46949  21138233.69549
  21895251.063 6    -86632.059 6    -63028.34448  21895247.96948
 20  5 16  0 15 38.0000000  0  7G04G08G14G16G26G27G31                0.000116188
  22456961.617 6   -572891.254 6   -436893.16447  22456960.85247
  23366931.938 5   -909598.730 5   -636458.26648  23366932.55948
  22290892.219 6    327078.414 6    247603.83247  22290890.35247
  20692000.836 7   -250086.160 7   -182102.51649  20691997.46949
  21308653.148 7     24141.773 7     17075.12549  21308653.58249
  21137469.984 6   -872701.098 6   -636821.77049  21137470.18849
  21895170.414 6    -87054.949 6    -63357.87148  21895167.20348
 20  5 16  0 15 39.0000000  0  7G04G08G14G16G26G27G31                0.000115276
  22456223.906 6   -576771.602 6   -439916.81347  22456222.13347
  23365969.711 5   -914653.344 5   -640396.92648  23365970.53148
  22291208.219 6    328736.875 6    248896.14147  22291206.35247
  20691778.867 7   -251251.191 7   -183010.34049  20691776.00049
  21308674.594 7     24254.230 7     17162.75849  21308674.65649
  21136706.609 6   -876712.969 6   -639947.90249  21136706.88349
  21895089.906 6    -87477.949 6    -63687.48448  21895086.68448
 20  5 16  0 15 40.0000000  0  7G04G08G14G16G26G27G31                0.000114365
  22455485.117 6   -580651.805 6   -442940.34448  22455483.80548
  23365007.867 5   -919708.023 5   -644335.63748  23365008.85548
  22291523.547 6    330395.395 6    250188.49247  22291522.10247
  20691557.398 7   -252416.168 7   -183918.11349  20691554.36749
  21308696.063 7     24366.539 7     17250.27049  21308696.60549
  21135943.188 6   -880724.676 6   -643073.91449  21135943.03549
  21895009.570 6    -87900.996 6    -64017.12948  21895006.85548
 20  5 16  0 15 41.0000000  0  7G04G08G14G16G26G27G31                0.000113451
  22454746.477 6   -584531.875 6   -445963.77748  22454745.46948
  23364046.320 5   -924762.785 5   -648274.41048  23364046.79348
  22291839.344 6    332053.965 6    251480.87947  22291837.39847
  20691335.383 7   -253581.098 7   -184825.84849  20691332.41449
  21308717.469 7     24478.652 7     17337.63349  21308718.09849
  21135179.688 6   -884736.129 6   -646199.72349  21135179.97749
  21894928.844 6    -88324.102 6    -64346.82848  21894925.82848
 20  5 16  0 15 42.0000000  0  7G04G08G14G16G26G27G31                0.000112537
  22454008.406 6   -588411.898 6   -448987.18048  22454007.33248
  23363084.570 5   -929817.750 5   -652213.34048  23363084.85548
  22292154.789 6    333712.434 6    252773.18847  22292153.13747
  20691113.930 6   -254746.137 6   -185733.67649  20691111.15249
  21308738.516 7     24590.457 7     17424.75449  21308739.01249
  21134416.383 6   -888747.500 6   -649325.46949  21134416.35249
  21894848.281 6    -88747.391 6    -64676.66448  21894845.13748
 20  5 16  0 15 43.0000000  0  7G04G08G14G16G26G27G31                0.000111626
  22453269.734 6   -592291.773 6   -452010.45348  22453268.85248
  23362122.234 5   -934872.863 5   -656152.39548  23362122.94948
  22292470.883 6    335370.984 6    254065.56647  22292468.84847
  20690892.016 7   -255911.090 7   -186641.43449  20690889.32449
  21308759.578 6     24702.094 6     17511.73849  21308760.14149
  21133653.039 6   -892758.660 6   -652451.03949  21133653.01249
  21894767.898 6    -89170.715 6    -65006.52748  21894764.96548
 20  5 16  0 15 44.0000000  0  7G04G08G14G16G26G27G31                0.000110712
  22452531.219 6   -596171.426 6   -455033.56347  22452530.62947
  23361160.102 5   -939927.984 5   -660091.44548  23361161.21948
  22292786.141 6    337029.621 6    255358.00847  22292784.14147
  20690670.453 7   -257075.977 7   -187549.13749  20690667.52749
  21308780.969 6     24813.621 6     17598.64149  21308781.59049
  21132889.922 6   -896769.508 6   -655576.38349  21132889.63349
  21894687.430 6    -89594.059 6    -65336.40648  21894684.70348
 20  5 16  0 15 45.0000000  0  7G04G08G14G16G26G27G31                0.000109798
  22451793.469 6   -600051.156 6   -458056.72347  22451792.12547
  23360198.516 5   -944983.406 5   -664030.73448  23360199.16448
  22293102.063 6    338688.098 6    256650.33247  22293099.77047
  20690449.203 7   -258241.020 7   -188456.96549  20690446.12949
  21308801.852 6     24924.754 6     17685.23849  21308802.44149
  21132126.508 6   -900780.383 6   -658701.73849  21132126.51649
  21894606.570 6    -90017.645 6    -65666.47748  21894603.75448
 20  5 16  0 15 46.0000000  0  7G04G08G14G16G26G27G31                0.000108885
  22451055.102 6   -603930.934 6   -461079.92648  22451053.79748
  23359236.461 5   -950039.117 5   -667970.25048  23359237.34848
  22293417.203 6    340346.410 6    257942.52047  22293415.42247
  20690227.047 7   -259406.199 7   -189364.89849  20690224.10249
  21308823.133 6     25035.512 6     17771.54749  21308823.90249
  21131363.148 6   -904791.211 6   -661827.05949  21131363.43049
  21894526.000 6    -90441.504 6    -65996.75448  21894522.95348
 20  5 16  0 15 47.0000000  0  7G04G08G14G16G26G27G31                0.000107971
  22450317.070 6   -607810.746 6   -464103.16047  22450315.61347
  23358274.047 5   -955095.176 5   -671910.03548  23358275.10548
  22293732.609 6    342004.590 6    259234.60947  22293730.83647
  20690005.188 7   -260571.570 7   -190272.97749  20690002.48449
  21308844.047 6     25145.883 6     17857.54749  21308844.66849
  21130600.063 7   -908802.039 7   -664952.37549  21130600.19149
  21894445.242 6    -90865.621 6    -66327.23848  21894442.25048
 20  5 16  0 15 48.0000000  0  7G04G08G14G16G26G27G31                0.000107056
  22449579.148 6   -611690.293 6   -467126.18448  22449577.48848
  23357311.586 5   -960151.142 5   -675849.75048  23357312.65248
  22294047.953 6    343662.930 6    260526.82048  22294046.26648
  20689783.547 7   -261736.746 7   -191180.90649  20689780.60549
  21308865.227 6     25256.219 6     17943.52349  21308865.85549
  21129836.891 6   -912812.504 6   -668077.41849  21129837.00449
  21894364.484 6    -91289.664 6    -66657.66048  21894361.86748
 20  5 16  0 15 49.0000000  0  7G04G08G14G16G26G27G31                0.000106142
  22448840.414 6   -615569.773 6   -470149.16048  22448839.62548
  23356349.938 5   -965207.340 5   -679789.64148  23356350.52048
  22294364.148 6    345321.211 6    261818.98048  22294362.25048
  20689562.039 7   -262901.973 7   -192088.87549  20689559.10949
  21308886.406 7     25366.285 7     18029.28949  21308886.38349
  21129074.016 6   -916822.832 6   -671202.35249  21129073.76649
  21894283.781 6    -91713.840 6    -66988.19148  21894281.29748
 20  5 16  0 15 50.0000000  0  7G04G08G14G16G26G27G31                0.000105227
  22448102.063 5   -619449.223 5   -473172.10948  22448100.98048
  23355388.086 5   -970263.727 5   -683729.68048  23355388.64848
  22294679.633 6    346979.441 6    263111.10548  22294678.09048
  20689340.281 7   -264067.293 7   -192996.91449  20689337.21149
  21308907.133 7     25476.055 7     18114.82049  21308907.36749
  21128310.914 6   -920833.105 6   -674327.23849  21128310.76249
  21894203.008 6    -92138.219 6    -67318.87548  21894199.94548
 20  5 16  0 15 51.0000000  0  7G04G08G14G16G26G27G31                0.000104313
  22447363.742 6   -623328.668 6   -476195.05148  22447362.78948
  23354424.938 5   -975320.352 5   -687669.90648  23354426.46548
  22294995.055 6    348637.543 6    264403.13747  22294993.20347
  20689118.156 7   -265232.707 7   -193905.03149  20689115.79349
  21308927.875 7     25585.492 7     18200.09849  21308928.40649
  21127547.734 6   -924843.250 6   -677452.02749  21127547.73449
  21894122.672 6    -92562.766 6    -67649.69148  21894119.34848
 20  5 16  0 15 52.0000000  0  7G04G08G14G16G26G27G31                0.000103397
  22446625.477 6   -627208.063 6   -479217.94548  22446624.28948
  23353463.398 5   -980377.125 5   -691610.24648  23353464.02748
  22295311.070 6    350295.652 6    265695.17248  22295308.82448
  20688896.531 7   -266398.148 7   -194813.16849  20688893.89149
  21308948.781 7     25694.695 7     18285.18849  21308949.09049
  21126784.641 6   -928853.289 6   -680576.73049  21126784.94949
  21894041.398 6    -92987.449 6    -67980.61748  21894038.61348
 20  5 16  0 15 53.0000000  0  7G04G08G14G16G26G27G31                0.000102482
  22445887.234 6   -631087.227 6   -482240.67647  22445885.89847
  23352499.977 5   -985434.020 5   -695550.68848  23352501.89148
  22295625.906 6    351953.816 6    266987.24248  22295624.69948
  20688674.898 7   -267563.527 7   -195721.25449  20688671.90249
  21308969.586 6     25803.734 6     18370.15249  21308969.50449
  21126021.383 6   -932863.059 6   -683701.22749  21126021.41049
  21893960.711 6    -93412.160 6    -68311.55948  21893957.41448
 20  5 16  0 15 54.0000000  0  7G04G08G14G16G26G27G31                0.000101566
  22445149.359 6   -634966.293 6   -485263.32048  22445148.36748
  23351538.078 5   -990490.988 5   -699491.18448  23351539.37948
  22295941.367 6    353612.004 6    268279.34048  22295939.66848
  20688453.070 7   -268728.887 7   -196629.33249  20688450.20349
  21308990.109 6     25912.570 6     18454.95749  21308990.40249
  21125258.547 6   -936872.645 6   -686825.57849  21125258.02049
  21893879.773 6    -93836.957 6    -68642.57448  21893876.82048
 20  5 16  0 15 55.0000000  0  7G04G08G14G16G26G27G31                0.000100651
  22444411.234 6   -638845.387 6   -488285.99247  22444409.92247
  23350576.016 5   -995548.273 5   -703431.92248  23350577.22748
  22296256.984 6    355270.063 6    269571.32848  22296255.06348
  20688231.211 7   -269894.371 7   -197537.50049  20688228.31649
  21309010.961 6     26021.051 6     18539.48849  21309011.14849
  21124495.438 6   -940882.168 6   -689949.88349  21124495.36349
  21893799.297 6    -94261.957 6    -68973.74248  21893796.39548
 20  5 16  0 15 56.0000000  0  7G04G08G14G16G26G27G31                0.000099733
  22443673.156 6   -642724.309 6   -491308.53548  22443671.29748
  23349614.313 5  -1000605.605 5   -707372.69949  23349614.74249
  22296572.750 6    356928.184 6    270863.36748  22296570.74248
  20688009.313 6   -271059.805 6   -198445.62949  20688006.72349
  21309031.711 6     26129.379 6     18623.90249  21309031.90649
  21123732.648 6   -944891.484 6   -693074.02749  21123732.21949
  21893718.000 6    -94687.035 6    -69304.97348  21893714.84448
 20  5 16  0 15 57.0000000  0  7G04G08G14G16G26G27G31                0.000098818
  22442934.727 6   -646603.059 6   -494330.93848  22442933.70348
  23348651.828 5  -1005663.035 5   -711313.55149  23348652.20349
  22296888.070 6    358586.359 6    272155.45347  22296885.95347
  20687787.461 6   -272225.199 6   -199353.73049  20687784.68449
  21309051.961 7     26237.531 7     18708.18449  21309052.24249
  21122969.492 6   -948900.570 6   -696197.98849  21122969.47749
  21893637.516 6    -95112.137 6    -69636.22748  21893634.52748
 20  5 16  0 15 58.0000000  0  7G04G08G14G16G26G27G31                0.000097900
  22442196.734 6   -650481.789 6   -497353.32448  22442194.99648
  23347689.383 5  -1010720.652 5   -715254.54749  23347690.05949
  22297203.820 6    360244.473 6    273447.48047  22297201.70747
  20687565.969 6   -273390.648 6   -200261.87549  20687563.00849
  21309072.766 6     26345.391 6     18792.23049  21309072.68849
  21122206.891 6   -952909.535 6   -699321.85549  21122206.78149
  21893556.102 6    -95537.410 6    -69967.59848  21893553.25848
 20  5 16  0 15 59.0000000  0  7G04G08G14G16G26G27G31                0.000096985
  22441458.742 6   -654360.258 6   -500375.50848  22441457.59048
  23346726.609 5  -1015778.289 5   -719195.56649  23346727.38349
  22297519.344 6    361902.699 6    274739.60248  22297517.57448
  20687344.281 6   -274555.996 6   -201169.93849  20687341.40649
  21309092.898 6     26453.148 6     18876.19549  21309093.21549
  21121443.984 6   -956918.188 6   -702445.48449  21121443.64549
  21893475.469 6    -95962.645 6    -70298.95748  21893472.57048
 20  5 16  0 16  0.0000000  0  7G04G08G14G16G26G27G31                0.000096067
  22440720.500 6   -658238.734 6   -503397.69548  22440719.32448
  23345764.102 5  -1020836.145 5   -723136.75049  23345765.37549
  22297834.867 6    363560.863 6    276031.66447  22297832.88347
  20687122.313 7   -275721.402 7   -202078.04749  20687119.60949
  21309113.430 6     26560.629 6     18959.94149  21309113.66849
  21120681.164 6   -960926.758 6   -705569.04349  21120680.56349
  21893394.203 6    -96388.074 6    -70630.45748  21893391.41448
 20  5 16  0 16  1.0000000  0  7G04G08G14G16G26G27G31                0.000095150
  22439982.844 6   -662117.238 6   -506419.90648  22439981.60948
  23344801.922 5  -1025894.234 5   -727078.12149  23344802.23449
  22298150.336 6    365218.844 6    277323.59847  22298148.25447
  20686900.648 6   -276886.980 6   -202986.28949  20686897.87949
  21309133.953 7     26667.723 7     19043.38749  21309134.15249
  21119918.344 6   -964935.309 6   -708692.58249  21119918.43049
  21893313.469 6    -96813.742 6    -70962.14848  21893310.81648
 20  5 16  0 16  2.0000000  0  7G04G08G14G16G26G27G31                0.000094233
  22439244.961 6   -665995.590 6   -509442.00048  22439243.37148
  23343838.930 5  -1030952.441 5   -731019.57849  23343839.88349
  22298466.109 6    366876.867 6    278615.56647  22298464.05147
  20686678.750 7   -278052.523 7   -203894.50849  20686675.79749
  21309154.117 6     26774.629 6     19126.69149  21309154.38749
  21119155.969 6   -968943.641 6   -711815.96549  21119155.61349
  21893232.352 6    -97239.492 6    -71293.90248  21893229.94548
 20  5 16  0 16  3.0000000  0  7G04G08G14G16G26G27G31                0.000093315
  22438506.969 6   -669873.719 6   -512463.92248  22438505.41048
  23342876.664 5  -1036010.668 5   -734961.05149  23342877.13349
  22298781.398 6    368535.027 6    279907.64147  22298779.25447
  20686457.125 7   -279217.938 7   -204802.62549  20686454.38749
  21309174.766 7     26881.441 7     19209.92249  21309174.33249
  21118393.008 6   -972951.660 6   -714939.09449  21118392.77749
  21893151.555 6    -97665.219 6    -71625.64548  21893148.67648
 20  5 16  0 16  4.0000000  0  7G04G08G14G16G26G27G31                0.000092398
  22437769.039 6   -673751.887 6   -515485.87548  22437767.33648
  23341914.289 5  -1041069.160 5   -738902.72749  23341914.95349
  22299096.766 6    370193.035 6    281199.59847  22299094.49647
  20686235.438 7   -280383.516 7   -205710.86749  20686232.66049
  21309194.891 7     26987.879 7     19292.85949  21309195.02749
  21117630.406 6   -976959.672 6   -718062.22349  21117630.03149
  21893070.109 6    -98091.164 6    -71957.55148  21893067.57448
 20  5 16  0 16  5.0000000  0  7G04G08G14G16G26G27G31                0.000091478
  22437030.734 6   -677629.859 6   -518507.67247  22437029.20347
  23340951.867 5  -1046127.727 5   -742844.47349  23340952.21149
  22299412.242 6    371851.152 6    282491.63347  22299410.51647
  20686013.438 7   -281549.004 7   -206619.03549  20686010.84849
  21309215.156 7     27094.195 7     19375.70749  21309215.29349
  21116867.539 6   -980967.414 6   -721185.14149  21116867.26249
  21892989.242 6    -98517.152 6    -72289.49248  21892986.29748
 20  5 16  0 16  6.0000000  0  7G04G08G14G16G26G27G31                0.000090561
  22436292.727 6   -681507.688 6   -521529.35948  22436291.60948
  23339988.852 5  -1051186.379 5   -746786.28149  23339989.44549
  22299728.039 6    373509.289 6    283783.69148  22299725.80548
  20685791.695 7   -282714.434 7   -207527.16449  20685788.73449
  21309235.313 7     27200.336 7     19458.40649  21309235.41449
  21116104.969 6   -984974.945 6   -724307.89149  21116104.62549
  21892908.344 6    -98943.152 6    -72621.43448  21892905.24248
 20  5 16  0 16  7.0000000  0  7G04G08G14G16G26G27G31                0.000089642
  22435555.078 6   -685385.258 6   -524550.83648  22435554.11748
  23339026.406 5  -1056245.031 5   -750728.08249  23339026.98449
  22300043.305 6    375167.531 6    285075.82848  22300041.40248
  20685570.125 7   -283879.742 7   -208435.19949  20685567.30549
  21309255.305 6     27306.340 6     19541.01249  21309255.86749
  21115342.477 6   -988982.152 6   -727430.38749  21115342.03549
  21892827.141 6    -99369.145 6    -72953.37948  21892824.35548
 20  5 16  0 16  8.0000000  0  7G04G08G14G16G26G27G31                0.000088724
  22434817.164 6   -689262.770 6   -527572.26647  22434816.07847
  23338064.023 5  -1061303.844 5   -754670.01249  23338064.43449
  22300359.344 6    376825.758 6    286367.94947  22300357.34847
  20685348.328 7   -285045.109 7   -209343.28549  20685345.74649
  21309275.531 7     27412.129 7     19623.44549  21309275.86749
  21114579.984 6   -992989.230 6   -730552.78549  21114579.70349
  21892746.258 6    -99795.297 6    -73285.44948  21892743.21148
 20  5 16  0 16  9.0000000  0  7G04G08G14G16G26G27G31                0.000087805
  22434079.414 6   -693140.148 6   -530593.60247  22434078.15247
  23337100.453 5  -1066362.801 5   -758612.05949  23337101.54749
  22300674.492 6    378484.016 6    287660.09847  22300672.45747
  20685126.391 7   -286210.441 7   -210251.33249  20685123.76649
  21309295.445 7     27517.688 7     19705.69949  21309295.84049
  21113817.594 6   -996996.098 6   -733675.02049  21113817.25449
  21892664.906 6   -100221.492 6    -73617.55548  21892662.67648
 20  5 16  0 16 10.0000000  0  7G04G08G14G16G26G27G31                0.000086885
  22433341.039 6   -697017.414 6   -533614.84447  22433340.19947
  23336137.563 5  -1071421.875 5   -762554.19149  23336138.56349
  22300990.320 6    380142.285 6    288952.25447  22300988.32047
  20684904.867 7   -287375.777 7   -211159.37549  20684901.85549
  21309315.867 7     27623.055 7     19787.80149  21309316.09849
  21113054.969 6  -1001002.766 6   -736797.10249  21113054.96949
  21892583.813 6   -100647.777 6    -73949.73048  21892581.21548
 20  5 16  0 16 11.0000000  0  7G04G08G14G16G26G27G31                0.000085966
  22432603.617 6   -700894.727 6   -536636.12147  22432602.08647
  23335175.172 5  -1076481.227 5   -766496.54749  23335176.19149
  22301305.617 6    381800.398 6    290244.29347  22301303.36347
  20684683.023 7   -288541.258 7   -212067.54349  20684679.61749
  21309335.602 7     27728.031 7     19869.60249  21309336.02049
  21112292.547 7  -1005009.422 7   -739919.17649  21112292.18049
  21892502.602 6   -101074.328 6    -74282.11348  21892500.16448
 20  5 16  0 16 12.0000000  0  7G04G08G14G16G26G27G31                0.000085047
  22431865.953 6   -704772.035 6   -539657.40247  22431864.56347
  23334212.828 5  -1081540.863 5   -770439.12149  23334213.34849
  22301620.992 6    383458.391 6    291536.23047  22301619.13747
  20684461.078 7   -289706.855 7   -212975.79749  20684458.01649
  21309355.883 7     27832.688 7     19951.14549  21309356.09849
  21111530.172 7  -1009016.020 7   -743041.19549  21111529.96949
  21892421.375 6   -101501.078 6    -74614.64848  21892418.80948
 20  5 16  0 16 13.0000000  0  7G04G08G14G16G26G27G31                0.000084127
  22431128.234 6   -708649.043 6   -542678.44548  22431126.36748
  23333249.727 5  -1086600.453 5   -774381.65249  23333250.51249
  22301936.688 6    385116.547 6    292828.29347  22301934.58647
  20684239.133 7   -290872.301 7   -213883.94549  20684236.39849
  21309375.852 7     27937.277 7     20032.64549  21309375.67649
  21110767.930 7  -1013022.273 7   -746162.95349  21110767.63749
  21892340.539 6   -101927.750 6    -74947.11748  21892337.29348
 20  5 16  0 16 14.0000000  0  7G04G08G14G16G26G27G31                0.000083208
  22430390.172 6   -712525.887 6   -545699.37148  22430388.94548
  23332286.641 5  -1091660.090 5   -778324.23049  23332287.93849
  22302252.398 6    386774.801 6    294120.44147  22302250.46147
  20684017.758 7   -292037.656 7   -214792.01649  20684014.73449
  21309395.539 7     28041.734 7     20114.04349  21309395.52349
  21110005.734 7  -1017028.266 7   -749284.50849  21110005.06649
  21892259.109 6   -102354.453 6    -75279.61348  21892256.36748
 20  5 16  0 16 15.0000000  0  7G04G08G14G16G26G27G31                0.000082287
  22429652.734 6   -716402.648 6   -548720.23047  22429651.03547
  23331323.672 5  -1096719.848 5   -782266.89549  23331324.82849
  22302568.063 6    388433.004 6    295412.54747  22302565.74247
  20683795.688 7   -293203.039 7   -215700.10949  20683793.08649
  21309415.211 7     28145.930 7     20195.23049  21309415.77049
  21109243.305 6  -1021034.109 6   -752405.94549  21109242.91049
  21892178.078 6   -102781.297 6    -75612.22348  21892175.44148
 20  5 16  0 16 16.0000000  0  7G04G08G14G16G26G27G31                0.000081367
  22428914.539 6   -720279.262 6   -551740.97348  22428913.56348
  23330361.898 5  -1101779.773 5   -786209.69149  23330362.05949
  22302883.852 6    390091.246 6    296704.68447  22302881.42647
  20683574.125 7   -294368.410 7   -216608.19549  20683571.33249
  21309435.156 7     28249.945 7     20276.28549  21309435.45349
  21108481.086 6  -1025039.730 6   -755527.20349  21108480.38749
  21892096.945 6   -103208.195 6    -75944.87148  21892093.84848
 20  5 16  0 16 17.0000000  0  7G04G08G14G16G26G27G31                0.000080446
  22428176.656 6   -724155.820 6   -554761.66448  22428175.62548
  23329398.109 5  -1106839.820 5   -790152.58249  23329398.70349
  22303198.852 6    391749.484 6    297996.81648  22303196.84048
  20683352.484 7   -295533.809 7   -217516.29349  20683349.53149
  21309454.945 6     28353.715 6     20357.13749  21309454.85249
  21107718.859 6  -1029045.219 6   -758648.36749  21107718.81349
  21892015.289 6   -103635.203 6    -76277.60248  21892012.65248
 20  5 16  0 16 18.0000000  0  7G04G08G14G16G26G27G31                0.000079525
  22427439.898 6   -728032.246 6   -557782.25448  22427438.02348
  23328435.406 5  -1111900.035 5   -794095.60549  23328436.09049
  22303514.398 6    393407.699 6    299288.93048  22303512.44948
  20683130.586 7   -296699.207 7   -218424.39549  20683127.71549
  21309474.406 7     28457.246 7     20437.81649  21309474.54349
  21106956.695 6  -1033050.504 6   -761769.37149  21106956.71149
  21891933.961 6   -104062.340 6    -76610.43848  21891931.30948
 20  5 16  0 16 19.0000000  0  7G04G08G14G16G26G27G31                0.000078604
  22426701.828 6   -731908.457 6   -560802.67648  22426700.50048
  23327472.445 5  -1116960.242 5   -798038.62949  23327473.22349
  22303829.922 6    395066.008 6    300581.12148  22303828.43848
  20682908.719 7   -297864.504 7   -219332.42249  20682906.14549
  21309494.344 7     28560.688 7     20518.41849  21309494.44949
  21106194.813 6  -1037055.551 6   -764890.18449  21106194.06649
  21891852.797 6   -104489.461 6    -76943.25848  21891849.94548
 20  5 16  0 16 20.0000000  0  7G04G08G14G16G26G27G31                0.000077684
  22425964.281 6   -735784.633 6   -563823.07048  22425962.98048
  23326509.820 5  -1122020.680 5   -801981.82049  23326510.76249
  22304145.859 6    396724.246 6    301873.25048  22304143.62548
  20682687.008 7   -299029.871 7   -220240.50049  20682684.39849
  21309513.664 7     28663.789 7     20598.74649  21309514.22349
  21105432.375 6  -1041060.477 6   -768010.90249  21105432.36749
  21891771.422 6   -104916.758 6    -77276.21948  21891768.78148
 20  5 16  0 16 21.0000000  0  7G04G08G14G16G26G27G31                0.000076761
  22425226.547 6   -739660.648 6   -566843.34447  22425225.28147
  23325547.156 5  -1127081.207 5   -805925.09049  23325547.60549
  22304461.406 6    398382.551 6    303165.43448  22304459.43048
  20682464.992 7   -300195.219 7   -221148.56349  20682462.37949
  21309533.406 7     28766.754 7     20678.98049  21309533.60949
  21104670.391 6  -1045065.152 6   -771131.43449  21104670.46149
  21891690.180 6   -105344.090 6    -77609.21148  21891687.41048
 20  5 16  0 16 22.0000000  0  7G04G08G14G16G26G27G31                0.000075840
  22424489.008 6   -743536.586 6   -569863.55547  22424487.49247
  23324583.734 5  -1132141.895 5   -809868.48049  23324584.35249
  22304776.852 6    400040.801 6    304457.57848  22304774.94148
  20682243.477 7   -301360.559 7   -222056.61749  20682240.46549
  21309553.102 7     28869.461 7     20759.00849  21309552.99649
  21103907.914 6  -1049069.691 6   -774251.85549  21103907.82849
  21891609.031 6   -105771.547 6    -77942.29748  21891606.19148
 20  5 16  0 16 23.0000000  0  7G04G08G14G16G26G27G31                0.000074919
  22423751.656 6   -747412.398 6   -572883.66848  22423750.04748
  23323620.719 5  -1137202.668 5   -813811.93449  23323621.04349
  22305092.508 6    401699.063 6    305749.72748  22305090.52748
  20682021.570 7   -302525.914 7   -222964.68849  20682019.36349
  21309572.453 7     28971.934 7     20838.86349  21309572.65249
  21103146.164 7  -1053074.031 7   -777372.11749  21103146.16849
  21891527.313 6   -106199.105 6    -78275.45748  21891524.65248
 20  5 16  0 16 24.0000000  0  7G04G08G14G16G26G27G31                0.000073997
  22423014.219 6   -751288.156 6   -575903.73848  22423012.54748
  23322657.492 5  -1142263.680 5   -817755.58249  23322658.25849
  22305407.680 6    403357.277 6    307041.84048  22305405.91448
  20681799.859 7   -303691.344 7   -223872.81349  20681797.49649
  21309591.828 7     29074.141 7     20918.50049  21309591.81349
  21102384.164 6  -1057078.270 6   -780492.30149  21102384.18049
  21891446.320 6   -106626.832 6    -78608.75448  21891443.06348
 20  5 16  0 16 25.0000000  0  7G04G08G14G16G26G27G31                0.000073074
  22422276.922 6   -755163.785 6   -578923.71548  22422275.26648
  23321694.273 5  -1147324.803 5   -821699.31849  23321695.11749
  22305723.781 6    405015.480 6    308333.94148  22305721.52048
  20681578.086 7   -304856.758 7   -224780.93449  20681575.25449
  21309611.117 7     29176.137 7     20997.98049  21309611.34049
  21101622.102 6  -1061082.305 6   -783612.33249  21101622.19149
  21891364.703 6   -107054.652 6    -78942.12548  21891362.06648
 20  5 16  0 16 26.0000000  0  7G04G08G14G16G26G27G31                0.000072151
  22421539.008 6   -759039.320 6   -581943.60948  22421538.01248
  23320731.586 5  -1152386.002 5   -825643.11049  23320732.31649
  22306039.148 6    406673.746 6    309626.10548  22306036.85948
  20681356.422 6   -306022.164 6   -225689.04349  20681353.41049
  21309630.711 7     29277.926 7     21077.30149  21309630.80149
  21100860.313 6  -1065086.145 6   -786732.21149  21100859.94549
  21891283.203 6   -107482.516 6    -79275.52348  21891280.84848
 20  5 16  0 16 27.0000000  0  7G04G08G14G16G26G27G31                0.000071230
  22420801.383 6   -762914.773 6   -584963.43848  22420800.29348
  23319768.188 5  -1157447.473 5   -829587.10949  23319769.03549
  22306354.555 6    408331.918 6    310918.18448  22306352.75448
  20681134.633 6   -307187.613 6   -226597.18849  20681131.77049
  21309649.992 7     29379.438 7     21156.40249  21309650.05949
  21100098.773 6  -1069089.879 6   -789852.00449  21100098.41449
  21891201.672 6   -107910.563 6    -79609.06348  21891198.94548
 20  5 16  0 16 28.0000000  0  7G04G08G14G16G26G27G31                0.000070307
  22420064.695 6   -766790.172 6   -587983.22748  22420062.76248
  23318804.742 5  -1162509.094 5   -833531.22749  23318805.85949
  22306670.102 6    409990.043 6    312210.22747  22306668.17647
  20680912.992 6   -308353.109 6   -227505.36349  20680909.82449
  21309669.094 7     29480.668 7     21235.28149  21309669.35249
  21099336.750 6  -1073093.461 6   -792971.67249  21099336.30149
  21891120.250 6   -108338.742 6    -79942.71148  21891117.75848
 20  5 16  0 16 29.0000000  0  7G04G08G14G16G26G27G31                0.000069384
  22419326.984 6   -770665.316 6   -591002.82447  22419325.94947
  23317841.789 5  -1167570.699 5   -837475.32849  23317842.64849
  22306985.594 6    411648.297 6    313502.36747  22306983.64547
  20680691.234 6   -309518.480 6   -228413.44149  20680688.31349
  21309688.477 6     29581.816 6     21314.09849  21309688.65249
  21098574.734 6  -1077096.742 6   -796091.11349  21098574.40249
  21891038.742 6   -108766.898 6    -80276.34848  21891036.13748
 20  5 16  0 16 30.0000000  0  7G04G08G14G16G26G27G31                0.000068460
  22418589.383 6   -774540.359 6   -594022.34048  22418588.11748
  23316878.891 5  -1172632.465 5   -841419.55949  23316879.38349
  22307301.477 6    413306.547 6    314794.50448  22307299.93848
  20680469.438 6   -310683.855 6   -229321.52749  20680466.67249
  21309707.453 7     29682.738 7     21392.73849  21309707.58649
  21097813.117 6  -1081099.844 6   -799210.41449  21097813.13749
  21890957.328 6   -109195.129 6    -80610.03148  21890954.31648
 20  5 16  0 16 31.0000000  0  7G04G08G14G16G26G27G31                0.000067537
  22417851.664 6   -778415.297 6   -597041.77348  22417850.64148
  23315914.859 5  -1177694.371 5   -845363.90249  23315916.03549
  22307616.836 6    414964.793 6    316086.64147  22307614.52747
  20680247.516 6   -311849.266 6   -230229.63749  20680244.50049
  21309726.953 7     29783.434 7     21471.19949  21309726.94149
  21097051.188 6  -1085102.773 6   -802329.57849  21097051.30149
  21890875.242 6   -109623.488 6    -80943.82048  21890872.98848
 20  5 16  0 16 32.0000000  0  7G04G08G14G16G26G27G31                0.000066612
  22417114.250 6   -782290.086 6   -600061.08647  22417113.25847
  23314951.500 5  -1182756.313 5   -849308.27349  23314953.02349
  22307932.789 6    416623.102 6    317378.82847  22307930.30547
  20680025.711 6   -313014.590 6   -231137.68449  20680022.64849
  21309746.117 7     29883.945 7     21549.52049  21309745.90249
  21096289.531 6  -1089105.457 6   -805448.55949  21096289.42249
  21890794.164 6   -110051.891 6    -81277.63748  21890791.51648
 20  5 16  0 16 33.0000000  0  7G04G08G14G16G26G27G31                0.000065689
  22416377.398 6   -786164.734 6   -603080.28948  22416375.89148
  23313988.156 5  -1187818.402 5   -853252.75849  23313989.87949
  22308248.047 6    418281.398 6    318671.00847  22308245.86347
  20679804.219 7   -314179.930 7   -232045.73849  20679801.31349
  21309765.109 7     29984.281 7     21627.70349  21309765.19549
  21095528.047 6  -1093107.965 6   -808567.39549  21095527.58249
  21890712.727 6   -110480.367 6    -81611.52048  21890709.87948
 20  5 16  0 16 34.0000000  0  7G04G08G14G16G26G27G31                0.000064766
  22415640.281 6   -790039.227 6   -606099.37948  22415638.54748
  23313024.867 5  -1192880.605 5   -857197.32849  23313026.14849
  22308563.320 6    419939.719 6    319963.20347  22308561.30547
  20679582.313 7   -315345.238 7   -232953.78149  20679579.39149
  21309783.930 7     30084.395 7     21705.71149  21309784.19949
  21094766.438 6  -1097110.262 6   -811686.06649  21094765.89849
  21890631.055 6   -110908.934 6    -81945.47348  21890628.59848
 20  5 16  0 16 35.0000000  0  7G04G08G14G16G26G27G31                0.000063841
  22414902.234 6   -793913.641 6   -609118.40248  22414901.35548
  23312061.867 5  -1197942.914 5   -861141.98849  23312063.02749
  22308879.141 6    421598.051 6    321255.41447  22308877.23847
  20679360.492 7   -316510.547 7   -233861.81349  20679357.58649
  21309802.773 6     30184.270 6     21783.53549  21309802.97749
  21094004.836 6  -1101112.383 6   -814804.59849  21094004.56349
  21890549.711 6   -111337.559 6    -82279.46548  21890547.03948
 20  5 16  0 16 36.0000000  0  7G04G08G14G16G26G27G31                0.000062916
  22414165.289 6   -797787.914 6   -612137.31648  22414163.88348
  23311098.516 5  -1203005.340 5   -865086.73449  23311099.84049
  22309194.766 6    423256.418 6    322547.64547  22309192.61347
  20679138.727 7   -317675.852 7   -234769.84049  20679136.09449
  21309822.148 6     30283.941 6     21861.20349  21309821.98449
  21093242.805 6  -1105114.289 6   -817922.97349  21093242.84449
  21890467.969 6   -111766.297 6    -82613.55148  21890465.33648
 20  5 16  0 16 37.0000000  0  7G04G08G14G16G26G27G31                0.000061991
  22413428.234 6   -801662.020 6   -615156.10247  22413426.81347
  23310135.086 5  -1208067.852 5   -869031.54749  23310136.39549
  22309510.102 6    424914.805 6    323839.89147  22309508.31647
  20678917.242 7   -318841.094 7   -235677.82049  20678914.39549
  21309840.945 6     30383.473 6     21938.76249  21309841.38349
  21092481.922 6  -1109116.000 6   -821041.18449  21092481.38749
  21890386.430 6   -112195.086 6    -82947.67648  21890383.66448
 20  5 16  0 16 38.0000000  0  7G04G08G14G16G26G27G31                0.000061066
  22412691.563 6   -805535.969 6   -618174.76248  22412689.75848
  23309171.336 5  -1213130.488 5   -872976.45349  23309172.96149
  22309825.766 6    426573.215 6    325132.15647  22309823.80147
  20678695.508 7   -320006.305 7   -236585.78149  20678692.18449
  21309860.180 6     30482.809 6     22016.16449  21309860.06349
  21091720.531 6  -1113117.457 6   -824159.20349  21091720.12149
  21890305.070 6   -112623.891 6    -83281.80548  21890302.07848
 20  5 16  0 16 39.0000000  0  7G04G08G14G16G26G27G31                0.000060141
  22411953.703 6   -809409.984 6   -621193.47348  22411952.75048
  23308207.367 5  -1218193.426 5   -876921.60249  23308209.60949
  22310141.078 6    428231.496 6    326424.32447  22310139.28547
  20678473.727 7   -321171.699 7   -237493.87549  20678470.88749
  21309878.930 7     30581.758 7     22093.27049  21309878.91049
  21090958.969 6  -1117118.910 6   -827277.21949  21090958.29749
  21890223.258 6   -113053.000 6    -83616.18048  21890221.00848
 20  5 16  0 16 40.0000000  0  7G04G08G14G16G26G27G31                0.000059216
  22411216.648 6   -813283.746 6   -624211.99247  22411215.34447
  23307244.039 5  -1223256.316 5   -880866.70749  23307246.03949
  22310456.555 6    429889.887 6    327716.57847  22310454.77747
  20678251.820 7   -322336.969 7   -238401.87949  20678249.03149
  21309897.367 7     30680.605 7     22170.28949  21309897.95349
  21090197.695 6  -1121120.055 6   -830394.99249  21090197.23449
  21890141.742 6   -113482.051 6    -83950.51249  21890138.70749
 20  5 16  0 16 41.0000000  0  7G04G08G14G16G26G27G31                0.000058290
  22410479.602 6   -817157.441 6   -627230.45747  22410478.13747
  23306281.742 5  -1228319.387 5   -884811.95349  23306282.68849
  22310772.508 6    431548.230 6    329008.79347  22310770.62947
  20678030.203 7   -323502.258 7   -239309.89549  20678027.39549
  21309916.148 6     30779.191 6     22247.10549  21309916.56349
  21089436.117 6  -1125121.047 6   -833512.65249  21089435.52349
  21890060.180 6   -113911.227 6    -84284.93449  21890057.46149
 20  5 16  0 16 42.0000000  0  7G04G08G14G16G26G27G31                0.000057365
  22409742.234 6   -821031.176 6   -630248.96148  22409741.32448
  23305317.867 5  -1233382.762 5   -888757.43849  23305319.32049
  22311087.688 6    433206.438 6    330300.89547  22311086.04747
  20677808.203 7   -324667.746 7   -240218.07049  20677805.39149
  21309934.836 6     30877.395 6     22323.62949  21309935.02049
  21088675.234 6  -1129122.012 6   -836630.28149  21088674.43049
  21889978.203 6   -114340.668 6    -84619.56348  21889975.79348
 20  5 16  0 16 43.0000000  0  7G04G08G14G16G26G27G31                0.000056438
  22409005.234 6   -824904.695 6   -633267.28148  22409004.14848
  23304353.914 5  -1238446.109 5   -892702.89849  23304355.74649
  22311403.617 6    434864.730 6    331593.07448  22311401.67648
  20677586.602 7   -325833.094 7   -241126.13749  20677583.49249
  21309953.703 6     30975.492 6     22400.07049  21309953.87149
  21087913.414 7  -1133122.715 7   -839747.71949  21087913.02049
  21889896.141 6   -114770.133 6    -84954.21148  21889893.94548
 20  5 16  0 16 44.0000000  0  7G04G08G14G16G26G27G31                0.000055513
  22408268.211 6   -828778.059 6   -636285.48448  22408266.95748
  23303390.992 5  -1243509.598 5   -896648.46949  23303391.91849
  22311719.289 6    436523.074 6    332885.28948  22311717.37948
  20677364.875 7   -326998.410 7   -242034.17649  20677361.94149
  21309972.383 6     31073.402 6     22476.37149  21309972.22349
  21087152.586 6  -1137123.172 6   -842864.95349  21087151.53949
  21889814.820 6   -115199.609 6    -85288.86349  21889812.40649
 20  5 16  0 16 45.0000000  0  7G04G08G14G16G26G27G31                0.000054586
  22407531.461 6   -832651.227 6   -639303.53548  22407530.02748
  23302427.500 5  -1248573.102 5   -900594.05949  23302428.35549
  22312034.711 6    438181.480 6    334177.55147  22312032.94947
  20677143.414 7   -328163.660 7   -242942.16449  20677139.93849
  21309990.969 6     31171.172 6     22552.55149  21309990.83649
  21086390.961 7  -1141123.352 7   -845981.98049  21086390.60549
  21889733.125 6   -115629.113 6    -85623.54748  21889730.53148
 20  5 16  0 16 46.0000000  0  7G04G08G14G16G26G27G31                0.000053659
  22406794.461 6   -836524.355 6   -642321.55548  22406792.94548
  23301463.570 5  -1253636.824 5   -904539.81349  23301464.44549
  22312350.500 6    439839.824 6    335469.76648  22312348.29748
  20676921.320 6   -329328.984 6   -243850.21549  20676918.05149
  21310009.711 6     31268.664 6     22628.51249  21310009.71949
  21085630.352 7  -1145123.445 7   -849098.93449  21085629.41449
  21889651.930 6   -116058.793 6    -85958.36349  21889648.78949
 20  5 16  0 16 47.0000000  0  7G04G08G14G16G26G27G31                0.000052732
  22406057.141 6   -840397.293 6   -645339.43448  22406055.91448
  23300499.734 5  -1258700.609 5   -908485.61749  23300501.07449
  22312666.078 6    441498.246 6    336762.03548  22312664.11748
  20676699.539 7   -330494.238 7   -244758.19549  20676696.38349
  21310028.031 6     31365.973 6     22704.33249  21310028.28549
  21084868.773 7  -1149123.281 7   -852215.69149  21084868.11349
  21889569.313 6   -116488.488 6    -86293.19948  21889567.05948
 20  5 16  0 16 48.0000000  0  7G04G08G14G16G26G27G31                0.000051805
  22405320.250 6   -844270.066 6   -648357.17648  22405318.89148
  23299536.523 5  -1263764.422 5   -912431.44949  23299537.52049
  22312981.469 6    443156.707 6    338054.34448  22312979.38748
  20676477.852 7   -331659.426 7   -245666.14149  20676475.04349
  21310046.469 6     31463.148 6     22780.05949  21310046.84849
  21084107.383 7  -1153122.867 7   -855332.25449  21084107.34849
  21889487.875 6   -116918.203 6    -86628.03548  21889485.39548
 20  5 16  0 16 49.0000000  0  7G04G08G14G16G26G27G31                0.000050879
  22404582.828 6   -848142.734 6   -651374.84448  22404581.92648
  23298572.930 5  -1268828.441 5   -916377.43049  23298573.95349
  22313297.422 6    444815.141 6    339346.62148  22313295.21148
  20676255.945 7   -332824.664 7   -246574.12149  20676253.14849
  21310064.930 6     31560.074 6     22855.57849  21310065.65249
  21083346.594 6  -1157122.297 6   -858448.69149  21083346.05549
  21889405.930 6   -117348.074 6    -86963.00449  21889403.13349
 20  5 16  0 16 50.0000000  0  7G04G08G14G16G26G27G31                0.000049952
  22403846.063 5   -852015.199 5   -654392.34448  22403844.80948
  23297608.797 5  -1273892.469 5   -920323.42649  23297610.34049
  22313612.781 6    446473.680 6    340638.98848  22313610.84848
  20676034.508 7   -333989.785 7   -247482.00449  20676031.40649
  21310083.391 7     31656.871 7     22931.00849  21310083.41849
  21082585.234 6  -1161121.465 6   -861564.93049  21082584.97749
  21889324.227 6   -117777.898 6    -87297.93849  21889322.00849
 20  5 16  0 16 51.0000000  0  7G04G08G14G16G26G27G31                0.000049023
  22403109.180 6   -855887.645 6   -657409.83248  22403108.08648
  23296645.516 5  -1278956.738 5   -924269.61349  23296646.46949
  22313928.320 6    448132.117 6    341931.28148  22313926.38748
  20675812.875 7   -335155.035 7   -248389.99249  20675809.64849
  21310101.555 6     31753.301 6     23006.16049  21310101.69949
  21081824.375 7  -1165120.551 7   -864681.09449  21081824.20749
  21889242.250 6   -118207.957 6    -87633.04348  21889239.82448
 20  5 16  0 16 52.0000000  0  7G04G08G14G16G26G27G31                0.000048096
  22402372.750 6   -859759.750 6   -660427.05148  22402371.35548
  23295681.852 5  -1284020.879 5   -928215.69149  23295682.70349
  22314243.898 6    449790.777 6    343223.74648  22314242.04348
  20675590.711 7   -336320.039 7   -249297.78949  20675588.10549
  21310120.219 7     31849.785 7     23081.34049  21310120.18449
  21081063.789 7  -1169119.191 7   -867796.91849  21081063.05549
  21889160.719 6   -118637.859 6    -87968.03148  21889158.02048
 20  5 16  0 16 53.0000000  0  7G04G08G14G16G26G27G31                0.000047169
  22401635.656 6   -863631.660 6   -663444.12948  22401634.12148
  23294718.188 5  -1289085.078 5   -932161.81649  23294718.88349
  22314559.883 6    451449.512 6    344516.27048  22314557.61748
  20675369.281 6   -337484.957 6   -250205.51649  20675365.82049
  21310138.141 7     31946.137 7     23156.42249  21310138.36749
  21080302.758 7  -1173117.563 7   -870912.53149  21080302.00449
  21889078.531 6   -119067.809 6    -88303.06348  21889076.09848
 20  5 16  0 16 54.0000000  0  7G04G08G14G16G26G27G31                0.000046240
  22400898.602 6   -867503.363 6   -666461.04748  22400897.64548
  23293753.875 5  -1294149.309 5   -936107.97349  23293755.04749
  22314875.000 6    453108.352 6    345808.86748  22314873.96148
  20675147.852 6   -338649.813 6   -251113.19149  20675144.38749
  21310156.742 7     32042.320 7     23231.35949  21310156.82049
  21079541.727 7  -1177115.703 7   -874027.96949  21079541.12149
  21888996.680 6   -119497.707 6    -88638.04748  21888994.20748
 20  5 16  0 16 55.0000000  0  7G04G08G14G16G26G27G31                0.000045313
  22400162.281 6   -871374.922 6   -669477.85248  22400160.89548
  23292790.586 5  -1299213.715 5   -940054.25849  23292791.58649
  22315191.016 6    454767.195 6    347101.46548  22315189.06648
  20674925.984 7   -339814.652 7   -252020.85949  20674922.80149
  21310174.711 6     32138.328 6     23306.16849  21310174.97749
  21078781.227 7  -1181113.633 7   -877143.24649  21078780.85949
  21888914.688 6   -119927.742 6    -88973.13749  21888912.18849
 20  5 16  0 16 56.0000000  0  7G04G08G14G16G26G27G31                0.000044384
  22399425.648 6   -875246.477 6   -672494.64547  22399423.79347
  23291827.102 5  -1304278.285 5   -944000.68049  23291827.89149
  22315506.266 6    456425.941 6    348393.98448  22315504.88748
  20674704.414 7   -340979.590 7   -252928.60549  20674701.12149
  21310193.336 6     32233.992 6     23380.70749  21310193.32849
  21078020.563 7  -1185111.453 7   -880258.43449  21078019.74649
  21888833.180 6   -120357.941 6    -89308.36348  21888830.15248
 20  5 16  0 16 57.0000000  0  7G04G08G14G16G26G27G31                0.000043455
  22398689.188 6   -879117.895 6   -675511.34448  22398687.57848
  23290863.727 5  -1309342.992 5   -947947.20349  23290864.39149
  22315822.156 6    458084.688 6    349686.51248  22315820.49248
  20674482.813 7   -342144.512 7   -253836.33249  20674479.43049
  21310211.359 6     32329.461 6     23455.09449  21310211.32049
  21077259.547 7  -1189109.102 7   -883373.47749  21077259.30149
  21888751.516 6   -120788.195 6    -89643.62548  21888748.82048
 20  5 16  0 16 58.0000000  0  7G04G08G14G16G26G27G31                0.000042526
  22397951.906 6   -882989.234 6   -678527.97348  22397950.57048
  23289899.125 5  -1314407.828 5   -951893.82849  23289900.28549
  22316138.125 6    459743.410 6    350979.02748  22316136.48048
  20674260.977 7   -343309.441 7   -254744.07449  20674258.10949
  21310229.414 6     32424.688 6     23529.30149  21310229.80149
  21076499.133 7  -1193106.563 7   -886488.37949  21076498.35549
  21888669.664 6   -121218.598 6    -89979.00848  21888667.10948
 20  5 16  0 16 59.0000000  0  7G04G08G14G16G26G27G31                0.000041597
  22397215.250 6   -886860.422 6   -681544.47747  22397214.15647
  23288935.656 5  -1319472.777 5   -955840.53949  23288936.34449
  22316453.250 6    461402.188 6    352271.58648  22316451.93448
  20674039.352 7   -344474.379 7   -255651.82449  20674036.22749
  21310247.414 6     32519.738 6     23603.36749  21310247.52749
  21075738.414 7  -1197103.813 7   -889603.11749  21075737.83649
  21888587.430 6   -121649.063 6    -90314.43448  21888584.80148
 20  5 16  0 17  0.0000000  0  7G04G08G14G16G26G27G31                0.000040667
  22396479.141 6   -890731.449 6   -684560.86348  22396477.46948
  23287971.938 5  -1324537.820 5   -959787.31649  23287972.71949
  22316769.500 6    463060.949 6    353564.12148  22316767.69948
  20673817.375 7   -345639.270 7   -256559.53949  20673814.69149
  21310265.484 6     32614.563 6     23677.25449  21310265.94149
  21074977.914 7  -1201100.840 7   -892717.68849  21074977.30549
  21888505.680 6   -122079.574 6    -90649.89849  21888503.41849
 20  5 16  0 17  1.0000000  0  7G04G08G14G16G26G27G31                0.000039738
  22395742.203 6   -894602.344 6   -687577.13347  22395740.85247
  23287007.453 5  -1329602.926 5   -963734.15249  23287008.63349
  22317084.758 6    464719.777 6    354856.71548  22317082.87148
  20673595.727 7   -346804.125 7   -257467.21549  20673592.87149
  21310283.445 6     32709.219 6     23751.01249  21310283.75449
  21074217.164 7  -1205097.668 7   -895832.09849  21074216.60249
  21888423.820 6   -122510.152 6    -90985.41448  21888421.22348
 20  5 16  0 17  2.0000000  0  7G04G08G14G16G26G27G31                0.000038809
  22395005.711 6   -898472.973 6   -690593.20748  22395004.24648
  23286043.664 5  -1334668.070 5   -967681.01249  23286045.07049
  22317400.617 6    466378.746 6    356149.41447  22317398.59047
  20673374.234 7   -347968.863 7   -258374.80149  20673371.05549
  21310301.492 6     32803.805 6     23824.71149  21310301.96949
  21073456.930 7  -1209094.180 7   -898946.26649  21073456.41449
  21888342.016 6   -122940.711 6    -91320.91449  21888339.39549
 20  5 16  0 17  3.0000000  0  7G04G08G14G16G26G27G31                0.000037878
  22394269.203 6   -902343.438 6   -693609.15248  22394267.87548
  23285079.656 5  -1339733.254 5   -971627.91049  23285080.96549
  22317716.102 6    468037.758 6    357442.14847  22317714.44947
  20673152.609 7   -349133.547 7   -259282.35249  20673149.66849
  21310319.367 6     32898.188 6     23898.25449  21310319.79349
  21072696.430 7  -1213090.441 7   -902060.23449  21072695.81349
  21888259.867 6   -123371.281 6    -91656.42649  21888257.14549
 20  5 16  0 17  4.0000000  0  7G04G08G14G16G26G27G31                0.000036949
  22393532.930 6   -906213.918 6   -696625.12148  22393531.00848
  23284116.133 5  -1344798.738 5   -975575.03949  23284117.13349
  22318031.820 6    469696.625 6    358734.76647  22318029.98047
  20672930.930 7   -350298.387 7   -260190.01249  20672927.56649
  21310337.531 6     32992.227 6     23971.53149  21310337.66049
  21071935.578 7  -1217086.656 7   -905174.17249  21071935.39549
  21888177.984 6   -123802.102 6    -91992.13349  21888175.68849
 20  5 16  0 17  5.0000000  0  7G04G08G14G16G26G27G31                0.000036018
  22392796.234 6   -910084.152 6   -699640.88747  22392794.61347
  23283152.648 5  -1349864.207 5   -979522.15649  23283153.33649
  22318347.664 6    471355.605 6    360027.48047  22318345.89147
  20672709.227 7   -351463.070 7   -261097.56349  20672706.00049
  21310355.133 6     33086.168 6     24044.73049  21310355.60949
  21071175.125 7  -1221082.563 7   -908287.86749  21071174.85249
  21888095.750 6   -124232.859 6    -92327.78949  21888093.16849
 20  5 16  0 17  6.0000000  0  7G04G08G14G16G26G27G31                0.000035088
  22392059.500 6   -913954.184 6   -702656.49647  22392058.19547
  23282188.148 5  -1354929.699 5   -983469.29749  23282189.01249
  22318663.281 6    473014.695 6    361320.27348  22318661.48848
  20672487.953 7   -352627.680 7   -262005.05149  20672484.45349
  21310373.148 6     33179.984 6     24117.83649  21310373.55549
  21070414.914 7  -1225078.168 7   -911401.32449  21070414.77049
  21888013.586 6   -124663.637 6    -92663.46149  21888011.02349
 20  5 16  0 17  7.0000000  0  7G04G08G14G16G26G27G31                0.000034157
  22391323.313 5   -917824.148 5   -705672.05947  22391321.94547
  23281224.445 5  -1359995.363 5   -987416.56349  23281225.02049
  22318979.156 6    474673.730 6    362613.02748  22318976.73448
  20672266.250 7   -353792.344 7   -262912.57849  20672263.02749
  21310391.188 6     33273.543 6     24190.73849  21310391.19149
  21069654.672 7  -1229073.672 7   -914514.69949  21069654.09049
  21887931.898 6   -125094.555 6    -92999.23849  21887929.59849
 20  5 16  0 17  8.0000000  0  7G04G08G14G16G26G27G31                0.000033226
  22390586.891 5   -921694.023 5   -708687.53948  22390585.61748
  23280260.352 5  -1365061.180 5   -991363.95349  23280261.05549
  22319294.414 6    476332.754 6    363905.77348  22319292.69948
  20672044.594 7   -354957.027 7   -263820.12549  20672041.62549
  21310408.805 7     33366.852 7     24263.44549  21310409.12949
  21068894.688 7  -1233068.965 7   -917627.91849  21068894.08649
  21887849.945 6   -125525.578 6    -93335.10549  21887847.51249
 20  5 16  0 17  9.0000000  0  7G04G08G14G16G26G27G31                0.000032295
  22389850.398 6   -925563.598 6   -711702.78948  22389849.29748
  23279296.242 5  -1370126.973 5   -995311.32449  23279297.21149
  22319610.734 6    477991.898 6    365198.60948  22319608.75048
  20671822.961 7   -356121.547 7   -264727.54349  20671819.72349
  21310426.336 6     33460.086 6     24336.09449  21310426.46949
  21068134.359 7  -1237063.957 7   -920740.90249  21068133.87549
  21887767.930 6   -125956.527 6    -93670.91449  21887765.10949
 20  5 16  0 17 10.0000000  0  7G04G08G14G16G26G27G31                0.000031364
  22389114.250 6   -929432.934 6   -714717.85947  22389112.69947
  23278332.555 5  -1375192.750 5   -999258.68049  23278333.21949
  22319926.344 6    479651.215 6    366491.57848  22319924.46548
  20671601.227 7   -357285.945 7   -265634.86749  20671598.42249
  21310444.266 7     33553.262 7     24408.69949  21310444.45749
  21067374.031 7  -1241058.602 7   -923853.60549  21067373.51249
  21887686.023 6   -126387.457 6    -94006.70349  21887683.23049
 20  5 16  0 17 11.0000000  0  7G04G08G14G16G26G27G31                0.000030434
  22388377.648 6   -933302.051 6   -717732.75047  22388376.68447
  23277368.102 5  -1380258.570 5  -1003206.07049  23277369.04349
  22320241.930 6    481310.621 6    367784.62548  22320240.27748
  20671379.813 7   -358450.234 7   -266542.10949  20671376.70349
  21310461.781 6     33646.289 6     24481.18849  21310461.80949
  21066613.734 7  -1245052.957 7   -926966.09049  21066613.47749
  21887603.883 6   -126818.371 6    -94342.48049  21887601.43849
 20  5 16  0 17 12.0000000  0  7G04G08G14G16G26G27G31                0.000029503
  22387641.891 6   -937171.230 6   -720747.69547  22387640.35247
  23276404.766 5  -1385324.660 5  -1007153.67249  23276404.98449
  22320558.305 6    482969.836 6    369077.52048  22320556.09848
  20671157.875 7   -359614.703 7   -267449.48849  20671155.25049
  21310479.547 7     33738.926 7     24553.37549  21310479.75449
  21065853.727 7  -1249047.340 7   -930078.59849  21065853.50049
  21887521.711 6   -127249.559 6    -94678.47349  21887519.49249
 20  5 16  0 17 13.0000000  0  7G04G08G14G16G26G27G31                0.000028570
  22386905.656 6   -941040.332 6   -723762.58247  22386903.56347
  23275440.125 5  -1390390.965 5  -1011101.43449  23275440.76649
  22320873.258 6    484628.996 6    370370.36348  22320871.97748
  20670936.734 7   -360779.230 7   -268356.91049  20670933.41049
  21310497.086 6     33831.285 6     24625.34049  21310497.39849
  21065094.047 7  -1253041.555 7   -933190.97749  21065093.09449
  21887439.758 6   -127680.902 6    -95014.58249  21887437.39149
 20  5 16  0 17 14.0000000  0  7G04G08G14G16G26G27G31                0.000027637
  22386169.195 6   -944909.266 6   -726777.33447  22386167.50847
  23274476.734 5  -1395457.340 5  -1015049.26249  23274476.86349
  22321189.016 6    486288.172 6    371663.23048  22321187.07448
  20670714.789 7   -361943.758 7   -269264.33649  20670711.77049
  21310514.594 6     33923.430 6     24697.13749  21310514.73449
  21064333.750 7  -1257035.590 7   -936303.20349  21064333.48049
  21887357.578 6   -128112.316 6    -95350.75849  21887355.00049
 20  5 16  0 17 15.0000000  0  7G04G08G14G16G26G27G31                0.000026707
  22385433.547 5   -948778.051 5   -729791.98047  22385431.85947
  23273512.055 5  -1400523.797 5  -1018997.14849  23273512.89149
  22321504.695 6    487947.414 6    372956.14548  22321503.30948
  20670493.500 7   -363108.195 7   -270171.69149  20670490.25449
  21310532.125 7     34015.449 7     24768.84049  21310532.54749
  21063573.852 7  -1261029.313 7   -939415.20349  21063573.66049
  21887275.805 6   -128543.734 6    -95686.92649  21887273.28149
 20  5 16  0 17 16.0000000  0  7G04G08G14G16G26G27G31                0.000025774
  22384696.570 6   -952646.695 6   -732806.50447  22384695.44947
  23272547.844 5  -1405590.297 5  -1022945.06649  23272548.78149
  22321820.305 6    489606.730 6    374249.11748  22321818.94148
  20670271.750 7   -364272.582 7   -271079.00849  20670269.12949
  21310549.898 7     34107.301 7     24840.41849  21310549.93849
  21062813.594 7  -1265022.840 7   -942527.04349  21062813.36349
  21887193.461 6   -128975.207 6    -96023.13749  21887191.22349
 20  5 16  0 17 17.0000000  0  7G04G08G14G16G26G27G31                0.000024841
  22383960.758 5   -956515.164 5   -735820.89847  22383959.50047
  23271584.008 5  -1410656.930 5  -1026893.09449  23271584.34449
  22322136.797 6    491266.059 6    375542.09447  22322134.26247
  20670050.188 7   -365436.969 7   -271986.32049  20670047.00849
  21310567.180 6     34198.926 6     24911.80949  21310567.41449
  21062053.828 7  -1269016.152 7   -945638.71549  21062053.30149
  21887111.625 6   -129406.742 6    -96359.39849  21887108.77749
 20  5 16  0 17 18.0000000  0  7G04G08G14G16G26G27G31                0.000023909
  22383224.227 5   -960383.516 5   -738835.19547  22383223.28547
  23270619.758 5  -1415723.684 5  -1030841.21549  23270620.21949
  22322452.047 6    492925.355 6    376835.05148  22322450.59048
  20669828.594 7   -366601.355 7   -272893.63749  20669825.17649
  21310584.375 6     34290.352 6     24983.04749  21310584.66049
  21061294.195 7  -1273009.277 7   -948750.24249  21061293.71149
  21887029.266 6   -129838.367 6    -96695.73049  21887026.72749
 20  5 16  0 17 19.0000000  0  7G04G08G14G16G26G27G31                0.000022976
  22382488.359 6   -964251.684 6   -741849.35547  22382486.90647
  23269655.727 5  -1420790.484 5  -1034789.37149  23269656.10949
  22322768.094 6    494584.715 6    378128.05547  22322766.47347
  20669607.109 7   -367765.688 7   -273800.91049  20669603.87949
  21310601.766 7     34381.602 7     25054.15649  21310602.16849
  21060534.297 7  -1277002.156 7   -951861.57449  21060533.44149
  21886946.938 6   -130270.059 6    -97032.12149  21886944.63349
 20  5 16  0 17 20.0000000  0  7G04G08G14G16G26G27G31                0.000022043
  22381752.867 6   -968119.652 6   -744863.35247  22381751.09847
  23268690.711 5  -1425857.328 5  -1038737.56349  23268692.19149
  22323083.664 6    496244.184 6    379421.15247  22323081.90647
  20669385.727 7   -368929.934 7   -274708.10949  20669382.25049
  21310619.039 6     34472.715 6     25125.15249  21310619.02349
  21059774.141 6  -1280994.738 6   -954972.68049  21059773.91049
  21886864.727 6   -130701.715 6    -97368.47749  21886862.62549
 20  5 16  0 17 21.0000000  0  7G04G08G14G16G26G27G31                0.000021109
  22381016.453 5   -971987.375 5   -747877.16447  22381015.25847
  23267727.203 5  -1430924.168 5  -1042685.74249  23267727.55149
  22323399.891 6    497903.750 6    380714.31648  22323397.80548
  20669163.945 7   -370094.059 7   -275615.22749  20669160.89149
  21310636.516 6     34563.746 6     25196.08649  21310636.49249
  21059014.672 7  -1284987.047 7   -958083.56649  21059014.36349
  21886783.078 6   -131133.348 6    -97704.81649  21886780.49249
 20  5 16  0 17 22.0000000  0  7G04G08G14G16G26G27G31                0.000020176
  22380280.703 5   -975854.949 5   -750890.86347  22380279.03547
  23266762.656 5  -1435991.121 5  -1046634.01649  23266763.37149
  22323715.367 6    499563.352 6    382007.51247  22323713.48447
  20668942.492 7   -371258.152 7   -276522.31349  20668939.00049
  21310653.672 6     34654.551 6     25266.84449  21310653.94149
  21058255.102 6  -1288979.121 6   -961194.27349  21058254.90649
  21886700.711 6   -131565.047 6    -98041.20349  21886698.12149
 20  5 16  0 17 23.0000000  0  7G04G08G14G16G26G27G31                0.000019243
  22379544.922 5   -979722.395 5   -753904.44948  22379543.18448
  23265798.734 5  -1441058.188 5  -1050582.38349  23265799.44949
  22324030.945 6    501222.957 6    383300.71147  22324029.34047
  20668721.055 7   -372422.277 7   -277429.42649  20668717.68849
  21310671.102 7     34745.164 7     25337.45349  21310671.09049
  21057495.414 7  -1292971.023 7   -964304.84849  21057494.77349
  21886618.719 6   -131996.844 6    -98377.67249  21886616.02349
 20  5 16  0 17 24.0000000  0  7G04G08G14G16G26G27G31                0.000018309
  22378808.766 5   -983589.563 5   -756917.82447  22378807.41047
  23264834.477 5  -1446125.238 5  -1054530.73449  23264835.19949
  22324347.102 6    502882.738 6    384594.04348  22324345.32848
  20668499.406 7   -373586.203 7   -278336.37949  20668496.23449
  21310688.086 6     34835.719 6     25408.00849  21310688.38349
  21056735.914 7  -1296962.535 7   -967415.11349  21056735.42249
  21886536.359 6   -132428.559 6    -98714.07449  21886533.96949
 20  5 16  0 17 25.0000000  0  7G04G08G14G16G26G27G31                0.000017374
  22378072.781 5   -987456.566 5   -759931.08247  22378071.10547
  23263870.500 5  -1451192.324 5  -1058479.10949  23263870.61749
  22324662.672 6    504542.555 6    385887.40247  22324661.02747
  20668278.250 7   -374750.082 7   -279243.30149  20668274.61749
  21310705.273 6     34926.121 6     25478.45349  21310705.70349
  21055976.219 6  -1300953.828 6   -970525.20749  21055975.63349
  21886454.172 6   -132860.305 6    -99050.50049  21886451.48449
 20  5 16  0 17 26.0000000  0  7G04G08G14G16G26G27G31                0.000016441
  22377336.797 6   -991323.285 6   -762944.10548  22377335.23848
  23262906.195 5  -1456259.367 5  -1062427.44949  23262906.24649
  22324978.789 6    506202.512 6    387180.87948  22324976.84048
  20668056.695 7   -375913.813 7   -280150.10549  20668053.37149
  21310722.852 7     35016.438 7     25548.82849  21310722.81349
  21055216.625 7  -1304944.762 7   -973635.03149  21055216.17249
  21886372.219 6   -133291.992 6    -99386.87949  21886369.58649
 20  5 16  0 17 27.0000000  0  7G04G08G14G16G26G27G31                0.000015507
  22376601.164 6   -995189.914 6   -765957.06347  22376599.28147
  23261940.977 5  -1461326.586 5  -1066375.93049  23261941.74649
  22325294.336 6    507862.453 6    388474.34048  22325292.77348
  20667834.914 7   -377077.582 7   -281056.93049  20667831.98849
  21310740.164 7     35106.504 7     25619.00849  21310739.91849
  21054457.891 7  -1308935.543 7   -976744.72749  21054456.60949
  21886289.891 6   -133723.801 6    -99723.35549  21886287.08249
 20  5 16  0 17 28.0000000  0  7G04G08G14G16G26G27G31                0.000014572
  22375865.914 6   -999056.469 6   -768969.96548  22375863.70348
  23260976.789 5  -1466394.012 5  -1070324.57849  23260978.20349
  22325610.359 6    509522.340 6    389767.75448  22325608.17648
  20667613.516 7   -378241.422 7   -281963.82449  20667610.41449
  21310756.836 6     35196.281 6     25688.96549  21310757.10549
  21053698.398 7  -1312926.207 7   -979854.34049  21053697.35949
  21886207.688 6   -134155.773 6   -100059.95349  21886205.17249
 20  5 16  0 17 29.0000000  0  7G04G08G14G16G26G27G31                0.000013638
  22375129.727 6  -1002922.914 6   -771982.77747  22375127.73847
  23260012.469 5  -1471461.527 5  -1074273.29349  23260013.39149
  22325926.414 6    511182.215 6    391061.15648  22325924.51648
  20667392.031 7   -379405.242 7   -282870.69549  20667389.01249
  21310773.836 7     35285.867 7     25758.77049  21310773.89549
  21052938.555 7  -1316916.637 7   -982963.76649  21052938.19149
  21886125.375 6   -134587.824 6   -100396.62149  21886122.86349
 20  5 16  0 17 30.0000000  0  7G04G08G14G16G26G27G31                0.000012703
  22374394.359 6  -1006789.141 6   -774995.42647  22374392.53547
  23259048.586 5  -1476529.074 5  -1078222.02349  23259048.94949
  22326242.594 6    512842.180 6    392354.63348  22326240.34448
  20667170.750 7   -380568.980 7   -283777.50849  20667167.62949
  21310790.695 6     35375.293 6     25828.45349  21310791.05149
  21052179.195 7  -1320906.844 7   -986073.02049  21052179.02049
  21886043.188 6   -135019.879 6   -100733.29349  21886040.72349
 20  5 16  0 17 31.0000000  0  7G04G08G14G16G26G27G31                0.000011768
  22373658.422 6  -1010655.160 6   -778007.90247  22373656.89147
  23258084.406 5  -1481596.645 5  -1082170.78549  23258084.68449
  22326558.219 6    514502.211 6    393648.16447  22326556.60547
  20666949.172 7   -381732.629 7   -284684.25449  20666945.89149
  21310808.078 7     35464.598 7     25898.03949  21310808.06649
  21051420.141 7  -1324896.727 7   -989182.02349  21051419.56649
  21885961.016 6   -135451.926 6   -101069.94949  21885958.36749
 20  5 16  0 17 32.0000000  0  7G04G08G14G16G26G27G31                0.000010832
  22372922.508 6  -1014520.953 6   -781020.21147  22372920.84047
  23257119.984 5  -1486664.266 5  -1086119.58249  23257120.24649
  22326874.188 6    516162.340 6    394941.77348  22326872.34848
  20666727.859 6   -382896.219 6   -285590.94549  20666724.58249
  21310824.766 7     35553.770 7     25967.53149  21310825.29749
  21050660.891 7  -1328886.352 7   -992290.81649  21050660.52749
  21885878.867 6   -135884.004 6   -101406.63749  21885876.14149
 20  5 16  0 17 33.0000000  0  7G04G08G14G16G26G27G31                0.000009897
  22372186.969 6  -1018386.633 6   -784032.43448  22372185.53548
  23256155.547 5  -1491732.000 5  -1090068.46549  23256156.17249
  22327189.805 6    517822.473 6    396235.38348  22327187.96148
  20666506.477 6   -384059.785 6   -286497.62149  20666503.26249
  21310841.609 7     35642.746 7     26036.85549  21310841.91449
  21049901.477 6  -1332875.797 6   -995399.47749  21049901.25049
  21885796.625 6   -136316.137 6   -101743.35949  21885793.97349
 20  5 16  0 17 34.0000000  0  7G04G08G14G16G26G27G31                0.000008961
  22371451.406 6  -1022252.215 6   -787044.57448  22371449.78948
  23255191.406 5  -1496799.840 5  -1094017.42649  23255191.69949
  22327505.938 6    519482.563 6    397528.96148  22327504.43448
  20666284.680 6   -385223.371 6   -287404.31649  20666281.43049
  21310858.734 7     35731.441 7     26105.97349  21310858.98849
  21049142.734 7  -1336865.039 7   -998507.98049  21049142.09449
  21885714.461 6   -136748.383 6   -102080.17649  21885711.78949
 20  5 16  0 17 35.0000000  0  7G04G08G14G16G26G27G31                0.000008026
  22370715.492 6  -1026117.672 6   -790056.61748  22370714.03148
  23254226.188 5  -1501867.840 5  -1097966.52049  23254227.56649
  22327821.273 6    521142.652 6    398822.53948  22327819.64548
  20666063.781 6   -386387.000 6   -288311.03949  20666060.28549
  21310875.602 7     35819.930 7     26174.91849  21310875.68449
  21048383.523 6  -1340854.129 6  -1001616.36349  21048382.60249
  21885631.953 6   -137180.727 6   -102417.07049  21885629.28549
 20  5 16  0 17 36.0000000  0  7G04G08G14G16G26G27G31                0.000007090
  22369980.516 6  -1029983.074 6   -793068.61748  22369978.58648
  23253262.188 5  -1506936.000 5  -1101915.73449  23253262.72749
  22328137.641 6    522802.703 6    400116.08248  22328136.00848
  20665842.250 6   -387550.625 6   -289217.75449  20665838.93849
  21310892.289 6     35908.160 6     26243.66849  21310892.63349
  21047624.680 7  -1344843.027 7  -1004724.59449  21047624.02049
  21885549.492 6   -137613.203 6   -102754.07049  21885547.50049
 20  5 16  0 17 37.0000000  0  7G04G08G14G16G26G27G31                0.000006153
  22369244.641 6  -1033848.316 6   -796080.48848  22369243.03548
  23252298.281 5  -1512004.250 5  -1105865.02349  23252298.44549
  22328453.742 6    524462.770 6    401409.64548  22328451.75048
  20665620.844 6   -388714.250 6   -290124.47349  20665617.46949
  21310909.078 7     35996.203 7     26312.27049  21310909.20349
  21046865.328 7  -1348831.742 7  -1007832.68449  21046864.81649
  21885467.484 6   -138045.734 6   -103091.11349  21885465.09049
 20  5 16  0 17 38.0000000  0  7G04G08G14G16G26G27G31                0.000005217
  22368508.984 6  -1037713.426 6   -799092.27047  22368507.80547
  23251333.398 5  -1517072.648 5  -1109814.41849  23251334.08249
  22328769.453 6    526122.848 6    402703.20748  22328767.72748
  20665399.438 7   -389877.883 7   -291031.20349  20665395.86349
  21310925.977 7     36083.992 7     26380.68049  21310925.99249
  21046106.719 7  -1352820.273 7  -1010940.62949  21046105.95749
  21885384.867 6   -138478.398 6   -103428.25049  21885382.45349
 20  5 16  0 17 39.0000000  0  7G04G08G14G16G26G27G31                0.000004280
  22367773.625 6  -1041578.426 6   -802103.96148  22367772.53948
  23250368.734 5  -1522141.188 5  -1113763.93049  23250369.64849
  22329085.461 6    527782.914 6    403996.75848  22329083.42648
  20665177.906 7   -391041.512 7   -291937.93449  20665174.42649
  21310942.305 7     36171.555 7     26448.91049  21310942.33249
  21045347.648 7  -1356808.594 7  -1014048.41849  21045347.06349
  21885302.727 6   -138911.125 6   -103765.43849  21885300.25049
 20  5 16  0 17 40.0000000  0  7G04G08G14G16G26G27G31                0.000003344
  22367038.016 6  -1045443.152 6   -805115.43847  22367036.86747
  23249404.289 5  -1527209.711 5  -1117713.42249  23249404.66049
  22329401.352 6    529443.117 6    405290.41447  22329399.26247
  20664956.344 7   -392205.016 7   -292844.55949  20664953.04749
  21310959.398 7     36259.055 7     26517.09049  21310959.00849
  21044588.563 6  -1360796.594 6  -1017155.95349  21044588.01249
  21885220.563 6   -139343.813 6   -104102.59449  21885217.98449
 20  5 16  0 17 41.0000000  0  7G04G08G14G16G26G27G31                0.000002407
  22366302.102 5  -1049307.781 5   -808126.84047  22366301.25847
  23248439.570 5  -1532278.324 5  -1121662.98849  23248440.43849
  22329717.156 6    531103.313 6    406584.07847  22329715.18047
  20664735.070 7   -393368.508 7   -293751.17649  20664731.92649
  21310975.727 7     36346.344 7     26585.11349  21310975.77349
  21043829.813 7  -1364784.406 7  -1020263.33649  21043829.23449
  21885137.852 6   -139776.582 6   -104439.81649  21885135.46149
 20  5 16  0 17 42.0000000  0  7G04G08G14G16G26G27G31                0.000001469
  22365567.477 5  -1053172.215 5   -811138.08648  22365566.13348
  23247475.258 5  -1537347.043 5  -1125612.64549  23247476.18049
  22330033.125 6    532763.531 6    407877.75447  22330031.11347
  20664513.727 7   -394531.992 7   -294657.78949  20664510.46149
  21310992.594 7     36433.426 7     26652.96549  21310992.24649
  21043070.867 7  -1368771.996 7  -1023370.55149  21043070.51649
  21885055.555 6   -140209.398 6   -104777.08249  21885053.07449
 20  5 16  0 17 43.0000000  0  7G04G08G14G16G26G27G31                0.000000532
  22364832.047 6  -1057036.379 6   -814149.12148  22364830.72748
  23246510.492 5  -1542415.707 5  -1129562.24649  23246511.43049
  22330349.258 6    534423.926 6    409171.57047  22330347.21947
  20664292.156 7   -395695.277 7   -295564.25049  20664289.14849
  21311009.078 7     36520.477 7     26720.79349  21311008.88749
  21042312.156 6  -1372759.207 6  -1026477.46949  21042311.55549
  21884973.422 6   -140642.152 6   -105114.29749  21884970.69949
 20  5 16  0 17 44.0000000  0  7G04G08G14G16G26G27G31               -0.000000406
  22364096.766 6  -1060900.430 6   -817160.06648  22364095.27048
  23245545.227 5  -1547484.488 5  -1133511.94549  23245546.65649
  22330665.164 6    536084.320 6    410465.38347  22330663.26647
  20664070.859 7   -396858.582 7   -296470.71949  20664067.80549
  21311025.234 7     36607.320 7     26788.46549  21311025.21149
  21041553.242 7  -1376746.238 7  -1029584.25049  21041552.80549
  21884891.219 6   -141074.965 6   -105451.55549  21884888.60249
 20  5 16  0 17 45.0000000  0  7G04G08G14G16G26G27G31               -0.000001343
  22363361.375 5  -1064764.188 5   -820170.77747  22363359.96947
  23244581.172 5  -1552553.250 5  -1137461.62549  23244582.44949
  22330981.164 6    537744.844 6    411759.29348  22330979.18048
  20663849.438 7   -398021.762 7   -297377.08249  20663846.32449
  21311041.953 7     36694.039 7     26856.03949  21311041.92249
  21040794.883 7  -1380732.941 7  -1032690.77349  21040794.35949
  21884808.695 6   -141507.773 6   -105788.80949  21884806.30549
 20  5 16  0 17 46.0000000  0  7G04G08G14G16G26G27G31               -0.000002281
  22362626.516 5  -1068627.809 5   -823181.38847  22362624.95747
  23243616.750 5  -1557622.121 5  -1141411.40249  23243617.69149
  22331297.055 6    539405.426 6    413053.23847  22331295.26247
  20663628.422 6   -399184.871 6   -298283.41048  20663625.21148
  21311058.508 7     36780.617 7     26923.50449  21311058.50849
  21040036.266 7  -1384719.398 7  -1035797.10549  21040035.49249
  21884726.039 6   -141940.598 6   -106126.07449  21884723.97749
 20  5 16  0 17 47.0000000  0  7G04G08G14G16G26G27G31               -0.000003218
  22361891.008 5  -1072491.398 5   -826191.98047  22361889.89147
  23242652.250 5  -1562691.141 5  -1145361.29749  23242653.23449
  22331613.180 6    541065.867 6    414347.09847  22331610.63347
  20663406.422 6   -400348.113 6   -299189.83648  20663403.75048
  21311074.914 7     36866.832 7     26990.68449  21311074.29749
  21039277.680 7  -1388705.789 7  -1038903.39149  21039277.37549
  21884643.844 6   -142373.629 6   -106463.49249  21884641.77349
 20  5 16  0 17 48.0000000  0  7G04G08G14G16G26G27G31               -0.000004158
  22361156.172 6  -1076354.781 6   -829202.40647  22361154.44147
  23241686.859 5  -1567760.250 5  -1149311.24649  23241688.45349
  22331928.672 6    542726.414 6    415641.02347  22331927.10547
  20663185.398 6   -401511.270 6   -300096.19149  20663182.35249
  21311090.898 7     36952.930 7     27057.77749  21311091.04349
  21038519.258 6  -1392691.898 6  -1042009.44949  21038518.49249
  21884561.328 6   -142806.676 6   -106800.93449  21884559.09849
 20  5 16  0 17 49.0000000  0  7G04G08G14G16G26G27G31               -0.000005095
  22360420.664 6  -1080217.969 6   -832212.69148  22360419.07848
  23240722.602 5  -1572829.426 5  -1153261.23849  23240724.11349
  22332245.266 6    544386.973 6    416934.97347  22332243.35947
  20662964.031 6   -402674.387 6   -301002.51249  20662960.87949
  21311107.734 6     37038.848 6     27124.72749  21311107.57449
  21037760.594 6  -1396677.773 6  -1045115.32049  21037759.77349
  21884479.148 6   -143239.754 6   -107138.40649  21884476.49649
 20  5 16  0 17 50.0000000  0  7G04G08G14G16G26G27G31               -0.000006035
  22359685.695 6  -1084081.074 6   -835222.91848  22359684.46948
  23239758.531 5  -1577898.703 5  -1157211.32049  23239759.30949
  22332561.055 6    546047.578 6    418228.94548  22332558.93848
  20662742.781 7   -403837.469 7   -301908.81649  20662739.61349
  21311124.000 6     37124.574 6     27191.52049  21311124.16049
  21037002.234 6  -1400663.402 6  -1048221.00049  21037001.58649
  21884396.664 6   -143672.898 6   -107475.92649  21884394.09049
 20  5 16  0 17 51.0000000  0  7G04G08G14G16G26G27G31               -0.000006973
  22358950.703 6  -1087943.926 6   -838232.92648  22358948.77348
  23238793.703 5  -1582967.980 5  -1161161.40249  23238795.00449
  22332876.914 6    547708.230 6    419522.95747  22332875.08247
  20662521.711 6   -405000.500 6   -302815.07049  20662518.27049
  21311140.328 6     37210.133 6     27258.18849  21311140.41849
  21036243.820 6  -1404648.781 6  -1051326.48849  21036243.40249
  21884313.945 6   -144106.051 6   -107813.44949  21884311.96949
 20  5 16  0 17 52.0000000  0  7G04G08G14G16G26G27G31               -0.000007912
  22358215.875 6  -1091806.453 6   -841242.68848  22358214.32448
  23237829.055 5  -1588037.188 5  -1165111.43449  23237829.89549
  22333193.117 6    549369.121 6    420817.16048  22333190.98448
  20662300.336 6   -406163.313 6   -303721.15649  20662297.03149
  21311156.414 6     37295.703 6     27324.86749  21311156.65249
  21035485.469 6  -1408633.758 6  -1054431.66849  21035485.20349
  21884231.797 6   -144539.098 6   -108150.89149  21884229.53949
 20  5 16  0 17 53.0000000  0  7G04G08G14G16G26G27G31               -0.000008850
  22357481.203 6  -1095668.902 6   -844252.38748  22357479.33248
  23236864.250 5  -1593106.563 5  -1169061.59849  23236865.26249
  22333508.961 6    551029.961 6    422111.31648  22333507.35948
  20662079.039 6   -407326.164 6   -304627.27749  20662075.76249
  21311172.516 6     37381.004 6     27391.33249  21311172.60249
  21034727.398 6  -1412618.590 6  -1057536.72749  21034726.85949
  21884149.438 6   -144972.258 6   -108488.42249  21884146.98849
 20  5 16  0 17 54.0000000  0  7G04G08G14G16G26G27G31               -0.000009790
  22356745.523 6  -1099531.285 6   -847262.03948  22356744.19948
  23235899.672 5  -1598176.113 5  -1173011.89149  23235900.70749
  22333825.352 6    552690.727 6    423405.43047  22333822.98447
  20661857.727 6   -408489.082 6   -305533.44949  20661854.41849
  21311188.766 6     37466.020 6     27457.57449  21311188.90649
  21033969.180 6  -1416603.297 6  -1060641.69949  21033968.25849
  21884066.664 6   -145405.586 6   -108826.07849  21884064.47349
 20  5 16  0 17 55.0000000  0  7G04G08G14G16G26G27G31               -0.000010729
  22356011.219 6  -1103393.578 6   -850271.61348  22356009.53148
  23234934.578 5  -1603245.793 5  -1176962.30149  23234935.84849
  22334141.375 6    554351.480 6    424699.51647  22334139.03947
  20661636.188 6   -409652.023 6   -306439.63349  20661633.04349
  21311204.727 6     37550.809 6     27523.64549  21311204.71949
  21033210.641 6  -1420587.793 6  -1063746.50049  21033210.25849
  21883984.250 6   -145839.023 6   -109163.82848  21883981.95348
 20  5 16  0 17 56.0000000  0  7G04G08G14G16G26G27G31               -0.000011669
  22355275.922 6  -1107255.672 6   -853281.03548  22355274.16848
  23233969.734 5  -1608315.586 5  -1180912.78949  23233971.25449
  22334457.234 6    556012.246 6    425993.61747  22334455.44547
  20661415.055 6   -410814.926 6   -307345.78949  20661411.90249
  21311221.352 6     37635.398 6     27589.55949  21311221.02049
  21032452.461 7  -1424572.098 7  -1066851.14849  21032452.00049
  21883901.883 6   -146272.500 6   -109501.60249  21883899.56349
 20  5 16  0 17 57.0000000  0  7G04G08G14G16G26G27G31               -0.000012609
  22354540.852 6  -1111117.598 6   -856290.33248  22354539.28548
  23233005.797 5  -1613385.348 5  -1184863.24249  23233006.62949
  22334773.266 6    557673.137 6    427287.81647  22334771.28147
  20661193.641 6   -411977.754 6   -308251.89549  20661190.71549
  21311237.180 6     37719.855 6     27655.37149  21311237.27049
  21031694.500 6  -1428556.129 6  -1069955.59449  21031694.16449
  21883819.430 6   -146706.000 6   -109839.39149  21883816.91849
 20  5 16  0 17 58.0000000  0  7G04G08G14G16G26G27G31               -0.000013550
  22353806.398 6  -1114979.203 6   -859299.37548  22353804.66848
  23232040.695 5  -1618455.105 5  -1188813.70349  23232041.89149
  22335089.555 6    559334.168 6    428582.12147  22335087.48447
  20660972.648 6   -413140.398 6   -309157.84849  20660969.55149
  21311253.352 6     37804.277 6     27721.15649  21311252.99649
  21030936.539 6  -1432539.762 6  -1073059.72349  21030936.05949
  21883736.844 6   -147139.371 6   -110177.08249  21883734.72349
 20  5 16  0 17 59.0000000  0  7G04G08G14G16G26G27G31               -0.000014490
  22353071.492 6  -1118840.523 6   -862308.19548  22353069.83248
  23231075.766 5  -1623524.801 5  -1192764.12149  23231076.95349
  22335405.703 6    560995.340 6    429876.53947  22335403.13347
  20660751.203 6   -414302.914 6   -310063.70749  20660748.37549
  21311269.273 6     37888.609 6     27786.86749  21311268.95349
  21030178.531 6  -1436523.043 6  -1076163.58649  21030178.08249
  21883654.609 6   -147572.719 6   -110514.75849  21883652.51649
 20  5 16  0 18  0.0000000  0  7G04G08G14G16G26G27G31               -0.000015430
  22352336.633 6  -1122701.723 6   -865316.92248  22352335.13748
  23230111.031 5  -1628594.617 5  -1196714.62149  23230112.17249
  22335721.750 6    562656.512 6    431170.95747  22335719.57447
  20660530.125 6   -415465.430 6   -310969.56349  20660526.99649
  21311285.078 6     37972.723 6     27852.41049  21311285.18049
  21029420.086 6  -1440506.164 6  -1079267.31349  21029419.80549
  21883572.000 6   -148006.148 6   -110852.49649  21883569.73049
 20  5 16  0 18  1.0000000  0  7G04G08G14G16G26G27G31               -0.000016371
  22351601.758 6  -1126562.715 6   -868325.48448  22351600.24648
  23229146.508 5  -1633664.422 5  -1200665.11749  23229147.79749
  22336038.219 6    564317.793 6    432465.46547  22336036.08247
  20660308.633 6   -416627.840 6   -311875.33248  20660305.61748
  21311301.234 6     38056.738 6     27917.87949  21311301.00849
  21028662.719 6  -1444488.973 6  -1082370.79349  21028662.50449
  21883489.297 6   -148439.551 6   -111190.21948  21883487.09448
 20  5 16  0 18  2.0000000  0  7G04G08G14G16G26G27G31               -0.000017311
  22350866.953 6  -1130423.551 6   -871333.93047  22350865.53947
  23228181.211 5  -1638734.363 5  -1204615.71949  23228182.93049
  22336353.930 6    565979.086 6    433759.98447  22336351.92247
  20660087.539 6   -417790.254 6   -312781.10948  20660084.44148
  21311317.016 6     38140.523 6     27983.16449  21311317.03549
  21027904.711 6  -1448471.578 6  -1085474.12549  21027904.21949
  21883406.742 6   -148873.051 6   -111528.00848  21883404.88748
 20  5 16  0 18  3.0000000  0  7G04G08G14G16G26G27G31               -0.000018251
  22350132.156 6  -1134284.219 6   -874342.24247  22350130.46947
  23227216.914 5  -1643804.387 5  -1208566.39149  23227218.39849
  22336669.945 6    567640.426 6    435054.53147  22336667.92247
  20659866.406 6   -418952.613 6   -313686.84848  20659863.16048
  21311333.227 7     38224.164 7     28048.34449  21311333.05149
  21027146.508 6  -1452453.930 6  -1088577.25849  21027146.31349
  21883324.469 6   -149306.555 6   -111865.80148  21883321.80548
 20  5 16  0 18  4.0000000  0  7G04G08G14G16G26G27G31               -0.000019192
  22349397.805 6  -1138144.625 6   -877350.34848  22349396.06648
  23226252.031 5  -1648874.375 5  -1212517.02749  23226253.19949
  22336986.430 6    569301.867 6    436349.15247  22336984.18847
  20659645.508 6   -420114.844 6   -314592.48849  20659642.09449
  21311349.133 7     38307.676 7     28113.41449  21311348.75049
  21026389.188 6  -1456435.961 6  -1091680.13749  21026388.52749
  21883241.836 6   -149740.047 6   -112203.59048  21883239.47348
 20  5 16  0 18  5.0000000  0  7G04G08G14G16G26G27G31               -0.000020134
  22348663.148 6  -1142004.824 6   -880358.29748  22348661.57048
  23225287.680 5  -1653944.410 5  -1216467.69949  23225288.60549
  22337302.367 6    570963.410 6    437643.85947  22337300.00047
  20659424.148 6   -421277.004 6   -315498.07049  20659420.96949
  21311365.211 6     38391.070 6     28178.39849  21311365.11349
  21025631.539 6  -1460417.738 6  -1094782.82849  21025630.80949
  21883159.563 6   -150173.531 6   -112541.37548  21883156.91448
 20  5 16  0 18  6.0000000  0  7G04G08G14G16G26G27G31               -0.000021074
  22347928.523 6  -1145864.840 6   -883366.10248  22347927.07848
  23224322.625 5  -1659014.480 5  -1220418.40249  23224323.86349
  22337618.664 6    572624.996 6    438938.60247  22337616.62147
  20659203.117 6   -422439.109 6   -316403.60949  20659199.48049
  21311381.078 6     38474.305 6     28243.25449  21311380.75849
  21024873.859 6  -1464399.223 6  -1097885.28149  21024873.13349
  21883077.203 6   -150607.039 6   -112879.16848  21883074.82448
 20  5 16  0 18  7.0000000  0  7G04G08G14G16G26G27G31               -0.000022017
  22347193.758 6  -1149724.695 6   -886373.77048  22347192.32848
  23223357.703 5  -1664084.641 5  -1224369.18049  23223358.73049
  22337935.297 6    574286.617 6    440233.36747  22337932.85247
  20658981.953 6   -423601.164 6   -317309.10249  20658978.66849
  21311396.102 6     38557.332 6     28307.95349  21311396.36349
  21024116.094 6  -1468380.508 6  -1100987.58249  21024115.55549
  21882994.547 6   -151040.609 6   -113217.01649  21882992.29349
 20  5 16  0 18  8.0000000  0  7G04G08G14G16G26G27G31               -0.000022959
  22346459.273 6  -1153584.355 6   -889381.30948  22346458.30548
  23222393.516 5  -1669154.852 5  -1228319.99249  23222394.14549
  22338250.859 6    575948.270 6    441528.15647  22338249.19147
  20658760.523 6   -424763.164 6   -318214.56649  20658757.42249
  21311412.219 6     38640.227 6     28372.54749  21311412.17649
  21023358.328 6  -1472361.512 6  -1104089.66449  21023357.88349
  21882912.055 6   -151474.207 6   -113554.88349  21882909.66449
 20  5 16  0 18  9.0000000  0  7G04G08G14G16G26G27G31               -0.000023899
  22345725.516 6  -1157443.680 6   -892388.57848  22345723.93048
  23221428.266 5  -1674224.953 5  -1232270.71949  23221429.53549
  22338567.492 6    577610.172 6    442823.14148  22338565.43848
  20658539.391 6   -425924.957 6   -319119.85549  20658536.44949
  21311428.273 6     38723.113 6     28437.12949  21311428.01249
  21022601.117 6  -1476342.113 6  -1107191.42649  21022600.58249
  21882829.258 6   -151907.648 6   -113892.63349  21882827.14849
 20  5 16  0 18 10.0000000  0  7G04G08G14G16G26G27G31               -0.000024841
  22344990.578 6  -1161302.879 6   -895395.74247  22344989.14847
  23220463.172 5  -1679295.207 5  -1236221.57049  23220464.83649
  22338884.039 6    579272.039 6    444118.10547  22338881.44947
  20658318.320 6   -427086.758 6   -320025.15649  20658315.53549
  21311443.953 6     38805.746 6     28501.51649  21311443.91449
  21021843.555 6  -1480322.535 6  -1110293.05949  21021843.27049
  21882747.266 6   -152341.234 6   -114230.49249  21882744.82849
 20  5 16  0 18 11.0000000  0  7G04G08G14G16G26G27G31               -0.000025784
  22344256.492 6  -1165161.949 6   -898402.80547  22344254.98047
  23219497.914 5  -1684365.574 5  -1240172.50449  23219499.55149
  22339200.016 6    580933.891 6    445413.05947  22339197.61347
  20658097.555 6   -428248.590 6   -320930.47749  20658094.48049
  21311459.555 6     38888.176 6     28565.74649  21311459.07449
  21021086.180 6  -1484302.758 6  -1113394.52749  21021085.99649
  21882664.961 6   -152774.883 6   -114568.40648  21882662.35248
 20  5 16  0 18 12.0000000  0  7G04G08G14G16G26G27G31               -0.000026726
  22343522.203 6  -1169020.863 6   -901409.75447  22343520.49247
  23218533.781 5  -1689435.980 5  -1244123.46549  23218534.93049
  22339515.867 6    582595.816 6    446708.06348  22339513.60948
  20657876.469 6   -429410.344 6   -321835.73849  20657873.07449
  21311475.180 6     38970.438 6     28629.84849  21311475.00049
  21020328.430 6  -1488282.746 6  -1116495.82049  21020328.71149
  21882582.148 6   -153208.559 6   -114906.33649  21882579.88349
 20  5 16  0 18 13.0000000  0  7G04G08G14G16G26G27G31               -0.000027668
  22342787.555 6  -1172879.602 6   -904416.57048  22342786.33248
  23217569.016 5  -1694506.523 5  -1248074.53149  23217570.02349
  22339832.891 6    584257.750 6    448003.07447  22339830.29347
  20657655.453 6   -430572.086 6   -322740.99249  20657651.98049
  21311490.328 6     39052.504 6     28693.79749  21311490.91849
  21019571.430 6  -1492262.492 6  -1119596.91849  21019571.13349
  21882499.328 6   -153642.316 6   -115244.33249  21882497.10949
 20  5 16  0 18 14.0000000  0  7G04G08G14G16G26G27G31               -0.000028610
  22342053.625 6  -1176738.246 6   -907423.30947  22342052.23047
  23216603.430 5  -1699577.164 5  -1252025.68049  23216604.71549
  22340148.602 6    585919.668 6    449298.07447  22340146.36347
  20657434.305 6   -431733.844 6   -323646.26249  20657431.23449
  21311506.219 6     39134.316 6     28757.55149  21311506.52749
  21018814.063 6  -1496242.078 6  -1122697.90249  21018813.86349
  21882416.844 6   -154076.172 6   -115582.40249  21882414.91449
 20  5 16  0 18 15.0000000  0  7G04G08G14G16G26G27G31               -0.000029554
  22341319.500 6  -1180596.715 6   -910429.90247  22341318.09047
  23215639.141 5  -1704647.906 5  -1255976.91049  23215640.04349
  22340464.961 6    587581.602 6    450593.09047  22340462.73047
  20657213.250 6   -432895.566 6   -324551.50449  20657210.12149
  21311521.578 6     39215.953 6     28821.15649  21311521.69149
  21018057.141 6  -1500221.422 6  -1125798.68849  21018056.39549
  21882334.484 6   -154510.066 6   -115920.50449  21882332.37949
 20  5 16  0 18 16.0000000  0  7G04G08G14G16G26G27G31               -0.000030497
  22340585.664 6  -1184454.980 6   -913436.34847  22340584.20347
  23214673.813 5  -1709718.660 5  -1259928.14849  23214675.00449
  22340781.313 6    589243.637 6    451888.17647  22340778.99647
  20656992.008 6   -434057.211 6   -325456.68449  20656988.87549
  21311537.516 6     39297.445 6     28884.66049  21311537.23449
  21017299.891 6  -1504200.496 6  -1128899.26249  21017299.29349
  21882251.578 6   -154943.988 6   -116258.62949  21882249.30949
 20  5 16  0 18 17.0000000  0  7G04G08G14G16G26G27G31               -0.000031441
  22339850.977 6  -1188313.090 6   -916442.66847  22339849.60547
  23213709.438 5  -1714789.527 5  -1263879.46949  23213710.00849
  22341097.398 6    590905.672 6    453183.26647  22341095.19147
  20656771.031 6   -435218.855 6   -326361.86349  20656767.91449
  21311553.008 6     39378.754 6     28948.01249  21311552.44149
  21016542.375 6  -1508179.348 6  -1131999.66849  21016542.31349
  21882169.227 6   -155377.957 6   -116596.78949  21882166.56649
 20  5 16  0 18 18.0000000  0  7G04G08G14G16G26G27G31               -0.000032383
  22339117.008 6  -1192171.121 6   -919448.92647  22339115.33647
  23212744.094 5  -1719860.559 5  -1267830.92249  23212745.19949
  22341413.563 6    592567.652 6    454478.31647  22341411.62547
  20656549.984 6   -436380.523 6   -327267.05149  20656546.56649
  21311568.406 6     39459.785 6     29011.15649  21311568.58649
  21015785.422 6  -1512158.035 6  -1135099.94549  21015784.85949
  21882086.789 6   -155812.070 6   -116935.05949  21882084.34449
 20  5 16  0 18 19.0000000  0  7G04G08G14G16G26G27G31               -0.000033327
  22338382.789 6  -1196028.785 6   -922454.89848  22338381.34048
  23211778.594 5  -1724931.457 5  -1271782.27749  23211780.04749
  22341730.008 6    594229.875 6    455773.55548  22341727.53548
  20656329.125 6   -437541.965 6   -328172.07449  20656326.03549
  21311583.852 6     39540.844 6     29074.32049  21311583.50849
  21015028.406 6  -1516136.297 6  -1138199.88749  21015027.99249
  21882004.047 6   -156246.043 6   -117273.22349  21882001.71149
 20  5 16  0 18 20.0000000  0  7G04G08G14G16G26G27G31               -0.000034271
  22337648.961 6  -1199886.168 6   -925460.64847  22337647.23447
  23210813.992 5  -1730002.305 5  -1275733.57849  23210815.14849
  22342046.641 6    595892.258 6    457068.91448  22342044.03148
  20656108.211 6   -438703.254 6   -329076.97349  20656104.79349
  21311599.133 6     39621.824 6     29137.41849  21311598.93049
  21014271.109 6  -1520114.207 6  -1141299.56349  21014270.98849
  21881921.570 6   -156679.902 6   -117611.29749  21881919.15649
 20  5 16  0 18 21.0000000  0  7G04G08G14G16G26G27G31               -0.000035215
  22336914.961 6  -1203743.301 6   -928466.20747  22336912.99647
  23209849.328 5  -1735073.137 5  -1279684.87549  23209849.89549
  22342362.891 6    597554.742 6    458364.35247  22342360.23447
  20655886.961 6   -439864.441 6   -329981.80149  20655883.47749
  21311614.500 6     39702.695 6     29200.44149  21311614.59049
  21013514.602 6  -1524091.793 6  -1144398.98449  21013513.97749
  21881839.023 6   -157113.789 6   -117949.39149  21881836.43049
 20  5 16  0 18 22.0000000  0  7G04G08G14G16G26G27G31               -0.000036158
  22336181.117 6  -1207600.191 6   -931471.57448  22336179.29748
  23208884.336 5  -1740143.984 5  -1283636.18449  23208885.21149
  22342678.906 6    599217.309 6    459659.85947  22342677.05947
  20655665.930 6   -441025.496 6   -330886.52049  20655662.92249
  21311629.680 7     39783.480 7     29263.39149  21311629.71949
  21012757.625 6  -1528069.090 6  -1147498.17249  21012757.19549
  21881756.391 6   -157547.605 6   -118287.43049  21881753.67249
 20  5 16  0 18 23.0000000  0  7G04G08G14G16G26G27G31               -0.000037102
  22335446.883 6  -1211456.941 6   -934476.83647  22335444.85547
  23207919.672 5  -1745214.938 5  -1287587.57449  23207920.09849
  22342995.695 6    600879.945 6    460955.42247  22342993.53547
  20655445.461 6   -442186.563 6   -331791.24249  20655442.17249
  21311645.344 6     39864.043 6     29326.16049  21311645.22349
  21012000.734 6  -1532046.160 6  -1150597.19149  21012000.05949
  21881673.758 6   -157981.508 6   -118625.53949  21881671.20749
 20  5 16  0 18 24.0000000  0  7G04G08G14G16G26G27G31               -0.000038048
  22334712.234 6  -1215313.559 6   -937481.98847  22334711.08247
  23206954.703 6  -1750286.000 6  -1291539.05149  23206955.54749
  22343311.773 6    602542.543 6    462250.95347  22343309.68047
  20655224.055 6   -443347.617 6   -332695.96149  20655221.18049
  21311660.398 6     39944.398 6     29388.77349  21311660.40649
  21011243.852 6  -1536023.051 6  -1153696.06649  21011243.94149
  21881590.969 6   -158415.508 6   -118963.71949  21881588.50849
 20  5 16  0 18 25.0000000  0  7G04G08G14G16G26G27G31               -0.000038992
  22333979.406 6  -1219170.020 6   -940487.02348  22333977.72348
  23205989.266 5  -1755357.121 5  -1295490.57849  23205990.53149
  22343628.414 6    604205.203 6    463546.53147  22343625.95347
  20655003.320 6   -444508.621 6   -333600.64549  20655000.08249
  21311675.547 6     40024.578 6     29451.25449  21311675.79349
  21010487.438 6  -1539999.652 6  -1156794.71549  21010486.78149
  21881508.570 6   -158849.527 6   -119301.91448  21881506.24248
 20  5 16  0 18 26.0000000  0  7G04G08G14G16G26G27G31               -0.000039936
  22333245.836 6  -1223026.168 6   -943491.81648  22333243.68848
  23205023.758 5  -1760428.246 5  -1299442.10249  23205025.64149
  22343944.828 6    605867.969 6    464842.19147  22343942.21947
  20654782.344 6   -445669.488 6   -334505.21149  20654779.15649
  21311690.938 7     40104.664 7     29513.65649  21311690.60549
  21009730.516 6  -1543975.941 6  -1159893.12149  21009730.37549
  21881425.813 6   -159283.508 6   -119640.09049  21881423.71949
 20  5 16  0 18 27.0000000  0  7G04G08G14G16G26G27G31               -0.000040882
  22332511.117 6  -1226882.188 6   -946496.50848  22332509.98448
  23204058.953 5  -1765499.398 5  -1303393.64849  23204060.25849
  22344261.023 6    607530.793 6    466137.89148  22344258.76648
  20654561.633 6   -446830.305 6   -335409.75049  20654558.35949
  21311706.344 6     40184.563 6     29575.91449  21311706.28949
  21008973.992 6  -1547952.012 6  -1162991.35949  21008973.86749
  21881343.594 6   -159717.531 6   -119978.28948  21881341.15248
 20  5 16  0 18 28.0000000  0  7G04G08G14G16G26G27G31               -0.000041826
  22331778.070 6  -1230737.949 6   -949501.00047  22331776.18047
  23203094.289 5  -1770570.598 5  -1307345.22749  23203095.13349
  22344577.602 6    609193.727 6    467433.68048  22344575.21148
  20654340.836 6   -447991.055 6   -336314.23049  20654337.43049
  21311721.375 6     40264.371 6     29638.10249  21311721.32449
  21008217.648 6  -1551927.754 6  -1166089.34049  21008217.01649
  21881260.508 6   -160151.535 6   -120316.48049  21881258.60249
 20  5 16  0 18 29.0000000  0  7G04G08G14G16G26G27G31               -0.000042770
  22331043.977 6  -1234593.590 6   -952505.39148  22331042.80948
  23202129.078 5  -1775641.906 5  -1311296.90249  23202130.19949
  22344894.438 6    610856.637 6    468729.45347  22344891.77047
  20654119.680 6   -449151.785 6   -337218.69549  20654116.62949
  21311736.547 6     40343.934 6     29700.09849  21311736.79349
  21007460.805 6  -1555903.328 6  -1169187.18849  21007460.77349
  21881178.273 6   -160585.629 6   -120654.73449  21881175.82849
 20  5 16  0 18 30.0000000  0  7G04G08G14G16G26G27G31               -0.000043716
  22330310.430 6  -1238449.148 6   -955509.72748  22330308.69548
  23201164.164 5  -1780713.398 5  -1315248.71149  23201165.09449
  22345210.922 6    612519.492 6    470025.18447  22345207.78147
  20653898.914 6   -450312.578 6   -338123.21149  20653895.89549
  21311751.852 6     40423.246 6     29761.89849  21311751.49249
  21006704.391 6  -1559878.742 6  -1172284.91849  21006704.13749
  21881095.789 6   -161019.848 6   -120993.08649  21881093.46949
 20  5 16  0 18 31.0000000  0  7G04G08G14G16G26G27G31               -0.000044662
  22329576.758 6  -1242304.410 6   -958513.82048  22329575.02348
  23200199.313 5  -1785784.809 5  -1319200.45749  23200200.36349
  22345526.938 6    614182.516 6    471321.05147  22345524.69947
  20653678.172 6   -451473.188 6   -339027.58649  20653674.96549
  21311766.359 6     40502.480 6     29823.64149  21311766.61749
  21005947.813 6  -1563853.777 6  -1175382.35249  21005947.43449
  21881012.891 6   -161454.000 6   -121331.38749  21881010.55949
 20  5 16  0 18 32.0000000  0  7G04G08G14G16G26G27G31               -0.000045609
  22328843.148 6  -1246159.574 6   -961517.84447  22328841.85947
  23199233.773 5  -1790856.324 5  -1323152.28949  23199235.22349
  22345843.602 6    615845.523 6    472616.89547  22345841.07447
  20653457.352 6   -452633.832 6   -339931.98449  20653453.99249
  21311781.586 6     40581.500 6     29885.21149  21311781.66049
  21005191.383 6  -1567828.621 6  -1178479.62549  21005191.02749
  21880930.086 6   -161888.242 6   -121669.75849  21880928.00849
 20  5 16  0 18 33.0000000  0  7G04G08G14G16G26G27G31               -0.000046553
  22328109.859 6  -1250014.465 6   -964521.65247  22328107.98847
  23198268.758 5  -1795927.831 5  -1327104.11049  23198270.28549
  22346159.453 6    617508.645 6    473912.82847  22346157.65247
  20653236.500 6   -453794.359 6   -340836.29349  20653233.21549
  21311796.719 6     40660.414 6     29946.69949  21311796.78949
  21004435.195 6  -1571803.172 6  -1181576.68449  21004434.97749
  21880847.859 6   -162322.457 6   -122008.10949  21880845.38349
 20  5 16  0 18 34.0000000  0  7G04G08G14G16G26G27G31               -0.000047499
  22327376.281 6  -1253869.211 6   -967525.35547  22327374.98047
  23197304.117 5  -1800999.438 5  -1331056.01249  23197304.69549
  22346476.305 6    619171.754 6    475208.76648  22346474.14848
  20653015.695 6   -454954.848 6   -341740.57049  20653012.06349
  21311811.867 6     40739.113 6     30008.02349  21311811.76249
  21003678.984 6  -1575777.480 6  -1184673.54349  21003678.74649
  21880765.156 6   -162756.730 6   -122346.50849  21880762.57849
 20  5 16  0 18 35.0000000  0  7G04G08G14G16G26G27G31               -0.000048445
  22326642.602 6  -1257723.762 6   -970528.90248  22326641.18848
  23196338.359 5  -1806071.121 5  -1335007.96949  23196339.68049
  22346792.766 6    620834.938 6    476504.75048  22346790.40648
  20652794.758 6   -456115.316 6   -342644.83649  20652791.43449
  21311826.813 6     40817.664 6     30069.23049  21311826.93449
  21002922.719 6  -1579751.563 6  -1187770.23049  21002922.43849
  21880682.453 6   -163191.035 6   -122684.92649  21880679.94149
 20  5 16  0 18 36.0000000  0  7G04G08G14G16G26G27G31               -0.000049393
  22325909.289 6  -1261578.242 6   -973532.39847  22325907.57447
  23195373.758 5  -1811142.965 5  -1338960.05549  23195374.66849
  22347109.313 6    622498.063 6    477800.69547  22347107.14147
  20652573.781 6   -457275.820 6   -343549.12149  20652570.88349
  21311841.453 6     40895.934 6     30130.21949  21311841.34449
  21002166.609 6  -1583725.465 6  -1190866.78149  21002165.89849
  21880599.586 6   -163625.465 6   -123023.44149  21880597.24649
 20  5 16  0 18 37.0000000  0  7G04G08G14G16G26G27G31               -0.000050339
  22325175.766 6  -1265432.434 6   -976535.66447  22325174.00847
  23194408.398 5  -1816214.770 5  -1342912.10949  23194409.48049
  22347425.828 6    624161.324 6    479096.73847  22347423.53547
  20652352.695 6   -458436.176 6   -344453.29749  20652349.80149
  21311856.375 7     40974.145 7     30191.16049  21311856.64149
  21001410.086 6  -1587699.023 6  -1193963.06649  21001410.03549
  21880516.945 6   -164059.836 6   -123361.91449  21880514.80549
 20  5 16  0 18 38.0000000  0  7G04G08G14G16G26G27G31               -0.000051285
  22324442.164 6  -1269286.383 6   -979538.73447  22324440.65647
  23193443.336 5  -1821286.535 5  -1346864.13349  23193444.07449
  22347742.383 6    625824.723 6    480392.89147  22347740.43447
  20652132.055 6   -459596.410 6   -345357.37149  20652128.82849
  21311871.109 6     41052.254 6     30252.03149  21311871.34049
  21000654.305 6  -1591672.266 6  -1197059.09849  21000653.98449
  21880434.570 6   -164494.195 6   -123700.37949  21880431.97749
 20  5 16  0 18 39.0000000  0  7G04G08G14G16G26G27G31               -0.000052233
  22323709.320 6  -1273140.016 6   -982541.57047  22323707.48047
  23192478.734 5  -1826358.273 5  -1350816.12949  23192479.54749
  22348059.023 6    627488.273 6    481689.16047  22348056.68447
  20651911.398 6   -460756.484 6   -346261.33249  20651908.55549
  21311886.016 7     41130.313 7     30312.85249  21311886.17249
  20999898.328 6  -1595645.125 6  -1200154.82849  20999897.95349
  21880351.828 6   -164928.414 6   -124038.73049  21880349.78149
 20  5 16  0 18 40.0000000  0  7G04G08G14G16G26G27G31               -0.000053179
  22322975.906 6  -1276993.586 6   -985544.35248  22322974.22348
  23191513.484 5  -1831430.152 5  -1354768.25049  23191514.10549
  22348375.805 6    629151.773 6    482985.39148  22348373.14548
  20651690.430 6   -461916.613 6   -347165.32849  20651687.44149
  21311900.727 6     41208.082 6     30373.45349  21311901.10949
  20999142.039 6  -1599617.859 6  -1203250.46549  20999142.10249
  21880269.016 6   -165362.805 6   -124377.21949  21880266.94149
 20  5 16  0 18 41.0000000  0  7G04G08G14G16G26G27G31               -0.000054127
  22322242.109 6  -1280846.945 6   -988546.97348  22322240.67248
  23190548.164 6  -1836502.051 6  -1358720.38349  23190549.03149
  22348692.266 6    630815.328 6    484281.67247  22348690.17247
  20651469.953 6   -463076.664 6   -348069.26249  20651466.79749
  21311915.758 6     41285.723 6     30433.94949  21311915.82449
  20998386.164 6  -1603590.316 6  -1206345.88749  20998386.05949
  21880186.883 6   -165797.211 6   -124715.72349  21880184.49649
 20  5 16  0 18 42.0000000  0  7G04G08G14G16G26G27G31               -0.000055075
  22321509.438 6  -1284700.070 6   -991549.41048  22321507.84848
  23189582.906 5  -1841573.973 5  -1362672.52749  23189583.94149
  22349009.016 6    632479.012 6    485578.03947  22349006.40647
  20651249.344 6   -464236.609 6   -348973.11749  20651245.88349
  21311930.547 6     41363.258 6     30494.36349  21311930.42249
  20997630.430 6  -1607562.445 6  -1209441.05149  20997630.18849
  21880103.766 6   -166231.578 6   -125054.19149  21880101.68449
 20  5 16  0 18 43.0000000  0  7G04G08G14G16G26G27G31               -0.000056021
  22320775.813 6  -1288552.961 6   -994551.66448  22320774.49248
  23188617.570 5  -1846645.891 5  -1366624.66849  23188618.59049
  22349325.414 6    634142.762 6    486874.47747  22349322.89847
  20651028.797 6   -465396.465 6   -349876.90249  20651025.24249
  21311945.039 6     41440.648 6     30554.66849  21311945.56349
  20996874.391 6  -1611534.293 6  -1212536.00049  20996874.45349
  21880021.359 6   -166665.938 6   -125392.65249  21880018.72749
 20  5 16  0 18 44.0000000  0  7G04G08G14G16G26G27G31               -0.000056969
  22320043.430 6  -1292405.742 6   -997553.82848  22320041.25448
  23187652.602 5  -1851717.992 5  -1370576.94949  23187653.27349
  22349641.703 6    635806.473 6    488170.87547  22349639.87547
  20650807.945 6   -466556.367 6   -350780.72749  20650804.41849
  21311959.734 6     41517.801 6     30614.79349  21311959.84449
  20996118.492 6  -1615505.992 6  -1215630.82849  20996118.36749
  21879938.766 6   -167100.422 6   -125731.21149  21879936.32049
 20  5 16  0 18 45.0000000  0  7G04G08G14G16G26G27G31               -0.000057917
  22319309.813 6  -1296258.262 6  -1000555.79348  22319308.16048
  23186687.352 5  -1856790.043 5  -1374529.19549  23186688.08649
  22349958.172 6    637470.344 6    489467.40247  22349956.18447
  20650587.391 7   -467716.117 7   -351684.43049  20650584.07849
  21311974.516 6     41594.887 6     30674.85249  21311974.84049
  20995363.242 6  -1619477.309 6  -1218725.35949  20995362.84449
  21879855.953 6   -167534.828 6   -126069.71549  21879853.43449
 20  5 16  0 18 46.0000000  0  7G04G08G14G16G26G27G31               -0.000058865
  22318576.547 6  -1300110.559 6  -1003557.58647  22318575.00447
  23185721.906 5  -1861862.145 5  -1378481.48449  23185723.00049
  22350275.195 6    639134.262 6    490763.95747  22350272.94547
  20650366.711 7   -468875.824 7   -352588.09849  20650363.19549
  21311989.164 6     41671.777 6     30734.77049  21311989.42249
  20994607.422 6  -1623448.383 6  -1221819.69949  20994607.41449
  21879773.148 6   -167969.281 6   -126408.25049  21879770.85949
 20  5 16  0 18 47.0000000  0  7G04G08G14G16G26G27G31               -0.000059813
  22317843.992 6  -1303962.750 6  -1006559.28947  22317841.80147
  23184756.609 5  -1866934.359 5  -1382433.86349  23184757.80549
  22350591.594 6    640798.148 6    492060.48847  22350589.59447
  20650145.609 7   -470035.539 7   -353491.77349  20650142.29749
  21312003.438 6     41748.445 6     30794.51249  21312003.55549
  20993851.922 6  -1627419.270 6  -1224913.89849  20993851.87549
  21879690.500 6   -168403.816 6   -126746.84849  21879688.01249
 20  5 16  0 18 48.0000000  0  7G04G08G14G16G26G27G31               -0.000060762
  22317109.953 6  -1307814.746 6  -1009560.85247  22317109.19147
  23183791.672 5  -1872006.582 5  -1386386.24249  23183792.78549
  22350908.016 6    642462.152 6    493357.11347  22350906.62547
  20649925.055 6   -471195.148 6   -354395.36749  20649921.65249
  21312018.164 6     41825.008 6     30854.16849  21312018.40249
  20993096.242 6  -1631389.840 6  -1228007.85249  20993096.15649
  21879607.758 6   -168838.320 6   -127085.42249  21879605.45749
 20  5 16  0 18 49.0000000  0  7G04G08G14G16G26G27G31               -0.000061710
  22316377.344 6  -1311666.434 6  -1012562.16447  22316375.81347
  23182826.039 5  -1877078.793 5  -1390338.60949  23182827.43849
  22351225.070 6    644126.266 6    494653.81648  22351222.80548
  20649704.359 6   -472354.633 6   -355298.86349  20649701.09849
  21312032.797 6     41901.500 6     30913.77349  21312033.04349
  20992340.914 6  -1635360.109 6  -1231101.57049  20992340.88749
  21879525.266 6   -169272.797 6   -127423.97749  21879522.79349
 20  5 16  0 18 50.0000000  0  7G04G08G14G16G26G27G31               -0.000062658
  22315644.469 6  -1315517.836 6  -1015563.25848  22315643.14548
  23181861.219 5  -1882150.973 5  -1394290.95749  23181862.07849
  22351542.047 6    645790.547 6    495950.66448  22351539.54348
  20649483.664 7   -473513.945 7   -356202.21949  20649480.57049
  21312047.219 6     41977.891 6     30973.29349  21312047.64849
  20991585.414 6  -1639329.965 6  -1234194.96549  20991585.20349
  21879442.453 6   -169707.195 6   -127762.48049  21879440.05149
 20  5 16  0 18 51.0000000  0  7G04G08G14G16G26G27G31               -0.000063606
  22314911.555 6  -1319369.102 6  -1018564.24248  22314910.31348
  23180895.906 5  -1887223.246 5  -1398243.37549  23180897.02749
  22351858.500 6    647454.828 6    497247.50848  22351856.39548
  20649262.969 7   -474673.266 7   -357105.58649  20649260.53549
  21312061.617 6     42054.109 6     31032.68049  21312062.35549
  20990829.891 6  -1643299.629 6  -1237288.20749  20990829.64549
  21879359.766 6   -170141.648 6   -128101.01249  21879357.49249
 20  5 16  0 18 52.0000000  0  7G04G08G14G16G26G27G31               -0.000064556
  22314178.797 6  -1323220.031 6  -1021564.95748  22314177.52748
  23179930.844 5  -1892295.457 5  -1402195.74649  23179931.61349
  22352175.367 6    649119.301 6    498544.49248  22352173.14548
  20649042.703 7   -475832.391 7   -358008.80149  20649039.45349
  21312076.328 6     42130.297 6     31092.05549  21312076.72349
  20990074.492 6  -1647268.906 6  -1240381.14849  20990074.45749
  21879277.203 6   -170576.012 6   -128439.48049  21879274.91049
 20  5 16  0 18 53.0000000  0  7G04G08G14G16G26G27G31               -0.000065506
  22313446.414 6  -1327070.816 6  -1024565.57048  22313444.67648
  23178965.469 5  -1897367.699 5  -1406148.14549  23178966.33649
  22352491.836 6    650783.777 6    499841.48048  22352489.87548
  20648822.320 6   -476991.504 6   -358912.00449  20648819.00049
  21312090.414 6     42206.262 6     31151.24649  21312091.06649
  20989319.305 6  -1651237.973 6  -1243473.93049  20989319.26649
  21879194.563 6   -171010.430 6   -128777.98449  21879192.57449
 20  5 16  0 18 54.0000000  0  7G04G08G14G16G26G27G31               -0.000066454
  22312713.680 6  -1330921.387 6  -1027566.02048  22312711.89148
  23177999.766 5  -1902440.035 5  -1410100.61349  23178001.03949
  22352809.039 6    652448.359 6    501138.55548  22352806.79748
  20648601.391 6   -478150.531 6   -359815.15249  20648598.37149
  21312105.391 6     42282.098 6     31210.33649  21312105.10949
  20988563.727 6  -1655206.738 6  -1246566.47349  20988563.91449
  21879111.789 6   -171444.867 6   -129116.50849  21879109.24649
 20  5 16  0 18 55.0000000  0  7G04G08G14G16G26G27G31               -0.000067404
  22311980.836 6  -1334771.793 6  -1030566.34848  22311979.49648
  23177034.961 5  -1907512.414 5  -1414053.11749  23177035.99249
  22353125.391 6    654112.926 6    502435.62548  22353123.17648
  20648381.219 6   -479309.555 6   -360718.28149  20648378.20349
  21312119.586 6     42357.723 6     31269.26249  21312119.83649
  20987808.828 6  -1659175.297 6  -1249658.85949  20987808.71549
  21879029.078 6   -171879.340 6   -129455.05949  21879026.99649
 20  5 16  0 18 56.0000000  0  7G04G08G14G16G26G27G31               -0.000068354
  22311248.242 6  -1338622.012 6  -1033566.51248  22311246.48048
  23176069.539 5  -1912584.836 5  -1418005.64849  23176070.77049
  22353441.734 6    655777.535 6    503732.72748  22353440.07448
  20648160.109 7   -480468.484 7   -361621.34849  20648157.27049
  21312133.852 6     42433.195 6     31328.07449  21312134.04349
  20987053.609 6  -1663143.555 6  -1252751.01249  20987053.28149
  21878946.266 6   -172313.844 6   -129793.63749  21878943.81649
 20  5 16  0 18 57.0000000  0  7G04G08G14G16G26G27G31               -0.000069304
  22310515.344 6  -1342471.953 6  -1036566.46948  22310514.06648
  23175104.211 5  -1917657.223 5  -1421958.14849  23175105.48449
  22353759.320 6    657442.309 6    505029.95747  22353756.89847
  20647939.742 6   -481627.313 6   -362524.32848  20647936.80548
  21312148.398 6     42508.598 6     31386.82849  21312148.55949
  20986298.781 6  -1667111.504 6  -1255842.92249  20986298.48449
  21878863.859 6   -172748.297 6   -130132.17649  21878861.71549
 20  5 16  0 18 58.0000000  0  7G04G08G14G16G26G27G31               -0.000070253
  22309782.797 6  -1346321.629 6  -1039566.21148  22309781.45348
  23174139.758 5  -1922729.598 5  -1425910.64849  23174140.42649
  22354075.773 6    659107.152 6    506327.23848  22354073.18048
  20647719.727 6   -482786.016 6   -363427.21549  20647716.48849
  21312162.719 6     42583.879 6     31445.48449  21312162.73449
  20985543.375 6  -1671079.121 6  -1258934.56349  20985543.20349
  21878781.484 6   -173182.723 6   -130470.68849  21878778.93449
 20  5 16  0 18 59.0000000  0  7G04G08G14G16G26G27G31               -0.000071203
  22309050.008 6  -1350171.223 6  -1042565.89548  22309048.80148
  23173174.117 6  -1927802.105 6  -1429863.25849  23173174.66849
  22354392.289 6    660772.020 6    507624.53948  22354390.45748
  20647498.945 6   -483944.746 6   -364330.12149  20647495.39849
  21312176.844 6     42658.926 6     31503.97349  21312177.14149
  20984788.516 6  -1675046.570 6  -1262026.08649  20984788.62549
  21878698.445 6   -173617.254 6   -130809.28949  21878696.13349
 20  5 16  0 19  0.0000000  0  7G04G08G14G16G26G27G31               -0.000072153
  22308318.477 6  -1354020.578 6  -1045565.39148  22308316.52048
  23172208.484 5  -1932874.625 5  -1433815.87549  23172209.50849
  22354709.391 6    662436.969 6    508921.89847  22354707.09047
  20647278.430 6   -485103.379 6   -365232.95349  20647274.91849
  21312191.273 6     42733.852 6     31562.35549  21312191.62949
  20984033.688 6  -1679013.723 6  -1265117.37949  20984033.61749
  21878615.992 6   -174051.742 6   -131147.85249  21878613.80149
 20  5 16  0 19  1.0000000  0  7G04G08G14G16G26G27G31               -0.000073103
  22307585.313 6  -1357869.715 6  -1048564.71548  22307584.18848
  23171243.672 5  -1937947.176 5  -1437768.51249  23171244.32449
  22355026.258 6    664101.934 6    510219.27048  22355024.05548
  20647058.008 6   -486261.961 6   -366135.75049  20647054.75049
  21312205.148 6     42808.629 6     31620.62549  21312205.75049
  20983278.828 6  -1682980.586 6  -1268208.44149  20983279.01649
  21878533.367 6   -174486.258 6   -131486.43049  21878530.71949
 20  5 16  0 19  2.0000000  0  7G04G08G14G16G26G27G31               -0.000074055
  22306853.250 6  -1361718.641 6  -1051563.88748  22306851.63348
  23170278.172 5  -1943019.734 5  -1441721.14849  23170278.88749
  22355343.133 6    665767.027 6    511516.74647  22355341.15247
  20646837.242 6   -487420.469 6   -367038.48049  20646834.19549
  21312219.336 6     42883.262 6     31678.77349  21312219.73849
  20982523.992 6  -1686947.160 6  -1271299.27049  20982523.98049
  21878450.461 6   -174920.785 6   -131825.02349  21878448.19949
 20  5 16  0 19  3.0000000  0  7G04G08G14G16G26G27G31               -0.000075005
  22306120.320 6  -1365567.355 6  -1054562.88348  22306118.54748
  23169312.820 5  -1948092.359 5  -1445673.84449  23169313.87949
  22355660.000 6    667432.180 6    512814.26248  22355658.21548
  20646616.734 6   -488578.887 6   -367941.14148  20646613.67248
  21312233.570 6     42957.770 6     31736.83249  21312234.08249
  20981769.172 6  -1690913.445 6  -1274389.88749  20981769.05949
  21878367.750 6   -175355.297 6   -132163.60949  21878365.53949
 20  5 16  0 19  4.0000000  0  7G04G08G14G16G26G27G31               -0.000075956
  22305388.055 5  -1369415.836 5  -1057561.69948  22305386.91448
  23168347.461 5  -1953164.984 5  -1449626.53549  23168348.69549
  22355976.875 6    669097.426 6    514111.85547  22355974.97347
  20646396.359 6   -489737.199 6   -368843.71948  20646393.17648
  21312247.945 6     43032.156 6     31794.78949  21312248.23849
  20981014.508 6  -1694879.445 6  -1277480.27749  20981014.24649
  21878284.953 6   -175789.797 6   -132502.18049  21878282.33649
 20  5 16  0 19  5.0000000  0  7G04G08G14G16G26G27G31               -0.000076906
  22304656.008 6  -1373264.023 6  -1060560.28148  22304654.49248
  23167382.438 5  -1958237.574 5  -1453579.20749  23167383.24249
  22356293.875 6    670762.801 6    515409.55148  22356291.73848
  20646176.094 6   -490895.387 6   -369746.21148  20646172.78948
  21312261.891 6     43106.453 6     31852.68849  21312262.39549
  20980259.898 6  -1698845.094 6  -1280570.39149  20980259.74249
  21878202.117 6   -176224.238 6   -132840.70749  21878199.98449
 20  5 16  0 19  6.0000000  0  7G04G08G14G16G26G27G31               -0.000077858
  22303923.633 6  -1377112.133 6  -1063558.80148  22303922.31648
  23166417.242 5  -1963310.363 5  -1457532.02749  23166417.80949
  22356610.453 6    672428.117 6    516707.19548  22356608.61348
  20645955.727 6   -492053.621 6   -370648.73049  20645952.37949
  21312276.602 6     43180.504 6     31910.39149  21312277.00449
  20979505.570 6  -1702810.570 6  -1283660.37149  20979505.07449
  21878119.859 6   -176658.813 6   -133179.33649  21878117.32849
 20  5 16  0 19  7.0000000  0  7G04G08G14G16G26G27G31               -0.000078810
  22303191.625 6  -1380959.887 6  -1066557.05548  22303190.02748
  23165451.492 5  -1968382.973 5  -1461484.71149  23165452.30549
  22356927.289 6    674093.652 6    518005.01648  22356925.34448
  20645735.602 6   -493211.641 6   -371551.08649  20645732.11349
  21312290.211 7     43254.477 7     31968.02749  21312290.41449
  20978750.891 6  -1706775.660 6  -1286750.05549  20978750.73049
  21878037.359 6   -177093.262 6   -133517.87149  21878034.90649
 20  5 16  0 19  8.0000000  0  7G04G08G14G16G26G27G31               -0.000079762
  22302459.523 6  -1384807.566 6  -1069555.25448  22302457.59848
  23164486.344 5  -1973455.730 5  -1465437.50849  23164486.99649
  22357244.695 6    675759.105 6    519302.77048  22357242.19548
  20645514.898 6   -494369.727 6   -372453.48849  20645511.68449
  21312304.305 7     43328.238 7     32025.50049  21312304.54349
  20977996.227 6  -1710740.578 6  -1289839.60549  20977995.94149
  21877954.352 6   -177527.859 6   -133856.52349  21877952.03949
 20  5 16  0 19  9.0000000  0  7G04G08G14G16G26G27G31               -0.000080711
  22301727.164 6  -1388655.000 6  -1072553.25848  22301725.93848
  23163521.094 5  -1978528.516 5  -1469390.32849  23163521.65649
  22357561.500 6    677424.707 6    520600.63748  22357559.64148
  20645294.711 6   -495527.680 6   -373355.79349  20645291.14149
  21312318.156 6     43401.891 6     32082.89149  21312318.52749
  20977241.586 6  -1714705.184 6  -1292928.90649  20977241.52349
  21877871.711 6   -177962.375 6   -134195.11349  21877869.01649
 20  5 16  0 19 10.0000000  0  7G04G08G14G16G26G27G31               -0.000081663
  22300995.656 6  -1392502.145 6  -1075551.03148  22300993.80948
  23162555.727 5  -1983601.227 5  -1473343.08649  23162556.58649
  22357878.883 6    679090.438 6    521898.61347  22357876.48047
  20645074.391 6   -496685.488 6   -374257.98448  20645070.96148
  21312332.211 7     43475.500 7     32140.25049  21312332.71149
  20976487.313 6  -1718669.438 6  -1296017.93449  20976487.15249
  21877788.906 6   -178396.840 6   -134533.65649  21877786.79749
 20  5 16  0 19 11.0000000  0  7G04G08G14G16G26G27G31               -0.000082615
  22300263.195 6  -1396348.961 6  -1078548.55148  22300261.49248
  23161590.594 5  -1988673.875 5  -1477295.80149  23161591.28549
  22358195.617 6    680756.348 6    523196.72747  22358193.59447
  20644854.133 6   -497843.141 6   -375160.05148  20644850.61748
  21312346.422 7     43549.016 7     32197.53149  21312346.65649
  20975733.289 6  -1722633.305 6  -1299106.65649  20975732.99249
  21877706.352 6   -178831.246 6   -134872.15249  21877704.16049
 20  5 16  0 19 12.0000000  0  7G04G08G14G16G26G27G31               -0.000083569
  22299530.914 6  -1400195.574 6  -1081545.90248  22299529.71548
  23160625.352 6  -1993746.582 6  -1481248.56349  23160626.17249
  22358512.445 6    682422.324 6    524494.88747  22358510.03947
  20644633.914 6   -499000.707 6   -376062.04748  20644630.67648
  21312360.195 6     43622.402 6     32254.71149  21312360.63349
  20974979.102 6  -1726596.883 6  -1302195.16049  20974978.57849
  21877623.969 6   -179265.633 6   -135210.64149  21877621.01249
 20  5 16  0 19 13.0000000  0  7G04G08G14G16G26G27G31               -0.000084520
  22298799.383 6  -1404042.016 6  -1084543.13348  22298797.56348
  23159659.961 6  -1998819.328 6  -1485201.34849  23159660.61749
  22358829.797 6    684088.340 6    525793.08248  22358827.42648
  20644413.578 6   -500158.215 6   -376964.00449  20644410.26249
  21312373.828 6     43695.617 6     32311.77049  21312374.48049
  20974224.922 6  -1730560.215 6  -1305283.46949  20974224.44949
  21877541.000 6   -179700.031 6   -135549.13349  21877538.92249
 20  5 16  0 19 14.0000000  0  7G04G08G14G16G26G27G31               -0.000085472
  22298066.953 6  -1407888.383 6  -1087540.30148  22298065.83248
  23158694.977 6  -2003892.258 6  -1489154.28149  23158695.37949
  22359146.094 6    685754.258 6    527091.19947  22359144.07847
  20644193.313 6   -501315.828 6   -377866.03948  20644189.74248
  21312387.844 6     43768.543 6     32368.59449  21312388.44549
  20973470.711 6  -1734523.402 6  -1308371.66849  20973470.17249
  21877458.586 6   -180134.609 6   -135887.77049  21877456.48849
 20  5 16  0 19 15.0000000  0  7G04G08G14G16G26G27G31               -0.000086426
  22297335.289 6  -1411734.379 6  -1090537.18448  22297334.05548
  23157729.430 6  -2008965.059 6  -1493107.11349  23157730.44949
  22359463.695 6    687420.391 6    528389.48448  22359461.21148
  20643973.195 6   -502473.227 6   -378767.91049  20643969.67249
  21312401.672 6     43841.453 6     32425.40249  21312402.38349
  20972716.586 6  -1738486.203 6  -1311459.57049  20972716.18449
  21877375.859 6   -180569.082 6   -136226.31649  21877373.41449
 20  5 16  0 19 16.0000000  0  7G04G08G14G16G26G27G31               -0.000087378
  22296603.602 6  -1415580.074 6  -1093533.83648  22296602.22748
  23156764.070 5  -2014037.785 5  -1497059.88749  23156764.59849
  22359780.578 6    689086.734 6    529687.93448  22359778.20748
  20643752.883 6   -503630.418 6   -379669.61749  20643749.29349
  21312415.383 6     43914.363 6     32482.21949  21312416.23849
  20971962.516 6  -1742448.535 6  -1314547.09849  20971962.12149
  21877293.250 6   -181003.398 6   -136564.73849  21877290.56349
 20  5 16  0 19 17.0000000  0  7G04G08G14G16G26G27G31               -0.000088331
  22295871.789 6  -1419425.551 6  -1096530.30948  22295870.51648
  23155799.000 6  -2019110.539 6  -1501012.68049  23155799.08249
  22360098.055 6    690753.129 6    530986.42648  22360095.59448
  20643532.617 6   -504787.551 6   -380571.28149  20643529.25849
  21312429.352 6     43987.109 6     32538.90249  21312429.80949
  20971208.820 6  -1746410.652 6  -1317634.46549  20971208.30549
  21877210.477 6   -181437.730 6   -136903.18849  21877208.10249
 20  5 16  0 19 18.0000000  0  7G04G08G14G16G26G27G31               -0.000089283
  22295139.969 6  -1423270.754 6  -1099526.57048  22295138.58648
  23154833.555 6  -2024183.301 6  -1504965.48049  23154834.06649
  22360414.953 6    692419.633 6    532285.00048  22360412.63748
  20643312.328 6   -505944.570 6   -381472.85549  20643308.98849
  21312442.953 6     44059.750 6     32595.50849  21312444.24249
  20970454.313 6  -1750372.449 6  -1320721.57849  20970454.25849
  21877127.508 6   -181872.012 6   -137241.59049  21877125.37149
 20  5 16  0 19 19.0000000  0  7G04G08G14G16G26G27G31               -0.000090237
  22294408.297 6  -1427115.836 6  -1102522.73448  22294407.07848
  23153868.578 6  -2029256.121 6  -1508918.32849  23153868.53949
  22360732.078 6    694086.137 6    533583.56648  22360730.32848
  20643092.125 6   -507101.574 6   -382374.41449  20643088.91449
  21312457.320 6     44132.176 6     32651.94549  21312457.85249
  20969700.547 6  -1754334.000 6  -1323808.50449  20969700.31649
  21877044.945 6   -182306.418 6   -137580.08649  21877042.68449
 20  5 16  0 19 20.0000000  0  7G04G08G14G16G26G27G31               -0.000091188
  22293676.906 6  -1430960.641 6  -1105518.68448  22293675.59448
  23152902.813 6  -2034328.918 6  -1512871.15649  23152903.25049
  22361049.141 6    695752.797 6    534882.26247  22361047.07847
  20642872.008 6   -508258.434 6   -383275.86749  20642868.90649
  21312470.844 6     44204.531 6     32708.32449  21312471.52049
  20968946.898 6  -1758295.223 6  -1326895.16849  20968946.42649
  21876962.352 6   -182740.730 6   -137918.51649  21876960.31649
 20  5 16  0 19 21.0000000  0  7G04G08G14G16G26G27G31               -0.000092142
  22292945.086 6  -1434805.340 6  -1108514.55148  22292943.71548
  23151938.039 6  -2039401.891 6  -1516824.12149  23151938.28549
  22361366.563 6    697419.395 6    536180.90647  22361364.39147
  20642652.039 6   -509415.367 6   -384177.37548  20642648.53948
  21312484.508 6     44276.609 6     32764.48449  21312485.69549
  20968193.125 6  -1762256.289 6  -1329981.71549  20968192.70749
  21876879.781 6   -183175.156 6   -138257.03149  21876877.58249
 20  5 16  0 19 22.0000000  0  7G04G08G14G16G26G27G31               -0.000093096
  22292213.914 6  -1438649.770 6  -1111510.20748  22292212.48848
  23150972.133 6  -2044474.793 6  -1520777.03549  23150972.63349
  22361683.641 6    699086.090 6    537479.62547  22361681.34447
  20642431.734 6   -510572.164 6   -385078.77048  20642428.47348
  21312498.094 6     44348.625 6     32820.60249  21312498.80549
  20967439.508 6  -1766217.004 6  -1333067.98449  20967438.90249
  21876797.336 6   -183609.523 6   -138595.50049  21876794.63349
 20  5 16  0 19 23.0000000  0  7G04G08G14G16G26G27G31               -0.000094049
  22291482.484 6  -1442493.855 6  -1114505.59848  22291480.79348
  23150006.547 6  -2049547.648 6  -1524729.91449  23150007.44549
  22362000.742 6    700753.000 6    538778.51647  22361998.70747
  20642211.820 6   -511728.734 6   -385980.00048  20642208.13748
  21312511.625 6     44420.609 6     32876.69549  21312512.46949
  20966685.750 6  -1770177.297 6  -1336153.93049  20966685.14849
  21876714.609 6   -184043.793 6   -138933.89549  21876712.00049
 20  5 16  0 19 24.0000000  0  7G04G08G14G16G26G27G31               -0.000095003
  22290750.539 6  -1446337.668 6  -1117500.77048  22290749.33648
  23149041.742 6  -2054620.469 6  -1528682.76249  23149041.71949
  22362317.727 6    702420.078 6    540077.54348  22362316.12148
  20641991.742 6   -512885.176 6   -386881.12148  20641988.05948
  21312525.250 6     44492.527 6     32932.73049  21312526.32449
  20965932.758 6  -1774137.250 6  -1339239.60249  20965932.08249
  21876631.930 6   -184478.004 6   -139272.24249  21876629.58649
 20  5 16  0 19 25.0000000  0  7G04G08G14G16G26G27G31               -0.000095957
  22290019.477 6  -1450181.039 6  -1120495.60948  22290017.39548
  23148076.063 6  -2059693.074 6  -1532635.43849  23148076.73049
  22362634.891 6    704087.395 6    541376.75047  22362633.02747
  20641771.680 6   -514041.336 6   -387782.02348  20641768.27348
  21312538.930 6     44564.492 6     32988.80949  21312539.96549
  20965179.047 6  -1778096.707 6  -1342324.89849  20965178.50049
  21876549.234 6   -184911.988 6   -139610.41049  21876546.84049
 20  5 16  0 19 26.0000000  0  7G04G08G14G16G26G27G31               -0.000096910
  22289287.742 6  -1454024.285 6  -1123490.34848  22289286.15248
  23147110.633 6  -2064765.801 6  -1536588.21149  23147111.32849
  22362952.773 6    705754.711 6    542675.96147  22362950.36347
  20641551.500 6   -515197.504 6   -388682.93448  20641548.27748
  21312552.766 6     44636.246 6     33044.71949  21312554.02049
  20964425.391 6  -1782055.984 6  -1345410.05149  20964424.73049
  21876466.227 6   -185346.074 6   -139948.65649  21876464.15249
 20  5 16  0 19 27.0000000  0  7G04G08G14G16G26G27G31               -0.000097866
  22288556.750 6  -1457867.434 6  -1126485.01648  22288555.20348
  23146145.734 6  -2069838.684 6  -1540541.10249  23146146.03549
  22363269.445 6    707421.992 6    543975.14147  22363267.79747
  20641331.836 6   -516353.703 6   -389583.86748  20641328.12148
  21312566.438 6     44707.742 6     33100.43049  21312566.80949
  20963671.969 6  -1786015.070 6  -1348495.05549  20963671.49649
  21876383.727 6   -185780.230 6   -140286.96549  21876381.53949
 20  5 16  0 19 28.0000000  0  7G04G08G14G16G26G27G31               -0.000098820
  22287825.242 6  -1461710.348 6  -1129479.49248  22287824.19548
  23145180.742 6  -2074911.563 6  -1544494.00049  23145180.66049
  22363587.305 6    709089.391 6    545274.40647  22363585.26647
  20641111.969 6   -517509.820 6   -390484.74248  20641108.19148
  21312580.320 6     44779.102 6     33156.03149  21312581.08249
  20962918.711 6  -1789973.848 6  -1351579.81349  20962918.41049
  21876301.688 6   -186214.406 6   -140625.28549  21876299.11349
 20  5 16  0 19 29.0000000  0  7G04G08G14G16G26G27G31               -0.000099775
  22287094.086 6  -1465552.965 6  -1132473.73848  22287092.61748
  23144215.008 6  -2079984.387 6  -1548446.84849  23144215.36349
  22363904.641 6    710756.895 6    546573.76247  22363902.16447
  20640891.836 6   -518665.793 6   -391385.49648  20640888.41048
  21312593.688 6     44850.395 6     33211.58249  21312594.57849
  20962165.164 6  -1793932.277 6  -1354664.30549  20962164.61749
  21876218.758 6   -186648.516 6   -140963.55149  21876216.68049
 20  5 16  0 19 30.0000000  0  7G04G08G14G16G26G27G31               -0.000100729
  22286363.148 6  -1469395.371 6  -1135467.82448  22286361.52348
  23143249.531 6  -2085057.242 6  -1552399.72749  23143250.16049
  22364221.781 6    712424.484 6    547873.18047  22364219.45747
  20640671.734 6   -519821.691 6   -392286.19948  20640667.94948
  21312607.344 6     44921.547 6     33267.03149  21312608.20749
  20961412.250 6  -1797890.422 6  -1357748.57049  20961411.92249
  21876135.984 6   -187082.617 6   -141301.81649  21876133.79749
 20  5 16  0 19 31.0000000  0  7G04G08G14G16G26G27G31               -0.000101683
  22285631.484 6  -1473237.531 6  -1138461.71548  22285630.21948
  23142283.984 6  -2090130.129 6  -1556352.62549  23142284.84449
  22364538.945 6    714092.145 6    549172.65647  22364537.25447
  20640451.789 6   -520977.504 6   -393186.83248  20640448.20348
  21312620.672 6     44992.582 6     33322.37949  21312621.50049
  20960658.781 6  -1801848.270 6  -1360832.61349  20960658.47749
  21876053.484 6   -187516.699 6   -141640.05949  21876051.34449
 20  5 16  0 19 32.0000000  0  7G04G08G14G16G26G27G31               -0.000102638
  22284900.820 6  -1477079.543 6  -1141455.49248  22284899.37548
  23141318.969 6  -2095203.063 6  -1560305.55949  23141319.48449
  22364856.242 6    715759.871 6    550472.17647  22364854.27347
  20640231.758 6   -522133.285 6   -394087.43848  20640227.96948
  21312634.211 6     45063.426 6     33377.58649  21312634.93449
  20959906.078 6  -1805805.871 6  -1363916.45349  20959905.51249
  21875970.719 6   -187950.832 6   -141978.34849  21875968.28549
 20  5 16  0 19 33.0000000  0  7G04G08G14G16G26G27G31               -0.000103594
  22284169.922 6  -1480921.188 6  -1144448.97748  22284168.15248
  23140353.906 6  -2100275.852 6  -1564258.37549  23140354.28949
  22365173.852 6    717427.770 6    551771.83647  22365171.59847
  20640012.070 6   -523288.832 6   -394987.87149  20640008.24649
  21312647.750 6     45134.262 6     33432.77749  21312648.61349
  20959153.008 6  -1809763.047 6  -1366999.97749  20959152.53549
  21875888.211 6   -188384.816 6   -142316.51649  21875885.91849
 20  5 16  0 19 34.0000000  0  7G04G08G14G16G26G27G31               -0.000104549
  22283438.805 6  -1484762.570 6  -1147442.26648  22283437.35948
  23139388.414 6  -2105348.672 6  -1568211.22349  23139388.82049
  22365491.258 6    719095.824 6    553071.61748  22365488.99248
  20639791.969 6   -524444.270 6   -395888.21148  20639788.24648
  21312661.125 6     45205.020 6     33487.91049  21312662.21149
  20958400.328 7  -1813719.883 7  -1370083.22349  20958399.39849
  21875805.914 6   -188818.762 6   -142654.65649  21875803.36349
 20  5 16  0 19 35.0000000  0  7G04G08G14G16G26G27G31               -0.000105503
  22282707.727 6  -1488603.625 6  -1150435.29748  22282706.42648
  23138423.078 6  -2110421.363 6  -1572163.97749  23138423.44949
  22365808.664 6    720763.996 6    554371.49247  22365806.98847
  20639572.211 6   -525599.539 6   -396788.42248  20639568.60248
  21312674.586 6     45275.727 6     33543.00849  21312675.57049
  20957646.961 6  -1817676.344 6  -1373166.17649  20957646.46149
  21875723.211 6   -189252.625 6   -142992.73049  21875720.60249
 20  5 16  0 19 36.0000000  0  7G04G08G14G16G26G27G31               -0.000106459
  22281977.008 6  -1492444.523 6  -1153428.20348  22281975.97748
  23137457.609 6  -2115494.152 6  -1576116.80149  23137458.02349
  22366125.977 6    722432.207 6    555671.39547  22366124.50047
  20639352.570 6   -526754.773 6   -397688.60948  20639348.89848
  21312688.055 6     45346.230 6     33597.94149  21312688.97749
  20956894.516 6  -1821632.582 6  -1376248.96149  20956893.62149
  21875640.656 6   -189686.520 6   -143330.83649  21875638.25049
 20  5 16  0 19 37.0000000  0  7G04G08G14G16G26G27G31               -0.000107414
  22281246.023 6  -1496285.215 6  -1156420.94948  22281245.10548
  23136492.273 6  -2120566.996 6  -1580069.66449  23136492.62149
  22366443.516 6    724100.492 6    556971.35947  22366441.49647
  20639132.672 6   -527909.973 6   -398588.75848  20639129.03148
  21312701.555 6     45416.563 6     33652.74649  21312702.25049
  20956141.492 6  -1825588.535 6  -1379331.52049  20956141.05949
  21875558.008 6   -190120.465 6   -143668.97349  21875555.93049
 20  5 16  0 19 38.0000000  0  7G04G08G14G16G26G27G31               -0.000108370
  22280515.086 6  -1500125.734 6  -1159413.56348  22280513.79748
  23135526.742 6  -2125639.891 6  -1584022.56649  23135527.61349
  22366760.891 6    725768.781 6    558271.32847  22366758.69947
  20638912.875 6   -529065.137 6   -399488.88748  20638909.29748
  21312714.578 6     45486.742 6     33707.43849  21312715.82049
  20955388.789 6  -1829544.254 6  -1382413.89549  20955388.17649
  21875475.508 6   -190554.426 6   -144007.12949  21875473.18449
 20  5 16  0 19 39.0000000  0  7G04G08G14G16G26G27G31               -0.000109325
  22279784.695 6  -1503966.148 6  -1162406.09448  22279783.23848
  23134561.609 6  -2130712.980 6  -1587975.62149  23134561.62949
  22367078.766 6    727437.035 6    559571.26247  22367076.57447
  20638692.891 6   -530220.320 6   -400389.03148  20638689.15248
  21312727.531 6     45556.645 6     33761.90249  21312729.07049
  20954636.094 6  -1833499.781 6  -1385496.12549  20954635.63349
  21875392.727 6   -190988.508 6   -144345.37149  21875390.60249
 20  5 16  0 19 40.0000000  0  7G04G08G14G16G26G27G31               -0.000110283
  22279053.219 6  -1507806.402 6  -1165398.50448  22279052.55548
  23133596.648 6  -2135786.070 6  -1591928.67649  23133596.67249
  22367395.766 6    729105.320 6    560871.21947  22367393.70347
  20638473.148 6   -531375.477 6   -401289.15248  20638469.48848
  21312741.367 6     45626.367 6     33816.23049  21312742.25449
  20953883.680 6  -1837455.074 6  -1388578.17249  20953882.78549
  21875310.484 6   -191422.645 6   -144683.66449  21875308.29349
 20  5 16  0 19 41.0000000  0  7G04G08G14G16G26G27G31               -0.000111238
  22278322.516 6  -1511646.391 6  -1168390.69548  22278321.77748
  23132630.523 6  -2140859.172 6  -1595881.74649  23132631.56349
  22367713.711 6    730773.711 6    562171.26247  22367711.24247
  20638253.141 6   -532530.555 6   -402189.21548  20638249.55948
  21312754.250 6     45695.980 6     33870.47749  21312755.41849
  20953130.758 6  -1841410.063 6  -1391659.98049  20953130.16849
  21875227.727 6   -191856.734 6   -145021.91049  21875225.55149
 20  5 16  0 19 42.0000000  0  7G04G08G14G16G26G27G31               -0.000112196
  22277591.758 6  -1515486.219 6  -1171382.77748  22277591.00848
  23131665.109 6  -2145932.305 6  -1599834.84049  23131665.88749
  22368030.961 6    732442.121 6    563471.31647  22368028.71947
  20638033.500 7   -533685.574 7   -403089.23048  20638030.14548
  21312767.844 6     45765.391 6     33924.55949  21312768.55149
  20952378.336 6  -1845364.785 6  -1394741.58649  20952377.85549
  21875145.258 6   -192290.895 6   -145360.21949  21875142.94149
 20  5 16  0 19 43.0000000  0  7G04G08G14G16G26G27G31               -0.000113152
  22276861.313 6  -1519325.836 6  -1174374.68848  22276860.17648
  23130700.672 6  -2151005.563 6  -1603788.02049  23130700.87549
  22368348.398 6    734110.563 6    564771.40247  22368346.66447
  20637813.852 7   -534840.566 7   -403989.22748  20637810.09448
  21312781.000 6     45834.625 6     33978.50849  21312781.99249
  20951625.867 6  -1849319.281 6  -1397823.00849  20951625.09849
  21875062.594 6   -192725.078 6   -145698.54349  21875059.96149
 20  5 16  0 19 44.0000000  0  7G04G08G14G16G26G27G31               -0.000114109
  22276130.805 6  -1523165.152 6  -1177366.35548  22276129.48048
  23129734.852 6  -2156078.688 6  -1607741.10549  23129734.97749
  22368665.766 6    735779.207 6    566071.64547  22368663.78547
  20637593.828 7   -535995.355 7   -404889.06348  20637590.04748
  21312794.375 6     45903.855 6     34032.44949  21312795.08649
  20950873.180 6  -1853273.336 6  -1400904.09049  20950873.08649
  21874979.859 6   -193159.160 6   -146036.78549  21874977.40649
 20  5 16  0 19 45.0000000  0  7G04G08G14G16G26G27G31               -0.000115067
  22275400.539 6  -1527003.941 6  -1180357.61348  22275399.02748
  23128769.258 6  -2161151.594 6  -1611694.02049  23128769.83249
  22368983.563 6    737448.176 6    567372.14147  22368981.26247
  20637374.352 7   -537149.797 7   -405788.62548  20637370.57848
  21312807.180 6     45973.234 6     34086.50849  21312808.18449
  20950120.711 6  -1857226.875 6  -1403984.77349  20950120.48849
  21874897.242 6   -193592.957 6   -146374.81349  21874894.85549
 20  5 16  0 19 46.0000000  0  7G04G08G14G16G26G27G31               -0.000116022
  22274669.945 6  -1530842.605 6  -1183348.78548  22274668.60948
  23127803.977 6  -2166224.566 6  -1615646.98449  23127804.62149
  22369300.930 6    739117.180 6    568672.66047  22369299.05147
  20637154.688 7   -538304.234 7   -406688.18849  20637150.77749
  21312820.281 6     46042.367 6     34140.37549  21312821.36349
  20949368.727 6  -1861180.164 6  -1407065.26249  20949368.25049
  21874815.016 6   -194026.813 6   -146712.88349  21874812.12149
 20  5 16  0 19 47.0000000  0  7G04G08G14G16G26G27G31               -0.000116980
  22273939.438 6  -1534680.961 6  -1186339.70748  22273938.02348
  23126838.750 6  -2171297.465 6  -1619599.88749  23126839.04749
  22369618.594 6    740786.293 6    569973.26647  22369616.56347
  20636935.234 7   -539458.531 7   -407587.63749  20636931.72349
  21312833.570 6     46111.445 6     34194.20349  21312834.69149
  20948616.453 7  -1865133.109 7  -1410145.47749  20948615.85549
  21874732.289 6   -194460.617 6   -147050.91449  21874730.05949
 20  5 16  0 19 48.0000000  0  7G04G08G14G16G26G27G31               -0.000117937
  22273209.047 6  -1538519.059 6  -1189330.43848  22273207.63748
  23125872.930 6  -2176370.363 6  -1623552.79749  23125873.58249
  22369935.906 6    742455.543 6    571273.97747  22369934.17247
  20636715.625 7   -540612.688 7   -408486.98449  20636711.96949
  21312846.773 6     46180.438 6     34247.96549  21312848.03949
  20947864.172 6  -1869085.695 6  -1413225.41449  20947863.64849
  21874649.594 6   -194894.324 6   -147388.87149  21874647.14549
 20  5 16  0 19 49.0000000  0  7G04G08G14G16G26G27G31               -0.000118895
  22272478.836 6  -1542356.996 6  -1192321.04348  22272477.39148
  23124907.945 6  -2181443.363 6  -1627505.78549  23124908.44149
  22370254.172 6    744124.762 6    572574.66047  22370251.89847
  20636495.688 7   -541766.875 7   -409386.34448  20636492.07848
  21312859.984 6     46249.184 6     34301.53549  21312860.61349
  20947112.063 6  -1873038.090 6  -1416305.19549  20947111.67649
  21874566.867 6   -195328.168 6   -147726.93049  21874564.68849
 20  5 16  0 19 50.0000000  0  7G04G08G14G16G26G27G31               -0.000119852
  22271748.461 6  -1546194.711 6  -1195311.46948  22271747.34048
  23123942.648 6  -2186516.359 6  -1631458.77049  23123943.12149
  22370571.297 6    745794.098 6    573875.44547  22370569.62147
  20636275.883 7   -542920.949 7   -410285.62548  20636272.42648
  21312872.945 6     46317.840 6     34355.02049  21312873.60949
  20946359.672 6  -1876990.172 6  -1419384.73849  20946359.62949
  21874484.656 6   -195761.941 6   -148064.93449  21874482.10949
 20  5 16  0 19 51.0000000  0  7G04G08G14G16G26G27G31               -0.000120810
  22271018.172 6  -1550032.188 6  -1198301.71948  22271016.85248
  23122977.328 6  -2191589.363 6  -1635411.75849  23122977.83249
  22370889.180 6    747463.535 6    575176.30547  22370887.54347
  20636056.539 7   -544074.934 7   -411184.82848  20636052.96148
  21312886.039 6     46386.352 6     34408.41049  21312886.99249
  20945608.109 6  -1880941.945 6  -1422464.04349  20945607.62149
  21874401.867 6   -196195.730 6   -148402.95349  21874399.64149
 20  5 16  0 19 52.0000000  0  7G04G08G14G16G26G27G31               -0.000121767
  22270288.156 6  -1553869.336 6  -1201291.69948  22270286.75048
  23122011.781 6  -2196662.273 6  -1639364.67649  23122012.35549
  22371207.086 6    749133.125 6    576477.28947  22371205.39547
  20635836.898 7   -545228.754 7   -412083.91448  20635833.23448
  21312899.156 6     46454.852 6     34461.77749  21312899.84449
  20944856.023 6  -1884893.340 6  -1425543.05549  20944855.99249
  21874319.367 6   -196629.430 6   -148740.90249  21874317.18449
 20  5 16  0 19 53.0000000  0  7G04G08G14G16G26G27G31               -0.000122725
  22269557.961 6  -1557706.281 6  -1204281.52048  22269556.72748
  23121046.477 6  -2201735.215 6  -1643317.61349  23121046.87149
  22371524.797 6    750802.777 6    577778.32047  22371522.80147
  20635617.695 7   -546382.480 7   -412982.91848  20635613.59048
  21312911.898 6     46523.172 6     34515.01649  21312913.37149
  20944104.555 6  -1888844.414 6  -1428621.81649  20944103.78149
  21874236.930 6   -197063.105 6   -149078.82849  21874234.86749
 20  5 16  0 19 54.0000000  0  7G04G08G14G16G26G27G31               -0.000123682
  22268827.734 6  -1561542.859 6  -1207271.06648  22268826.16448
  23120081.438 6  -2206808.078 6  -1647270.49649  23120081.85549
  22371841.813 6    752472.637 6    579079.50847  22371840.51647
  20635398.164 7   -547535.996 7   -413881.76648  20635394.23848
  21312925.164 6     46591.496 6     34568.25849  21312925.79349
  20943352.594 7  -1892795.094 7  -1431700.27349  20943352.38749
  21874153.930 6   -197496.652 6   -149416.66049  21874152.07449
 20  5 16  0 19 55.0000000  0  7G04G08G14G16G26G27G31               -0.000124641
  22268097.859 6  -1565379.168 6  -1210260.39848  22268096.73048
  23119115.898 6  -2211880.898 6  -1651223.34049  23119116.50049
  22372160.242 6    754142.617 6    580380.78947  22372158.38747
  20635178.734 7   -548689.398 7   -414780.52348  20635174.64148
  21312938.398 6     46659.707 6     34621.41049  21312939.02049
  20942600.891 6  -1896745.434 6  -1434778.45749  20942600.35249
  21874071.883 6   -197930.168 6   -149754.45749  21874069.87949
 20  5 16  0 19 56.0000000  0  7G04G08G14G16G26G27G31               -0.000125599
  22267367.672 6  -1569215.199 6  -1213249.51248  22267366.87548
  23118150.320 6  -2216953.707 6  -1655176.17249  23118151.10949
  22372478.250 6    755812.715 6    581682.15647  22372476.10947
  20634958.922 7   -549842.676 7   -415679.18448  20634955.29348
  21312951.086 6     46727.871 6     34674.52349  21312951.70749
  20941849.367 6  -1900695.426 6  -1437856.37149  20941848.62149
  21873989.445 6   -198363.629 6   -150092.22749  21873987.34449
 20  5 16  0 19 57.0000000  0  7G04G08G14G16G26G27G31               -0.000126558
  22266637.594 6  -1573050.930 6  -1216238.39548  22266636.72348
  23117185.195 6  -2222026.418 6  -1659128.93849  23117185.78149
  22372795.742 6    757482.969 6    582983.64847  22372793.92647
  20634739.273 7   -550995.773 7   -416577.69548  20634735.82448
  21312964.188 6     46795.949 6     34727.57449  21312964.71149
  20941097.648 6  -1904645.043 6  -1440933.98849  20941096.98049
  21873906.977 6   -198796.980 6   -150429.89849  21873904.85549
 20  5 16  0 19 58.0000000  0  7G04G08G14G16G26G27G31               -0.000127516
  22265908.023 6  -1576886.313 6  -1219227.00848  22265906.80948
  23116219.945 6  -2227099.008 6  -1663081.60549  23116220.24249
  22373113.398 6    759153.395 6    584285.27747  22373111.70747
  20634520.031 7   -552148.707 7   -417476.08648  20634516.34048
  21312977.094 6     46864.020 6     34780.61349  21312977.66049
  20940345.906 6  -1908594.285 6  -1444011.32049  20940345.39549
  21873824.781 6   -199230.227 6   -150767.49649  21873822.32449
 20  5 16  0 19 59.0000000  0  7G04G08G14G16G26G27G31               -0.000128473
  22265178.500 6  -1580721.348 6  -1222215.34848  22265177.16048
  23115254.789 6  -2232171.445 6  -1667034.15649  23115255.11749
  22373432.211 6    760824.090 6    585587.11747  22373430.25447
  20634300.734 7   -553301.391 7   -418374.27748  20634297.04348
  21312989.836 6     46932.102 6     34833.65649  21312990.97749
  20939595.055 7  -1912543.004 7  -1447088.24649  20939594.23849
  21873742.086 6   -199663.316 6   -151104.97349  21873739.93449
 20  5 16  0 20  0.0000000  0  7G04G08G14G16G26G27G31               -0.000129433
  22264448.500 5  -1584556.125 5  -1225203.51247  22264447.51247
  23114288.867 3  -2237243.801 3  -1670986.62948  23114289.91848
  22373749.750 5    762494.949 5    586889.09447  22373748.05147
  20634081.422 6   -554454.012 6   -419272.41848  20634078.10248
  21313002.508 6     47000.012 6     34886.58249  21313004.28549
  20938843.484 6  -1916491.391 6  -1450164.91449  20938843.62949
  21873659.547 6   -200096.414 6   -151442.44148  21873657.23048
 20  5 16  0 20  1.0000000  0  7G04G08G14G16G26G27G31               -0.000130392
  22263719.031 6  -1588390.590 6  -1228191.42647  22263717.87547
  23113323.961 5  -2242316.430 5  -1674939.31348  23113324.30948
  22374067.680 6    764165.730 6    588191.01247  22374065.91847
  20633862.367 7   -555606.484 7   -420170.43848  20633858.55148
  21313015.891 6     47067.871 6     34939.45749  21313016.85549
  20938092.016 6  -1920439.609 6  -1453241.45349  20938091.73849
  21873577.289 6   -200529.430 6   -151779.85248  21873574.71548
 20  5 16  0 20  2.0000000  0  7G04G08G14G16G26G27G31               -0.000131351
  22262989.453 6  -1592224.832 6  -1231179.10947  22262988.15247
  23112358.805 6  -2247388.848 6  -1678891.84849  23112359.27349
  22374385.672 6    765836.738 6    589493.08247  22374383.50047
  20633643.031 7   -556758.816 7   -421068.37548  20633639.53548
  21313029.031 6     47135.684 6     34992.30549  21313029.69149
  20937341.102 6  -1924387.398 6  -1456317.65249  20937340.50049
  21873494.758 6   -200962.379 6   -152117.22348  21873492.48048
 20  5 16  0 20  3.0000000  0  7G04G08G14G16G26G27G31               -0.000132309
  22262259.891 6  -1596058.789 6  -1234166.59848  22262258.65648
  23111393.508 6  -2252461.203 6  -1682844.34849  23111394.06649
  22374703.305 6    767507.863 6    590795.25047  22374701.44547
  20633424.008 7   -557911.004 7   -421966.19548  20633419.94948
  21313041.477 6     47203.363 6     35045.03949  21313042.46549
  20936589.789 6  -1928334.832 6  -1459393.56649  20936589.32049
  21873412.539 6   -201395.277 6   -152454.55549  21873410.30149
 20  5 16  0 20  4.0000000  0  7G04G08G14G16G26G27G31               -0.000133268
  22261530.570 6  -1599892.543 6  -1237153.92248  22261529.04748
  23110428.016 6  -2257533.668 6  -1686796.92249  23110428.63749
  22375020.875 6    769179.020 6    592097.44547  22375019.75847
  20633204.078 7   -559063.180 7   -422863.99648  20633200.67648
  21313054.563 6     47270.840 6     35097.61349  21313055.35949
  20935838.547 7  -1932281.992 7  -1462469.27349  20935837.99249
  21873330.398 6   -201828.238 6   -152791.93449  21873328.24649
 20  5 16  0 20  5.0000000  0  7G04G08G14G16G26G27G31               -0.000134228
  22260800.469 6  -1603726.207 6  -1240141.19548  22260799.56348
  23109463.117 6  -2262606.195 6  -1690749.54749  23109463.60249
  22375339.320 6    770850.156 6    593399.62547  22375337.79347
  20632985.219 7   -560215.391 7   -423761.82448  20632981.44148
  21313067.250 6     47338.105 6     35150.03149  21313067.97749
  20935087.797 7  -1936229.000 7  -1465544.86749  20935086.61349
  21873247.430 6   -202261.301 6   -153129.38749  21873245.64549
 20  5 16  0 20  6.0000000  0  7G04G08G14G16G26G27G31               -0.000135187
  22260071.242 6  -1607559.496 6  -1243128.17648  22260070.06348
  23108497.805 6  -2267678.676 6  -1694702.12549  23108498.39849
  22375657.602 6    772521.488 6    594701.96947  22375655.96147
  20632765.891 7   -561367.379 7   -424659.47348  20632762.06348
  21313080.094 6     47405.375 6     35202.44949  21313080.87949
  20934336.648 7  -1940175.566 7  -1468620.10949  20934335.81349
  21873165.445 6   -202694.211 6   -153466.71949  21873163.12549
 20  5 16  0 20  7.0000000  0  7G04G08G14G16G26G27G31               -0.000136147
  22259341.836 6  -1611392.527 6  -1246114.95748  22259340.65648
  23107532.570 6  -2272751.109 6  -1698654.67249  23107533.05549
  22375975.688 6    774192.910 6    596004.37947  22375973.86347
  20632546.445 7   -562519.262 7   -425557.04348  20632542.86748
  21313092.711 6     47472.496 6     35254.74649  21313093.30549
  20933585.672 6  -1944121.820 6  -1471695.11349  20933584.98849
  21873082.711 6   -203127.133 6   -153804.06349  21873080.60249
 20  5 16  0 20  8.0000000  0  7G04G08G14G16G26G27G31               -0.000137108
  22258612.438 6  -1615225.438 6  -1249101.66048  22258611.19948
  23106567.078 6  -2277823.645 6  -1702607.30149  23106568.25449
  22376293.695 6    775864.328 6    597306.77747  22376291.95347
  20632327.523 6   -563671.145 6   -426454.60948  20632323.62548
  21313105.680 6     47539.422 6     35306.89549  21313106.02349
  20932834.398 6  -1948067.840 6  -1474769.93449  20932834.07849
  21873000.633 6   -203560.102 6   -154141.43449  21872998.44149
 20  5 16  0 20  9.0000000  0  7G04G08G14G16G26G27G31               -0.000138067
  22257882.758 6  -1619058.102 6  -1252088.15648  22257881.92248
  23105601.672 6  -2282896.176 6  -1706559.91849  23105602.59449
  22376611.883 6    777535.832 6    598609.24647  22376610.35547
  20632108.328 7   -564822.969 7   -427352.13748  20632104.56348
  21313118.320 6     47606.199 6     35358.93049  21313118.92249
  20932083.750 7  -1952013.594 7  -1477844.54349  20932083.32049
  21872918.336 6   -203993.055 6   -154478.79749  21872916.09049
 20  5 16  0 20 10.0000000  0  7G04G08G14G16G26G27G31               -0.000139027
  22257153.359 6  -1622890.484 6  -1255074.42648  22257152.37148
  23104636.273 6  -2287968.688 6  -1710512.51649  23104637.46949
  22376929.836 6    779207.406 6    599911.77047  22376928.44947
  20631889.203 6   -565974.676 6   -428249.57848  20631885.41448
  21313131.008 6     47672.863 6     35410.87549  21313131.55549
  20931333.281 6  -1955959.004 6  -1480918.89549  20931332.66849
  21872836.070 6   -204426.016 6   -154816.17649  21872833.83649
 20  5 16  0 20 11.0000000  0  7G04G08G14G16G26G27G31               -0.000139986
  22256424.219 6  -1626722.691 6  -1258060.55948  22256423.84048
  23103671.648 6  -2293041.238 6  -1714465.14849  23103671.86349
  22377248.234 6    780879.098 6    601214.39147  22377246.47347
  20631670.172 6   -567126.289 6   -429146.94148  20631666.31348
  21313143.617 6     47739.414 6     35462.73049  21313144.12149
  20930582.453 7  -1959904.125 7  -1483993.01249  20930581.74649
  21872753.445 6   -204858.926 6   -155153.50849  21872751.20349
 20  5 16  0 20 12.0000000  0  7G04G08G14G16G26G27G31               -0.000140947
  22255695.305 6  -1630554.664 6  -1261046.50048  22255694.11748
  23102706.320 6  -2298113.801 6  -1718417.78949  23102706.72349
  22377566.133 6    782550.836 6    602517.04347  22377564.64547
  20631450.891 6   -568277.840 6   -430044.26248  20631447.34848
  21313156.078 6     47805.816 6     35514.47349  21313157.02749
  20929831.766 7  -1963848.957 7  -1487066.90649  20929831.32849
  21872670.898 6   -205291.844 6   -155490.85249  21872669.12149
 20  5 16  0 20 13.0000000  0  7G04G08G14G16G26G27G31               -0.000141909
  22254966.070 6  -1634386.336 6  -1264032.22748  22254964.96948
  23101740.727 6  -2303186.395 6  -1722370.46949  23101741.34449
  22377883.891 6    784222.676 6    603819.77347  22377882.30947
  20631231.773 6   -569429.262 6   -430941.46948  20631227.99248
  21313168.711 6     47872.109 6     35566.12549  21313169.69949
  20929080.984 7  -1967793.430 7  -1490140.52749  20929080.44949
  21872588.492 6   -205724.719 6   -155828.15249  21872586.18049
 20  5 16  0 20 14.0000000  0  7G04G08G14G16G26G27G31               -0.000142870
  22254237.117 6  -1638217.750 6  -1267017.73848  22254235.89848
  23100775.789 6  -2308258.871 6  -1726323.04749  23100776.57449
  22378202.297 6    785894.684 6    605122.64147  22378200.81347
  20631012.586 6   -570580.563 6   -431838.58648  20631008.69148
  21313181.805 6     47938.332 6     35617.72749  21313182.12149
  20928330.266 7  -1971737.563 7  -1493213.87149  20928329.69149
  21872506.500 6   -206157.547 6   -156165.42249  21872504.39849
 20  5 16  0 20 15.0000000  0  7G04G08G14G16G26G27G31               -0.000143829
  22253508.148 6  -1642048.996 6  -1270003.12548  22253507.20348
  23099810.445 6  -2313331.438 6  -1730275.69549  23099811.02749
  22378520.555 6    787566.680 6    606425.49247  22378518.73847
  20630793.586 6   -571731.824 6   -432735.66848  20630789.62548
  21313194.156 6     48004.363 6     35669.18049  21313194.92249
  20927579.695 7  -1975681.469 7  -1496287.05149  20927579.43049
  21872424.164 6   -206590.383 6   -156502.69549  21872421.85249
 20  5 16  0 20 16.0000000  0  7G04G08G14G16G26G27G31               -0.000144791
  22252778.758 6  -1645879.945 6  -1272988.28548  22252778.05148
  23098845.352 6  -2318403.969 6  -1734228.32449  23098845.42249
  22378838.680 6    789238.789 6    607728.42647  22378837.42647
  20630574.336 6   -572882.984 6   -433632.67648  20630570.92648
  21313206.750 6     48070.270 6     35720.53549  21313207.21149
  20926829.586 7  -1979625.012 7  -1499359.94149  20926829.32449
  21872341.914 6   -207023.215 6   -156839.97749  21872339.44549
 20  5 16  0 20 17.0000000  0  7G04G08G14G16G26G27G31               -0.000145752
  22252050.047 6  -1649710.805 6  -1275973.36748  22252049.08248
  23097879.594 6  -2323476.645 6  -1738181.05949  23097880.10949
  22379156.641 6    790910.895 6    609031.35547  22379155.85547
  20630355.422 6   -574034.184 6   -434529.71948  20630351.88748
  21313219.039 6     48135.953 6     35771.72349  21313219.67249
  20926079.242 6  -1983568.391 6  -1502432.70349  20926078.65249
  21872259.539 6   -207456.121 6   -157177.30549  21872257.43449
 20  5 16  0 20 18.0000000  0  7G04G08G14G16G26G27G31               -0.000146713
  22251320.883 6  -1653541.199 6  -1278958.08648  22251320.28948
  23096915.031 6  -2328549.109 6  -1742133.62949  23096915.02749
  22379475.273 6    792583.266 6    610334.50047  22379473.32047
  20630136.313 6   -575185.047 6   -435426.49648  20630132.45748
  21313231.359 6     48201.711 6     35822.95749  21313232.67249
  20925328.688 7  -1987511.246 7  -1505505.05549  20925327.96149
  21872176.586 6   -207888.820 6   -157514.47749  21872174.75849
 20  5 16  0 20 19.0000000  0  7G04G08G14G16G26G27G31               -0.000147675
  22250592.281 6  -1657371.430 6  -1281942.68848  22250591.30948
  23095948.914 6  -2333621.637 6  -1746086.24649  23095949.38749
  22379793.383 6    794255.633 6    611637.64547  22379791.89847
  20629917.250 6   -576335.910 6   -436323.27048  20629913.63348
  21313244.391 6     48267.281 6     35874.04349  21313245.20349
  20924578.664 7  -1991453.852 7  -1508577.21549  20924577.87949
  21872094.758 6   -208321.555 6   -157851.67249  21872092.26649
 20  5 16  0 20 20.0000000  0  7G04G08G14G16G26G27G31               -0.000148636
  22249863.305 6  -1661201.449 6  -1284927.12148  22249862.52748
  23094984.477 6  -2338694.207 6  -1750038.89549  23094984.56649
  22380111.461 6    795928.102 6    612940.87147  22380110.05947
  20629698.273 6   -577486.711 6   -437220.00048  20629694.67248
  21313256.602 6     48332.703 6     35925.02049  21313257.34049
  20923828.148 7  -1995396.215 7  -1511649.18849  20923827.93049
  21872012.148 6   -208754.285 6   -158188.86749  21872009.93049
 20  5 16  0 20 21.0000000  0  7G04G08G14G16G26G27G31               -0.000149597
  22249134.125 6  -1665031.074 6  -1287911.24648  22249133.62548
  23094018.961 6  -2343766.590 6  -1753991.40249  23094019.06349
  22380429.406 6    797600.766 6    614244.24647  22380428.46147
  20629479.625 6   -578637.262 6   -438116.53948  20629476.01248
  21313268.680 6     48398.152 6     35976.02349  21313269.70749
  20923078.242 7  -1999338.105 7  -1514720.78949  20923077.50449
  21871929.945 6   -209186.875 6   -158525.94949  21871927.84049
 20  5 16  0 20 22.0000000  0  7G04G08G14G16G26G27G31               -0.000150558
  22248405.727 6  -1668860.496 6  -1290895.21548  22248405.03548
  23093053.422 6  -2348839.043 6  -1757943.96549  23093054.06649
  22380748.172 6    799273.508 6    615547.67647  22380746.44547
  20629260.258 6   -579787.754 6   -439013.02348  20629256.87548
  21313281.281 6     48463.430 6     36026.88749  21313282.14849
  20922328.047 7  -2003279.680 7  -1517792.15249  20922327.48849
  21871847.672 6   -209619.457 6   -158863.02349  21871845.25049
 20  5 16  0 20 23.0000000  0  7G04G08G14G16G26G27G31               -0.000151522
  22247677.258 6  -1672689.441 6  -1293878.80548  22247676.19148
  23092088.367 6  -2353911.238 6  -1761896.32849  23092088.78549
  22381066.766 6    800946.555 6    616851.34847  22381065.23847
  20629041.828 6   -580937.930 6   -439909.26248  20629038.19548
  21313293.766 6     48528.832 6     36077.84849  21313294.39849
  20921577.883 7  -2007220.730 7  -1520863.10249  20921577.79349
  21871765.258 6   -210051.801 6   -159199.91849  21871763.23049
 20  5 16  0 20 24.0000000  0  7G04G08G14G16G26G27G31               -0.000152483
  22246948.078 6  -1676518.324 6  -1296862.34448  22246947.69148
  23091122.961 6  -2358983.617 6  -1765848.83249  23091123.42649
  22381384.797 6    802619.520 6    618154.96147  22381383.50047
  20628823.055 6   -582088.199 6   -440805.57848  20628819.25848
  21313306.094 6     48593.922 6     36128.57049  21313307.08249
  20920828.070 6  -2011161.660 6  -1523933.95749  20920827.74649
  21871683.219 6   -210484.297 6   -159536.93049  21871680.83649
 20  5 16  0 20 25.0000000  0  7G04G08G14G16G26G27G31               -0.000153446
  22246220.297 6  -1680346.930 6  -1299845.67248  22246219.03948
  23090157.461 6  -2364055.965 6  -1769801.31349  23090158.14149
  22381703.039 6    804292.602 6    619458.65247  22381701.81347
  20628604.133 6   -583238.340 6   -441701.79348  20628600.06348
  21313318.961 6     48658.902 6     36179.20349  21313319.20749
  20920078.367 6  -2015102.250 6  -1527004.54749  20920078.16849
  21871600.641 6   -210916.750 6   -159873.90649  21871598.52049
 20  5 16  0 20 26.0000000  0  7G04G08G14G16G26G27G31               -0.000154408
  22245491.711 6  -1684175.184 6  -1302828.73048  22245490.45748
  23089192.836 6  -2369128.211 6  -1773753.70749  23089193.17249
  22382021.805 6    805965.867 6    620762.49647  22382020.14547
  20628385.258 6   -584388.270 6   -442597.84848  20628381.41848
  21313330.984 6     48723.855 6     36229.82049  21313331.60949
  20919328.836 7  -2019042.395 7  -1530074.78949  20919328.04349
  21871518.484 6   -211349.066 6   -160210.78149  21871516.53949
 20  5 16  0 20 27.0000000  0  7G04G08G14G16G26G27G31               -0.000155371
  22244762.789 6  -1688003.262 6  -1305811.64848  22244761.93448
  23088227.578 6  -2374200.500 6  -1777706.14549  23088227.78949
  22382340.406 6    807639.191 6    622066.38347  22382338.74647
  20628166.547 6   -585538.188 6   -443493.88348  20628162.78548
  21313343.375 6     48788.660 6     36280.31349  21313344.06349
  20918578.703 7  -2022982.324 7  -1533144.86349  20918578.29749
  21871436.453 6   -211781.430 6   -160547.68849  21871434.22749
 20  5 16  0 20 28.0000000  0  7G04G08G14G16G26G27G31               -0.000156332
  22244034.547 6  -1691830.996 6  -1308794.29748  22244033.39848
  23087262.031 6  -2379272.691 6  -1781658.50049  23087262.79349
  22382658.844 6    809312.707 6    623370.42247  22382657.25047
  20627947.852 6   -586687.895 6   -444389.75848  20627944.02048
  21313355.711 6     48853.434 6     36330.78949  21313356.63349
  20917829.195 7  -2026921.828 7  -1536214.60249  20917828.77749
  21871354.070 6   -212213.645 6   -160884.48049  21871351.82049
 20  5 16  0 20 29.0000000  0  7G04G08G14G16G26G27G31               -0.000157295
  22243305.938 6  -1695658.504 6  -1311776.76648  22243305.25448
  23086297.188 6  -2384344.914 6  -1785610.88349  23086297.39149
  22382976.805 6    810986.246 6    624674.47347  22382975.44947
  20627729.109 6   -587837.535 6   -445285.59048  20627725.00448
  21313368.102 6     48918.059 6     36381.14849  21313368.71149
  20917079.594 6  -2030861.043 6  -1539284.11349  20917078.72349
  21871271.453 6   -212645.898 6   -161221.29749  21871269.35549
 20  5 16  0 20 30.0000000  0  7G04G08G14G16G26G27G31               -0.000158258
  22242578.117 6  -1699485.926 6  -1314759.17648  22242576.48448
  23085331.969 6  -2389417.277 6  -1789563.37149  23085331.98449
  22383295.469 6    812659.730 6    625978.48447  22383293.88347
  20627510.188 6   -588987.238 6   -446181.45348  20627506.45748
  21313380.133 6     48982.410 6     36431.28949  21313380.77349
  20916330.078 6  -2034800.098 6  -1542353.51249  20916329.73449
  21871189.508 6   -213078.266 6   -161558.20749  21871187.29349
 20  5 16  0 20 31.0000000  0  7G04G08G14G16G26G27G31               -0.000159222
  22241850.461 6  -1703313.098 6  -1317741.38348  22241848.93848
  23084366.875 6  -2394489.590 6  -1793515.82849  23084367.00849
  22383614.422 6    814333.344 6    627282.60247  22383612.78547
  20627291.398 7   -590136.840 7   -447077.25448  20627287.76248
  21313392.289 6     49046.660 6     36481.35549  21313393.14149
  20915580.547 6  -2038738.805 6  -1545422.63749  20915579.80149
  21871107.047 6   -213510.594 6   -161895.08649  21871104.98449
 20  5 16  0 20 32.0000000  0  7G04G08G14G16G26G27G31               -0.000160183
  22241121.391 6  -1707140.109 6  -1320723.47748  22241120.13748
  23083401.023 6  -2399562.031 6  -1797468.38349  23083401.40249
  22383932.641 6    816006.891 6    628586.66047  22383931.27047
  20627072.555 6   -591286.461 6   -447973.07048  20627069.24648
  21313404.203 6     49110.652 6     36531.21949  21313405.47349
  20914831.148 6  -2042677.332 6  -1548491.62149  20914830.68849
  21871024.664 6   -213943.035 6   -162232.05549  21871022.90249
 20  5 16  0 20 33.0000000  0  7G04G08G14G16G26G27G31               -0.000161146
  22240392.938 6  -1710966.875 6  -1323705.37548  22240392.42248
  23082435.914 6  -2404634.449 6  -1801420.91449  23082436.56349
  22384251.016 6    817680.625 6    629890.86747  22384249.86347
  20626853.609 6   -592435.938 6   -448868.76648  20626850.29748
  21313416.867 6     49174.586 6     36581.03549  21313417.26249
  20914081.313 6  -2046615.496 6  -1551560.32449  20914081.21949
  21870942.523 6   -214375.391 6   -162568.96549  21870940.44149
 20  5 16  0 20 34.0000000  0  7G04G08G14G16G26G27G31               -0.000162111
  22239664.539 5  -1714793.238 5  -1326686.96148  22239664.31348
  23081470.867 6  -2409706.723 6  -1805373.33249  23081471.03949
  22384569.430 6    819354.535 6    631195.21547  22384568.55947
  20626634.836 7   -593585.168 7   -449764.26648  20626631.36348
  21313429.219 6     49238.516 6     36630.84849  21313429.73049
  20913332.070 7  -2050553.219 7  -1554628.67649  20913331.95749
  21870860.461 6   -214807.613 6   -162905.75849  21870858.37149
 20  5 16  0 20 35.0000000  0  7G04G08G14G16G26G27G31               -0.000163074
  22238936.664 6  -1718619.336 6  -1329668.33248  22238935.82448
  23080505.586 6  -2414779.004 6  -1809325.76249  23080506.25849
  22384888.797 6    821028.559 6    632499.64847  22384886.59447
  20626416.063 6   -594734.324 6   -450659.71548  20626412.51248
  21313440.805 6     49302.320 6     36680.56349  21313442.10249
  20912583.266 7  -2054490.613 7  -1557696.77349  20912582.48849
  21870778.328 6   -215239.777 6   -163242.50849  21870776.04749
 20  5 16  0 20 36.0000000  0  7G04G08G14G16G26G27G31               -0.000164038
  22238209.430 6  -1722445.066 6  -1332649.41448  22238208.23048
  23079540.633 6  -2419851.109 6  -1813278.05149  23079541.28149
  22385207.203 6    822702.809 6    633804.25847  22385205.27747
  20626197.922 7   -595883.238 7   -451554.97348  20626194.29748
  21313453.289 6     49366.148 6     36730.30149  21313454.12149
  20911833.695 6  -2058427.586 6  -1560764.54749  20911833.28549
  21870695.875 6   -215671.824 6   -163579.16449  21870693.61349
 20  5 16  0 20 37.0000000  0  7G04G08G14G16G26G27G31               -0.000165001
  22237481.070 6  -1726270.645 6  -1335630.38748  22237480.32048
  23078575.156 6  -2424923.305 6  -1817230.41049  23078576.05549
  22385525.578 6    824377.020 6    635108.83247  22385523.92647
  20625978.922 7   -597032.156 7   -452450.22748  20625975.49248
  21313465.430 6     49429.777 6     36779.87549  21313465.94949
  20911084.539 6  -2062364.305 6  -1563832.10949  20911084.54349
  21870613.398 6   -216103.898 6   -163915.85249  21870611.20749
 20  5 16  0 20 38.0000000  0  7G04G08G14G16G26G27G31               -0.000165966
  22236753.273 6  -1730096.035 6  -1338611.20348  22236752.24248
  23077609.844 6  -2429995.582 6  -1821182.84049  23077610.50849
  22385843.922 6    826051.285 6    636413.44947  22385842.59447
  20625760.445 6   -598181.051 6   -453345.47748  20625756.98048
  21313477.250 6     49493.191 6     36829.30149  21313478.26249
  20910335.773 7  -2066300.781 7  -1566899.50049  20910335.28149
  21870531.266 6   -216536.035 6   -164252.58249  21870528.99649
 20  5 16  0 20 39.0000000  0  7G04G08G14G16G26G27G31               -0.000166929
  22236025.461 6  -1733921.047 6  -1341591.72748  22236024.23048
  23076644.586 6  -2435067.734 6  -1825135.16449  23076645.56349
  22386162.672 6    827725.773 6    637718.24247  22386161.21547
  20625541.805 6   -599329.695 6   -454240.52348  20625538.31648
  21313489.320 6     49556.664 6     36878.75849  21313490.19949
  20909586.680 7  -2070236.809 7  -1569966.53149  20909586.25449
  21870449.609 6   -216968.012 6   -164589.19149  21870446.90249
 20  5 16  0 20 40.0000000  0  7G04G08G14G16G26G27G31               -0.000167894
  22235297.188 6  -1737745.848 6  -1344572.10248  22235296.34848
  23075679.422 6  -2440139.953 6  -1829087.54349  23075679.93449
  22386481.281 6    829400.297 6    639023.06647  22386480.26247
  20625323.289 6   -600478.352 6   -455135.57848  20625319.89848
  21313501.242 6     49619.906 6     36928.03949  21313501.80549
  20908837.922 7  -2074172.586 7  -1573033.37949  20908837.34049
  21870367.039 6   -217400.023 6   -164925.82049  21870364.77749
 20  5 16  0 20 41.0000000  0  7G04G08G14G16G26G27G31               -0.000168858
  22234569.273 6  -1741570.520 6  -1347552.37548  22234568.69148
  23074714.367 6  -2445212.191 6  -1833039.92249  23074714.82049
  22386799.781 6    831074.813 6    640327.88747  22386798.78947
  20625104.883 6   -601626.922 6   -456030.57448  20625101.75448
  21313513.938 6     49682.984 6     36977.18449  21313514.12549
  20908088.977 7  -2078108.117 7  -1576100.02349  20908088.63349
  21870285.117 6   -217832.066 6   -165262.48049  21870283.12549
 20  5 16  0 20 42.0000000  0  7G04G08G14G16G26G27G31               -0.000169823
  22233841.539 6  -1745394.887 6  -1350532.40248  22233840.74248
  23073749.289 6  -2450284.434 6  -1836992.32049  23073749.77749
  22387118.328 6    832749.449 6    641632.79347  22387117.68047
  20624886.070 6   -602775.414 6   -456925.50048  20624882.87148
  21313525.180 6     49745.938 6     37026.23849  21313525.96149
  20907339.875 6  -2082043.316 6  -1579166.41049  20907339.68449
  21870202.609 6   -218264.055 6   -165599.09449  21870200.44149
 20  5 16  0 20 43.0000000  0  7G04G08G14G16G26G27G31               -0.000170788
  22233113.938 6  -1749218.906 6  -1353512.15648  22233113.18848
  23072784.055 6  -2455356.543 6  -1840944.61349  23072784.32049
  22387437.688 6    834424.289 6    642937.86347  22387436.07847
  20624667.656 6   -603923.684 6   -457820.25848  20624664.12148
  21313537.352 6     49808.926 6     37075.31349  21313538.13749
  20906591.109 6  -2085978.082 6  -1582232.46549  20906590.69149
  21870120.547 6   -218695.922 6   -165935.61349  21870118.02349
 20  5 16  0 20 44.0000000  0  7G04G08G14G16G26G27G31               -0.000171751
  22232386.125 6  -1753042.641 6  -1356491.69148  22232385.63748
  23071818.648 6  -2460428.605 6  -1844896.87149  23071819.96149
  22387755.828 6    836099.277 6    644243.04747  22387754.46947
  20624449.328 6   -605071.836 6   -458714.92648  20624446.05148
  21313549.609 6     49871.793 6     37124.30149  21313550.21549
  20905842.305 7  -2089912.473 7  -1585298.22749  20905842.07849
  21870038.359 6   -219127.711 6   -166272.07849  21870036.01649
 20  5 16  0 20 45.0000000  0  7G04G08G14G16G26G27G31               -0.000172716
  22231658.531 6  -1756865.996 6  -1359470.92248  22231658.07048
  23070853.852 6  -2465500.539 6  -1848849.03149  23070854.10549
  22388074.719 6    837774.426 6    645548.35947  22388073.62147
  20624230.961 6   -606219.793 6   -459609.44148  20624227.24248
  21313561.164 6     49934.645 6     37173.28149  21313562.17649
  20905093.758 7  -2093846.457 7  -1588363.66449  20905093.15649
  21869955.844 6   -219559.391 6   -166608.45349  21869953.96149
 20  5 16  0 20 46.0000000  0  7G04G08G14G16G26G27G31               -0.000173681
  22230931.508 6  -1760689.254 6  -1362450.08648  22230930.35948
  23069888.234 6  -2470572.598 6  -1852801.28549  23069889.44949
  22388393.063 6    839449.582 6    646853.66847  22388392.24247
  20624012.414 6   -607367.715 6   -460503.92248  20624009.00848
  21313573.141 6     49997.309 6     37222.10949  21313573.76649
  20904345.227 7  -2097780.223 7  -1591428.93849  20904344.62949
  21869873.914 6   -219991.125 6   -166944.87149  21869871.75849
 20  5 16  0 20 47.0000000  0  7G04G08G14G16G26G27G31               -0.000174646
  22230203.664 6  -1764512.277 6  -1365429.05948  22230202.68048
  23068922.953 6  -2475644.688 6  -1856753.56349  23068923.75449
  22388712.633 6    841124.777 6    648159.01247  22388710.93847
  20623793.969 6   -608515.633 6   -461398.40648  20623790.56648
  21313585.422 6     50059.777 6     37270.78149  21313585.55149
  20903596.789 6  -2101713.707 6  -1594493.98449  20903596.03949
  21869791.625 6   -220422.902 6   -167281.31649  21869789.39149
 20  5 16  0 20 48.0000000  0  7G04G08G14G16G26G27G31               -0.000175611
  22229476.563 6  -1768335.141 6  -1368407.92248  22229475.49248
  23067957.656 6  -2480716.832 6  -1860705.87949  23067958.85249
  22389031.195 6    842799.980 6    649464.36347  22389030.11747
  20623575.547 6   -609663.516 6   -462292.86348  20623572.19548
  21313596.938 6     50122.051 6     37319.30549  21313597.82049
  20902848.461 7  -2105646.992 7  -1597558.88749  20902847.77349
  21869709.281 6   -220854.711 6   -167617.79349  21869707.34049
 20  5 16  0 20 49.0000000  0  7G04G08G14G16G26G27G31               -0.000176577
  22228749.203 6  -1772157.480 6  -1371386.36748  22228748.52048
  23066993.000 6  -2485788.684 6  -1864657.96949  23066993.53149
  22389350.086 6    844475.555 6    650770.00047  22389348.34847
  20623356.906 6   -610811.027 6   -463187.02348  20623353.81348
  21313608.563 6     50184.484 6     37367.95749  21313609.44949
  20902099.961 7  -2109579.648 7  -1600623.29749  20902099.62549
  21869627.328 6   -221286.250 6   -167954.06349  21869625.43449
 20  5 16  0 20 50.0000000  0  7G04G08G14G16G26G27G31               -0.000177542
  22228021.336 6  -1775979.488 6  -1374364.55948  22228021.04748
  23066027.516 6  -2490860.541 6  -1868610.06949  23066028.06649
  22389668.875 6    846151.219 6    652075.71547  22389667.44547
  20623138.781 6   -611958.426 6   -464081.10248  20623135.37548
  21313621.047 6     50246.836 6     37416.54749  21313621.47749
  20901351.727 7  -2113511.949 7  -1603687.42249  20901350.93049
  21869545.555 6   -221717.699 6   -168290.25849  21869543.49249
 20  5 16  0 20 51.0000000  0  7G04G08G14G16G26G27G31               -0.000178509
  22227294.094 6  -1779801.211 6  -1377342.52748  22227293.65648
  23065062.680 6  -2495932.227 6  -1872562.03149  23065063.54349
  22389988.039 6    847827.133 6    653381.62547  22389985.90647
  20622920.586 6   -613105.602 6   -464975.00048  20622917.07048
  21313632.594 6     50309.168 6     37465.10949  21313633.66049
  20900603.281 7  -2117443.852 7  -1606751.24649  20900602.93849
  21869463.289 6   -222149.031 6   -168626.36349  21869461.02049
 20  5 16  0 20 52.0000000  0  7G04G08G14G16G26G27G31               -0.000179474
  22226567.203 6  -1783622.695 6  -1380320.30148  22226566.31648
  23064097.625 6  -2501003.965 6  -1876514.03949  23064098.38349
  22390306.648 6    849503.047 6    654687.52747  22390305.21547
  20622702.250 6   -614252.730 6   -465868.87148  20622698.76248
  21313644.602 6     50371.340 6     37513.55949  21313645.30549
  20899855.273 7  -2121375.473 7  -1609814.85249  20899854.80149
  21869381.273 6   -222580.383 6   -168962.48049  21869378.49649
 20  5 16  0 20 53.0000000  0  7G04G08G14G16G26G27G31               -0.000180439
  22225840.320 6  -1787444.051 6  -1383297.98048  22225839.20348
  23063132.195 6  -2506075.809 6  -1880466.11749  23063133.48049
  22390625.773 6    851178.961 6    655993.43047  22390624.05947
  20622484.109 6   -615399.875 6   -466762.75848  20622480.53948
  21313656.164 6     50433.262 6     37561.80949  21313657.14549
  20899107.414 7  -2125306.863 7  -1612878.27049  20899106.74649
  21869299.203 6   -223011.809 6   -169298.66049  21869296.98049
 20  5 16  0 20 54.0000000  0  7G04G08G14G16G26G27G31               -0.000181406
  22225112.719 6  -1791265.027 6  -1386275.36748  22225112.05548
  23062167.344 6  -2511147.551 6  -1884418.12549  23062168.27049
  22390944.578 6    852855.078 6    657299.48447  22390943.35247
  20622265.758 6   -616546.820 6   -467656.47748  20622262.47348
  21313668.133 6     50495.180 6     37610.05549  21313669.47749
  20898359.258 6  -2129237.836 6  -1615941.36349  20898358.39549
  21869217.227 6   -223443.105 6   -169634.73049  21869214.51649
 20  5 16  0 20 55.0000000  0  7G04G08G14G16G26G27G31               -0.000182371
  22224385.156 6  -1795085.793 6  -1389252.58248  22224385.01248
  23061202.391 6  -2516219.309 6  -1888370.14549  23061202.84849
  22391263.555 6    854531.219 6    658605.57047  22391262.01247
  20622047.539 6   -617693.691 6   -468550.14148  20622044.32048
  21313680.000 6     50556.961 6     37658.19549  21313680.79749
  20897611.148 7  -2133168.547 7  -1619004.25449  20897610.94149
  21869135.172 6   -223874.398 6   -169970.80549  21869132.77749
 20  5 16  0 20 56.0000000  0  7G04G08G14G16G26G27G31               -0.000183338
  22223658.594 6  -1798906.289 6  -1392229.59848  22223657.77348
  23060236.938 6  -2521291.031 6  -1892322.13749  23060237.82049
  22391583.125 6    856207.492 6    659911.75447  22391580.99247
  20621829.094 6   -618840.441 6   -469443.71148  20621825.72748
  21313691.430 6     50618.641 6     37706.25849  21313692.72749
  20896863.266 6  -2137098.875 6  -1622066.84849  20896862.69149
  21869052.969 6   -224305.645 6   -170306.84849  21869050.30549
 20  5 16  0 20 57.0000000  0  7G04G08G14G16G26G27G31               -0.000184305
  22222932.164 6  -1802726.555 6  -1395206.42648  22222931.04348
  23059271.719 6  -2526362.762 6  -1896274.12949  23059272.73449
  22391901.414 6    857883.820 6    661217.98847  22391900.16847
  20621610.984 6   -619987.133 6   -470337.23848  20621607.85948
  21313703.125 6     50680.164 6     37754.19949  21313704.11749
  20896115.477 7  -2141028.945 7  -1625129.23849  20896115.05949
  21868970.844 6   -224736.891 6   -170642.87949  21868968.64149
 20  5 16  0 20 58.0000000  0  7G04G08G14G16G26G27G31               -0.000185270
  22222204.797 6  -1806546.598 6  -1398183.08648  22222203.89548
  23058306.820 6  -2531434.516 6  -1900226.14849  23058307.42649
  22392220.648 6    859560.219 6    662524.27347  22392219.38747
  20621392.797 6   -621133.754 6   -471230.71548  20621389.40648
  21313714.836 6     50741.535 6     37802.01649  21313715.44149
  20895367.734 7  -2144958.711 7  -1628191.39849  20895367.21549
  21868888.664 6   -225168.145 6   -170978.92249  21868886.34849
 20  5 16  0 20 59.0000000  0  7G04G08G14G16G26G27G31               -0.000186237
  22221478.195 6  -1810366.555 6  -1401159.67648  22221476.96948
  23057341.867 6  -2536506.363 6  -1904178.23449  23057342.24649
  22392539.969 6    861236.555 6    663830.50847  22392538.30147
  20621174.219 6   -622280.422 6   -472124.22748  20621171.48048
  21313726.375 6     50802.680 6     37849.66049  21313727.34849
  20894619.594 7  -2148888.289 7  -1631253.41049  20894619.38749
  21868806.664 6   -225599.484 6   -171315.03549  21868804.24249
 20  5 16  0 21  0.0000000  0  7G04G08G14G16G26G27G31               -0.000187204
  22220751.305 6  -1814186.203 6  -1404136.03148  22220750.22748
  23056376.102 6  -2541578.207 6  -1908130.32449  23056377.31649
  22392858.422 6    862913.000 6    665136.82447  22392857.16847
  20620956.313 6   -623426.949 6   -473017.61748  20620953.11348
  21313738.086 6     50863.691 6     37897.20349  21313739.12949
  20893872.258 7  -2152817.527 7  -1634315.15249  20893872.11749
  21868724.703 6   -226030.805 6   -171651.13349  21868722.39149
 20  5 16  0 21  1.0000000  0  7G04G08G14G16G26G27G31               -0.000188171
  22220024.391 6  -1818005.586 6  -1407112.16848  22220023.57848
  23055411.281 6  -2546650.008 6  -1912082.37549  23055411.95349
  22393177.836 6    864589.578 6    666443.24247  22393176.38347
  20620738.492 6   -624573.387 6   -473910.95348  20620734.94148
  21313749.680 6     50924.613 6     37944.67649  21313750.32049
  20893124.164 7  -2156746.438 7  -1637376.64549  20893123.63749
  21868642.586 6   -226462.078 6   -171987.18849  21868640.03549
 20  5 16  0 21  2.0000000  0  7G04G08G14G16G26G27G31               -0.000189138
  22219297.383 6  -1821824.672 6  -1410088.07848  22219296.71548
  23054446.148 6  -2551721.750 6  -1916034.37549  23054446.84049
  22393496.727 6    866266.270 6    667749.75847  22393495.19547
  20620519.844 6   -625719.668 6   -474804.16048  20620516.81348
  21313761.023 6     50985.484 6     37992.10549  21313762.05149
  20892376.711 7  -2160674.973 7  -1640437.84449  20892376.13749
  21868560.633 6   -226893.273 6   -172323.18449  21868557.98849
 20  5 16  0 21  3.0000000  0  7G04G08G14G16G26G27G31               -0.000190105
  22218571.063 6  -1825643.367 6  -1413063.68848  22218569.80548
  23053481.656 6  -2556793.363 6  -1919986.28549  23053481.80549
  22393815.664 6    867943.191 6    669056.44547  22393814.21147
  20620302.281 6   -626865.734 6   -475697.19548  20620298.69548
  21313772.836 6     51046.336 6     38039.52749  21313773.66049
  20891629.359 6  -2164603.070 6  -1643498.69949  20891629.05149
  21868478.664 6   -227324.293 6   -172659.04349  21868476.11349
 20  5 16  0 21  4.0000000  0  7G04G08G14G16G26G27G31               -0.000191072
  22217844.195 6  -1829461.785 6  -1416039.07848  22217843.35548
  23052516.203 6  -2561864.871 6  -1923938.10549  23052516.40249
  22394135.039 6    869620.219 6    670363.21947  22394133.57047
  20620083.586 6   -628011.672 6   -476590.13348  20620080.69948
  21313784.414 6     51107.117 6     38086.88749  21313784.96549
  20890881.742 6  -2168530.789 6  -1646559.25049  20890881.59849
  21868396.461 6   -227755.266 6   -172994.86749  21868394.07049
 20  5 16  0 21  5.0000000  0  7G04G08G14G16G26G27G31               -0.000192039
  22217117.914 6  -1833279.938 6  -1419014.26648  22217116.51648
  23051551.109 6  -2566936.396 6  -1927889.94949  23051551.93849
  22394454.375 6    871297.406 6    671670.11747  22394452.71147
  20619865.820 6   -629157.484 6   -477482.97748  20619862.50048
  21313795.844 6     51167.797 6     38134.16849  21313796.68849
  20890134.570 6  -2172458.176 6  -1649619.55549  20890134.31349
  21868314.398 6   -228186.188 6   -173330.64849  21868312.20349
 20  5 16  0 21  6.0000000  0  7G04G08G14G16G26G27G31               -0.000193008
  22216391.203 6  -1837097.695 6  -1421989.14548  22216390.18448
  23050585.313 6  -2572007.801 6  -1931841.69149  23050586.46149
  22394773.578 6    872974.773 6    672977.14847  22394771.67647
  20619647.867 6   -630303.066 6   -478375.63748  20619644.52748
  21313807.484 6     51228.508 6     38181.46949  21313808.19549
  20889386.883 6  -2176385.098 6  -1652679.48849  20889386.78149
  21868232.594 6   -228616.945 6   -173666.30949  21868229.84049
 20  5 16  0 21  7.0000000  0  7G04G08G14G16G26G27G31               -0.000193975
  22215664.891 6  -1840915.125 6  -1424963.76648  22215663.92648
  23049620.773 6  -2577079.109 6  -1935793.35949  23049621.53149
  22395092.758 6    874652.285 6    674284.30547  22395090.84447
  20619430.172 6   -631448.473 6   -479268.16848  20619426.62148
  21313819.133 6     51289.152 6     38228.73049  21313819.87549
  20888640.219 6  -2180311.637 6  -1655739.12949  20888639.77749
  21868150.539 6   -229047.621 6   -174001.89849  21868148.05949
 20  5 16  0 21  8.0000000  0  7G04G08G14G16G26G27G31               -0.000194942
  22214938.352 6  -1844732.262 6  -1427938.16048  22214937.19148
  23048655.883 6  -2582150.320 6  -1939744.95749  23048656.60549
  22395412.047 6    876329.988 6    675591.60247  22395410.13347
  20619211.914 6   -632593.750 6   -480160.59048  20619208.68448
  21313830.617 6     51349.746 6     38275.94149  21313831.60949
  20887893.000 6  -2184237.789 6  -1658798.47349  20887892.63749
  21868069.023 6   -229478.184 6   -174337.40249  21868065.77349
 20  5 16  0 21  9.0000000  0  7G04G08G14G16G26G27G31               -0.000195911
  22214212.180 6  -1848549.129 6  -1430912.34048  22214211.01648
  23047690.734 6  -2587221.516 6  -1943696.53949  23047691.25449
  22395731.609 6    878007.809 6    676898.99247  22395729.80147
  20618994.109 6   -633738.883 6   -481052.90248  20618990.94548
  21313842.367 6     51410.238 6     38323.07849  21313843.16849
  20887146.031 6  -2188163.594 6  -1661857.54349  20887145.20749
  21867987.055 6   -229908.699 6   -174672.87549  21867984.05949
 20  5 16  0 21 10.0000000  0  7G04G08G14G16G26G27G31               -0.000196878
  22213485.805 6  -1852365.516 6  -1433886.14848  22213484.77748
  23046726.039 6  -2592292.473 6  -1947647.92649  23046726.62549
  22396050.164 6    879685.910 6    678206.60947  22396049.26247
  20618776.523 6   -634883.703 6   -481944.97348  20618773.03948
  21313853.805 6     51470.809 6     38370.27749  21313854.41449
  20886399.023 7  -2192088.879 7  -1664916.20749  20886398.54749
  21867904.773 6   -230338.973 6   -175008.15249  21867902.30949
 20  5 16  0 21 11.0000000  0  7G04G08G14G16G26G27G31               -0.000197845
  22212759.844 6  -1856181.645 6  -1436859.75448  22212758.49248
  23045760.680 6  -2597363.488 6  -1951599.36749  23045761.08249
  22396370.008 6    881364.074 6    679514.26647  22396368.44547
  20618558.492 6   -636028.480 6   -482837.00048  20618555.21948
  21313865.047 6     51531.262 6     38417.37949  21313866.15249
  20885652.133 7  -2196013.855 7  -1667974.62949  20885651.54349
  21867823.242 6   -230769.250 6   -175343.43849  21867820.47749
 20  5 16  0 21 12.0000000  0  7G04G08G14G16G26G27G31               -0.000198814
  22212033.461 6  -1859997.578 6  -1439833.20348  22212032.61348
  23044795.742 6  -2602434.527 6  -1955550.82449  23044796.34449
  22396689.023 6    883042.270 6    680821.94547  22396687.50047
  20618340.547 6   -637173.195 6   -483728.99248  20618337.39848
  21313876.266 6     51591.543 6     38464.35249  21313877.66049
  20884905.211 6  -2199938.570 6  -1671032.84849  20884904.78549
  21867741.094 6   -231199.555 6   -175678.73849  21867738.72749
 20  5 16  0 21 13.0000000  0  7G04G08G14G16G26G27G31               -0.000199783
  22211307.219 6  -1863813.234 6  -1442806.44148  22211306.26248
  23043831.063 6  -2607505.488 6  -1959502.22349  23043831.39849
  22397008.742 6    884720.613 6    682129.74647  22397007.09447
  20618122.461 6   -638317.734 6   -484620.83648  20618119.57448
  21313887.984 6     51651.734 6     38511.25449  21313888.65649
  20884158.422 6  -2203862.906 6  -1674090.77049  20884158.12549
  21867659.586 7   -231629.766 7   -176013.96949  21867656.71549
 20  5 16  0 21 14.0000000  0  8G04G08G14G16G21G26G27G31            -0.000200747
  22210581.547 6  -1867628.633 6  -1445779.48848  22210580.73848
  23042865.508 6  -2612576.457 6  -1963453.62549  23042866.38749
  22397328.047 6    886399.020 6    683437.59447  22397326.35547
  20617905.133 6   -639462.227 6   -485512.65248  20617901.69548
  24290938.14115    -54843.72715    -32308.58456  24290936.45356
  21313899.109 6     51711.801 6     38558.05549  21313900.50849
  20883411.984 6  -2207786.949 6  -1677148.46949  20883411.65649
  21867577.352 6   -232059.965 6   -176349.18849  21867575.19549
 20  5 16  0 21 15.0000000  0  8G04G08G14G16G21G26G27G31            -0.000201714
  22209855.602 6  -1871443.785 6  -1448752.33648  22209854.63748
  23041901.063 6  -2617647.371 6  -1967404.98849  23041901.71949
  22397647.789 6    888077.555 6    684745.54347  22397645.56647
  20617687.305 6   -640606.602 6   -486404.36748  20617684.01648
  24290629.328 5    -56469.203 5    -33575.20346  24290627.39146
  21313910.602 6     51771.750 6     38604.77049  21313911.85549
  20882665.266 6  -2211710.637 6  -1680205.88349  20882664.57049
  21867495.773 6   -232490.133 6   -176684.39149  21867492.94549
 20  5 16  0 21 16.0000000  0  8G04G08G14G16G21G26G27G31            -0.000202682
  22209129.977 6  -1875258.844 6  -1451725.11348  22209128.51248
  23040935.766 6  -2622718.461 6  -1971356.48849  23040935.84049
  22397967.117 6    889755.996 6    686053.41447  22397965.40247
  20617469.688 6   -641751.070 6   -487296.16448  20617466.19948
  24290320.398 5    -58094.684 5    -34841.79746  24290318.33246
  21313922.211 6     51831.402 6     38651.25449  21313923.10549
  20881918.477 7  -2215634.180 7  -1683263.19149  20881918.19549
  21867414.000 6   -232920.461 6   -177019.70749  21867411.19949
 20  5 16  0 21 17.0000000  0  8G04G08G14G16G21G26G27G31            -0.000203651
  22208403.422 6  -1879073.652 6  -1454697.69148  22208402.41448
  23039970.844 6  -2627789.527 6  -1975307.96949  23039971.49249
  22398286.023 6    891434.523 6    687361.34847  22398284.45347
  20617251.805 6   -642895.398 6   -488187.85248  20617248.39548
  24290010.250 5    -59719.988 5    -36108.27046  24290008.53946
  21313933.430 6     51890.973 6     38697.66849  21313934.51649
  20881171.680 6  -2219557.398 6  -1686320.24249  20881171.35949
  21867331.773 6   -233350.719 6   -177354.97749  21867329.35249
 20  5 16  0 21 18.0000000  0  8G04G08G14G16G21G26G27G31            -0.000204620
  22207677.555 6  -1882888.223 6  -1457670.08648  22207676.71948
  23039005.711 6  -2632860.590 6  -1979259.44549  23039006.18449
  22398605.766 6    893113.129 6    688669.35547  22398604.00047
  20617033.922 6   -644039.684 6   -489079.50448  20617030.68448
  24289701.805 5    -61345.160 5    -37374.64146  24289699.16846
  21313944.930 6     51950.367 6     38743.95349  21313945.67249
  20880425.297 6  -2223480.316 6  -1689377.06649  20880425.05149
  21867249.734 6   -233780.996 6   -177690.26249  21867246.89149
 20  5 16  0 21 19.0000000  0  8G04G08G14G16G21G26G27G31            -0.000205591
  22206951.633 6  -1886702.348 6  -1460642.13348  22206950.69948
  23038041.039 6  -2637931.512 6  -1983210.81649  23038041.27349
  22398925.086 6    894791.973 6    689977.53947  22398923.43047
  20616816.414 6   -645183.715 6   -489970.95748  20616813.06648
  24289392.430 5    -62969.977 5    -38640.73046  24289389.94546
  21313956.492 6     52009.836 6     38790.29349  21313957.14149
  20879678.805 6  -2227402.766 6  -1692433.52049  20879678.24649
  21867168.125 6   -234211.074 6   -178025.38349  21867165.30149
 20  5 16  0 21 20.0000000  0  8G04G08G14G16G21G26G27G31            -0.000206560
  22206225.961 6  -1890516.332 6  -1463614.06648  22206224.65648
  23037076.195 6  -2643002.453 6  -1987162.19949  23037076.25049
  22399244.891 6    896470.859 6    691285.76647  22399242.94147
  20616598.781 6   -646327.680 6   -490862.36348  20616595.43048
  24289083.016 5    -64594.645 5    -39906.69146  24289081.32046
  21313967.523 6     52069.105 6     38836.47749  21313968.43049
  20878932.578 6  -2231324.918 6  -1695489.74249  20878932.16449
  21867086.094 6   -234641.176 6   -178360.53149  21867083.48849
 20  5 16  0 21 21.0000000  0  8G04G08G14G16G21G26G27G31            -0.000207529
  22205500.164 6  -1894330.031 6  -1466585.77748  22205499.18048
  23036110.875 6  -2648073.395 6  -1991113.57849  23036111.20349
  22399563.859 6    898149.809 6    692594.03947  22399562.38347
  20616381.078 6   -647471.582 6   -491753.71548  20616377.87148
  24288774.055 5    -66219.148 5    -41172.53546  24288771.85946
  21313978.930 6     52128.262 6     38882.57449  21313979.80949
  20878186.406 7  -2235246.793 7  -1698545.75049  20878185.92649
  21867004.352 6   -235071.285 6   -178695.68449  21867001.70349
 20  5 16  0 21 22.0000000  0  8G04G08G14G16G21G26G27G31            -0.000208498
  22204774.758 6  -1898143.508 6  -1469557.31648  22204773.33648
  23035146.313 6  -2653144.371 6  -1995064.98849  23035146.52749
  22399883.578 6    899828.824 6    693902.36347  22399882.03547
  20616163.336 6   -648615.434 6   -492645.02748  20616159.85948
  24288465.305 5    -67843.527 5    -42438.29346  24288462.70746
  21313990.125 6     52187.254 6     38928.53549  21313990.68049
  20877439.859 6  -2239168.363 6  -1701601.51649  20877439.73049
  21866922.742 6   -235501.379 6   -179030.82049  21866919.96149
 20  5 16  0 21 23.0000000  0  8G04G08G14G16G21G26G27G31            -0.000209467
  22204048.852 6  -1901956.543 6  -1472528.51648  22204047.94548
  23034180.461 6  -2658215.125 6  -1999016.23049  23034181.90649
  22400203.109 6    901508.141 6    695210.91847  22400201.50447
  20615945.734 6   -649758.953 6   -493536.08248  20615942.56348
  24288155.750 5    -69467.480 5    -43703.71146  24288153.93846
  21314000.922 6     52246.348 6     38974.58649  21314002.02049
  20876693.984 6  -2243089.391 6  -1704656.85949  20876693.77049
  21866840.969 7   -235931.223 7   -179365.76249  21866838.23449
 20  5 16  0 21 24.0000000  0  8G04G08G14G16G21G26G27G31            -0.000210438
  22203323.711 6  -1905769.234 6  -1475499.45348  22203322.28948
  23033216.023 6  -2663285.785 6  -2002967.39149  23033216.57049
  22400522.992 6    903187.602 6    696519.58647  22400521.10947
  20615728.328 6   -650902.336 6   -494427.03148  20615724.27048
  24287847.086 5    -71091.191 5    -44968.94546  24287844.69546
  21314011.977 6     52305.371 6     39020.57449  21314013.12949
  20875948.180 7  -2247010.027 7  -1707711.90649  20875947.69949
  21866758.820 6   -236360.973 6   -179700.63349  21866756.60949
 20  5 16  0 21 25.0000000  0  8G04G08G14G16G21G26G27G31            -0.000211407
  22202597.883 6  -1909581.699 6  -1478470.19948  22202596.90648
  23032251.344 6  -2668356.438 6  -2006918.55149  23032251.49249
  22400842.453 6    904867.148 6    697828.32447  22400840.77747
  20615510.594 6   -652045.598 6   -495317.88348  20615506.95748
  24287537.891 5    -72714.730 5    -46234.05146  24287535.62946
  21314023.383 6     52364.281 6     39066.49249  21314024.75449
  20875202.031 7  -2250930.355 7  -1710766.70349  20875201.63749
  21866677.086 6   -236790.703 6   -180035.48449  21866674.23849
 20  5 16  0 21 26.0000000  0  8G04G08G14G16G21G26G27G31            -0.000212378
  22201872.352 6  -1913393.914 6  -1481440.75848  22201871.25048
  23031286.336 6  -2673427.105 6  -2010869.71549  23031286.59049
  22401161.664 6    906546.789 6    699137.13747  22401160.19147
  20615293.133 6   -653188.832 6   -496208.72349  20615289.78549
  24287229.047 5    -74338.152 5    -47499.05546  24287227.24246
  21314034.664 6     52423.035 6     39112.27749  21314035.33249
  20874455.563 7  -2254850.375 7  -1713821.26649  20874455.46149
  21866595.508 6   -237220.445 6   -180370.35249  21866592.59449
 20  5 16  0 21 27.0000000  0  8G04G08G14G16G21G26G27G31            -0.000213348
  22201147.289 6  -1917205.879 6  -1484411.12148  22201145.79348
  23030321.836 6  -2678497.738 6  -2014820.85549  23030321.82849
  22401482.039 6    908226.457 6    700445.96547  22401480.56347
  20615075.727 6   -654331.941 6   -497099.45349  20615072.19549
  24286920.531 5    -75961.320 5    -48763.87146  24286918.29746
  21314045.531 6     52481.684 6     39157.97749  21314046.90649
  20873709.883 7  -2258770.082 7  -1716875.58649  20873709.50849
  21866513.859 6   -237650.160 6   -180705.19549  21866511.13749
 20  5 16  0 21 28.0000000  0  8G04G08G14G16G21G26G27G31            -0.000214317
  22200421.953 6  -1921017.621 6  -1487381.31348  22200420.59048
  23029356.758 6  -2683568.434 6  -2018772.04749  23029356.78149
  22401801.766 6    909906.242 6    701754.88747  22401800.25047
  20614858.336 7   -655474.996 7   -497990.14549  20614854.70749
  24286610.938 5    -77584.367 5    -50028.57446  24286609.36346
  21314056.703 6     52540.199 6     39203.57049  21314058.01649
  20872963.813 7  -2262689.492 7  -1719929.67249  20872963.70749
  21866432.039 6   -238079.859 6   -181040.02749  21866429.19549
 20  5 16  0 21 29.0000000  0  8G04G08G14G16G21G26G27G31            -0.000215288
  22199696.750 6  -1924828.934 6  -1490351.16448  22199695.27048
  23028391.570 6  -2688638.926 6  -2022723.08649  23028391.91849
  22402121.133 6    911586.254 6    703063.98847  22402119.24247
  20614640.398 6   -656617.781 6   -498880.62949  20614637.34049
  24286301.969 5    -79207.082 5    -51293.01646  24286300.21946
  21314068.023 6     52598.719 6     39249.16849  21314069.08649
  20872218.609 7  -2266608.410 7  -1722983.37549  20872218.04349
  21866350.266 6   -238509.359 6   -181374.70349  21866347.62949
 20  5 16  0 21 30.0000000  0  8G04G08G14G16G21G26G27G31            -0.000216259
  22198971.219 6  -1928639.973 6  -1493320.80948  22198970.01248
  23027426.555 6  -2693709.395 6  -2026674.10549  23027426.78949
  22402440.891 6    913266.363 6    704373.15648  22402439.28948
  20614423.180 7   -657760.449 7   -499771.02048  20614420.02048
  24285993.742 5    -80829.563 5    -52557.28146  24285991.80146
  21314079.281 6     52657.184 6     39294.71949  21314080.44949
  20871472.883 7  -2270526.980 7  -1726036.80549  20871472.14149
  21866268.438 6   -238938.805 6   -181709.33649  21866265.93049
 20  5 16  0 21 31.0000000  0  8G04G08G14G16G21G26G27G31            -0.000217228
  22198246.180 6  -1932450.742 6  -1496290.23448  22198244.98048
  23026462.211 6  -2698779.832 6  -2030625.09049  23026461.99249
  22402760.734 6    914946.613 6    705682.44547  22402758.97747
  20614205.648 7   -658902.996 7   -500661.32449  20614202.42649
  24285684.766 5    -82451.898 5    -53821.44146  24285683.02046
  21314090.438 6     52715.500 6     39340.16049  21314091.35249
  20870727.094 7  -2274445.219 7  -1729089.98049  20870726.67649
  21866186.953 6   -239368.219 6   -182043.94949  21866183.80149
 20  5 16  0 21 32.0000000  0  8G04G08G14G16G21G26G27G31            -0.000218199
  22197521.461 6  -1936261.207 6  -1499259.42648  22197519.90248
  23025496.945 6  -2703850.207 6  -2034576.03949  23025496.97349
  22403080.352 6    916626.984 6    706991.82447  22403078.43047
  20613988.148 7   -660045.395 7   -501551.50449  20613984.99649
  24285376.063 5    -84073.918 5    -55085.35946  24285374.11746
  21314101.289 6     52773.754 6     39385.54749  21314102.18049
  20869981.477 7  -2278363.059 7  -1732142.84049  20869981.35249
  21866104.813 6   -239797.547 6   -182378.49249  21866102.37149
 20  5 16  0 21 33.0000000  0  8G04G08G14G16G21G26G27G31            -0.000219170
  22196796.250 6  -1940071.508 6  -1502228.49648  22196794.92248
  23024532.406 6  -2708920.641 6  -2038527.02349  23024532.21149
  22403400.008 6    918307.344 6    708301.19547  22403398.57047
  20613770.844 6   -661187.809 6   -502441.69549  20613767.47749
  24285067.617 5    -85695.891 5    -56349.22946  24285066.11746
  21314112.484 6     52831.836 6     39430.81649  21314113.21949
  20869236.078 7  -2282280.695 7  -1735195.54749  20869235.89849
  21866023.375 7   -240226.926 7   -182713.07449  21866020.60549
 20  5 16  0 21 34.0000000  0  8G04G08G14G16G21G26G27G31            -0.000220142
  22196071.250 6  -1943881.523 6  -1505197.33648  22196069.92248
  23023567.320 6  -2713991.020 6  -2042477.96549  23023567.37949
  22403719.664 6    919987.805 6    709610.64147  22403718.12947
  20613553.492 6   -662330.090 6   -503331.77749  20613550.47749
  24284759.531 5    -87317.680 5    -57612.96946  24284756.92246
  21314123.570 6     52889.785 6     39475.96549  21314124.44149
  20868490.617 7  -2286197.996 7  -1738247.98449  20868490.34849
  21865941.453 7   -240656.277 7   -183047.62949  21865938.93049
 20  5 16  0 21 35.0000000  0  8G04G08G14G16G21G26G27G31            -0.000221111
  22195346.156 6  -1947691.250 6  -1508165.95748  22195345.02748
  23022602.078 6  -2719061.316 6  -2046428.84449  23022602.73049
  22404039.844 6    921668.406 6    710920.20347  22404038.07047
  20613336.492 7   -663472.230 7   -504221.76249  20613332.99649
  24284450.469 5    -88939.215 5    -58876.48846  24284448.47746
  21314134.422 6     52947.699 6     39521.09049  21314135.26249
  20867745.375 7  -2290114.887 7  -1741300.10949  20867745.08649
  21865860.305 7   -241085.520 7   -183382.10549  21865857.01249
 20  5 16  0 21 36.0000000  0  8G04G08G14G16G21G26G27G31            -0.000222084
  22194621.367 6  -1951500.637 6  -1511134.31348  22194620.16848
  23021636.953 6  -2724131.543 6  -2050379.67649  23021637.57849
  22404359.695 6    923349.199 6    712229.90647  22404357.57847
  20613118.883 7   -664614.180 7   -505111.59849  20613115.81349
  24284142.133 5    -90560.484 5    -60139.81646  24284140.00446
  21314145.461 6     53005.543 6     39566.15649  21314146.39149
  20867000.094 7  -2294031.398 7  -1744351.93849  20866999.99249
  21865778.359 7   -241514.676 7   -183716.51249  21865775.56649
 20  5 16  0 21 37.0000000  0  8G04G08G14G16G21G26G27G31            -0.000223055
  22193896.445 6  -1955309.836 6  -1514102.52048  22193895.17248
  23020672.305 6  -2729201.848 6  -2054330.56649  23020672.76249
  22404679.750 6    925029.961 6    713539.59447  22404677.70347
  20612901.688 7   -665756.156 7   -506001.44549  20612898.39549
  24283833.250 5    -92181.660 5    -61403.07846  24283831.67246
  21314156.258 6     53063.180 6     39611.07049  21314157.19549
  20866254.617 7  -2297947.648 7  -1747403.55549  20866254.71949
  21865696.461 6   -241943.883 6   -184050.96548  21865693.71548
 20  5 16  0 21 38.0000000  0  8G04G08G14G16G21G26G27G31            -0.000224026
  22193171.953 6  -1959118.832 6  -1517070.56648  22193170.31348
  23019707.680 6  -2734272.148 6  -2058281.44149  23019707.88349
  22404999.391 6    926710.813 6    714849.34447  22404997.38347
  20612684.430 7   -666898.035 7   -506891.22749  20612681.11349
  24283524.602 5    -93802.637 5    -62666.16846  24283523.20746
  21314167.453 6     53120.688 6     39655.88349  21314168.45349
  20865509.492 7  -2301863.609 7  -1750454.95749  20865509.27749
  21865614.773 6   -242373.074 6   -184385.39848  21865612.00848
 20  5 16  0 21 39.0000000  0  8G04G08G14G16G21G26G27G31            -0.000224998
  22192446.625 6  -1962927.457 6  -1520038.33248  22192445.46948
  23018743.469 6  -2739342.324 6  -2062232.22749  23018743.17649
  22405319.266 6    928391.824 6    716159.23047  22405316.96947
  20612467.180 7   -668039.734 7   -507780.85549  20612463.75849
  24283216.727 5    -95423.363 5    -63929.07446  24283214.83246
  21314178.273 6     53178.160 6     39700.66849  21314179.24649
  20864764.125 7  -2305779.152 7  -1753506.03149  20864764.20749
  21865533.227 6   -242802.164 6   -184719.75449  21865530.47349
 20  5 16  0 21 40.0000000  0  8G04G08G14G16G21G26G27G31            -0.000225969
  22191722.313 6  -1966735.691 6  -1523005.78948  22191720.56648
  23017778.430 6  -2744412.359 6  -2066182.91049  23017778.28549
  22405639.070 6    930073.066 6    717469.28547  22405637.00047
  20612249.891 7   -669181.199 7   -508670.31648  20612246.98048
  24282908.375 5    -97043.801 5    -65191.75046  24282906.41046
  21314189.344 6     53235.633 6     39745.44149  21314189.83249
  20864019.266 7  -2309694.223 7  -1756556.73849  20864019.28149
  21865451.664 6   -243231.074 6   -185053.97349  21865448.67249
 20  5 16  0 21 41.0000000  0  8G04G08G14G16G21G26G27G31            -0.000226942
  22190997.047 6  -1970543.754 6  -1525973.10948  22190996.18848
  23016813.250 6  -2749482.477 6  -2070133.65249  23016813.77349
  22405959.039 6    931754.340 6    718779.36347  22405957.36747
  20612032.766 7   -670322.660 7   -509559.75848  20612029.09448
  24282599.969 5    -98664.074 5    -66454.30146  24282598.36346
  21314200.195 6     53292.934 6     39790.08649  21314201.30149
  20863274.070 6  -2313609.082 6  -1759607.28549  20863274.43849
  21865370.125 6   -243660.027 6   -185388.22349  21865367.32449
 20  5 16  0 21 42.0000000  0  8G04G08G14G16G21G26G27G31            -0.000227913
  22190272.625 6  -1974351.633 6  -1528940.28548  22190271.34048
  23015848.680 6  -2754552.672 6  -2074084.46149  23015848.55949
  22406279.148 6    933435.578 6    720089.42247  22406277.04347
  20611815.680 7   -671464.105 7   -510449.19549  20611811.93049
  24282291.383 5   -100284.297 5    -67716.82046  24282289.99646
  21314210.922 6     53349.980 6     39834.54349  21314212.10949
  20862529.398 7  -2317523.680 7  -1762657.61349  20862529.34049
  21865288.313 6   -244089.055 6   -185722.53149  21865285.69949
 20  5 16  0 21 43.0000000  0  8G04G08G14G16G21G26G27G31            -0.000228886
  22189548.313 6  -1978159.301 6  -1531907.29748  22189546.53148
  23014884.078 6  -2759622.824 6  -2078035.22749  23014883.94949
  22406598.789 6    935116.867 6    721399.51247  22406596.98447
  20611598.289 7   -672605.500 7   -511338.59848  20611594.80948
  24281983.219 5   -101904.340 5    -68979.19146  24281981.77046
  21314221.617 6     53406.902 6     39878.90249  21314222.96149
  20861784.570 7  -2321438.008 7  -1765707.73849  20861784.67249
  21865206.727 6   -244518.078 6   -186056.83648  21865204.06648
 20  5 16  0 21 44.0000000  0  8G04G08G14G16G21G26G27G31            -0.000229858
  22188824.031 6  -1981966.701 6  -1534874.10448  22188822.38348
  23013919.125 6  -2764692.957 6  -2081985.97749  23013918.84849
  22406919.102 6    936798.320 6    722709.73447  22406916.77747
  20611381.016 7   -673746.746 7   -512227.88348  20611377.91848
  24281674.969 5   -103524.188 5    -70241.41846  24281673.48046
  21314232.367 6     53463.762 6     39923.20749  21314233.38349
  20861040.063 7  -2325351.949 7  -1768757.56349  20861039.71549
  21865125.359 6   -244947.031 6   -186391.09048  21865122.25048
 20  5 16  0 21 45.0000000  0  8G04G08G14G16G21G26G27G31            -0.000230829
  22188099.625 6  -1985773.652 6  -1537840.55548  22188098.08648
  23012953.992 6  -2769762.934 6  -2085936.60949  23012954.12949
  22407238.859 6    938479.969 6    724020.11347  22407237.13347
  20611163.820 7   -674887.758 7   -513116.98448  20611160.30948
  24281367.102 5   -105143.699 5    -71503.36746  24281365.25446
  21314243.516 6     53520.648 6     39967.53149  21314244.39849
  20860295.219 7  -2329265.418 7  -1771807.02049  20860295.11749
  21865043.391 6   -245375.793 6   -186725.19148  21865040.81648
 20  5 16  0 21 46.0000000  0  8G04G08G14G16G21G26G27G31            -0.000231802
  22187375.156 6  -1989580.480 6  -1540806.92248  22187373.42248
  23011989.313 6  -2774832.977 6  -2089887.28949  23011989.31349
  22407559.063 6    940161.625 6    725330.49247  22407557.16847
  20610946.875 6   -676028.785 6   -514006.10248  20610943.47748
  24281058.914 5   -106763.148 5    -72765.27046  24281057.16046
  21314254.875 6     53577.270 6     40011.65249  21314255.34849
  20859550.445 7  -2333178.695 7  -1774856.32849  20859550.46949
  21864962.195 6   -245804.660 6   -187059.37549  21864959.46549
 20  5 16  0 21 47.0000000  0  8G04G08G14G16G21G26G27G31            -0.000232775
  22186650.375 6  -1993386.922 6  -1543772.98048  22186649.17248
  23011024.328 6  -2779902.902 6  -2093837.88349  23011025.09049
  22407879.219 6    941843.477 6    726641.02047  22407876.96547
  20610729.633 7   -677169.582 7   -514895.03148  20610726.52348
  24280750.664 5   -108382.254 5    -74026.90246  24280748.93846
  21314265.273 6     53633.906 6     40055.78149  21314265.74649
  20858805.992 7  -2337091.504 7  -1777905.26649  20858805.78549
  21864880.289 6   -246233.371 6   -187393.43849  21864877.68049
 20  5 16  0 21 48.0000000  0  8G04G08G14G16G21G26G27G31            -0.000233747
  22185926.195 6  -1997193.113 6  -1546738.84448  22185925.10548
  23010059.727 5  -2784972.871 5  -2097788.51649  23010059.77049
  22408199.031 6    943525.391 6    727951.60547  22408197.35247
  20610512.734 6   -678310.320 6   -515783.92649  20610509.30549
  24280442.508 5   -110001.230 5    -75288.44546  24280440.67646
  21314276.000 6     53690.410 6     40099.80549  21314276.38349
  20858061.133 7  -2341004.000 7  -1780953.96949  20858061.31349
  21864798.820 6   -246662.051 6   -187727.47349  21864796.09449
 20  5 16  0 21 49.0000000  0  8G04G08G14G16G21G26G27G31            -0.000234720
  22185202.109 6  -2000999.133 6  -1549704.57048  22185200.75048
  23009095.305 5  -2790042.879 5  -2101739.16849  23009095.31349
  22408519.359 6    945207.336 6    729262.21147  22408517.32047
  20610295.563 6   -679451.000 6   -516672.76649  20610292.18849
  24280134.758 5   -111620.063 5    -76549.87146  24280132.55946
  21314286.742 6     53746.742 6     40143.70349  21314287.20749
  20857316.844 7  -2344916.242 7  -1784002.47349  20857316.87149
  21864717.078 6   -247090.781 6   -188061.55149  21864714.66449
 20  5 16  0 21 50.0000000  0  8G04G08G14G16G21G26G27G31            -0.000235693
  22184477.953 6  -2004804.602 6  -1552669.87548  22184476.64548
  23008130.273 6  -2795112.547 6  -2105689.55549  23008130.47349
  22408839.344 6    946889.664 6    730573.11747  22408837.52047
  20610078.414 6   -680591.328 6   -517561.33249  20610075.47749
  24279826.852 5   -113238.449 5    -77810.94946  24279824.62946
  21314297.047 6     53803.215 6     40187.71149  21314298.08649
  20856572.695 7  -2348827.875 7  -1787050.49249  20856572.47349
  21864635.578 6   -247519.199 6   -188395.38348  21864632.98448
 20  5 16  0 21 51.0000000  0  8G04G08G14G16G21G26G27G31            -0.000236666
  22183753.359 6  -2008609.809 6  -1555634.97348  22183752.36748
  23007165.383 6  -2800182.246 6  -2109639.96949  23007165.68449
  22409159.406 6    948572.031 6    731884.05147  22409157.39847
  20609861.328 6   -681731.574 6   -518449.83649  20609858.60249
  24279519.438 5   -114856.652 5    -79071.88346  24279516.66046
  21314307.844 6     53859.555 6     40231.60949  21314308.93449
  20855827.781 6  -2352739.207 6  -1790098.28549  20855827.95749
  21864554.219 6   -247947.566 6   -188729.17248  21864551.57848
 20  5 16  0 21 52.0000000  0  8G04G08G14G16G21G26G27G31            -0.000237640
  22183029.938 6  -2012414.695 6  -1558599.82048  22183028.31648
  23006201.281 6  -2805251.809 6  -2113590.27749  23006201.04349
  22409479.781 6    950254.602 6    733195.14547  22409477.85947
  20609644.766 6   -682871.605 6   -519338.17249  20609641.68449
  24279210.453 5   -116474.594 5    -80332.62146  24279208.66046
  21314318.922 6     53915.902 6     40275.51649  21314319.77349
  20855084.141 7  -2356650.086 7  -1793145.72749  20855083.90649
  21864472.766 6   -248375.813 6   -189062.87549  21864470.04349
 20  5 16  0 21 53.0000000  0  8G04G08G14G16G21G26G27G31            -0.000238613
  22182306.055 6  -2016219.152 6  -1561564.33248  22182304.64848
  23005235.805 6  -2810321.199 6  -2117540.45349  23005236.46149
  22409799.828 6    951937.398 6    734506.41447  22409798.10547
  20609427.750 6   -684011.387 6   -520226.31349  20609424.43449
  24278903.102 5   -118092.184 5    -81593.09446  24278901.19146
  21314329.383 6     53972.234 6     40319.41049  21314330.15649
  20854339.789 6  -2360560.512 6  -1796192.80549  20854339.82049
  21864391.453 7   -248803.906 7   -189396.44948  21864388.30548
 20  5 16  0 21 54.0000000  0  8G04G08G14G16G21G26G27G31            -0.000239586
  22181581.969 6  -2020023.391 6  -1564528.66448  22181580.75048
  23004271.258 6  -2815390.637 6  -2121490.66849  23004271.50449
  22410119.953 6    953620.258 6    735817.72748  22410118.14148
  20609211.117 7   -685151.133 7   -521114.42249  20609207.68049
  24278595.391 5   -119709.637 5    -82853.43446  24278593.61746
  21314339.867 6     54028.449 6     40363.21149  21314340.62549
  20853595.852 7  -2364470.645 7  -1799239.66449  20853595.51649
  21864309.742 6   -249232.008 6   -189730.03949  21864307.18849
 20  5 16  0 21 55.0000000  0  8G04G08G14G16G21G26G27G31            -0.000240561
  22180857.828 6  -2023827.355 6  -1567492.78948  22180856.48848
  23003307.000 6  -2820459.977 6  -2125440.80149  23003307.02749
  22410440.297 6    955303.234 6    737129.13748  22410438.18048
  20608994.195 7   -686290.777 7   -522002.45748  20608990.65648
  24278287.680 5   -121326.859 5    -84113.59846  24278285.75846
  21314350.492 6     54084.559 6     40406.93049  21314351.62549
  20852851.852 7  -2368380.414 7  -1802286.23049  20852851.81349
  21864228.508 6   -249660.020 6   -190063.55549  21864225.55149
 20  5 16  0 21 56.0000000  0  8G04G08G14G16G21G26G27G31            -0.000241533
  22180134.125 6  -2027630.898 6  -1570456.59048  22180132.97748
  23002342.070 6  -2825529.254 6  -2129390.89149  23002342.33649
  22410760.570 6    956986.402 6    738440.69547  22410758.59447
  20608777.141 7   -687430.152 7   -522890.28548  20608773.66848
  24277979.875 5   -122943.738 5    -85373.50046  24277977.87546
  21314361.430 6     54140.664 6     40450.64849  21314362.28949
  20852107.953 6  -2372289.734 6  -1805332.45349  20852107.75049
  21864147.039 6   -250087.891 6   -190396.96149  21864144.16049
 20  5 16  0 21 57.0000000  0  8G04G08G14G16G21G26G27G31            -0.000242506
  22179410.281 6  -2031434.137 6  -1573420.16048  22179409.33648
  23001377.570 5  -2830598.379 5  -2133340.85549  23001377.75449
  22411081.195 6    958669.742 6    739752.39547  22411078.74647
  20608560.492 7   -688569.406 7   -523778.01649  20608556.85949
  24277672.539 5   -124560.461 5    -86633.28546  24277670.31346
  21314371.758 6     54196.723 6     40494.33249  21314373.13749
  20851364.164 7  -2376198.668 7  -1808378.37949  20851363.84849
  21864065.469 7   -250515.668 7   -190730.29349  21864062.30549
 20  5 16  0 21 58.0000000  0  8G04G08G14G16G21G26G27G31            -0.000243481
  22178686.867 6  -2035237.375 6  -1576383.71548  22178685.35248
  23000412.891 6  -2835667.754 6  -2137291.02049  23000413.18049
  22411401.359 6    960352.918 6    741063.96147  22411399.50847
  20608343.789 7   -689708.797 7   -524665.85249  20608340.28149
  24277364.211 5   -126177.152 5    -87893.03946  24277362.70346
  21314382.836 6     54252.414 6     40537.72349  21314383.92249
  20850620.344 7  -2380107.516 7  -1811424.23849  20850620.11349
  21863984.125 6   -250943.660 6   -191063.79348  21863981.47348
 20  5 16  0 21 59.0000000  0  8G04G08G14G16G21G26G27G31            -0.000244455
  22177962.672 6  -2039040.262 6  -1579347.00848  22177961.70748
  22999448.102 6  -2840736.992 6  -2141241.07449  22999448.79749
  22411721.734 6    962036.273 6    742375.66847  22411719.73847
  20608126.906 7   -690848.008 7   -525553.55148  20608123.54348
  24277056.836 5   -127793.641 5    -89152.65246  24277054.65646
  21314393.422 6     54308.063 6     40581.09049  21314394.18849
  20849876.438 7  -2384015.949 7  -1814469.77049  20849876.46949
  21863902.859 6   -251371.527 6   -191397.19948  21863900.07848
 20  5 16  0 22  0.0000000  0  8G04G08G14G16G21G26G27G31            -0.000245428
  22177239.641 6  -2042842.797 6  -1582310.02748  22177237.94148
  22998483.750 6  -2845806.180 6  -2145191.09049  22998484.02049
  22412041.555 6    963719.785 6    743687.48847  22412040.23047
  20607910.109 7   -691987.039 7   -526441.11349  20607906.80949
  24276749.258 5   -129409.801 5    -90411.98846  24276747.27346
  21314403.695 6     54363.684 6     40624.43849  21314404.81649
  20849132.586 7  -2387923.984 7  -1817514.98449  20849132.60249
  21863821.391 7   -251799.273 7   -191730.50849  21863818.61349
 20  5 16  0 22  1.0000000  0  8G04G08G14G16G21G26G27G31            -0.000246403
  22176515.930 6  -2046645.105 6  -1585272.86348  22176514.39148
  22997519.023 6  -2850875.324 6  -2149141.07049  22997519.51249
  22412362.359 6    965403.379 6    744999.37947  22412360.45347
  20607693.516 7   -693125.980 7   -527328.59849  20607690.29349
  24276441.719 5   -131025.848 5    -91671.25846  24276439.81646
  21314414.625 6     54419.168 6     40667.67249  21314415.30549
  20848389.273 7  -2391831.680 7  -1820559.94149  20848388.90649
  21863739.984 6   -252227.000 6   -192063.80549  21863737.08649
 20  5 16  0 22  2.0000000  0  8G04G08G14G16G21G26G27G31            -0.000247377
  22175792.445 6  -2050447.219 6  -1588235.55148  22175790.45748
  22996553.680 6  -2855944.547 6  -2153091.12149  22996554.75849
  22412682.844 6    967086.977 6    746311.27347  22412680.82047
  20607476.508 7   -694264.930 7   -528216.09849  20607473.34449
  24276134.438 5   -132641.758 5    -92930.40246  24276132.10246
  21314425.156 6     54474.449 6     40710.75049  21314425.61749
  20847645.328 6  -2395739.168 6  -1823604.74249  20847645.59849
  21863658.398 6   -252654.809 6   -192397.16449  21863655.64149
 20  5 16  0 22  3.0000000  0  8G04G08G14G16G21G26G27G31            -0.000248352
  22175069.445 6  -2054249.008 6  -1591197.97748  22175067.50048
  22995589.578 6  -2861013.668 6  -2157041.08249  22995590.05949
  22413003.242 6    968770.742 6    747623.29347  22413001.26247
  20607259.781 7   -695403.699 7   -529103.44549  20607256.68449
  24275826.445 5   -134257.445 5    -94189.37546  24275824.83246
  21314435.805 6     54529.688 6     40753.78949  21314436.16449
  20846902.234 7  -2399646.234 7  -1826649.20349  20846902.04749
  21863577.156 6   -253082.496 6   -192730.42249  21863574.13749
 20  5 16  0 22  4.0000000  0  8G04G08G14G16G21G26G27G31            -0.000249327
  22174345.500 6  -2058050.492 6  -1594160.16848  22174344.27048
  22994625.031 6  -2866082.754 6  -2160991.01649  22994625.50849
  22413323.547 6    970454.617 6    748935.39847  22413321.54347
  20607043.055 7   -696542.344 7   -529990.70749  20607039.97749
  24275519.656 5   -135872.879 5    -95448.16846  24275517.67246
  21314446.180 6     54584.828 6     40796.75449  21314446.64549
  20846158.734 7  -2403552.938 7  -1829693.38349  20846158.66049
  21863495.539 6   -253510.113 6   -193063.63349  21863492.65249
 20  5 16  0 22  5.0000000  0  8G04G08G14G16G21G26G27G31            -0.000250301
  22173622.367 6  -2061851.719 6  -1597122.16448  22173620.63348
  22993660.758 6  -2871151.762 6  -2164940.88749  22993661.05149
  22413643.867 6    972138.605 6    750247.59847  22413642.23847
  20606826.352 7   -697680.863 7   -530877.86349  20606823.47349
  24275212.320 5   -137488.074 5    -96706.76646  24275210.07446
  21314456.500 6     54639.898 6     40839.66449  21314457.24649
  20845415.227 7  -2407459.281 7  -1832737.28949  20845414.91449
  21863414.281 6   -253937.664 6   -193396.78949  21863411.51249
 20  5 16  0 22  6.0000000  0  8G04G08G14G16G21G26G27G31            -0.000251276
  22172898.836 6  -2065652.746 6  -1600084.00848  22172897.23048
  22992695.516 6  -2876220.828 6  -2168890.81349  22992696.24649
  22413964.461 6    973822.613 6    751559.80547  22413962.71147
  20606609.883 6   -698819.363 6   -531765.00849  20606606.71549
  24274905.125 5   -139103.259 5    -97965.34346  24274903.01646
  21314466.648 6     54694.758 6     40882.41449  21314467.69149
  20844672.148 7  -2411365.359 7  -1835780.98849  20844671.86349
  21863333.148 6   -254365.289 6   -193730.00049  21863330.03949
 20  5 16  0 22  7.0000000  0  8G04G08G14G16G21G26G27G31            -0.000252251
  22172175.680 6  -2069453.348 6  -1603045.50848  22172174.21948
  22991731.117 6  -2881289.762 6  -2172840.62949  22991731.69549
  22414285.008 6    975506.824 6    752872.17647  22414283.05947
  20606393.422 7   -699957.645 7   -532651.97749  20606390.21149
  24274597.563 5   -140718.039 5    -99223.60946  24274595.51246
  21314476.898 6     54749.637 6     40925.17649  21314478.22349
  20843928.906 7  -2415270.996 7  -1838824.34449  20843928.85249
  21863251.773 6   -254792.699 6   -194063.05148  21863249.07448
 20  5 16  0 22  8.0000000  0  8G04G08G14G16G21G26G27G31            -0.000253225
  22171452.477 6  -2073253.750 6  -1606006.87148  22171451.14548
  22990766.656 6  -2886358.680 6  -2176790.43049  22990766.94949
  22414605.484 6    977191.074 6    754184.58247  22414603.64847
  20606176.695 7   -701095.855 7   -533538.89849  20606173.33649
  24274290.086 5   -142332.668 5   -100481.75446  24274288.48446
  21314487.883 6     54804.359 6     40967.81649  21314488.75049
  20843185.602 7  -2419176.336 7  -1841867.46949  20843185.57849
  21863170.422 6   -255220.137 6   -194396.11749  21863167.43449
 20  5 16  0 22  9.0000000  0  8G04G08G14G16G21G26G27G31            -0.000254202
  22170729.406 6  -2077053.824 6  -1608967.97348  22170727.73048
  22989801.844 6  -2891427.512 6  -2180740.18049  22989802.66849
  22414925.734 6    978875.523 6    755497.13347  22414924.07047
  20605960.203 7   -702233.898 7   -534425.68049  20605957.52349
  24273982.625 5   -143947.039 5   -101739.71546  24273981.03146
  21314498.344 6     54859.031 6     41010.41849  21314499.05149
  20842442.633 6  -2423081.254 6  -1844910.26649  20842442.47749
  21863088.938 6   -255647.449 6   -194729.09449  21863086.27049
 20  5 16  0 22 10.0000000  0  8G04G08G14G16G21G26G27G31            -0.000255177
  22170006.289 6  -2080853.676 6  -1611928.89148  22170004.89148
  22988837.773 6  -2896496.398 6  -2184689.95749  22988838.29349
  22415246.391 6    980560.004 6    756809.71947  22415244.40647
  20605743.766 7   -703371.902 7   -535312.43849  20605740.64849
  24273675.461 5   -145561.305 5   -102997.59046  24273673.91846
  21314508.500 6     54913.516 6     41052.86749  21314509.43849
  20841699.383 6  -2426985.922 6  -1847952.85949  20841699.42249
  21863007.734 6   -256074.809 6   -195062.09849  21863005.15249
 20  5 16  0 22 11.0000000  0  8G04G08G14G16G21G26G27G31            -0.000256151
  22169282.938 6  -2084653.184 6  -1614889.54748  22169281.66848
  22987872.977 6  -2901565.184 6  -2188639.66449  22987873.44949
  22415567.086 6    982244.648 6    758122.42647  22415565.26647
  20605527.164 7   -704509.727 7   -536199.05149  20605523.61749
  24273368.734 5   -147175.281 5   -104255.22746  24273366.68446
  21314518.930 6     54968.000 6     41095.32049  21314519.88749
  20840956.570 7  -2430890.160 7  -1850995.12549  20840956.16449
  21862926.281 6   -256502.027 6   -195395.00049  21862923.62949
 20  5 16  0 22 12.0000000  0  8G04G08G14G16G21G26G27G31            -0.000257128
  22168560.508 6  -2088452.469 6  -1617850.03548  22168558.91848
  22986908.109 5  -2906633.969 5  -2192589.36749  22986909.06649
  22415887.602 6    983929.309 6    759435.15247  22415885.82447
  20605310.930 7   -705647.488 7   -537085.61749  20605307.52749
  24273061.328 5   -148789.133 5   -105512.76246  24273059.70746
  21314529.586 6     55022.320 6     41137.64549  21314530.22349
  20840213.953 7  -2434794.105 7  -1854037.15649  20840213.70349
  21862845.031 6   -256929.254 6   -195727.90249  21862842.10249
 20  5 16  0 22 13.0000000  0  8G04G08G14G16G21G26G27G31            -0.000258102
  22167837.648 6  -2092251.449 6  -1620810.27748  22167835.81348
  22985943.492 6  -2911702.699 6  -2196539.02749  22985944.63749
  22416208.242 6    985614.121 6    760747.99647  22416206.35247
  20605094.266 7   -706785.113 7   -537972.08249  20605091.20349
  24272754.406 5   -150402.758 5   -106770.12546  24272752.57846
  21314539.359 6     55076.559 6     41179.90249  21314540.71949
  20839471.000 7  -2438697.688 7  -1857078.91449  20839470.93049
  21862763.664 6   -257356.426 6   -196060.76648  21862760.36748
 20  5 16  0 22 14.0000000  0  8G04G08G14G16G21G26G27G31            -0.000259079
  22167114.719 6  -2096050.094 6  -1623770.26248  22167112.92248
  22984979.391 5  -2916771.309 5  -2200488.58649  22984980.04349
  22416528.586 6    987299.125 6    762060.98447  22416527.00047
  20604877.813 7   -707922.566 7   -538858.40249  20604874.43849
  24272447.109 5   -152016.066 5   -108027.25846  24272445.51246
  21314549.891 6     55130.770 6     41222.14849  21314550.88349
  20838728.328 7  -2442600.855 7  -1860120.34049  20838727.99649
  21862682.219 6   -257783.457 6   -196393.52348  21862679.70748
 20  5 16  0 22 15.0000000  0  8G04G08G14G16G21G26G27G31            -0.000260056
  22166391.141 6  -2099848.520 6  -1626730.07048  22166390.06348
  22984015.000 6  -2921839.977 6  -2204438.19549  22984015.79749
  22416849.945 6    988984.113 6    763373.95747  22416847.56647
  20604661.352 7   -709059.973 7   -539744.69549  20604657.74249
  24272140.180 5   -153629.254 5   -109284.28946  24272138.60546
  21314559.852 6     55184.762 6     41264.21949  21314561.03949
  20837985.492 7  -2446503.762 7  -1863161.56649  20837985.32449
  21862601.023 6   -258210.527 6   -196726.30549  21862598.40649
 20  5 16  0 22 16.0000000  0  8G04G08G14G16G21G26G27G31            -0.000261030
  22165668.711 6  -2103646.336 6  -1629689.41048  22165667.27748
  22983050.672 6  -2926908.281 6  -2208387.52049  22983050.98449
  22417170.406 6    990669.543 6    764687.27347  22417168.72347
  20604444.641 7   -710196.949 7   -540630.65249  20604441.57049
  24271833.219 5   -155241.938 5   -110540.93046  24271831.67646
  21314570.500 6     55239.012 6     41306.49249  21314571.35549
  20837242.875 7  -2450405.969 7  -1866202.24649  20837242.51249
  21862520.102 6   -258637.219 6   -197058.78948  21862517.43448
 20  5 16  0 22 17.0000000  0  8G04G08G14G16G21G26G27G31            -0.000262007
  22164946.156 6  -2107443.934 6  -1632648.57848  22164944.66848
  22982086.070 6  -2931976.559 6  -2212336.82849  22982086.93449
  22417491.336 6    992355.047 6    766000.64547  22417489.13747
  20604228.438 7   -711333.820 7   -541516.52349  20604225.39549
  24271526.445 5   -156854.445 5   -111797.43846  24271524.63346
  21314580.836 6     55293.125 6     41348.65249  21314581.31649
  20836500.305 7  -2454307.871 7  -1869242.68849  20836500.14149
  21862438.648 6   -259063.887 6   -197391.26249  21862436.10249
 20  5 16  0 22 18.0000000  0  8G04G08G14G16G21G26G27G31            -0.000262983
  22164223.750 6  -2111241.211 6  -1635607.49248  22164222.44548
  22981121.555 6  -2937044.820 6  -2216286.12149  22981122.03949
  22417811.750 6    994040.656 6    767314.10547  22417809.74647
  20604012.188 7   -712470.609 7   -542402.33249  20604009.17649
  24271220.016 5   -158466.719 5   -113053.74246  24271218.05546
  21314591.266 6     55347.164 6     41390.76649  21314592.05549
  20835757.813 7  -2458209.426 7  -1872282.87149  20835757.50049
  21862357.555 6   -259490.508 6   -197723.69149  21862354.64849
 20  5 16  0 22 19.0000000  0  8G04G08G14G16G21G26G27G31            -0.000263960
  22163501.477 6  -2115038.332 6  -1638566.29348  22163499.67248
  22980156.781 6  -2942113.094 6  -2220235.43049  22980157.44949
  22418132.688 6    995726.242 6    768627.55147  22418130.70747
  20603796.102 7   -713607.367 7   -543288.11749  20603792.87149
  24270913.328 5   -160078.914 5   -114309.99646  24270911.35246
  21314601.445 6     55400.953 6     41432.68049  21314602.36749
  20835015.375 7  -2462110.711 7  -1875322.82849  20835015.61349
  21862276.281 6   -259917.176 6   -198056.16048  21862273.35948
 20  5 16  0 22 20.0000000  0  8G04G08G14G16G21G26G27G31            -0.000264936
  22162778.648 6  -2118835.305 6  -1641524.97348  22162777.44948
  22979192.898 6  -2947181.469 6  -2224184.81649  22979193.57449
  22418453.250 6    997411.848 6    769941.00847  22418450.96947
  20603579.555 7   -714744.117 7   -544173.90249  20603576.27049
  24270606.094 5   -161691.012 5   -115566.16846  24270604.46946
  21314611.375 6     55454.539 6     41474.42649  21314612.27349
  20834273.172 7  -2466011.793 7  -1878362.62949  20834273.25049
  21862195.289 6   -260343.918 6   -198388.68848  21862192.60948
 20  5 16  0 22 21.0000000  0  8G04G08G14G16G21G26G27G31            -0.000265913
  22162056.258 6  -2122631.750 6  -1644483.23848  22162054.82048
  22978227.953 6  -2952249.574 6  -2228133.99249  22978228.84449
  22418773.961 6    999097.758 6    771254.70347  22418772.17247
  20603363.203 7   -715880.559 7   -545059.43449  20603360.02049
  24270299.773 5   -163302.750 5   -116822.07046  24270297.79346
  21314621.602 6     55508.262 6     41516.28949  21314622.47349
  20833530.742 7  -2469912.313 7  -1881401.99649  20833530.80949
  21862113.969 6   -260770.367 6   -198720.98449  21862111.47349
 20  5 16  0 22 22.0000000  0  8G04G08G14G16G21G26G27G31            -0.000266890
  22161333.773 6  -2126427.988 6  -1647441.35248  22161332.12148
  22977263.500 6  -2957317.699 6  -2232083.17649  22977264.14149
  22419094.930 6   1000783.711 6    772568.43447  22419092.97347
  20603147.094 7   -717016.938 7   -545944.93049  20603144.06349
  24269993.195 5   -164914.234 5   -118077.78546  24269991.16446
  21314631.758 6     55561.801 6     41558.00449  21314633.09049
  20832788.914 7  -2473812.547 7  -1884441.14549  20832788.57049
  21862032.859 6   -261196.863 6   -199053.32049  21862030.54749
 20  5 16  0 22 23.0000000  0  8G04G08G14G16G21G26G27G31            -0.000267866
  22160611.703 6  -2130223.926 6  -1650399.22348  22160609.76648
  22976299.133 6  -2962385.793 6  -2236032.34049  22976299.53949
  22419415.539 6   1002469.801 6    773882.27047  22419414.01647
  20602931.078 7   -718153.195 7   -546830.32049  20602927.48849
  24269686.289 5   -166525.566 5   -119333.37146  24269684.48846
  21314642.070 6     55615.262 6     41599.66449  21314643.15249
  20832046.602 7  -2477712.398 7  -1887479.98449  20832046.52349
  21861951.836 6   -261623.254 6   -199385.57448  21861949.31348
