     2.10           OBSERVATION DATA    GPS(GPS)            RINEX VERSION / TYPE
cnvtToRINEX 3.07.0  convertToRINEX OPR  19-May-20 12:30 UTC PGM / RUN BY / DATE 
----------------------------------------------------------- COMMENT             
9038                                                        MARKER NAME         
9038                                                        MARKER NUMBER       
GNSS Observer       Trimble                                 OBSERVER / AGENCY   
0220327801          5700                2.32                REC # / TYPE / VERS 
                    TRM39105.00                             ANT # / TYPE        
 -3049879.6128  4927087.7414  2656212.1606                  APPROX POSITION XYZ 
       -0.0460        0.0000        0.0000                  ANTENNA: DELTA H/E/N
     1     1     0                                          WAVELENGTH FACT L1/2
     4    C1    L1    L2    P2                              # / TYPES OF OBSERV 
  2020     5    16     3    12   26.0000000     GPS         TIME OF FIRST OBS   
  2020     5    16     5     0   49.0000000     GPS         TIME OF LAST OBS    
     0                                                      RCV CLOCK OFFS APPL 
    18                                                      LEAP SECONDS        
    13                                                      # OF SATELLITES     
   G01  6480  6480  6480  6480                              PRN / # OF OBS      
   G03  1176  1176  1176  1176                              PRN / # OF OBS      
   G04  2074  2074  2074  2074                              PRN / # OF OBS      
   G07  6504  6504  6504  6504                              PRN / # OF OBS      
   G08  6504  6504  6504  6504                              PRN / # OF OBS      
   G09  3424  3412  3424  3424                              PRN / # OF OBS      
   G11  6480  6480  6480  6480                              PRN / # OF OBS      
   G16  3625  3599  3472  3472                              PRN / # OF OBS      
   G17   216   216   216   216                              PRN / # OF OBS      
   G22  3014  2867  2687  2687                              PRN / # OF OBS      
   G27  4758  4754  4743  4743                              PRN / # OF OBS      
   G28  1021  1015   705   705                              PRN / # OF OBS      
   G30  5370  5370  5370  5370                              PRN / # OF OBS      
CARRIER PHASE MEASUREMENTS: PHASE SHIFTS REMOVED            COMMENT             
                                                            END OF HEADER       
 20  5 16  3 12 26.0000000  0  5G07G08G09G16G27                      0.000163740
  22559704.18816    -72115.78516    -17590.20759  22559700.96959
  20678530.14817    -11346.21917     -2779.01659  20678522.81359
  23265746.44516     -5096.98016     -1474.52359  23265745.43859
  22972525.03116     -6306.44116     -1512.29757  22972521.87557
  22121571.32016     10485.91016      2990.87959  22121570.49659
 20  5 16  3 12 27.0000000  0  5G07G08G09G16G27                      0.000162487
  22558765.797 6    -77045.719 6    -21431.69149  22558763.26649
  20678377.531 7    -12147.203 7     -3403.17649  20678378.98849
  23265660.961 6     -5548.223 6     -1826.14549  23265660.14849
  22972436.938 6     -6768.906 6     -1872.66447  22972434.18047
  22121700.984 6     11164.656 6      3519.75049  22121699.86749
 20  5 16  3 12 28.0000000  0  5G07G08G09G16G27                      0.000161234
  22557826.703 6    -81980.313 6    -25276.82449  22557823.83649
  20678224.578 7    -12952.836 7     -4030.95749  20678224.67249
  23265573.961 6     -6004.059 6     -2181.33649  23265573.55549
  22972348.008 6     -7236.246 6     -2236.82847  22972345.34047
  22121828.984 6     11838.582 6      4044.88749  22121827.81649
 20  5 16  3 12 29.0000000  0  5G07G08G09G16G27                      0.000159975
  22556886.859 6    -86919.391 6    -29125.44549  22556884.33249
  20678070.750 7    -13762.895 7     -4662.18049  20678070.80549
  23265486.359 6     -6464.293 6     -2539.96549  23265485.78949
  22972258.273 6     -7708.270 6     -2604.64147  22972255.32047
  22121956.672 6     12507.859 6      4566.39849  22121955.16449
 20  5 16  3 12 30.0000000  0  5G07G08G09G16G27                      0.000158716
  22555945.836 6    -91862.723 6    -32977.39549  22555943.45749
  20677915.555 7    -14577.176 7     -5296.68849  20677915.77049
  23265397.422 6     -6928.750 6     -2901.88349  23265397.07049
  22972167.500 6     -8184.746 6     -2975.92247  22972164.66847
  22122083.031 6     13172.707 6      5084.46549  22122082.29349
 20  5 16  3 12 31.0000000  0  5G07G08G09G16G27                      0.000157452
  22555004.703 6    -96810.293 6    -36832.64549  22555002.10949
  20677759.711 7    -15395.660 7     -5934.45749  20677759.83649
  23265308.383 6     -7397.355 6     -3267.03949  23265308.10549
  22972075.672 6     -8665.676 6     -3350.67247  22972073.09847
  22122208.695 6     13833.152 6      5599.09849  22122207.50449
 20  5 16  3 12 32.0000000  0  5G07G08G09G16G27                      0.000156187
  22554062.313 6   -101761.953 6    -40691.09049  22554059.47749
  20677603.008 7    -16218.199 7     -6575.39549  20677602.94549
  23265218.758 6     -7870.016 6     -3635.35249  23265218.04349
  22971983.648 6     -9150.910 6     -3728.78947  22971981.13747
  22122333.648 6     14489.332 6      6110.41049  22122332.53149
 20  5 16  3 12 33.0000000  0  5G07G08G09G16G27                      0.000154917
  22553119.570 6   -106717.391 6    -44552.47349  22553116.78949
  20677445.742 7    -17044.488 7     -7219.26249  20677445.92649
  23265127.977 6     -8346.395 6     -4006.55549  23265127.28149
  22971890.313 6     -9640.102 6     -4109.97347  22971887.96947
  22122457.867 6     15141.563 6      6618.64849  22122456.70349
 20  5 16  3 12 34.0000000  0  5G07G08G09G16G27                      0.000153646
  22552175.625 6   -111676.461 6    -48416.68849  22552172.88749
  20677288.133 7    -17874.348 7     -7865.90649  20677288.42649
  23265036.547 6     -8826.355 6     -4380.55149  23265036.20749
  22971796.500 6    -10133.117 6     -4494.14147  22971794.01647
  22122581.039 6     15790.008 6      7123.93049  22122579.73849
 20  5 16  3 12 35.0000000  0  5G07G08G09G16G27                      0.000152370
  22551231.656 6   -116639.125 6    -52283.69549  22551228.65649
  20677129.484 7    -18707.742 7     -8515.30149  20677129.66049
  23264944.875 6     -9309.828 6     -4757.27349  23264943.84849
  22971702.000 6    -10629.941 6     -4881.27747  22971699.05147
  22122703.414 6     16434.707 6      7626.28949  22122702.78549
 20  5 16  3 12 36.0000000  0  5G07G08G09G16G27                      0.000151096
  22550286.398 6   -121605.039 6    -56153.23449  22550283.69549
  20676970.125 7    -19544.371 7     -9167.21949  20676970.19149
  23264852.297 6     -9796.473 6     -5136.47349  23264851.27049
  22971606.672 6    -11130.230 6     -5271.11347  22971603.84447
  22122825.617 6     17075.957 6      8125.95749  22122824.76249
 20  5 16  3 12 37.0000000  0  5G07G08G09G16G27                      0.000149817
  22549340.797 6   -126574.059 6    -60025.19949  22549337.94149
  20676810.445 7    -20384.055 7     -9821.51649  20676810.34449
  23264758.656 6    -10286.211 6     -5518.08649  23264758.09449
  22971511.039 6    -11633.809 6     -5663.50847  22971508.13747
  22122947.000 6     17713.949 6      8623.09449  22122946.03549
 20  5 16  3 12 38.0000000  0  5G07G08G09G16G27                      0.000148539
  22548394.383 6   -131546.051 6    -63899.48049  22548391.48849
  20676649.828 7    -21226.664 7    -10478.10249  20676649.87149
  23264664.914 6    -10778.820 6     -5901.93849  23264664.13349
  22971414.242 6    -12140.566 6     -6058.39147  22971411.98447
  22123067.648 6     18348.797 6      9117.77749  22123066.93849
 20  5 16  3 12 39.0000000  0  5G07G08G09G16G27                      0.000147255
  22547447.984 6   -136520.797 6    -67775.90249  22547445.56349
  20676489.359 7    -22072.023 7    -11136.82449  20676489.11749
  23264571.008 6    -11274.160 6     -6287.91449  23264570.21549
  22971317.391 6    -12650.285 6     -6455.57047  22971314.78147
  22123188.094 6     18980.707 6      9610.17249  22123187.23849
 20  5 16  3 12 40.0000000  0  5G07G08G09G16G27                      0.000145971
  22546500.414 6   -141498.035 6    -71654.27049  22546497.89149
  20676328.063 7    -22919.820 7    -11797.43849  20676328.18449
  23264476.344 6    -11771.918 6     -6675.78149  23264475.35549
  22971220.180 6    -13162.711 6     -6854.86747  22971217.14547
  22123307.414 6     19609.965 6     10100.50449  22123306.53549
 20  5 16  3 12 41.0000000  0  5G07G08G09G16G27                      0.000144684
  22545553.797 6   -146477.707 6    -75534.53149  22545550.49249
  20676166.578 7    -23770.023 7    -12459.93849  20676166.22749
  23264380.844 6    -12272.074 6     -7065.51649  23264380.05549
  22971122.367 6    -13677.785 6     -7256.23047  22971119.20347
  22123426.859 6     20236.613 6     10588.80149  22123426.06649
 20  5 16  3 12 42.0000000  0  5G07G08G09G16G27                      0.000143398
  22544604.953 6   -151459.621 6    -79416.54749  22544602.81349
  20676004.109 7    -24622.398 7    -13124.12949  20676003.99649
  23264285.750 6    -12774.375 6     -7456.91449  23264284.38749
  22971023.883 6    -14195.250 6     -7659.44947  22971020.90647
  22123545.898 6     20860.863 6     11075.22749  22123544.82849
 20  5 16  3 12 43.0000000  0  5G07G08G09G16G27                      0.000142109
  22543657.117 6   -156443.641 6    -83300.19949  22543654.44549
  20675841.164 7    -25476.855 7    -13789.93849  20675841.27349
  23264188.961 6    -13278.750 6     -7849.93849  23264188.49649
  22970924.961 6    -14715.094 6     -8064.52747  22970921.80947
  22123664.039 6     21482.828 6     11559.87149  22123663.15249
 20  5 16  3 12 44.0000000  0  5G07G08G09G16G27                      0.000140820
  22542708.063 6   -161429.602 6    -87185.36349  22542705.08649
  20675678.031 7    -26333.184 7    -14457.20349  20675678.30949
  23264093.398 6    -13785.000 6     -8244.42249  23264092.74649
  22970825.172 6    -15237.035 6     -8471.23447  22970822.16047
  22123782.484 6     22102.688 6     12042.87549  22123781.39549
 20  5 16  3 12 45.0000000  0  5G07G08G09G16G27                      0.000139526
  22541759.141 6   -166417.496 6    -91072.03549  22541756.56649
  20675514.703 7    -27191.441 7    -15125.97749  20675515.16049
  23263995.977 6    -14293.102 6     -8640.36349  23263995.77349
  22970725.063 6    -15761.133 6     -8879.62147  22970722.66847
  22123899.375 6     22720.449 6     12524.25449  22123898.77049
 20  5 16  3 12 46.0000000  0  5G07G08G09G16G27                      0.000138235
  22540809.352 6   -171407.375 6    -94960.25049  22540806.79349
  20675351.227 7    -28051.633 7    -15796.26249  20675351.35249
  23263899.102 6    -14803.176 6     -9037.83249  23263898.49249
  22970624.742 6    -16287.426 6     -9289.72747  22970622.49247
  22124016.664 6     23336.039 6     13003.92649  22124016.44149
 20  5 16  3 12 47.0000000  0  5G07G08G09G16G27                      0.000136940
  22539859.609 6   -176398.820 6    -98849.69149  22539856.60949
  20675187.023 7    -28913.371 7    -16467.74249  20675187.59049
  23263801.477 6    -15314.746 6     -9436.45349  23263801.07449
  22970524.688 6    -16815.465 6     -9701.17647  22970521.92247
  22124133.703 6     23949.898 6     13482.25849  22124132.94949
 20  5 16  3 12 48.0000000  0  5G07G08G09G16G27                      0.000135645
  22538909.703 6   -181391.457 6   -102740.05549  22538906.43449
  20675023.203 7    -29776.238 7    -17140.11349  20675023.05949
  23263704.133 6    -15827.418 6     -9835.93449  23263703.43849
  22970424.000 6    -17344.879 6    -10113.71147  22970421.63747
  22124250.016 6     24562.445 6     13959.55949  22124249.10549
 20  5 16  3 12 49.0000000  0  5G07G08G09G16G27                      0.000134348
  22537959.461 6   -186385.477 6   -106631.50049  22537956.47749
  20674858.492 7    -30640.477 7    -17813.54349  20674858.74649
  23263606.789 6    -16341.441 6    -10236.46149  23263605.98049
  22970322.500 6    -17875.961 6    -10527.53547  22970320.28147
  22124366.773 6     25173.375 6     14435.61349  22124365.77749
 20  5 16  3 12 50.0000000  0  8G01G04G07G08G09G11G16G27             0.000133051
  22575425.71115   -165384.85915    -77459.43459  22575428.02759
  23390961.03913     17809.55513      8424.62156  23390961.00856
  22537008.563 6   -191380.844 6   -110523.98849  22537005.92649
  20674693.836 7    -31506.051 7    -18488.01649  20674693.58649
  23263507.906 6    -16856.785 6    -10638.03149  23263507.75449
  20622445.77317    -94913.55117    -63122.14559  20622443.00459
  22970221.695 6    -18408.559 6    -10942.55547  22970219.20347
  22124482.070 6     25782.785 6     14910.47349  22124481.30949
 20  5 16  3 12 51.0000000  0  8G01G04G07G08G09G11G16G27             0.000131752
  22574372.172 5   -170921.762 5    -81773.89849  22574374.45349
  23391069.656 4     18378.121 4      8867.65646  23391069.21546
  22536058.008 6   -196377.500 6   -114417.48849  22536054.92249
  20674528.727 7    -32372.816 7    -19163.41849  20674528.71949
  23263410.266 6    -17373.297 6    -11040.51249  23263409.46149
  20621765.523 7    -98488.750 7    -65908.01249  20621762.45349
  22970120.391 6    -18942.648 6    -11358.73447  22970117.20347
  22124598.188 6     26390.777 6     15384.23449  22124597.11749
 20  5 16  3 12 52.0000000  0  8G01G04G07G08G09G11G16G27             0.000130453
  22573317.695 5   -176459.828 5    -86089.27749  22573320.14849
  23391177.836 4     18945.379 4      9309.67246  23391177.57046
  22535107.281 6   -201375.238 6   -118311.82849  22535104.01249
  20674363.602 7    -33240.645 7    -19839.64849  20674363.78549
  23263311.898 6    -17890.871 6    -11443.82049  23263311.05949
  20621084.852 7   -102064.793 7    -68694.53949  20621081.78949
  22970018.383 6    -19478.004 6    -11775.89847  22970015.71147
  22124713.383 6     26997.492 6     15857.00049  22124712.56349
 20  5 16  3 12 53.0000000  0  8G01G04G07G08G09G11G16G27             0.000129152
  22572263.719 5   -181999.016 5    -90405.52349  22572266.22349
  23391285.742 4     19511.355 4      9750.68446  23391285.11746
  22534155.656 6   -206374.059 6   -122207.01249  22534152.76649
  20674198.414 7    -34109.543 7    -20516.70749  20674198.18849
  23263213.398 6    -18409.504 6    -11847.94949  23263212.34849
  20620404.766 7   -105641.723 7    -71481.75849  20620401.35549
  22969915.961 6    -20014.684 6    -12194.09847  22969913.58247
  22124828.727 6     27602.938 6     16328.77349  22124827.99249
 20  5 16  3 12 54.0000000  0  8G01G04G07G08G09G11G16G27             0.000127853
  22571209.430 5   -187539.293 5    -94722.62149  22571211.82449
  23391393.836 4     20076.121 4     10190.76646  23391392.49246
  22533203.953 6   -211373.887 6   -126102.98049  22533201.07849
  20674032.852 7    -34979.355 7    -21194.48049  20674032.75049
  23263114.859 6    -18929.059 6    -12252.79349  23263113.46549
  20619723.750 6   -109219.359 6    -74269.53149  20619720.76249
  22969813.938 6    -20552.547 6    -12613.21547  22969810.96547
  22124943.500 6     28207.219 6     16799.63749  22124943.04749
 20  5 16  3 12 55.0000000  0  8G01G04G07G08G09G11G16G27             0.000126549
  22570155.078 5   -193080.566 5    -99040.49249  22570157.74249
  23391500.117 3     20639.691 3     10629.90646  23391499.40246
  22532252.727 6   -216374.707 6   -129999.71949  22532249.87149
  20673867.297 7    -35850.152 7    -21873.03149  20673867.44549
  23263015.281 6    -19449.570 6    -12658.38749  23263014.50449
  20619042.797 6   -112797.762 6    -77057.89549  20619039.57449
  22969711.211 6    -21091.602 6    -13033.25047  22969709.02347
  22125058.461 6     28810.359 6     17269.62149  22125057.40249
 20  5 16  3 12 56.0000000  0  8G01G04G07G08G09G11G16G27             0.000125250
  22569100.398 5   -198622.910 5   -103359.19949  22569103.29749
  23391606.680 4     21202.027 4     11068.06346  23391606.49646
  22531300.578 6   -221376.531 6   -133897.24649  22531297.74249
  20673701.320 7    -36721.938 7    -22552.34449  20673701.32449
  23262915.680 6    -19971.008 6    -13064.69949  23262915.12149
  20618361.602 7   -116376.918 7    -79846.84449  20618358.70349
  22969608.078 6    -21631.914 6    -13454.27047  22969605.89147
  22125173.086 6     29412.277 6     17738.64149  22125172.27749
 20  5 16  3 12 57.0000000  0  8G01G04G07G08G09G11G16G27             0.000123945
  22568045.594 5   -204166.164 5   -107678.61749  22568048.02349
  23391713.906 4     21763.387 4     11505.47746  23391713.71146
  22530348.984 6   -226379.168 6   -137795.41049  22530346.08649
  20673535.438 7    -37594.500 7    -23232.26649  20673535.13749
  23262816.805 6    -20493.203 6    -13471.60249  23262816.27049
  20617680.406 7   -119956.641 7    -82636.23849  20617677.65249
  22969505.352 6    -22173.207 6    -13876.05947  22969503.00447
  22125287.633 6     30013.242 6     18206.92649  22125286.52349
 20  5 16  3 12 58.0000000  0  8G01G04G07G08G09G11G16G27             0.000122643
  22566990.898 5   -209710.121 5   -111998.58649  22566992.79349
  23391821.094 4     22323.816 4     11942.16846  23391820.17646
  22529396.781 6   -231382.504 6   -141694.10949  22529393.85949
  20673369.234 7    -38467.695 7    -23912.67649  20673368.81349
  23262717.047 6    -21016.055 6    -13879.02049  23262716.67249
  20616999.148 7   -123536.797 7    -85425.96949  20616996.49649
  22969401.633 6    -22715.402 6    -14298.54747  22969399.44147
  22125401.781 6     30613.316 6     18674.51249  22125400.62149
 20  5 16  3 12 59.0000000  0  8G01G04G07G08G09G11G16G27             0.000121336
  22565935.836 5   -215254.906 5   -116319.19549  22565938.00849
  23391927.656 4     22883.254 4     12378.09446  23391926.85946
  22528444.211 6   -236386.617 6   -145593.42249  22528441.41449
  20673203.031 7    -39341.664 7    -24593.69149  20673202.37949
  23262617.336 6    -21539.613 6    -14286.98849  23262617.12149
  20616317.734 7   -127117.480 7    -88216.11749  20616314.75849
  22969298.695 6    -23258.578 6    -14721.80547  22969296.16847
  22125515.664 6     31212.445 6     19141.36749  22125514.68449
 20  5 16  3 13  0.0000000  0  8G01G04G07G08G09G11G16G27             0.000120033
  22564880.344 5   -220800.457 5   -120640.40649  22564882.62149
  23392033.477 4     23441.828 4     12813.35546  23392032.84846
  22527492.125 6   -241391.422 6   -149493.27049  22527489.29349
  20673036.133 7    -40216.289 7    -25275.21949  20673036.30549
  23262517.711 6    -22063.793 6    -14695.44149  23262517.35949
  20615636.047 6   -130698.609 6    -91006.60549  20615633.00049
  22969195.063 6    -23802.660 6    -15145.76247  22969193.10947
  22125629.680 6     31810.719 6     19607.55149  22125629.00449
 20  5 16  3 13  1.0000000  0  8G01G04G07G08G09G11G16G27             0.000118725
  22563825.164 5   -226346.738 5   -124962.18049  22563827.45349
  23392139.438 3     23999.480 3     13247.89146  23392139.27746
  22526539.656 6   -246396.891 6   -153393.62949  22526536.98849
  20672869.813 7    -41091.539 7    -25957.23049  20672869.78149
  23262417.539 6    -22588.625 6    -15104.40649  23262417.36749
  20614954.445 7   -134280.152 7    -93797.41449  20614951.37949
  22969091.398 6    -24347.617 6    -15570.40247  22969089.23847
  22125742.836 6     32408.168 6     20073.09449  22125742.32849
 20  5 16  3 13  2.0000000  0  8G01G04G07G08G09G11G16G27             0.000117420
  22562769.422 5   -231893.711 5   -129284.48849  22562771.66449
  23392246.234 3     24556.281 3     13681.78146  23392245.39146
  22525586.516 6   -251403.023 6   -157294.51649  22525584.00049
  20672703.063 7    -41967.418 7    -26639.73449  20672702.48049
  23262317.914 6    -23114.059 6    -15513.83649  23262317.71949
  20614272.867 7   -137862.109 7    -96588.55549  20614270.16049
  22968987.633 6    -24893.453 6    -15995.73447  22968985.35947
  22125856.367 6     33004.746 6     20537.96149  22125855.78149
 20  5 16  3 13  3.0000000  0  8G01G04G07G08G09G11G16G27             0.000116112
  22561713.844 5   -237441.316 5   -133607.29349  22561716.02049
  23392350.922 4     25112.336 4     14115.07446  23392351.00446
  22524633.883 6   -256409.727 6   -161195.84049  22524631.13349
  20672536.383 7    -42843.793 7    -27322.62949  20672535.89849
  23262217.484 6    -23639.996 6    -15923.66449  23262217.29349
  20613591.094 7   -141444.371 7    -99379.92249  20613588.33249
  22968883.750 6    -25440.020 6    -16421.62147  22968881.22747
  22125969.773 6     33600.637 6     21002.28949  22125969.31649
 20  5 16  3 13  4.0000000  0  8G01G04G07G08G09G11G16G27             0.000114807
  22560658.063 5   -242989.457 5   -137930.51249  22560660.31649
  23392456.406 3     25667.656 3     14547.78946  23392456.59846
  22523680.961 6   -261416.922 6   -165097.55149  22523678.50849
  20672369.352 7    -43720.633 7    -28005.87949  20672369.19549
  23262117.469 6    -24166.363 6    -16333.81649  23262117.45749
  20612909.484 7   -145026.867 7   -102171.47749  20612906.79749
  22968779.430 6    -25987.305 6    -16848.07447  22968776.94547
  22126083.141 6     34195.820 6     21466.07049  22126082.44949
 20  5 16  3 13  5.0000000  0  8G01G04G07G08G09G11G16G27             0.000113497
  22559602.266 5   -248538.078 5   -142254.11349  22559603.84449
  23392562.023 3     26222.406 3     14980.04346  23392562.16846
  22522728.195 6   -266424.531 6   -168999.58249  22522725.57049
  20672202.828 7    -44597.871 7    -28689.44549  20672202.22349
  23262017.422 6    -24693.094 6    -16744.25849  23262016.92249
  20612227.609 7   -148609.531 7   -104963.16849  20612224.85249
  22968675.586 6    -26535.199 6    -17275.01247  22968672.49247
  22126196.375 6     34790.434 6     21929.40649  22126195.93049
 20  5 16  3 13  6.0000000  0  8G01G04G07G08G09G11G16G27             0.000112190
  22558546.125 5   -254087.289 5   -146578.17249  22558548.29349
  23392667.578 3     26776.371 3     15411.68046  23392667.82846
  22521775.453 6   -271432.691 6   -172902.04749  22521772.53949
  20672035.805 7    -45475.637 7    -29373.41849  20672035.28949
  23261916.500 6    -25220.313 6    -17155.08249  23261916.82849
  20611545.781 7   -152192.520 7   -107755.10249  20611543.39149
  22968570.914 6    -27083.879 6    -17702.55947  22968568.41447
  22126309.477 6     35384.316 6     22392.17649  22126308.77749
 20  5 16  3 13  7.0000000  0  8G01G04G07G08G09G11G16G27             0.000110880
  22557490.250 5   -259637.063 5   -150902.67649  22557492.32049
  23392772.781 3     27329.637 3     15842.80546  23392773.13346
  22520822.109 6   -276441.328 6   -176804.87949  22520819.47349
  20671868.594 7    -46353.820 7    -30057.71949  20671868.39549
  23261816.422 6    -25748.000 6    -17566.25849  23261816.31349
  20610863.891 6   -155775.727 6   -110547.21549  20610861.70749
  22968466.258 6    -27633.215 6    -18130.60947  22968464.05947
  22126422.047 6     35977.566 6     22854.44149  22126421.46549
 20  5 16  3 13  8.0000000  0  8G01G04G07G08G09G11G16G27             0.000109573
  22556433.219 5   -265187.398 5   -155227.60949  22556436.10249
  23392878.070 3     27882.156 3     16273.32446  23392878.12946
  22519869.273 6   -281450.496 6   -180708.12549  22519866.82049
  20671701.297 7    -47232.539 7    -30742.43049  20671701.46149
  23261715.617 6    -26276.133 6    -17977.79349  23261715.90249
  20610182.063 6   -159359.199 6   -113339.53149  20610179.21149
  22968361.805 6    -28183.301 6    -18559.24647  22968359.40247
  22126535.078 6     36570.102 6     23316.15249  22126534.32449
 20  5 16  3 13  9.0000000  0  8G01G04G07G08G09G11G16G27             0.000108261
  22555377.484 5   -270738.211 5   -159552.91449  22555379.64849
  23392983.039 3     28434.070 3     16703.39546  23392983.14146
  22518915.820 6   -286460.117 6   -184611.73049  22518912.97749
  20671534.211 7    -48111.680 7    -31427.47349  20671533.91849
  23261615.500 6    -26804.672 6    -18389.63749  23261615.69549
  20609499.914 6   -162942.887 6   -116132.01249  20609497.32449
  22968257.109 6    -28734.055 6    -18988.40647  22968254.31647
  22126647.289 6     37161.977 6     23777.35549  22126646.66849
 20  5 16  3 13 10.0000000  0  8G01G04G07G08G09G11G16G27             0.000106953
  22554320.727 5   -276289.465 5   -163878.56349  22554323.15649
  23393088.195 3     28985.359 3     17132.97346  23393088.55146
  22517962.375 6   -291470.094 6   -188515.60249  22517959.60249
  20671366.836 7    -48991.152 7    -32112.78149  20671366.37949
  23261514.375 5    -27333.492 5    -18801.70749  23261514.85949
  20608818.344 6   -166526.691 6   -118924.58649  20608815.42249
  22968151.750 6    -29285.375 6    -19418.01247  22968149.33247
  22126760.492 6     37753.344 6     24238.15649  22126759.23849
 20  5 16  3 13 11.0000000  0  8G01G04G07G08G09G11G16G27             0.000105640
  22553264.625 5   -281840.941 5   -168204.38349  22553267.23849
  23393192.414 3     29536.344 3     17562.30546  23393192.67246
  22517008.977 6   -296480.219 6   -192419.59049  22517006.32049
  20671199.438 7    -49870.711 7    -32798.15249  20671198.87549
  23261413.789 6    -27862.422 6    -19213.86349  23261414.23849
  20608136.203 7   -170110.348 7   -121717.04349  20608133.62949
  22968046.602 6    -29836.992 6    -19847.84447  22968044.62147
  22126872.820 6     38344.422 6     24698.73449  22126872.02349
 20  5 16  3 13 12.0000000  0  8G01G04G07G08G09G11G16G27             0.000104332
  22552208.555 5   -287392.805 5   -172530.50849  22552210.03949
  23393297.313 3     30086.664 3     17991.12946  23393297.15246
  22516054.953 6   -301490.738 6   -196323.89849  22516052.82449
  20671031.805 7    -50750.664 7    -33483.83249  20671031.38349
  23261313.383 5    -28391.730 5    -19626.31349  23261313.29749
  20607454.688 7   -173694.219 7   -124509.67249  20607451.77049
  22967941.930 6    -30389.262 6    -20278.18047  22967939.32047
  22126984.781 6     38934.867 6     25158.82449  22126984.21149
 20  5 16  3 13 13.0000000  0  8G01G04G07G08G09G11G16G27             0.000103020
  22551151.477 5   -292945.230 5   -176857.07049  22551153.77049
  23393402.250 3     30636.383 3     18419.48046  23393401.89146
  22515102.125 6   -306501.730 6   -200228.55549  22515099.15249
  20670864.109 7    -51631.020 7    -34169.82449  20670863.97349
  23261211.961 5    -28921.406 5    -20039.05149  23261212.64849
  20606772.109 6   -177278.258 6   -127302.42649  20606769.72749
  22967836.938 6    -30942.195 6    -20709.03547  22967834.43847
  22127097.680 6     39524.730 6     25618.45749  22127096.39549
 20  5 16  3 13 14.0000000  0  8G01G04G07G08G09G11G16G27             0.000101709
  22550095.000 5   -298498.004 5   -181183.90649  22550097.19949
  23393506.383 3     31185.504 3     18847.35546  23393506.68046
  22514148.086 6   -311513.016 6   -204133.45349  22514145.33649
  20670696.656 7    -52511.656 7    -34856.03149  20670696.26649
  23261111.438 5    -29451.375 5    -20452.01649  23261111.73449
  20606090.320 6   -180862.375 6   -130095.25049  20606087.63749
  22967730.883 6    -31495.637 6    -21140.29347  22967728.97747
  22127209.555 6     40114.051 6     26077.66849  22127208.79349
 20  5 16  3 13 15.0000000  0  8G01G04G07G08G09G11G16G27             0.000100395
  22549038.227 5   -304051.164 5   -185511.03949  22549040.34049
  23393610.672 3     31734.148 3     19274.87146  23393611.17646
  22513194.469 6   -316524.629 6   -208038.60949  22513192.17249
  20670529.117 7    -53392.555 7    -35542.44549  20670528.85949
  23261010.875 5    -29981.574 5    -20865.15649  23261011.37549
  20605408.422 6   -184446.555 6   -132888.11349  20605405.22349
  22967625.953 6    -32049.586 6    -21571.93447  22967623.52747
  22127321.414 6     40702.938 6     26536.54749  22127320.68049
 20  5 16  3 13 16.0000000  0  8G01G04G07G08G09G11G16G27             0.000099085
  22547981.633 5   -309604.668 5   -189838.44549  22547983.10249
  23393715.656 3     32282.230 3     19701.93046  23393715.28946
  22512240.695 6   -321536.590 6   -211944.03549  22512237.82849
  20670361.547 7    -54273.746 7    -36229.09449  20670360.78549
  23260909.273 5    -30512.086 5    -21278.53949  23260909.93049
  20604725.906 6   -188030.805 6   -135681.03549  20604723.34449
  22967520.266 6    -32604.113 6    -22004.04347  22967517.88347
  22127433.352 6     41291.281 6     26994.99249  22127432.53949
 20  5 16  3 13 17.0000000  0  8G01G04G07G08G09G11G16G27             0.000097771
  22546924.563 5   -315158.574 5   -194166.15649  22546926.01249
  23393820.016 3     32829.805 3     20128.60946  23393819.35946
  22511286.875 6   -326548.840 6   -215849.68849  22511284.53949
  20670193.867 7    -55155.211 7    -36915.94949  20670193.39849
  23260809.063 5    -31042.813 5    -21692.08649  23260808.91449
  20604043.852 6   -191615.141 6   -138474.02049  20604040.98849
  22967415.211 6    -33159.176 6    -22436.56647  22967412.57047
  22127545.430 6     41879.137 6     27453.07049  22127544.61749
 20  5 16  3 13 18.0000000  0  8G01G04G07G08G09G11G16G27             0.000096458
  22545867.578 5   -320712.789 5   -198494.10949  22545869.56649
  23393923.672 3     33376.895 3     20554.90646  23393923.51246
  22510333.258 6   -331561.367 6   -219755.55949  22510330.54749
  20670026.328 7    -56036.883 7    -37602.96149  20670026.09449
  23260708.117 5    -31573.836 5    -22105.87549  23260708.43449
  20603362.109 6   -195199.477 6   -141267.01249  20603359.24649
  22967309.195 6    -33714.691 6    -22869.42247  22967306.50047
  22127657.461 6     42466.574 6     27910.79749  22127656.57449
 20  5 16  3 13 19.0000000  0  8G01G04G07G08G09G11G16G27             0.000095142
  22544810.578 5   -326267.453 5   -202822.42649  22544812.43849
  23394027.836 3     33923.352 3     20980.70746  23394027.55946
  22509379.336 6   -336574.273 6   -223661.71149  22509376.52349
  20669858.172 7    -56918.914 7    -38290.26649  20669858.06349
  23260606.797 5    -32105.113 5    -22519.85949  23260607.40249
  20602679.711 6   -198783.949 6   -144060.10949  20602677.09449
  22967203.383 6    -34270.785 6    -23302.73047  22967200.85947
  22127769.023 6     43053.457 6     28368.08649  22127768.13349
 20  5 16  3 13 20.0000000  0  8G01G04G07G08G09G11G16G27             0.000093830
  22543753.828 5   -331822.543 5   -207151.06349  22543755.70349
  23394131.148 3     34469.273 3     21406.08646  23394131.31646
  22508425.383 6   -341587.559 6   -227568.17249  22508422.21149
  20669690.289 7    -57801.313 7    -38977.85249  20669689.89149
  23260505.648 5    -32636.770 5    -22934.13749  23260506.38349
  20601997.484 6   -202368.563 6   -146853.32049  20601994.94549
  22967097.227 5    -34827.477 5    -23736.52047  22967095.18447
  22127880.234 6     43639.773 6     28824.93849  22127879.74649
 20  5 16  3 13 21.0000000  0  8G01G04G07G08G09G11G16G27             0.000092514
  22542696.180 5   -337378.043 5   -211480.03149  22542697.85549
  23394236.109 2     35014.676 2     21831.07446  23394234.91446
  22507471.203 6   -346601.156 6   -231474.85949  22507467.92649
  20669522.117 7    -58684.066 7    -39665.71949  20669521.92249
  23260404.070 5    -33168.680 5    -23348.62949  23260405.11349
  20601315.453 6   -205953.254 6   -149646.58249  20601312.64849
  22966991.688 5    -35384.711 5    -24170.72346  22966988.90646
  22127991.852 6     44225.465 6     29281.30949  22127991.14549
 20  5 16  3 13 22.0000000  0  8G01G04G07G08G09G11G16G27             0.000091202
  22541639.570 5   -342933.777 5   -215809.16849  22541640.96949
  23394339.789 3     35559.605 3     22255.70346  23394338.89546
  22506517.000 6   -351614.969 6   -235381.73049  22506514.00449
  20669354.266 7    -59566.934 7    -40353.66449  20669353.95349
  23260302.008 5    -33700.762 5    -23763.24649  23260303.34049
  20600633.352 6   -209537.855 6   -152439.77048  20600630.48448
  22966885.094 5    -35942.328 5    -24605.19946  22966883.15646
  22128103.063 6     44810.836 6     29737.44549  22128102.67649
 20  5 16  3 13 23.0000000  0  8G01G04G07G08G09G11G16G27             0.000089886
  22540582.125 5   -348489.782 5   -220138.51149  22540583.64549
  23394442.930 3     36104.098 3     22679.98446  23394442.21146
  22505562.820 6   -356629.027 6   -239288.80149  22505559.94549
  20669186.141 7    -60450.016 7    -41041.77049  20669185.86749
  23260201.336 5    -34233.023 5    -24177.98849  23260201.93049
  20599950.859 6   -213122.504 6   -155233.00048  20599948.59048
  22966779.203 5    -36500.410 5    -25040.03146  22966776.78546
  22128214.203 6     45395.840 6     30193.30549  22128214.05949
 20  5 16  3 13 24.0000000  0  8G01G04G07G08G09G11G16G27             0.000088572
  22539524.523 5   -354046.285 5   -224468.24649  22539526.54749
  23394546.250 3     36647.961 3     23103.76646  23394545.87146
  22504608.719 6   -361643.500 6   -243196.18449  22504605.71949
  20669017.672 7    -61333.500 7    -41730.19549  20669017.80549
  23260100.445 5    -34765.645 5    -24593.01649  23260100.64149
  20599268.797 6   -216707.301 6   -158026.34448  20599266.42248
  22966673.406 5    -37059.090 5    -25475.37546  22966670.37146
  22128325.594 6     45980.258 6     30648.70749  22128325.32849
 20  5 16  3 13 25.0000000  0  8G01G04G07G08G09G11G16G27             0.000087254
  22538466.969 5   -359603.172 5   -228798.28949  22538468.75449
  23394649.430 3     37191.320 3     23527.15246  23394649.32046
  22503654.508 6   -366658.289 6   -247103.81649  22503651.57849
  20668849.266 7    -62217.234 7    -42418.82449  20668849.14549
  23259998.875 5    -35298.547 5    -25008.25849  23259999.47349
  20598586.961 6   -220292.172 6   -160819.75448  20598584.32048
  22966567.609 5    -37618.305 5    -25911.12546  22966563.96946
  22128436.797 6     46564.145 6     31103.69149  22128436.14549
 20  5 16  3 13 26.0000000  0  8G01G04G07G08G09G11G16G27             0.000085939
  22537409.891 5   -365160.172 5   -233128.41049  22537411.20749
  23394753.617 3     37734.352 3     23950.28946  23394752.54346
  22502699.688 6   -371673.148 6   -251011.50049  22502696.62949
  20668681.695 7    -63101.105 7    -43107.56649  20668681.30149
  23259897.836 5    -35831.531 5    -25423.57449  23259897.59049
  20597904.414 6   -223876.922 6   -163613.06648  20597902.07048
  22966460.055 5    -38177.805 5    -26347.09846  22966457.52746
  22128547.750 6     47147.828 6     31558.51249  22128547.40249
 20  5 16  3 13 27.0000000  0  8G01G04G07G08G09G11G16G27             0.000084621
  22536352.359 5   -370717.469 5   -237458.78149  22536353.42649
  23394856.813 3     38276.938 3     24373.10246  23394855.59446
  22501745.438 6   -376688.270 6   -254919.37149  22501742.70349
  20668513.242 7    -63985.148 7    -43796.44149  20668512.99649
  23259795.703 5    -36364.645 5    -25838.99249  23259796.03949
  20597222.688 6   -227461.613 6   -166406.32848  20597219.79348
  22966353.609 5    -38737.777 5    -26783.50046  22966351.09046
  22128658.602 6     47731.063 6     32012.95749  22128658.60949
 20  5 16  3 13 28.0000000  0  8G01G04G07G08G09G11G16G27             0.000083305
  22535295.289 6   -376275.031 6   -241789.35249  22535296.21949
  23394959.422 3     38819.035 3     24795.51646  23394958.79346
  22500791.406 6   -381703.648 6   -258827.46149  22500788.13749
  20668344.867 6    -64869.344 6    -44485.42249  20668344.54749
  23259695.102 5    -36897.934 5    -26254.53949  23259694.98049
  20596540.305 6   -231046.254 6   -169199.55948  20596537.97348
  22966246.586 5    -39298.156 5    -27220.18046  22966244.30146
  22128769.898 6     48313.836 6     32467.06649  22128769.32049
 20  5 16  3 13 29.0000000  0  8G01G04G07G08G09G11G16G27             0.000081987
  22534237.047 6   -381832.758 6   -246120.05149  22534238.59049
  23395061.711 4     39360.914 4     25217.77046  23395061.62546
  22499837.117 6   -386719.086 6   -262735.60249  22499833.84449
  20668176.305 6    -65753.652 6    -45174.47349  20668176.59849
  23259593.359 5    -37431.297 5    -26670.14849  23259593.42649
  20595858.086 6   -234630.777 6   -171992.70348  20595855.78548
  22966140.523 5    -39858.867 5    -27657.05946  22966137.65246
  22128880.203 6     48896.359 6     32921.00049  22128880.36749
 20  5 16  3 13 30.0000000  0  8G01G04G07G08G09G11G16G27             0.000080671
  22533180.141 6   -387390.859 6   -250451.04349  22533180.83649
  23395164.813 2     39902.152 2     25639.51646  23395165.38746
  22498882.680 6   -391734.863 6   -266644.00849  22498879.46549
  20668007.750 6    -66638.285 6    -45863.78949  20668007.94949
  23259491.273 5    -37964.914 5    -27085.95349  23259491.71949
  20595176.164 6   -238215.387 6   -174785.91048  20595173.62948
  22966033.180 5    -40420.129 5    -28094.38746  22966031.21546
  22128991.133 6     49478.402 6     33374.55549  22128991.35249
 20  5 16  3 13 31.0000000  0  8G01G04G07G08G09G11G16G27             0.000079351
  22532122.398 6   -392949.285 6   -254782.27049  22532123.12149
  23395268.008 3     40442.977 3     26060.94146  23395268.46946
  22497928.125 6   -396750.922 6   -270552.62549  22497925.35249
  20667839.773 6    -67523.176 6    -46553.31349  20667839.66849
  23259389.563 5    -38498.805 5    -27501.96949  23259389.80149
  20594494.148 6   -241800.027 6   -177579.13748  20594491.25448
  22965926.375 5    -40981.890 5    -28532.10746  22965924.00846
  22129101.711 6     50059.961 6     33827.72349  22129101.36349
 20  5 16  3 13 32.0000000  0  8G01G04G07G08G09G11G16G27             0.000078035
  22531064.711 6   -398508.020 6   -259113.75449  22531065.59449
  23395371.180 3     40983.352 3     26482.01646  23395370.98846
  22496973.234 6   -401767.207 6   -274461.41849  22496970.12949
  20667671.484 6    -68408.234 6    -47242.96949  20667671.24249
  23259288.633 5    -39032.844 5    -27918.11349  23259288.47349
  20593811.781 6   -245384.660 6   -180372.35248  20593809.52748
  22965819.422 5    -41543.996 5    -28970.11346  22965817.31646
  22129212.297 6     50641.141 6     34280.59049  22129211.83249
 20  5 16  3 13 33.0000000  0  8G01G04G07G08G09G11G16G27             0.000076715
  22530006.383 6   -404066.969 6   -263445.40249  22530007.19949
  23395473.820 3     41523.250 3     26902.72346  23395473.45746
  22496019.195 6   -406783.684 6   -278370.35249  22496015.64549
  20667503.094 6    -69293.418 6    -47932.73049  20667502.72349
  23259187.078 5    -39567.027 5    -28334.36749  23259186.77749
  20593129.445 6   -248969.203 6   -183165.50048  20593127.08648
  22965712.352 5    -42106.563 5    -29408.50446  22965710.07446
  22129323.094 5     51221.938 5     34733.17648  22129322.78148
 20  5 16  3 13 34.0000000  0  8G01G04G07G08G09G11G16G27             0.000075397
  22528948.828 6   -409626.070 6   -267777.18449  22528949.34449
  23395576.789 3     42062.988 3     27323.30546  23395576.65646
  22495064.555 6   -411800.223 6   -282279.34049  22495060.79749
  20667334.750 6    -70178.695 6    -48622.55949  20667334.43849
  23259084.758 5    -40101.289 5    -28750.68849  23259085.13349
  20592448.297 6   -252553.617 6   -185958.56348  20592445.00048
  22965606.281 5    -42669.359 5    -29847.02746  22965603.29346
  22129433.180 6     51802.504 6     35185.59048  22129433.16448
 20  5 16  3 13 35.0000000  0  8G01G04G07G08G09G11G16G27             0.000074078
  22527891.305 6   -415185.508 6   -272109.22349  22527891.62149
  23395679.602 1     42602.203 1     27743.44946  23395678.98846
  22494109.375 6   -416817.031 6   -286188.53949  22494106.65649
  20667166.266 7    -71064.191 7    -49312.57449  20667165.88749
  23258983.195 5    -40635.734 5    -29167.14549  23258983.61749
  20591766.094 6   -256138.027 6   -188751.60248  20591762.73448
  22965497.586 5    -43232.730 5    -30286.03146  22965495.87946
  22129544.469 6     52382.645 6     35637.60249  22129543.33649
 20  5 16  3 13 36.0000000  0  8G01G04G07G08G09G11G16G27             0.000072760
  22526833.227 6   -420745.293 6   -276441.50849  22526833.85249
  23395782.156 2     43140.793 2     28163.10546  23395781.62546
  22493154.938 6   -421834.188 6   -290098.00849  22493152.35949
  20666997.961 7    -71949.965 7    -50002.79749  20666997.60549
  23258881.164 5    -41170.445 5    -29583.81349  23258882.07049
  20591083.719 6   -259722.520 6   -191544.69548  20591081.04748
  22965390.000 5    -43796.609 5    -30725.45746  22965388.41846
  22129654.219 6     52962.258 6     36089.20349  22129654.18049
 20  5 16  3 13 37.0000000  0  8G01G04G07G08G09G11G16G27             0.000071438
  22525774.711 6   -426305.305 6   -280773.97749  22525775.77349
  23395884.773 2     43679.027 2     28582.48046  23395883.98846
  22492200.250 6   -426851.457 6   -294007.57449  22492197.25849
  20666829.195 7    -72835.863 7    -50693.11749  20666828.98049
  23258779.578 5    -41705.258 5    -30000.54349  23258779.96949
  20590401.539 6   -263306.883 6   -194337.70748  20590398.66048
  22965282.883 5    -44360.805 5    -31165.10546  22965281.32446
  22129764.539 6     53541.508 6     36540.54749  22129764.41049
 20  5 16  3 13 38.0000000  0  8G01G04G07G08G09G11G16G27             0.000070120
  22524716.125 6   -431865.434 6   -285106.53149  22524717.28549
  23395986.461 3     44217.082 3     29001.78946  23395986.07846
  22491245.453 6   -431868.859 6   -297917.23849  22491242.84449
  20666660.469 7    -73721.863 7    -51383.50449  20666660.19949
  23258677.414 4    -42240.141 4    -30417.33648  23258677.98048
  20589719.609 6   -266891.121 6   -197130.62548  20589716.25448
  22965176.063 5    -44925.352 5    -31605.03146  22965173.76646
  22129874.711 6     54120.516 6     36991.71549  22129874.52349
 20  5 16  3 13 39.0000000  0  8G01G04G07G08G09G11G16G27             0.000068798
  22523658.781 6   -437425.918 6   -289439.38749  22523659.42249
  23396088.836 3     44754.523 3     29420.58246  23396088.42246
  22490290.445 6   -436886.531 6   -301827.11349  22490287.86749
  20666491.852 7    -74608.105 7    -52074.07849  20666491.50049
  23258575.523 4    -42775.246 4    -30834.29348  23258576.21948
  20589037.578 6   -270475.387 6   -199923.55948  20589034.40248
  22965068.828 5    -45490.336 5    -32045.25446  22965066.25846
  22129984.727 6     54699.023 6     37442.51249  22129984.46549
 20  5 16  3 13 40.0000000  0  8G01G04G07G08G09G11G16G27             0.000067478
  22522600.414 6   -442986.730 6   -293772.48449  22522601.18449
  23396191.898 3     45291.469 3     29838.96146  23396190.58246
  22489335.602 6   -441904.473 6   -305737.20349  22489332.79349
  20666323.133 7    -75494.586 7    -52764.83649  20666322.86349
  23258473.086 4    -43310.602 4    -31251.45748  23258474.60948
  20588355.344 6   -274059.680 6   -202716.51248  20588352.69948
  22964960.953 4    -46055.793 4    -32485.86746  22964958.54346
  22130094.938 6     55277.129 6     37892.99649  22130094.48449
 20  5 16  3 13 41.0000000  0  8G01G04G07G08G09G11G16G27             0.000066156
  22521542.305 6   -448547.863 6   -298105.82849  22521543.14149
  23396293.273 3     45827.969 3     30257.01246  23396292.28546
  22488380.773 6   -446922.715 6   -309647.52049  22488377.52349
  20666154.539 6    -76381.316 6    -53455.78949  20666154.27349
  23258371.781 5    -43846.215 5    -31668.81348  23258372.52048
  20587673.469 6   -277644.004 6   -205509.50048  20587670.51248
  22964853.461 4    -46621.789 4    -32926.88346  22964850.37946
  22130204.883 6     55854.688 6     38343.05149  22130204.90649
 20  5 16  3 13 42.0000000  0  8G01G04G07G08G09G11G16G27             0.000064837
  22520483.797 6   -454109.309 6   -302439.41049  22520484.28149
  23396395.242 3     46363.953 3     30674.64846  23396394.57446
  22487426.102 6   -451941.223 6   -313558.05149  22487422.74649
  20665985.227 6    -77268.305 6    -54146.93849  20665985.60249
  23258269.828 5    -44382.016 5    -32086.31649  23258270.32449
  20586990.984 6   -281228.363 6   -208302.50048  20586988.43048
  22964745.516 5    -47188.250 5    -33368.27346  22964742.81346
  22130314.563 6     56431.828 6     38792.78549  22130314.64549
 20  5 16  3 13 43.0000000  0  8G01G04G07G08G09G11G16G27             0.000063513
  22519425.266 6   -459670.941 6   -306773.14549  22519425.85249
  23396497.102 3     46899.609 3     31092.04346  23396496.53146
  22486470.719 6   -456959.824 6   -317468.65249  22486467.59049
  20665816.898 6    -78155.328 6    -54838.11349  20665816.69949
  23258167.906 5    -44917.848 5    -32503.83649  23258168.23449
  20586308.797 6   -284812.563 6   -211095.38748  20586306.53548
  22964637.320 4    -47755.020 4    -33809.91846  22964634.95746
  22130424.398 6     57008.711 6     39242.31349  22130423.96149
 20  5 16  3 13 44.0000000  0  8G01G04G07G08G09G11G16G27             0.000062193
  22518367.094 6   -465232.715 6   -311107.00049  22518367.76649
  23396599.484 4     47434.945 4     31509.18446  23396598.38346
  22485515.750 6   -461978.559 6   -321379.35549  22485512.31649
  20665648.055 6    -79042.516 6    -55529.42649  20665648.14149
  23258065.961 5    -45453.770 5    -32921.43849  23258065.78149
  20585626.898 6   -288396.621 6   -213888.15648  20585623.80148
  22964530.492 5    -48322.176 5    -34251.85246  22964527.37146
  22130533.836 6     57585.289 6     39691.60249  22130534.14849
 20  5 16  3 13 45.0000000  0  8G01G04G07G08G09G11G16G27             0.000060869
  22517307.844 6   -470794.695 6   -315441.02349  22517309.82849
  23396700.641 4     47969.926 4     31926.07446  23396700.21546
  22484560.492 6   -466997.434 6   -325290.15649  22484557.54349
  20665479.063 6    -79929.781 6    -56220.80549  20665479.15649
  23257963.992 5    -45989.742 5    -33339.08649  23257964.55149
  20584945.039 6   -291980.574 6   -216680.85248  20584942.35948
  22964422.336 5    -48889.586 5    -34693.98846  22964419.34846
  22130643.242 6     58161.559 6     40140.66049  22130643.31649
 20  5 16  3 13 46.0000000  0  8G01G04G07G08G09G11G16G27             0.000059549
  22516249.195 6   -476356.980 6   -319775.27749  22516251.21549
  23396802.789 4     48504.477 4     32342.62546  23396801.87146
  22483605.406 6   -472016.527 6   -329201.12949  22483602.43049
  20665310.039 6    -80817.246 6    -56912.33249  20665310.01649
  23257862.188 5    -46525.969 5    -33756.94949  23257862.56349
  20584262.578 6   -295564.523 6   -219473.54348  20584260.10548
  22964313.547 5    -49457.473 5    -35136.53546  22964311.02046
  22130752.578 6     58737.367 6     40589.34849  22130753.21149
 20  5 16  3 13 47.0000000  0  8G01G04G07G08G09G11G16G27             0.000058224
  22515191.281 6   -481919.504 6   -324109.70749  22515192.69149
  23396904.531 4     49038.586 4     32758.82446  23396903.37146
  22482649.969 6   -477035.836 6   -333112.27349  22482647.16449
  20665141.117 6    -81704.910 6    -57604.02049  20665141.14549
  23257759.750 5    -47062.375 5    -34174.93849  23257760.60949
  20583580.891 6   -299148.418 6   -222266.18448  20583578.29348
  22964205.906 5    -50025.828 5    -35579.43046  22964202.79746
  22130862.625 6     59312.813 6     41037.74649  22130862.63349
 20  5 16  3 13 48.0000000  0  8G01G04G07G08G09G11G16G27             0.000056902
  22514132.539 6   -487482.238 6   -328444.31349  22514133.97749
  23397005.906 4     49572.324 4     33174.72746  23397005.06646
  22481695.227 6   -482055.285 6   -337023.53949  22481692.36349
  20664972.328 6    -82592.672 6    -58295.78549  20664972.09849
  23257657.844 5    -47598.887 5    -34592.98849  23257658.21949
  20582899.133 6   -302732.215 6   -225058.76248  20582896.18848
  22964098.063 5    -50594.469 5    -36022.50846  22964094.73046
  22130971.930 6     59887.949 6     41485.89549  22130972.15249
 20  5 16  3 13 49.0000000  0  8G01G04G07G08G09G11G16G27             0.000055578
  22513073.844 6   -493045.301 6   -332779.16449  22513075.43849
  23397107.391 4     50105.578 4     33590.24246  23397106.12946
  22480739.367 6   -487075.027 6   -340935.03149  22480736.65649
  20664803.563 6    -83480.723 6    -58987.77749  20664803.06649
  23257556.273 5    -48135.609 5    -35011.20749  23257556.09449
  20582217.125 6   -306316.098 6   -227851.38748  20582214.27048
  22963989.359 5    -51163.645 5    -36465.98446  22963986.31346
  22131081.211 6     60462.594 6     41933.65649  22131081.27349
 20  5 16  3 13 50.0000000  0  8G01G04G07G08G09G11G16G27             0.000054255
  22512015.102 6   -498608.684 6   -337114.26649  22512016.77049
  23397208.813 5     50638.359 5     34005.38346  23397207.84446
  22479784.641 6   -492095.027 6   -344846.72349  22479781.47349
  20664634.273 6    -84368.973 6    -59679.92249  20664634.30949
  23257452.891 5    -48672.551 5    -35429.59049  23257453.93049
  20581535.453 6   -309899.945 6   -230644.00048  20581532.39848
  22963881.289 5    -51733.266 5    -36909.84046  22963878.40646
  22131190.680 6     61036.824 6     42381.09849  22131190.39849
 20  5 16  3 13 51.0000000  0  8G01G04G07G08G09G11G16G27             0.000052931
  22510956.305 6   -504172.258 6   -341449.52049  22510957.89149
  23397309.875 4     51170.773 4     34420.22346  23397308.72746
  22478829.305 6   -497115.176 6   -348758.52349  22478826.62149
  20664465.445 7    -85257.355 7    -60372.18849  20664465.32049
  23257351.805 5    -49209.602 5    -35848.09449  23257352.28149
  20580853.602 7   -313483.773 7   -233436.59449  20580850.14849
  22963772.164 5    -52303.258 5    -37354.00046  22963769.66446
  22131300.117 6     61610.801 6     42828.33649  22131299.86349
 20  5 16  3 13 52.0000000  0  8G01G04G07G08G09G11G16G27             0.000051607
  22509897.891 5   -509736.211 5   -345785.07049  22509898.84449
  23397411.828 5     51702.641 5     34834.61346  23397410.50446
  22477873.844 6   -502135.590 6   -352670.50849  22477871.05949
  20664296.383 7    -86146.016 7    -61064.67649  20664296.23049
  23257249.953 5    -49746.930 5    -36266.81349  23257250.02749
  20580171.094 7   -317067.602 7   -236229.18449  20580168.09049
  22963663.469 5    -52873.746 5    -37798.58246  22963661.23446
  22131408.953 6     62184.207 6     43275.12149  22131408.74649
 20  5 16  3 13 53.0000000  0  8G01G04G07G08G09G11G16G27             0.000050280
  22508838.977 5   -515300.367 5   -350120.77349  22508840.31649
  23397513.195 5     52234.148 5     35248.74646  23397511.61746
  22476918.469 6   -507156.180 6   -356582.65249  22476915.82049
  20664127.039 7    -87034.813 7    -61757.25849  20664126.53149
  23257146.813 5    -50284.324 5    -36685.57049  23257147.10249
  20579489.789 6   -320651.316 6   -239021.68449  20579486.35249
  22963555.344 6    -53444.609 6    -38243.43846  22963552.42246
  22131518.109 6     62757.254 6     43721.64149  22131517.73449
 20  5 16  3 13 54.0000000  0  8G01G04G07G08G09G11G16G27             0.000048956
  22507780.625 5   -520864.805 5   -354456.68449  22507781.82849
  23397613.242 4     52765.297 4     35662.64846  23397613.09446
  22475962.844 6   -512176.996 6   -360494.98449  22475960.57449
  20663957.734 7    -87923.789 7    -62449.96549  20663957.55549
  23257045.000 5    -50821.883 5    -37104.43449  23257044.71949
  20578807.563 6   -324234.973 6   -241814.14849  20578804.65249
  22963446.445 5    -54015.875 5    -38688.56346  22963443.61746
  22131627.359 6     63329.867 6     44167.84849  22131626.97349
 20  5 16  3 13 55.0000000  0  8G01G04G07G08G09G11G16G27             0.000047630
  22506721.711 5   -526429.402 5   -358792.71548  22506723.17648
  23397713.750 4     53295.996 4     36076.15246  23397714.13746
  22475007.297 6   -517197.965 6   -364407.43449  22475004.82049
  20663789.258 7    -88812.926 7    -63142.77349  20663788.27749
  23256942.625 5    -51359.563 5    -37523.37949  23256943.09449
  20578125.711 6   -327818.578 6   -244606.56648  20578122.63348
  22963339.031 4    -54587.520 4    -39133.92646  22963334.93446
  22131736.047 6     63902.184 6     44613.84449  22131735.83249
 20  5 16  3 13 56.0000000  0  8G01G04G07G08G09G11G16G27             0.000046307
  22505662.727 5   -531994.290 5   -363128.97948  22505664.05148
  23397814.477 3     53826.316 3     36489.39146  23397814.77046
  22474051.742 6   -522219.164 6   -368320.05149  22474049.45349
  20663619.906 7    -89702.254 7    -63835.72349  20663619.14149
  23256840.234 6    -51897.426 6    -37942.49649  23256840.58249
  20577443.617 7   -331402.145 7   -247398.96548  20577440.81348
  22963230.031 3    -55159.594 3    -39579.74246  22963226.60246
  22131844.633 5     64474.125 5     45059.55949  22131844.63349
 20  5 16  3 13 57.0000000  0  8G01G04G07G08G09G11G16G27             0.000044979
  22504603.242 5   -537559.500 5   -367465.50048  22504605.49648
  23397914.844 3     54356.113 3     36902.21146  23397915.70346
  22473096.516 6   -527240.613 6   -372232.86349  22473093.81349
  20663450.625 7    -90591.816 7    -64528.86749  20663449.83649
  23256737.680 6    -52435.504 6    -38361.78549  23256737.95349
  20576761.438 7   -334985.734 7   -250191.38348  20576758.89548
  22963121.047 4    -55732.141 4                
  22131953.266 6     65045.594 6     45504.87948  22131953.24648
 20  5 16  3 13 58.0000000  0  8G01G04G07G08G09G11G16G27             0.000043653
  22503543.969 4   -543124.941 4   -371802.20748  22503546.15648
  23398016.609 4     54885.503 4     37314.70246  23398016.30946
  22472141.164 6   -532262.215 6   -376145.79749  22472138.43449
  20663281.297 6    -91481.516 6    -65222.12949  20663280.81649
  23256635.117 6    -52973.758 6    -38781.21949  23256635.58649
  20576079.531 7   -338569.250 7   -252983.73048  20576076.96148
  22963011.047 5    -56305.094 5                
  22132062.094 6     65616.695 6     45949.87548  22132061.93048
 20  5 16  3 13 59.0000000  0  8G01G04G07G08G09G11G16G27             0.000042326
  22502484.633 4   -548690.590 4   -376139.07848  22502486.82448
  23398117.203 4     55414.488 4     37726.89146  23398116.69946
  22471185.102 6   -537284.000 6   -380058.87149  22471182.80549
  20663111.836 7    -92371.355 7    -65915.52049  20663111.18849
  23256532.453 6    -53512.082 6    -39200.69949  23256533.23049
  20575398.023 7   -342152.699 7   -255776.03148  20575395.45748
  22962901.477 5    -56878.402 5                
  22132170.844 6     66187.488 6     46394.62148  22132171.05548
 20  5 16  3 14  0.0000000  0  8G01G04G07G08G09G11G16G27             0.000041000
  22501425.586 4   -554256.492 4   -380476.13748  22501427.73448
  23398217.742 3     55943.055 3     38138.76246  23398217.38346
  22470229.461 6   -542306.004 6   -383972.12549  22470227.09449
  20662942.453 7    -93261.371 7    -66609.05949  20662941.88349
  23256430.367 6    -54050.633 6    -39620.35549  23256430.58249
  20574715.891 7   -345736.117 7   -258568.29348  20574713.40248
  22962792.219 5    -57452.156 5                
  22132279.055 6     66757.871 6     46839.05948  22132279.28948
 20  5 16  3 14  1.0000000  0  8G01G04G07G08G09G11G16G27             0.000039671
  22500366.227 6   -559822.840 6   -384813.54748  22500368.75848
  23398318.859 4     56470.961 4     38550.11346  23398317.78146
  22469273.742 6   -547328.410 6   -387885.69549  22469271.48449
  20662772.727 7    -94151.754 7    -67302.87949  20662771.98049
  23256327.672 5    -54589.527 5    -40040.28149  23256327.96549
  20574034.133 7   -349319.742 7   -261360.71948  20574031.30948
  22962682.313 6    -58026.473 6                
  22132388.836 6     67327.785 6     47283.12949  22132387.33649
 20  5 16  3 14  2.0000000  0  8G01G04G07G08G09G11G16G27             0.000038345
  22499306.320 5   -565389.496 5   -389151.23449  22499309.04349
  23398419.266 4     56998.426 4     38961.19146  23398418.61346
  22468318.461 6   -552351.047 6   -391799.44949  22468315.43849
  20662603.250 7    -95042.430 7    -67996.93449  20662603.28549
  23256225.516 5    -55128.641 5    -40460.36749  23256225.56649
  20573352.219 7   -352903.305 7   -264153.10249  20573349.32849
  22962573.063 6    -58601.176 6                
  22132496.430 6     67897.070 6     47726.73849  22132496.45749
 20  5 16  3 14  3.0000000  0  8G01G04G07G08G09G11G16G27             0.000037016
  22498247.906 5   -570956.469 5   -393489.15249  22498249.29749
  23398519.797 4     57525.395 4     39371.85946  23398518.83646
  22467361.953 6   -557373.984 6   -395713.43449  22467359.75049
  20662433.969 7    -95933.273 7    -68691.11349  20662433.40649
  23256122.516 6    -55667.930 6    -40880.60249  23256122.66849
  20572670.102 7   -356486.898 7   -266945.51649  20572667.04349
  22962463.414 6    -59176.484 6    -40116.85857  22962440.22757
  22132604.977 6     68465.996 6     48170.06349  22132604.73049
 20  5 16  3 14  4.0000000  0  8G01G04G07G08G09G11G16G27             0.000035688
  22497188.563 5   -576523.676 5   -397827.24249  22497190.54749
  23398619.297 4     58052.031 4     39782.25046  23398618.98046
  22466406.313 6   -562397.047 6   -399627.52049  22466404.02049
  20662264.438 7    -96824.254 7    -69385.38349  20662263.74649
  23256019.930 6    -56207.395 6    -41300.96149  23256020.25049
  20571988.242 7   -360070.395 7   -269737.84449  20571985.48049
  22962354.461 6    -59752.105 6    -40565.42147  22962336.13347
  22132713.313 6     69034.555 6     48613.10249  22132712.79749
 20  5 16  3 14  5.0000000  0  8G01G04G07G08G09G11G16G27             0.000034359
  22496128.281 5   -582091.125 5   -402165.51249  22496130.68849
  23398719.992 4     58578.246 4     40192.29346  23398719.19946
  22465450.859 6   -567420.309 6   -403541.76249  22465448.27049
  20662094.914 7    -97715.434 7    -70079.80149  20662094.38349
  23255917.656 6    -56746.969 6    -41721.40649  23255917.51649
  20571306.250 7   -363653.855 7   -272530.15249  20571303.15649
  22962244.164 6    -60328.164 6    -41014.25457  22962230.17257
  22132821.117 6     69602.727 6     49055.83649  22132821.23449
 20  5 16  3 14  6.0000000  0  8G01G04G07G08G09G11G16G27             0.000033031
  22495069.289 5   -587659.000 5   -406504.10949  22495070.98049
  23398819.867 4     59103.875 4     40601.85246  23398819.31646
  22464494.164 6   -572443.926 6   -407456.26649  22464491.87549
  20661925.195 7    -98606.922 7    -70774.45749  20661924.87549
  23255814.461 5    -57286.871 5    -42142.11349  23255815.00049
  20570624.219 7   -367237.398 7   -275322.52749  20570621.25449
  22962134.727 6    -60904.793 6    -41463.55947  22962124.23447
  22132928.859 6     70170.375 6     49498.15649  22132929.16449
 20  5 16  3 14  7.0000000  0  8G01G04G07G08G09G11G16G27             0.000031700
  22494009.305 5   -593227.047 5   -410842.84049  22494011.28549
  23398919.805 4     59629.117 4     41011.10946  23398919.31346
  22463538.375 6   -577467.703 6   -411370.89849  22463535.77049
  20661755.391 7    -99498.527 7    -71469.21149  20661755.13749
  23255711.656 5    -57826.867 5    -42562.89149  23255712.35549
  20569942.430 7   -370820.855 7   -278114.82849  20569939.66849
  22962024.992 6    -61481.758 6    -41913.19147  22962017.04347
  22133037.141 6     70737.699 6     49940.22749  22133037.02049
 20  5 16  3 14  8.0000000  0  8G01G04G07G08G09G11G16G27             0.000030371
  22492949.820 5   -598795.281 5   -415181.71549  22492952.21549
  23399019.266 4     60154.059 4     41420.15646  23399019.35246
  22462582.391 6   -582491.566 6   -415285.59449  22462580.00849
  20661585.594 7   -100390.250 7    -72164.05949  20661585.30949
  23255609.156 5    -58366.953 5    -42983.74249  23255609.48849
  20569260.484 7   -374404.184 7   -280907.03149  20569257.57449
  22961915.211 6    -62059.082 6    -42363.02747  22961908.59847
  22133145.000 6     71304.688 6     50382.03149  22133144.99649
 20  5 16  3 14  9.0000000  0  8G01G04G07G08G09G11G16G27             0.000029039
  22491890.531 5   -604363.809 5   -419520.82449  22491892.38349
  23399119.391 4     60678.496 4     41828.81346  23399118.84846
  22461626.273 6   -587515.715 6   -419200.50849  22461623.84449
  20661415.742 7   -101282.207 7    -72859.09049  20661415.51249
  23255506.508 5    -58907.254 5    -43404.75449  23255507.09049
  20568578.383 7   -377987.520 7   -283699.25049  20568575.63749
  22961805.320 6    -62636.852 6    -42813.23047  22961799.74247
  22133252.500 6     71871.262 6     50823.52049  22133252.52049
 20  5 16  3 14 10.0000000  0  8G01G04G07G08G09G11G16G27             0.000027712
  22490830.828 5   -609932.469 5   -423860.03549  22490832.86749
  23399219.313 4     61202.605 4     42237.20746  23399219.08246
  22460670.195 6   -592539.965 6   -423115.50849  22460667.76249
  20661246.047 7   -102174.242 7    -73554.18449  20661245.94149
  23255403.172 6    -59447.617 6    -43825.81649  23255403.77049
  20567896.859 7   -381570.691 7   -286491.33249  20567894.00049
  22961695.602 6    -63214.934 6    -43263.68047  22961690.96547
  22133360.477 6     72437.543 6     51264.77749  22133360.26649
 20  5 16  3 14 11.0000000  0  8G01G04G07G08G09G11G16G27             0.000026379
  22489770.992 5   -615501.441 5   -428199.49649  22489773.12549
  23399319.070 4     61726.316 4     42645.28146  23399318.24646
  22459714.555 6   -597564.430 6   -427030.68049  22459711.65249
  20661076.281 7   -103066.469 7    -74249.43049  20661075.96149
  23255300.594 6    -59988.148 6    -44247.00849  23255301.09049
  20567214.789 7   -385153.871 7   -289283.41849  20567212.10249
  22961585.367 6    -63793.457 6    -43714.48447  22961581.08647
  22133468.133 6     73003.402 6     51705.70749  22133467.99649
 20  5 16  3 14 12.0000000  0  8G01G04G07G08G09G11G16G27             0.000025049
  22488711.953 5   -621070.609 5   -432539.10549  22488713.00449
  23399417.555 4     62249.645 4     43053.06646  23399418.10946
  22458758.375 6   -602589.012 6   -430945.94149  22458755.66849
  20660906.602 7   -103958.813 7    -74944.76649  20660906.26649
  23255197.578 5    -60528.809 5    -44668.30949  23255198.35949
  20566533.188 7   -388736.926 7   -292075.41049  20566529.89149
  22961475.461 6    -64372.297 6    -44165.54347  22961471.73847
  22133575.617 6     73568.977 6     52146.41049  22133575.82449
 20  5 16  3 14 13.0000000  0  8G01G04G07G08G09G11G16G27             0.000023718
  22487651.734 5   -626639.898 5   -436878.80949  22487653.42649
  23399517.063 4     62772.629 4     43460.57446  23399517.96546
  22457801.922 6   -607613.711 6   -434861.29749  22457799.62949
  20660736.844 7   -104851.258 7    -75640.18049  20660736.45749
  23255094.820 5    -61069.457 5    -45089.59049  23255095.27049
  20565851.336 7   -392319.844 7   -294867.29749  20565848.51649
  22961364.797 6    -64951.484 6    -44616.85547  22961361.87947
  22133683.141 6     74134.223 6     52586.86749  22133683.04749
 20  5 16  3 14 14.0000000  0  8G01G04G07G08G09G11G16G27             0.000022388
  22486591.586 5   -632209.633 5   -441218.85949  22486593.39149
  23399616.914 3     63294.996 3     43867.61346  23399617.11746
  22456845.719 6   -612638.809 6   -438776.95749  22456843.35549
  20660566.906 7   -105744.070 7    -76335.87949  20660566.91849
  23254991.734 5    -61610.555 5    -45511.23049  23254992.00049
  20565169.391 7   -395902.898 7   -297659.28149  20565166.58649
  22961254.195 6    -65531.270 6    -45068.64147  22961251.84047
  22133790.742 6     74698.910 6     53026.87549  22133790.76649
 20  5 16  3 14 15.0000000  0  8G01G04G07G08G09G11G16G27             0.000021053
  22485531.750 5   -637779.746 5   -445559.20749  22485533.34449
  23399715.977 3     63816.840 3     44274.24246  23399716.42246
  22455889.203 6   -617664.223 6   -442692.85949  22455886.89849
  20660396.859 7   -106637.164 7    -77031.79749  20660396.66849
  23254888.828 5    -62151.852 5    -45933.02749  23254889.48449
  20564487.484 7   -399486.039 7   -300451.34449  20564484.77749
  22961144.492 6    -66111.574 6    -45520.82447  22961141.35947
  22133897.953 6     75263.094 6     53466.50049  22133898.02349
 20  5 16  3 14 16.0000000  0  8G01G04G07G08G09G11G16G27             0.000019724
  22484471.578 5   -643350.273 5   -449899.87949  22484473.32449
  23399814.844 4     64338.129 4     44680.44146  23399816.01646
  22454932.516 6   -622689.996 6   -446609.05149  22454930.44149
  20660227.141 7   -107530.613 7    -77727.98449  20660226.79349
  23254785.938 5    -62693.512 5    -46355.09849  23254786.19949
  20563805.727 6   -403069.277 6   -303243.47349  20563802.94549
  22961033.953 6    -66692.453 6    -45973.44947  22961030.81647
  22134005.547 6     75826.734 6     53905.69949  22134005.16049
 20  5 16  3 14 17.0000000  0  8G01G04G07G08G09G11G16G27             0.000018389
  22483412.023 5   -648920.879 5   -454240.60549  22483413.30149
  23399914.078 3     64859.145 3     45086.43046  23399915.21546
  22453976.711 6   -627715.789 6   -450525.25049  22453974.18849
  20660056.883 7   -108424.059 7    -78424.17649  20660056.75849
  23254682.492 5    -63235.172 5    -46777.17249  23254683.15249
  20563124.164 7   -406652.316 7   -306035.45349  20563120.95749
  22960923.359 6    -67273.578 6    -46426.27747  22960920.44947
  22134112.320 6     76390.156 6     54344.72749  22134112.62949
 20  5 16  3 14 18.0000000  0  8G01G04G07G08G09G11G16G27             0.000017057
  22482351.438 5   -654491.973 5   -458581.71949  22482352.97749
  23400012.961 3     65379.539 3     45491.91846  23400013.88746
  22453020.031 6   -632742.008 6   -454441.78549  22453017.89149
  20659886.641 7   -109317.875 7    -79120.66049  20659886.29349
  23254579.133 5    -63777.168 5    -47199.51649  23254580.21949
  20562442.023 7   -410235.520 7   -308827.55149  20562439.18449
  22960812.125 6    -67855.336 6    -46879.59447  22960809.57847
  22134219.453 6     76952.977 6     54783.29349  22134219.97749
 20  5 16  3 14 19.0000000  0  8G01G04G07G08G09G11G16G27             0.000015722
  22481291.211 5   -660063.234 5   -462922.96149  22481292.91849
  23400111.852 3     65899.500 3     45897.06646  23400113.01646
  22452063.398 6   -637768.410 6   -458358.46149  22452061.07449
  20659716.328 7   -110211.855 7    -79817.27049  20659716.53549
  23254476.227 5    -64319.332 5    -47621.98049  23254476.73049
  20561760.289 7   -413818.656 7   -311619.60549  20561757.25049
  22960701.680 6    -68437.484 6    -47333.22347  22960699.05947
  22134326.648 6     77515.398 6     55221.54349  22134326.71549
 20  5 16  3 14 20.0000000  0  8G01G04G07G08G09G11G16G27             0.000014391
  22480231.359 5   -665634.766 5   -467264.41449  22480233.04749
  23400211.086 3     66419.094 3     46301.95746  23400212.00446
  22451107.445 6   -642794.984 6   -462275.27049  22451104.62149
  20659546.445 7   -111105.988 7    -80513.99649  20659546.12549
  23254372.984 5    -64861.625 5    -48044.54349  23254373.34849
  20561078.188 7   -417401.715 7   -314411.60249  20561075.50449
  22960590.891 6    -69020.012 6    -47787.13347  22960588.25447
  22134434.031 6     78077.520 6     55659.56349  22134434.06649
 20  5 16  3 14 21.0000000  0  8G01G04G07G08G09G11G16G27             0.000013056
  22479170.977 5   -671206.438 5   -471605.98049  22479172.51649
  23400309.922 2     66938.359 2     46706.56646  23400310.90646
  22450150.648 6   -647821.645 6   -466192.14549  22450147.91449
  20659376.242 7   -112000.203 7    -81210.78149  20659376.07449
  23254269.703 5    -65403.988 5    -48467.16449  23254270.27749
  20560396.500 6   -420984.641 6   -317203.49249  20560393.88349
  22960479.797 6    -69602.852 6    -48241.29747  22960477.27347
  22134540.563 6     78639.316 6     56097.32449  22134540.97749
 20  5 16  3 14 22.0000000  0  8G01G04G07G08G09G11G16G27             0.000011723
  22478110.664 5   -676778.492 5   -475947.84049  22478112.25049
  23400408.641 2     67457.035 2     47110.72346  23400409.75446
  22449193.883 6   -652848.617 6   -470109.26649  22449191.66449
  20659205.938 7   -112894.676 7    -81907.77749  20659205.91049
  23254166.078 5    -65946.625 5    -48890.00449  23254167.26649
  20559714.320 6   -424567.621 6   -319995.41849  20559712.15249
  22960368.398 6    -70186.199 6    -48695.84847  22960365.96947
  22134647.156 6     79200.633 6     56534.71549  22134647.68049
 20  5 16  3 14 23.0000000  0  8G01G04G07G08G09G11G16G27             0.000010387
  22477050.344 5   -682350.730 5   -480289.84449  22477051.82449
  23400506.961 3     67975.395 3     47514.64546  23400507.84446
  22448237.406 6   -657875.770 6   -474026.52749  22448234.39849
  20659035.703 7   -113789.336 7    -82604.91449  20659035.56649
  23254063.609 5    -66489.375 5    -49312.92649  23254063.60949
  20559032.430 6   -428150.531 6   -322787.30149  20559030.16049
  22960257.891 6    -70769.938 6    -49150.71147  22960255.16447
  22134753.727 6     79761.547 6     56971.78149  22134754.53149
 20  5 16  3 14 24.0000000  0  8G01G04G07G08G09G11G16G27             0.000009054
  22475989.227 5   -687923.336 5   -484632.12949  22475991.63749
  23400605.398 3     68493.230 3     47918.12146  23400606.88346
  22447280.516 6   -662903.207 6   -477944.01249  22447278.18449
  20658865.586 7   -114684.250 7    -83302.24649  20658865.36349
  23253959.867 5    -67032.410 5    -49736.07449  23253960.62549
  20558351.055 7   -431733.465 7   -325579.19149  20558348.41049
  22960146.891 6    -71354.176 6    -49605.95747  22960143.85947
  22134860.781 6     80322.039 6     57408.52749  22134861.01649
 20  5 16  3 14 25.0000000  0  8G01G04G07G08G09G11G16G27             0.000007717
  22474929.281 5   -693496.117 5   -488974.55549  22474931.08249
  23400704.484 3     69010.695 3     48321.32046  23400705.51246
  22446323.672 6   -667930.734 6   -481861.56649  22446321.62549
  20658695.211 7   -115579.230 7    -83999.63749  20658695.36349
  23253856.703 5    -67575.465 5    -50159.22749  23253857.40649
  20557669.039 7   -435316.273 7   -328370.98849  20557666.25049
  22960034.930 6    -71938.719 6    -50061.44947  22960032.89547
  22134967.656 6     80882.238 6     57845.04749  22134967.92249
 20  5 16  3 14 26.0000000  0  8G01G04G07G08G09G11G16G27             0.000006384
  22473868.258 5   -699069.051 5   -493317.09849  22473870.71149
  23400802.398 3     69527.828 3     48724.28946  23400804.07846
  22445366.945 6   -672958.410 6   -485779.23449  22445364.69149
  20658524.672 7   -116474.359 7    -84697.14149  20658524.52349
  23253753.539 5    -68118.652 5    -50582.49649  23253753.75449
  20556987.578 7   -438898.969 7   -331162.70749  20556984.61349
  22959923.344 6    -72523.605 6    -50517.20747  22959921.10247
  22135074.172 6     81442.098 6     58281.29749  22135073.87149
 20  5 16  3 14 27.0000000  0  8G01G04G07G08G09G11G16G27             0.000005047
  22472808.305 5   -704642.379 5   -497659.94549  22472809.79349
  23400900.781 3     70044.418 3     49126.82446  23400902.00846
  22444410.383 6   -677986.371 6   -489697.13349  22444408.34049
  20658354.656 7   -117369.770 7    -85394.86749  20658354.34849
  23253650.242 5    -68662.078 5    -51005.94149  23253650.78949
  20556305.727 7   -442481.715 7   -333954.45349  20556303.03949
  22959812.930 6    -73109.004 6    -50973.36347  22959810.00447
  22135179.906 6     82001.453 6     58717.15249  22135180.63749
 20  5 16  3 14 28.0000000  0  8G01G04G07G08G09G11G16G27             0.000003712
  22471747.703 5   -710215.883 5   -502002.94149  22471749.52049
  23400999.227 4     70560.609 4     49529.04746  23401000.33246
  22443453.883 6   -683014.500 6   -493615.15649  22443451.05549
  20658184.047 7   -118265.332 7    -86092.71149  20658183.92249
  23253546.305 5    -69205.652 5    -51429.50449  23253547.01649
  20555623.938 7   -446064.367 7   -336746.12949  20555621.04349
  22959701.117 6    -73694.789 6    -51429.82047  22959698.46547
  22135286.438 6     82560.480 6     59152.75849  22135286.92249
 20  5 16  3 14 29.0000000  0  8G01G04G07G08G09G11G16G27             0.000002373
  22470687.219 5   -715789.676 5   -506346.15649  22470688.59849
  23401097.867 4     71076.352 4     49930.93046  23401098.55946
  22442496.695 6   -688042.898 6   -497533.38749  22442494.59849
  20658013.609 7   -119161.117 7    -86790.72349  20658013.44949
  23253443.164 5    -69749.418 5    -51853.21949  23253443.71949
  20554942.320 7   -449647.031 7   -339537.82049  20554939.48849
  22959589.680 6    -74281.027 6    -51886.62547  22959587.15247
  22135392.930 6     83119.027 6     59587.99249  22135393.10549
 20  5 16  3 14 30.0000000  0  8G01G04G07G08G09G11G16G27             0.000001038
  22469625.938 5   -721363.855 5   -510689.67249  22469627.91449
  23401196.258 4     71591.582 4     50332.39846  23401196.76646
  22441539.977 6   -693071.613 6   -501451.85949  22441537.23449
  20657842.953 7   -120057.164 7    -87488.94549  20657843.26649
  23253339.313 5    -70293.469 5    -52277.16049  23253340.20749
  20554260.609 7   -453229.766 7   -342329.55949  20554258.19149
  22959478.086 6    -74867.754 6    -52343.81647  22959474.97747
  22135499.328 6     83677.133 6     60022.88349  22135499.19549
 20  5 16  3 14 31.0000000  0  8G01G04G07G08G09G11G16G27            -0.000000299
  22468565.688 5   -726938.301 5   -515033.39149  22468567.27049
  23401294.633 5     72106.324 5     50733.48046  23401295.13346
  22440583.234 6   -698100.531 6   -505370.48449  22440580.64849
  20657672.516 7   -120953.418 7    -88187.32849  20657672.19149
  23253236.375 5    -70837.707 5    -52701.24249  23253236.62549
  20553578.781 7   -456812.496 7   -345121.30149  20553576.18849
  22959366.109 6    -75454.945 6    -52801.37547  22959363.51247
  22135605.289 6     84234.809 6     60457.43049  22135605.48049
 20  5 16  3 14 32.0000000  0  8G01G04G07G08G09G11G16G27            -0.000001637
  22467504.297 5   -732513.031 5   -519377.33649  22467506.37149
  23401391.930 4     72620.637 4     51134.23846  23401393.02046
  22439625.945 6   -703129.676 6   -509289.28949  22439623.40249
  20657502.328 7   -121849.867 7    -88885.85949  20657501.48049
  23253132.961 5    -71382.160 5    -53125.49649  23253133.36749
  20552896.930 7   -460395.207 7   -347913.02049  20552894.14549
  22959254.414 6    -76042.602 6    -53259.28947  22959251.94547
  22135711.773 6     84792.074 6     60891.66049  22135711.84849
 20  5 16  3 14 33.0000000  0  8G01G04G07G08G09G11G16G27            -0.000002975
  22466443.773 5   -738088.137 5   -523721.57449  22466445.09449
  23401489.383 4     73134.348 4     51534.54346  23401490.42646
  22438669.125 6   -708159.156 6   -513208.35949  22438666.53149
  20657331.492 7   -122746.637 7    -89584.64149  20657331.64149
  23253028.953 5    -71926.875 5    -53549.94549  23253029.75449
  20552215.086 7   -463978.008 7   -350704.81649  20552212.39849
  22959141.961 6    -76630.785 6    -53717.61747  22959139.68047
  22135817.008 6     85348.777 6     61325.45349  22135817.91449
 20  5 16  3 14 34.0000000  0  8G01G04G07G08G09G11G16G27            -0.000004313
  22465382.461 5   -743663.734 5   -528066.19949  22465384.52049
  23401587.242 4     73647.453 4     51934.35246  23401588.35246
  22437711.633 6   -713189.059 6   -517127.77049  22437709.29749
  20657160.617 7   -123643.836 7    -90283.76249  20657159.94949
  23252925.180 5    -72472.012 5    -53974.72349  23252925.48049
  20551533.156 7   -467560.977 7   -353496.74249  20551530.68049
  22959029.984 6    -77219.602 6    -54176.43847  22959027.57447
  22135923.352 6     85904.902 6     61758.79749  22135923.46949
 20  5 16  3 14 35.0000000  0  8G01G04G07G08G09G11G16G27            -0.000005653
  22464321.578 5   -749239.570 5   -532411.00449  22464323.26649
  23401685.320 4     74160.125 4     52333.82446  23401686.03546
  22436754.469 6   -718219.148 6   -521047.31349  22436751.89849
  20656989.992 7   -124541.199 7    -90983.00849  20656989.63749
  23252821.430 5    -73017.262 5    -54399.59849  23252822.18849
  20550851.492 6   -471143.891 6   -356288.62549  20550848.76649
  22958918.789 6    -77808.840 6    -54635.58647  22958915.43847
  22136029.266 6     86460.621 6     62191.81649  22136029.50449
 20  5 16  3 14 36.0000000  0  8G01G04G07G08G09G11G16G27            -0.000006990
  22463260.148 5   -754815.707 5   -536756.05149  22463262.45349
  23401782.422 4     74672.305 4     52732.93046  23401783.06346
  22435797.070 6   -723249.508 6   -524967.07049  22435794.71149
  20656819.352 7   -125438.813 7    -91682.44149  20656818.96549
  23252717.555 5    -73562.785 5    -54824.68049  23252718.29349
  20550170.031 7   -474726.824 7   -359080.52349  20550166.89849
  22958805.969 6    -78398.523 6    -55095.07847  22958803.19947
  22136134.469 6     87015.918 6     62624.51649  22136134.97349
 20  5 16  3 14 37.0000000  0  8G01G04G07G08G09G11G16G27            -0.000008331
  22462199.125 5   -760392.051 5   -541101.25449  22462201.10249
  23401879.563 4     75184.141 4     53131.75846  23401881.00046
  22434839.781 6   -728279.992 6   -528886.93049  22434837.69149
  20656648.305 7   -126336.547 7    -92381.97749  20656648.22749
  23252614.055 5    -74108.410 5    -55249.84449  23252614.75849
  20549488.039 7   -478309.668 7   -361872.34849  20549485.41449
  22958693.516 6    -78988.563 6    -55554.84847  22958691.25847
  22136240.141 6     87570.848 6     63056.92649  22136240.45749
 20  5 16  3 14 38.0000000  0  8G01G04G07G08G09G11G16G27            -0.000009668
  22461137.820 5   -765968.648 5   -545446.65249  22461140.19549
  23401977.453 4     75695.473 4     53530.19546  23401977.91046
  22433882.281 6   -733310.680 6   -532806.94949  22433880.18849
  20656477.281 7   -127234.449 7    -93081.64149  20656476.60949
  23252509.703 5    -74654.172 5    -55675.10949  23252510.71549
  20548806.141 6   -481892.453 6   -364664.12549  20548803.52349
  22958581.242 6    -79579.008 6    -56014.93847  22958578.80547
  22136345.484 6     88125.422 6     63489.06349  22136346.10549
 20  5 16  3 14 39.0000000  0  8G01G04G07G08G09G11G16G27            -0.000011011
  22460076.234 5   -771545.410 5   -549792.18049  22460078.58649
  23402074.258 5     76206.520 5     53928.40246  23402075.18846
  22432924.945 6   -738341.512 6   -536727.08249  22432922.58249
  20656306.297 7   -128132.492 7    -93781.41449  20656306.31649
  23252405.664 5    -75200.051 5    -56100.47349  23252406.85949
  20548124.695 7   -485475.133 7   -367455.82849  20548121.84449
  22958468.797 6    -80169.844 6    -56475.33247  22958466.75047
  22136451.023 6     88679.641 6     63920.92249  22136451.96949
 20  5 16  3 14 40.0000000  0  8G01G04G07G08G09G11G16G27            -0.000012350
  22459015.328 5   -777122.625 5   -554138.05549  22459017.48449
  23402171.594 5     76716.926 5     54326.12546  23402172.33646
  22431967.398 6   -743372.738 6   -540647.51649  22431965.21149
  20656135.461 7   -129030.906 7    -94481.48049  20656135.45749
  23252301.953 5    -75746.297 5    -56526.11749  23252302.75449
  20547442.375 7   -489057.961 7   -370247.64549  20547439.96549
  22958356.367 6    -80761.242 6    -56936.16847  22958353.94547
  22136556.234 6     89233.320 6     64352.35949  22136556.44549
 20  5 16  3 14 41.0000000  0  8G01G04G07G08G09G11G16G27            -0.000013691
  22457954.375 5   -782700.086 5   -558484.13349  22457955.94149
  23402268.859 5     77226.918 5     54723.52046  23402269.57446
  22431010.125 6   -748404.137 6   -544568.09049  22431007.75449
  20655964.805 7   -129929.480 7    -95181.66449  20655964.53949
  23252197.875 5    -76292.629 5    -56951.83249  23252198.72349
  20546760.680 7   -492640.719 7   -373039.40249  20546758.15249
  22958243.688 6    -81353.063 6    -57397.32447  22958241.63747
  22136661.758 6     89786.566 6     64783.46149  22136661.87949
 20  5 16  3 14 42.0000000  0  8G01G04G07G08G09G11G16G27            -0.000015030
  22456892.727 5   -788277.824 5   -562830.42649  22456894.84449
  23402365.570 5     77736.449 5     55120.53946  23402366.43846
  22430052.516 6   -753435.785 6   -548488.85549  22430050.29749
  20655793.297 7   -130828.289 7    -95882.03549  20655792.96949
  23252093.820 5    -76839.262 5    -57377.78149  23252094.75449
  20546078.977 7   -496223.480 7   -375831.16049  20546076.25449
  22958131.328 6    -81945.336 6    -57858.83647  22958129.02747
  22136766.578 6     90339.414 6     65214.25049  22136767.41849
 20  5 16  3 14 43.0000000  0  8G01G04G07G08G09G11G16G27            -0.000016373
  22455831.391 5   -793855.797 5   -567176.89149  22455833.19549
  23402462.359 5     78245.578 5     55517.28946  23402463.36746
  22429095.023 6   -758467.582 6   -552409.73849  22429092.77349
  20655622.281 7   -131727.246 7    -96582.52749  20655622.46949
  23251990.242 5    -77385.949 5    -57803.77349  23251991.28949
  20545397.117 7   -499806.191 7   -378622.88749  20545394.75049
  22958018.180 6    -82537.988 6    -58320.65247  22958015.65247
  22136871.867 6     90891.914 6     65644.76649  22136871.82449
 20  5 16  3 14 44.0000000  0  8G01G04G07G08G09G11G16G27            -0.000017714
  22454770.000 5   -799434.027 5   -571523.56349  22454771.94949
  23402559.367 5     78754.285 5     55913.67646  23402560.25046
  22428138.086 6   -763499.602 6   -556330.78549  22428135.14849
  20655451.242 7   -132626.371 7    -97283.13749  20655450.89849
  23251886.109 5    -77932.859 5    -58229.93449  23251886.94949
  20544715.406 7   -503388.828 7   -381414.54349  20544712.71149
  22957905.750 6    -83131.035 6    -58782.76247  22957903.09047
  22136977.172 6     91444.008 6     66074.97749  22136977.41049
 20  5 16  3 14 45.0000000  0  8G01G04G07G08G09G11G16G27            -0.000019056
  22453708.406 5   -805012.523 5   -575870.44149  22453710.17649
  23402655.953 5     79262.480 5     56309.67246  23402656.92246
  22427180.109 6   -768531.836 6   -560252.00849  22427177.36749
  20655279.977 7   -133525.746 7    -97983.94549  20655280.05549
  23251781.500 5    -78479.977 5    -58656.26249  23251782.63749
  20544033.695 6   -506971.477 6   -384206.21949  20544030.93449
  22957792.727 6    -83724.547 6    -59245.24247  22957790.42247
  22137081.852 6     91995.656 6     66504.83249  22137082.48449
 20  5 16  3 14 46.0000000  0  8G01G04G07G08G09G11G16G27            -0.000020397
  22452647.617 5   -810591.270 5   -580217.52049  22452648.94949
  23402752.438 5     79770.293 5     56705.35546  23402753.38346
  22426222.617 6   -773564.301 6   -564173.41049  22426219.99649
  20655108.891 7   -134425.309 7    -98684.90649  20655108.30949
  23251677.898 5    -79027.211 5    -59082.67649  23251678.62949
  20543352.086 6   -510554.074 6   -386997.85549  20543349.09049
  22957679.703 6    -84318.492 6    -59708.06347  22957677.08647
  22137187.055 6     92546.918 6     66934.38349  22137187.43849
 20  5 16  3 14 47.0000000  0  8G01G04G07G08G09G11G16G27            -0.000021742
  22451585.766 5   -816170.109 5   -584564.66449  22451587.11749
  23402848.422 5     80277.816 5     57100.82846  23402850.09046
  22425264.531 6   -778596.789 6   -568094.82849  22425262.03949
  20654937.758 7   -135324.863 7    -99385.85949  20654937.54349
  23251573.563 5    -79574.508 5    -59509.14149  23251574.54349
  20542670.109 6   -514136.457 6   -389789.32049  20542667.62949
  22957566.523 6    -84912.668 6    -60171.05147  22957564.04347
  22137291.992 6     93097.949 6     67363.75449  22137291.85249
 20  5 16  3 14 48.0000000  0  8G01G04G07G08G09G11G16G27            -0.000023083
  22450523.992 5   -821749.277 5   -588912.07449  22450525.76249
  23402945.492 5     80784.887 5     57495.94546  23402946.33646
  22424307.289 6   -783629.547 6   -572016.45749  22424304.81649
  20654766.813 7   -136224.637 7   -100086.98049  20654766.42249
  23251468.891 5    -80121.977 5    -59935.74649  23251470.27049
  20541988.281 6   -517718.855 6   -392580.80149  20541985.69949
  22957453.516 6    -85507.262 6    -60634.37547  22957450.84047
  22137397.086 6     93648.539 6     67792.78149  22137397.01649
 20  5 16  3 14 49.0000000  0  8G01G04G07G08G09G11G16G27            -0.000024427
  22449462.156 5   -827328.734 5   -593259.70349  22449463.73849
  23403041.914 5     81291.441 5     57890.66046  23403042.48046
  22423349.328 6   -788662.535 6   -575938.27049  22423346.95349
  20654595.211 7   -137124.676 7   -100788.31349  20654594.88349
  23251365.508 5    -80669.695 5    -60362.54349  23251365.98849
  20541307.031 7   -521301.277 7   -395372.29749  20541303.93449
  22957339.656 6    -86102.363 6    -61098.08247  22957337.62547
  22137501.758 6     94198.703 6     68221.48049  22137501.54749
 20  5 16  3 14 50.0000000  0  8G01G04G07G08G09G11G16G27            -0.000025768
  22448400.258 5   -832908.547 5   -597607.60549  22448402.26649
  23403137.891 5     81797.453 5     58284.96146  23403138.80946
  22422391.086 6   -793695.852 6   -579860.33249  22422389.04749
  20654424.023 7   -138025.012 7   -101489.87549  20654423.83649
  23251260.578 5    -81217.699 5    -60789.55949  23251261.88349
  20540625.156 7   -524883.754 7   -398163.84849  20540622.49649
  22957226.930 6    -86697.973 6    -61562.18847  22957224.04347
  22137606.461 6     94748.359 6     68649.78549  22137606.00049
 20  5 16  3 14 51.0000000  0  8G01G04G07G08G09G11G16G27            -0.000027115
  22447338.367 5   -838488.527 5   -601955.63349  22447339.93049
  23403234.367 5     82303.168 5     58679.00446  23403235.12146
  22421433.922 6   -798729.246 6   -583782.46149  22421431.38749
  20654252.492 7   -138925.410 7   -102191.48449  20654252.54349
  23251156.328 5    -81765.730 5    -61216.60249  23251157.97749
  20539943.375 6   -528466.070 6   -400955.25849  20539940.40649
  22957113.633 6    -87293.914 6    -62026.56347  22957110.83647
  22137710.453 6     95297.711 6     69077.85249  22137711.09449
 20  5 16  3 14 52.0000000  0  8G01G04G07G08G09G11G16G27            -0.000028458
  22446276.914 6   -844068.785 6   -606303.87949  22446278.36749
  23403330.586 5     82808.426 5     59072.70746  23403331.21546
  22420475.836 6   -803762.914 6   -587704.80149  22420473.59849
  20654081.586 7   -139826.047 7   -102893.27749  20654081.10549
  23251051.914 5    -82314.000 5    -61643.82449  23251053.32849
  20539261.898 7   -532048.395 7   -403746.68049  20539258.96549
  22956999.977 6    -87890.289 6    -62491.27347  22956997.00447
  22137815.141 6     95846.629 6     69505.58249  22137815.17649
 20  5 16  3 14 53.0000000  0  8G01G04G07G08G09G11G16G27            -0.000029802
  22445214.688 6   -849649.320 6   -610652.34849  22445216.49649
  23403426.633 5     83313.191 5     59466.03146  23403427.21546
  22419517.750 6   -808796.758 6   -591627.27349  22419515.64149
  20653910.148 7   -140726.891 7   -103595.23449  20653909.59049
  23250947.414 5    -82862.477 5    -62071.20749  23250948.60949
  20538580.156 7   -535630.707 7   -406538.09449  20538577.41049
  22956886.258 6    -88487.094 6    -62956.32447  22956883.91447
  22137919.539 6     96395.141 6     69932.99249  22137919.37149
 20  5 16  3 14 54.0000000  0  8G01G04G07G08G09G11G16G27            -0.000031147
  22444153.031 5   -855230.215 5   -615001.09049  22444154.42249
  23403523.281 5     83817.410 5     59858.91846  23403523.08246
  22418559.914 6   -813830.984 6   -595550.04349  22418557.62949
  20653738.422 7   -141628.070 7   -104297.45349  20653738.24649
  23250843.250 5    -83411.207 5    -62498.79349  23250844.61349
  20537898.070 6   -539213.098 6   -409329.56649  20537895.51249
  22956772.781 6    -89084.480 6    -63421.81647  22956770.48047
  22138023.328 6     96943.105 6     70359.97749  22138023.50849
 20  5 16  3 14 55.0000000  0  8G01G04G07G08G09G11G16G27            -0.000032492
  22443090.156 5   -860811.340 5   -619350.02349  22443092.21949
  23403618.969 5     84321.230 5     60251.50046  23403618.69146
  22417601.641 6   -818865.371 6   -599472.94949  22417599.66449
  20653566.656 7   -142529.383 7   -104999.77049  20653566.12549
  23250738.977 5    -83960.117 5    -62926.51649  23250739.64149
  20537216.938 7   -542795.438 7   -412120.99649  20537213.90649
  22956658.367 6    -89682.242 6    -63887.60947  22956656.60547
  22138127.938 6     97490.707 6     70786.68049  22138128.09849
 20  5 16  3 14 56.0000000  0  8G01G04G07G08G09G11G16G27            -0.000033836
  22442028.672 6   -866392.754 6   -623699.17649  22442030.23049
  23403714.398 4     84824.594 4     60643.73046  23403714.59446
  22416643.609 6   -823899.961 6   -603396.00849  22416641.36349
  20653395.164 7   -143430.918 7   -105702.26649  20653395.09049
  23250634.383 5    -84509.219 5    -63354.39149  23250635.69549
  20536534.813 7   -546377.723 7   -414912.38749  20536532.02349
  22956544.688 6    -90280.402 6    -64353.70347  22956542.39147
  22138231.633 6     98037.918 6     71213.07849  22138231.82849
 20  5 16  3 14 57.0000000  0  8G01G04G07G08G09G11G16G27            -0.000035185
  22440966.313 5   -871974.465 5   -628048.56349  22440967.87149
  23403810.313 4     85327.469 4     61035.57846  23403810.49246
  22415685.367 6   -828934.805 6   -607319.26249  22415683.30949
  20653223.578 7   -144332.680 7   -106404.93849  20653223.66449
  23250529.875 5    -85058.488 5    -63782.39149  23250530.73049
  20535853.148 7   -549960.023 7   -417703.79349  20535850.43849
  22956431.219 6    -90879.039 6    -64820.18047  22956428.78547
  22138336.414 6     98584.680 6     71639.12549  22138336.02349
 20  5 16  3 14 58.0000000  0  8G01G04G07G08G09G11G16G27            -0.000036528
  22439904.656 6   -877556.559 6   -632398.24649  22439905.46149
  23403905.336 4     85829.773 4     61427.01646  23403905.96946
  22414727.297 6   -833969.965 6   -611242.75849  22414725.15249
  20653051.789 7   -145234.738 7   -107107.84449  20653051.85249
  23250424.984 5    -85608.117 5    -64210.67249  23250426.52349
  20535171.414 7   -553542.418 7   -420495.26649  20535168.60249
  22956317.078 6    -91478.266 6    -65287.10547  22956314.92647
  22138440.000 6     99130.941 6     72064.78549  22138439.70349
 20  5 16  3 14 59.0000000  0  8G01G04G07G08G09G11G16G27            -0.000037876
  22438841.375 6   -883138.969 6   -636748.17249  22438843.43449
  23404000.891 4     86331.633 4     61818.07846  23404001.45346
  22413769.367 6   -839005.375 6   -615166.45349  22413767.53949
  20652880.336 7   -146137.035 7   -107810.93449  20652880.21949
  23250320.117 5    -86157.930 5    -64639.09849  23250321.64849
  20534489.797 7   -557124.816 7   -423286.74649  20534486.99249
  22956203.344 6    -92077.918 6    -65754.36347  22956200.66047
  22138543.789 6     99676.727 6     72490.07049  22138543.48449
 20  5 16  3 15  0.0000000  0  8G01G04G07G08G09G11G16G27            -0.000039223
  22437779.055 6   -888721.785 6   -641098.41449  22437781.30949
  23404096.367 4     86832.832 4     62208.60246  23404096.72346
  22412810.914 6   -844041.172 6   -619090.45749  22412809.12949
  20652708.242 7   -147039.742 7   -108514.34449  20652708.28949
  23250216.039 5    -86708.078 5    -65067.78949  23250217.13349
  20533807.953 7   -560707.371 7   -426078.34849  20533805.10549
  22956088.758 6    -92678.180 6    -66222.10547  22956086.16847
  22138647.617 6    100221.941 6     72914.91049  22138647.77049
 20  5 16  3 15  1.0000000  0  8G01G04G07G08G09G11G16G27            -0.000040571
  22436716.219 6   -894304.637 6   -645448.68849  22436718.34849
  23404191.984 4     87333.863 4     62599.02746  23404192.02746
  22411852.844 6   -849076.949 6   -623014.43849  22411850.78549
  20652536.758 7   -147942.367 7   -109217.69549  20652536.61349
  23250111.469 5    -87258.207 5    -65496.46549  23250112.30549
  20533126.313 7   -564289.648 7   -428869.73849  20533123.64149
  22955974.836 6    -93278.637 6    -66689.99247  22955972.03547
  22138751.742 6    100766.977 6     73339.61349  22138751.37549
 20  5 16  3 15  2.0000000  0  8G01G04G07G08G09G11G16G27            -0.000041916
  22435654.328 6   -899887.555 6   -649799.00849  22435656.11749
  23404287.594 4     87834.637 4     62989.26246  23404287.34846
  22410894.758 6   -854112.781 6   -626938.46549  22410892.51649
  20652364.930 7   -148845.051 7   -109921.08249  20652364.95749
  23250006.859 5    -87808.371 5    -65925.17249  23250007.53149
  20532444.539 7   -567871.719 7   -431660.95749  20532441.99249
  22955860.563 6    -93879.348 6    -67158.07847  22955857.71547
  22138855.406 6    101311.789 6     73764.14149  22138855.26649
 20  5 16  3 15  3.0000000  0  8G01G04G07G08G09G11G16G27            -0.000043266
  22434591.938 5   -905471.066 5   -654149.79749  22434593.77749
  23404382.047 4     88334.633 4     63378.87146  23404382.07446
  22409936.063 6   -859149.086 6   -630862.85249  22409933.95349
  20652193.016 7   -149748.195 7   -110624.82849  20652192.59049
  23249901.766 5    -88358.988 5    -66354.22349  23249902.72349
  20531763.094 6   -571454.043 6   -434452.37949  20531760.32449
  22955745.742 6    -94480.746 6    -67626.71147  22955743.57047
  22138958.813 6    101855.914 6     74188.13749  22138958.58649
 20  5 16  3 15  4.0000000  0  8G01G04G07G08G09G11G16G27            -0.000044613
  22433529.531 6   -911054.691 6   -658500.67649  22433531.30149
  23404477.445 4     88834.277 4     63768.19546  23404477.01646
  22408978.375 6   -864185.504 6   -634787.33649  22408975.64849
  20652021.023 7   -150651.453 7   -111328.67249  20652020.73049
  23249797.461 5    -88909.633 5    -66783.29349  23249798.25449
  20531081.164 7   -575036.207 7   -437243.68449  20531078.48849
  22955631.180 6    -95082.484 6    -68095.59847  22955628.85947
  22139062.313 6    102399.734 6     74611.89149  22139062.31649
 20  5 16  3 15  5.0000000  0  8G01G04G07G08G09G11G16G27            -0.000045961
  22432466.609 6   -916638.672 6   -662851.82849  22432468.31649
  23404572.406 4     89333.492 4     64157.17246  23404572.01646
  22408019.539 6   -869222.211 6   -638712.03549  22408017.08649
  20651849.398 7   -151554.973 7   -112032.70749  20651849.18049
  23249692.313 5    -89460.566 5    -67212.59049  23249693.30149
  20530399.523 7   -578618.426 7   -440035.02049  20530396.77349
  22955516.523 6    -95684.691 6    -68564.85247  22955513.98047
  22139165.828 6    102943.082 6     75035.27749  22139165.52049
 20  5 16  3 15  6.0000000  0  8G01G04G07G08G09G11G16G27            -0.000047310
  22431403.750 5   -922222.859 5   -667203.14149  22431406.05949
  23404666.977 4     89832.254 4     64545.82046  23404667.23446
  22407061.008 6   -874259.074 6   -642636.87149  22407058.78949
  20651677.258 7   -152458.648 7   -112736.87149  20651677.03149
  23249587.859 5    -90011.664 5    -67642.02049  23249588.14149
  20529717.922 6   -582200.578 6   -442826.30949  20529715.09849
  22955401.695 6    -96287.332 6    -69034.44547  22955399.34047
  22139268.727 6    103486.047 6     75458.36749  22139268.64149
 20  5 16  3 15  7.0000000  0  8G01G04G07G08G09G11G16G27            -0.000048660
  22430341.359 5   -927807.414 5   -671554.73449  22430342.75449
  23404761.633 4     90330.484 4     64934.05546  23404762.00046
  22406102.258 6   -879296.207 6   -646561.91049  22406100.12549
  20651505.469 7   -153362.586 7   -113441.23849  20651505.30149
  23249483.203 5    -90562.965 5    -68071.60949  23249483.34849
  20529036.273 6   -585782.758 6   -445617.62549  20529033.69949
  22955287.461 6    -96890.438 6    -69504.39547  22955284.74247
  22139371.734 6    104028.543 6     75881.09049  22139371.85949
 20  5 16  3 15  8.0000000  0  8G01G04G07G08G09G11G16G27            -0.000050009
  22429278.656 5   -933392.199 5   -675906.52349  22429280.37949
  23404856.281 4     90828.266 4     65321.94546  23404856.79346
  22405143.953 6   -884333.609 6   -650487.16449  22405141.49649
  20651333.477 7   -154266.715 7   -114145.75849  20651333.17249
  23249377.891 5    -91114.484 5    -68501.36749  23249378.21149
  20528354.453 6   -589364.934 6   -448408.92649  20528351.77049
  22955172.555 6    -97494.004 6    -69974.70747  22955169.87147
  22139475.203 6    104570.613 6     76303.48049  22139475.37549
 20  5 16  3 15  9.0000000  0  8G01G04G07G08G09G11G16G27            -0.000051359
  22428215.625 5   -938977.164 5   -680258.43849  22428217.68049
  23404950.773 4     91325.738 4     65709.56346  23404951.45746
  22404185.133 6   -889371.055 6   -654412.44549  22404182.91449
  20651161.156 7   -155170.949 7   -114850.35249  20651161.29349
  23249273.133 5    -91666.055 5    -68931.16049  23249273.60549
  20527673.148 6   -592946.938 6   -451200.09449  20527670.34849
  22955057.695 6    -98097.840 6    -70445.23047  22955054.84847
  22139578.133 6    105112.410 6     76725.66449  22139578.32449
 20  5 16  3 15 10.0000000  0  8G01G04G07G08G09G11G16G27            -0.000052708
  22427152.469 5   -944562.324 5   -684610.50849  22427154.59849
  23405045.484 3     91822.859 3     66096.91846  23405046.13746
  22403226.844 6   -894408.676 6   -658337.85949  22403224.08249
  20650989.234 7   -156075.340 7   -115555.07449  20650989.18849
  23249168.008 5    -92217.746 5    -69361.05549  23249168.49649
  20526991.805 6   -596528.887 6   -453991.23449  20526988.84049
  22954942.906 6    -98702.090 6    -70916.07847  22954939.75047
  22139681.492 6    105653.832 6     77147.55149  22139681.64149
 20  5 16  3 15 11.0000000  0  8G01G04G07G08G09G11G16G27            -0.000054060
  22426090.016 5   -950147.957 5   -688962.94549  22426091.77049
  23405139.484 3     92319.219 3     66483.69946  23405140.35546
  22402267.906 6   -899446.742 6   -662263.61349  22402265.29349
  20650817.008 7   -156980.125 7   -116260.09449  20650817.03149
  23249063.398 5    -92769.852 5    -69791.25849  23249063.14549
  20526309.945 6   -600111.008 6   -456782.48848  20526307.00448
  22954827.781 6    -99306.980 6    -71387.41447  22954825.17247
  22139784.023 6    106194.652 6     77568.97349  22139784.62949
 20  5 16  3 15 12.0000000  0  8G01G04G07G08G09G11G16G27            -0.000055408
  22425027.148 5   -955733.801 5   -693315.55149  22425028.55549
  23405234.234 3     92815.227 3     66870.19946  23405234.97746
  22401308.953 6   -904484.926 6   -666189.46949  22401306.85249
  20650644.977 7   -157885.043 7   -116965.22749  20650644.65649
  23248958.156 5    -93322.070 5    -70221.56649  23248958.51649
  20525628.375 7   -603693.047 7   -459573.68849  20525625.47749
  22954712.016 6    -99912.234 6    -71859.03947  22954709.88347
  22139887.016 6    106735.125 6     77990.11349  22139887.53149
 20  5 16  3 15 13.0000000  0  8G01G04G07G08G09G11G16G27            -0.000056761
  22423963.727 5   -961320.121 5   -697668.52349  22423965.49649
  23405328.352 3     93310.602 3     67256.19146  23405329.21146
  22400350.375 6   -909523.551 6   -670115.67649  22400348.03949
  20650472.602 7   -158790.395 7   -117670.71149  20650472.18449
  23248852.516 5    -93874.758 5    -70652.24249  23248853.00849
  20524946.641 6   -607275.273 6   -462365.03549  20524944.05949
  22954596.898 6   -100518.141 6    -72331.18047  22954594.27747
  22139989.672 6    107274.965 6     78410.76249  22139989.84049
 20  5 16  3 15 14.0000000  0  8G01G04G07G08G09G11G16G27            -0.000058111
  22422900.602 5   -966906.473 5   -702021.52749  22422902.46149
  23405422.359 3     93805.789 3     67642.06646  23405423.70746
  22399391.656 6   -914562.148 6   -674041.85949  22399389.23049
  20650300.313 7   -159695.688 7   -118376.13349  20650300.23449
  23248747.516 5    -94427.297 5    -71082.79349  23248747.46149
  20524265.094 6   -610857.230 6   -465156.17249  20524261.64149
  22954481.680 6   -101124.199 6    -72803.43047  22954479.52047
  22140092.164 6    107814.641 6     78831.28149  22140093.03549
 20  5 16  3 15 15.0000000  0  8G01G04G07G08G09G11G16G27            -0.000059465
  22421837.719 5   -972493.047 5   -706374.70749  22421839.09449
  23405516.672 3     94300.461 3     68027.53946  23405517.70746
  22398432.719 6   -919600.980 6   -677968.21949  22398429.98449
  20650128.031 7   -160601.219 7   -119081.74249  20650127.88349
  23248642.586 5    -94980.074 5    -71513.53149  23248642.93849
  20523583.320 6   -614439.168 6   -467947.29349  20523580.18849
  22954366.055 6   -101730.742 6    -73276.06647  22954363.78947
  22140195.195 6    108353.871 6     79251.46549  22140195.52349
 20  5 16  3 15 16.0000000  0  8G01G04G07G08G09G11G16G27            -0.000060816
  22420774.672 5   -978079.922 5   -710728.10949  22420776.15249
  23405610.516 3     94794.727 3     68412.68046  23405611.68846
  22397473.813 6   -924640.004 6   -681894.73849  22397471.16049
  20649955.594 7   -161506.930 7   -119787.48449  20649955.62149
  23248536.922 5    -95533.020 5    -71944.39549  23248537.00849
  20522901.461 6   -618021.051 6   -470738.36749  20522898.80149
  22954250.781 6   -102337.645 6    -73748.97747  22954247.89847
  22140297.766 6    108892.738 6     79671.35949  22140298.18449
 20  5 16  3 15 17.0000000  0  8G01G04G07G08G09G11G16G27            -0.000062168
  22419711.477 5   -983667.082 5   -715081.74249  22419713.05549
  23405704.859 3     95288.520 3     68797.44946  23405705.81646
  22396514.539 6   -929679.266 6   -685821.43849  22396512.49649
  20649783.063 7   -162412.891 7   -120493.42649  20649783.16849
  23248431.617 5    -96086.191 5    -72375.44549  23248432.01649
  20522220.125 6   -621602.957 6   -473529.46149  20522217.35549
  22954135.359 6   -102945.066 6    -74222.29747  22954132.14847
  22140400.039 6    109431.148 6     80090.90249  22140400.06349
 20  5 16  3 15 18.0000000  0  8G01G04G07G08G09G11G16G27            -0.000063520
  22418647.820 5   -989254.523 5   -719435.59049  22418649.77749
  23405798.133 3     95781.805 3     69181.82846  23405799.83646
  22395555.727 6   -934718.754 6   -689748.30949  22395553.36349
  20649610.453 7   -163319.063 7   -121199.53549  20649610.61349
  23248325.836 5    -96639.570 5    -72806.64849  23248326.34849
  20521538.297 6   -625184.840 6   -476320.53949  20521535.65249
  22954019.148 6   -103552.910 6    -74695.94547  22954017.14847
  22140502.305 6    109969.133 6     80510.10549  22140502.58649
 20  5 16  3 15 19.0000000  0  8G01G04G07G08G09G11G16G27            -0.000064875
  22417584.867 5   -994842.367 5   -723789.75049  22417586.19549
  23405892.125 3     96274.527 3     69565.75046  23405893.53546
  22394596.742 6   -939758.629 6   -693675.48449  22394594.27749
  20649438.109 7   -164225.574 7   -121905.91049  20649438.23449
  23248220.992 5    -97193.254 5    -73238.09049  23248221.29349
  20520856.727 6   -628766.840 6   -479111.70749  20520853.78149
  22953903.797 6   -104161.324 6    -75170.03147  22953900.98847
  22140604.727 6    110506.547 6     80928.86749  22140604.90249
 20  5 16  3 15 20.0000000  0  8G01G04G07G08G09G11G16G27            -0.000066227
  22416521.375 5  -1000430.473 5   -728144.12149  22416522.62949
  23405985.945 3     96766.766 3     69949.31346  23405987.07446
  22393637.336 6   -944798.684 6   -697602.79749  22393635.32049
  20649265.766 7   -165132.289 7   -122612.43849  20649266.28149
  23248115.742 5    -97747.137 5    -73669.69149  23248116.27049
  20520174.961 7   -632348.801 7   -481902.84449  20520171.95349
  22953787.344 6   -104770.184 6    -75644.46547  22953785.05947
  22140707.039 6    111043.586 6     81347.34049  22140707.22349
 20  5 16  3 15 21.0000000  0  8G01G04G07G08G09G11G16G27            -0.000067581
  22415458.117 5  -1006018.906 5   -732498.73849  22415459.65249
  23406079.367 3     97258.609 3     70332.56646  23406080.65246
  22392678.477 6   -949838.984 6   -701530.30549  22392676.22749
  20649093.219 7   -166039.246 7   -123319.16449  20649092.76249
  23248010.641 5    -98301.297 5    -74101.51049  23248010.05149
  20519493.461 6   -635930.766 6   -484693.98049  20519490.68049
  22953672.023 6   -105379.465 6    -76119.23047  22953669.40647
  22140809.203 6    111580.145 6     81765.43449  22140808.99249
 20  5 16  3 15 22.0000000  0  8G01G04G07G08G09G11G16G27            -0.000068935
  22414394.656 5  -1011607.500 5   -736853.49249  22414396.34049
  23406173.242 3     97749.996 3     70715.44946  23406174.18046
  22391719.758 6   -954879.449 6   -705457.93849  22391716.59449
  20648920.523 7   -166946.355 7   -124026.00049  20648920.61749
  23247904.742 5    -98855.520 5    -74533.37149  23247904.55149
  20518812.039 6   -639512.664 6   -487485.07449  20518809.05149
  22953555.828 6   -105989.133 6    -76594.30147  22953553.14847
  22140911.125 6    112116.340 6     82183.24649  22140910.78149
 20  5 16  3 15 23.0000000  0  8G01G04G07G08G09G11G16G27            -0.000070290
  22413330.805 5  -1017196.348 5   -741208.43849  22413332.27349
  23406266.328 3     98240.965 3     71098.01646  23406267.23046
  22390760.117 6   -959920.113 6   -709385.72749  22390757.93049
  20648747.820 7   -167853.637 7   -124732.97349  20648747.91449
  23247798.656 5    -99409.902 5    -74965.35549  23247799.41449
  20518130.375 6   -643094.473 6   -490276.09449  20518127.51649
  22953440.023 6   -106599.227 6    -77069.70747  22953437.10947
  22141013.523 6    112652.199 6     82600.80149  22141013.10249
 20  5 16  3 15 24.0000000  0  8G01G04G07G08G09G11G16G27            -0.000071644
  22412267.500 5  -1022785.438 5   -745563.57449  22412268.52049
  23406359.633 3     98731.520 3     71480.24246  23406360.69946
  22389800.813 6   -964960.934 6   -713313.64149  22389798.61349
  20648575.438 7   -168761.098 7   -125440.07849  20648575.20349
  23247693.602 5    -99964.438 5    -75397.46149  23247693.81349
  20517448.875 6   -646676.242 6   -493067.08249  20517445.69549
  22953324.164 6   -107209.719 6    -77545.41447  22953321.14147
  22141115.008 6    113187.645 6     83018.03149  22141114.83249
 20  5 16  3 15 25.0000000  0  8G01G04G07G08G09G11G16G27            -0.000073000
  22411203.977 5  -1028374.770 5   -749918.89549  22411205.21149
  23406453.281 3     99221.668 3     71862.18446  23406454.26246
  22388841.969 6   -970001.969 6   -717241.71949  22388839.20349
  20648402.375 7   -169668.727 7   -126147.32849  20648402.49249
  23247588.453 5   -100519.172 5    -75829.72749  23247588.09849
  20516767.266 6   -650257.992 6   -495858.05949  20516764.19949
  22953207.641 6   -107820.609 6    -78021.43447  22953204.25847
  22141216.727 6    113722.691 6     83434.95349  22141216.85949
 20  5 16  3 15 26.0000000  0  8G01G04G07G08G09G11G16G27            -0.000074354
  22410140.336 5  -1033964.523 5   -754274.54749  22410141.71949
  23406546.172 3     99711.156 3     72243.60246  23406547.38346
  22387882.313 6   -975043.359 6   -721170.07449  22387879.83249
  20648229.391 7   -170576.723 7   -126854.85949  20648229.58249
  23247482.344 5   -101074.297 5    -76262.29349  23247482.49649
  20516085.484 7   -653839.859 7   -498649.12949  20516083.00049
  22953091.227 6   -108432.109 6    -78497.92647  22953088.37547
  22141318.852 6    114257.168 6     83851.42649  22141318.39849
 20  5 16  3 15 27.0000000  0  8G01G04G07G08G09G11G16G27            -0.000075712
  22409076.836 6  -1039554.320 6   -758630.23049  22409077.82049
  23406639.297 3    100200.449 3     72624.85946  23406640.40646
  22386923.383 6   -980084.773 6   -725098.45349  22386920.63349
  20648056.586 7   -171484.707 7   -127562.37549  20648057.12949
  23247377.055 5   -101629.340 5    -76694.79349  23247376.97349
  20515404.266 7   -657421.492 7   -501440.00449  20515401.09849
  22952974.813 6   -109043.801 6    -78974.56647  22952971.72347
  22141420.375 6    114791.453 6     84267.74649  22141420.14149
 20  5 16  3 15 28.0000000  0  8G01G04G07G08G09G11G16G27            -0.000077066
  22408013.148 6  -1045144.371 6   -762986.11349  22408014.10949
  23406732.211 3    100689.289 3     73005.77046  23406733.38746
  22385963.727 6   -985126.352 6   -729026.95749  22385960.78149
  20647884.250 7   -172392.844 7   -128270.01649  20647884.11349
  23247271.234 5   -102184.551 5    -77127.42249  23247271.46549
  20514722.938 7   -661003.055 7   -504230.82849  20514719.75049
  22952858.188 6   -109655.902 6    -79451.53147  22952855.20747
  22141521.500 6    115325.336 6     84683.75849  22141521.30549
 20  5 16  3 15 29.0000000  0  8G01G04G07G08G09G11G16G27            -0.000078424
  22406948.664 6  -1050734.754 6   -767342.25449  22406950.33249
  23406825.016 3    101177.590 3     73386.23846  23406826.16046
  22385003.750 6   -990168.234 6   -732955.69549  22385001.84449
  20647711.289 7   -173301.281 7   -128977.89849  20647711.05949
  23247165.633 5   -102740.039 5    -77560.27749  23247165.54349
  20514041.383 7   -664584.660 7   -507021.69149  20514038.17649
  22952741.750 6   -110268.527 6    -79928.89847  22952738.82447
  22141623.203 6    115858.738 6     85099.39849  22141623.19149
 20  5 16  3 15 30.0000000  0  8G01G04G07G08G09G11G16G27            -0.000079779
  22405885.258 6  -1056325.379 6   -771698.57849  22405886.21549
  23406918.055 3    101665.500 3     73766.44146  23406919.23046
  22384044.992 6   -995210.313 6   -736884.58649  22384042.42249
  20647538.563 7   -174209.910 7   -129685.92249  20647538.28549
  23247060.188 5   -103295.703 5    -77993.26649  23247059.28949
  20513359.969 7   -668166.246 7   -509812.53949  20513356.45349
  22952625.375 6   -110881.555 6    -80406.58647  22952621.96147
  22141724.055 6    116391.766 6     85514.75049  22141724.57449
 20  5 16  3 15 31.0000000  0  8G01G04G07G08G09G11G16G27            -0.000081137
  22404821.297 6  -1061916.324 6   -776055.16449  22404822.77349
  23407010.906 3    102152.863 3     74146.20746  23407011.74246
  22383085.203 6  -1000252.664 6   -740813.69149  22383082.73449
  20647365.219 7   -175118.777 7   -130394.12949  20647365.09449
  23246954.219 5   -103851.586 5    -78426.41849  23246953.94949
  20512678.273 7   -671747.855 7   -512603.40249  20512674.89849
  22952508.461 6   -111495.082 6    -80884.65647  22952505.54747
  22141826.227 6    116924.305 6     85929.71149  22141826.18049
 20  5 16  3 15 32.0000000  0  8G01G04G07G08G09G11G16G27            -0.000082493
  22403757.766 6  -1067507.500 6   -780411.92249  22403758.82449
  23407104.023 3    102639.832 3     74525.63746  23407104.72346
  22382125.477 6  -1005295.180 6   -744742.92649  22382123.12949
  20647192.289 7   -176027.824 7   -131102.47349  20647192.59049
  23246848.953 5   -104407.664 5    -78859.73049  23246848.27749
  20511996.492 7   -675329.387 7   -515394.21149  20511992.95349
  22952391.242 6   -112108.977 6    -81363.02347  22952388.59447
  22141927.414 6    117456.461 6     86344.37149  22141927.32449
 20  5 16  3 15 33.0000000  0  8G01G04G07G08G09G11G16G27            -0.000083853
  22402693.539 6  -1073099.113 6   -784769.02049  22402694.70749
  23407196.109 3    103126.199 3     74904.64146  23407197.10546
  22381166.172 6  -1010338.074 6   -748672.45749  22381163.75049
  20647019.445 7   -176937.238 7   -131811.10549  20647019.73849
  23246742.023 5   -104964.051 5    -79293.28549  23246742.14549
  20511314.742 7   -678911.047 7   -518185.11349  20511311.81649
  22952274.594 6   -112723.484 6    -81841.85947  22952271.44547
  22142028.016 6    117988.047 6     86758.59849  22142028.09049
 20  5 16  3 15 34.0000000  0  8G01G04G07G08G09G11G16G27            -0.000085209
  22401629.273 6  -1078690.965 6   -789126.30149  22401630.47349
  23407288.758 3    103612.121 3     75283.26646  23407289.44146
  22380206.414 6  -1015381.184 6   -752602.15249  22380203.80949
  20646846.281 7   -177846.852 7   -132519.89849  20646846.35949
  23246636.250 5   -105520.664 5    -79727.00449  23246636.28949
  20510633.211 7   -682492.684 7   -520975.99649  20510630.34449
  22952157.711 6   -113338.395 6    -82321.01247  22952154.67247
  22142129.844 6    118519.234 6     87172.50449  22142129.52749
 20  5 16  3 15 35.0000000  0  8G01G04G07G08G09G11G16G27            -0.000086569
  22400565.023 6  -1084283.160 6   -793483.85949  22400566.73449
  23407381.164 2    104097.453 2     75661.44946  23407382.06646
  22379246.969 6  -1020424.555 6   -756532.05549  22379244.43849
  20646673.117 7   -178756.742 7   -133228.90249  20646673.27049
  23246530.742 5   -106077.488 5    -80160.89549  23246530.53549
  20509951.789 7   -686074.367 7   -523766.91849  20509948.84049
  22952040.281 6   -113953.809 6    -82800.55547  22952037.06347
  22142230.719 6    119049.934 6     87586.03549  22142230.57449
 20  5 16  3 15 36.0000000  0  8G01G04G07G08G09G11G16G27            -0.000087927
  22399500.367 6  -1089875.586 6   -797841.59449  22399502.19549
  23407473.352 2    104582.445 2     76039.37546  23407474.38746
  22378286.875 6  -1025468.125 6   -760462.10549  22378284.53549
  20646499.875 7   -179666.824 7   -133938.05949  20646500.29749
  23246424.172 5   -106634.508 5    -80594.93449  23246424.44149
  20509270.047 7   -689655.988 7   -526557.79749  20509267.19149
  22951923.234 6   -114569.645 6    -83280.43447  22951920.18447
  22142331.336 6    119580.258 6     87999.27749  22142331.28549
 20  5 16  3 15 37.0000000  0  8G01G04G07G08G09G11G16G27            -0.000089287
  22398436.578 6  -1095468.395 6   -802199.62949  22398437.96949
  23407566.453 3    105066.801 3     76416.78546  23407566.51246
  22377327.039 6  -1030512.031 6   -764392.41849  22377324.50449
  20646326.414 7   -180577.242 7   -134647.47749  20646326.52749
  23246318.391 5   -107191.824 5    -81029.21549  23246318.50049
  20508588.078 6   -693237.715 6   -529348.74649  20508585.33249
  22951806.320 6   -115186.016 6    -83760.72347  22951802.83247
  22142432.344 6    120110.008 6     88412.06349  22142432.01649
 20  5 16  3 15 38.0000000  0  8G01G04G07G08G09G11G16G27            -0.000090645
  22397372.328 6  -1101061.563 6   -806557.93849  22397373.81649
  23407657.570 3    105550.645 3     76793.78946  23407658.60946
  22376367.266 6  -1035556.250 6   -768322.98849  22376364.82449
  20646153.477 7   -181487.926 7   -135357.09849  20646153.26649
  23246212.375 5   -107749.445 5    -81463.72749  23246212.01649
  20507906.844 6   -696819.488 6   -532139.74249  20507904.11349
  22951688.242 6   -115802.914 6    -84241.42647  22951685.50447
  22142533.070 6    120639.281 6     88824.48849  22142532.69549
 20  5 16  3 15 39.0000000  0  8G01G04G07G08G09G11G16G27            -0.000092007
  22396307.344 6  -1106655.094 6   -810916.53149  22396308.88749
  23407750.031 3    106033.891 3     77170.34046  23407750.69546
  22375407.563 6  -1040600.758 6   -772253.77049  22375404.96949
  20645980.070 7   -182398.934 7   -136066.97749  20645980.50049
  23246105.953 5   -108307.328 5    -81898.44549  23246106.32049
  20507224.961 6   -700401.348 6   -534930.80949  20507222.30549
  22951570.594 6   -116420.348 6    -84722.54347  22951568.35547
  22142633.242 6    121168.043 6     89236.50849  22142633.66449
 20  5 16  3 15 40.0000000  0  8G01G04G07G08G09G11G16G27            -0.000093365
  22395243.055 6  -1112248.965 6   -815275.39149  22395244.35249
  23407842.047 3    106516.660 3     77546.52046  23407842.26246
  22374447.414 6  -1045645.566 6   -776184.79349  22374444.84049
  20645806.602 7   -183310.195 7   -136777.05549  20645806.67649
  23245999.789 5   -108865.473 5    -82333.37549  23245999.77749
  20506543.242 6   -703983.230 6   -537721.88749  20506540.52749
  22951454.102 6   -117038.273 6    -85204.03947  22951450.25847
  22142734.063 6    121696.297 6     89648.13749  22142734.16449
 20  5 16  3 15 41.0000000  0  8G01G04G07G08G09G11G16G27            -0.000094727
  22394178.633 6  -1117843.055 6   -819634.42249  22394180.27049
  23407933.289 3    106999.031 3     77922.40246  23407933.81346
  22373487.391 6  -1050690.531 6   -780115.93049  22373484.83649
  20645633.195 7   -184221.625 7   -137487.26249  20645633.39149
  23245893.578 5   -109423.805 5    -82768.43449  23245893.48049
  20505861.734 6   -707565.047 6   -540512.91049  20505859.26649
  22951335.719 6   -117656.602 6    -85685.85947  22951332.92647
  22142834.391 6    122224.219 6     90059.50449  22142834.29749
 20  5 16  3 15 42.0000000  0  8G01G04G07G08G09G11G16G27            -0.000096087
  22393113.625 6  -1123437.426 6   -823993.66449  22393115.70749
  23408024.625 3    107480.898 3     78297.85946  23408026.03146
  22372527.125 6  -1055735.746 6   -784047.26649  22372524.57049
  20645459.063 7   -185133.297 7   -138197.65249  20645459.59049
  23245787.586 5   -109982.313 5    -83203.64549  23245787.19949
  20505180.078 6   -711146.879 6   -543303.94549  20505177.27749
  22951218.391 6   -118275.363 6    -86168.00847  22951215.15247
  22142935.047 6    122751.652 6     90470.49249  22142934.40249
 20  5 16  3 15 43.0000000  0  8G01G04G07G08G09G11G16G27            -0.000097448
  22392049.313 6  -1129032.070 6   -828353.12949  22392051.03149
  23408117.234 3    107962.332 3     78672.99646  23408117.49246
  22371567.336 6  -1060781.172 6   -787978.76649  22371564.43049
  20645286.289 7   -186045.180 7   -138908.21149  20645286.30949
  23245681.164 5   -110541.031 5    -83639.00849  23245681.20349
  20504498.398 6   -714728.672 6   -546094.95749  20504495.84449
  22951100.242 6   -118894.570 6    -86650.50447  22951097.05547
  22143035.313 6    123278.695 6     90881.16849  22143035.30949
 20  5 16  3 15 44.0000000  0  8G01G04G07G08G09G11G16G27            -0.000098810
  22390985.039 6  -1134627.027 6   -832712.83649  22390986.63349
  23408208.336 3    108443.172 3     79047.67246  23408208.98446
  22370607.469 6  -1065826.879 6   -791910.48849  22370604.35549
  20645112.531 7   -186957.336 7   -139618.98049  20645112.74649
  23245574.492 5   -111100.035 5    -84074.60249  23245574.80949
  20503817.047 6   -718310.488 6   -548885.98449  20503813.71949
  22950982.148 6   -119514.281 6    -87133.39847  22950979.62147
  22143135.516 6    123805.273 6     91291.48849  22143135.16049
 20  5 16  3 15 45.0000000  0  8G01G04G07G08G09G11G16G27            -0.000100172
  22389919.969 6  -1140222.281 6   -837072.77349  22389921.21149
  23408300.008 3    108923.586 3     79422.02046  23408300.52746
  22369646.477 6  -1070872.855 6   -795842.42249  22369643.92649
  20644938.586 7   -187869.742 7   -140329.94949  20644939.04749
  23245468.094 5   -111659.223 5    -84510.33249  23245468.77349
  20503135.930 6   -721892.367 6   -551677.05549  20503132.57849
  22950864.063 6   -120134.445 6    -87616.64847  22950861.70347
  22143235.680 6    124331.371 6     91701.43849  22143235.25049
 20  5 16  3 15 46.0000000  0  8G01G04G07G08G09G11G16G27            -0.000101534
  22388855.516 6  -1145817.684 6   -841432.82449  22388856.96949
  23408391.070 3    109403.684 3     79796.11346  23408391.69946
  22368687.148 6  -1075918.859 6   -799774.37149  22368684.17249
  20644765.328 7   -188782.211 7   -141040.95749  20644765.30949
  23245362.234 5   -112218.457 5    -84946.09849  23245362.11749
  20502454.328 6   -725474.012 6   -554467.94549  20502451.08249
  22950745.656 6   -120754.867 6    -88100.09447  22950743.49647
  22143335.875 6    124857.211 6     92111.18049  22143335.56649
 20  5 16  3 15 47.0000000  0  8G01G04G07G08G09G11G16G27            -0.000102898
  22387790.508 6  -1151413.195 6   -845792.96549  22387792.06649
  23408483.242 3    109883.410 3     80169.91446  23408482.98046
  22367726.172 6  -1080964.984 6   -803706.42249  22367723.82849
  20644591.617 7   -189694.789 7   -141752.06649  20644591.80949
  23245255.734 5   -112777.781 5    -85381.93849  23245255.86749
  20501772.828 6   -729055.535 6   -557258.74249  20501769.43449
  22950628.383 6   -121375.652 6    -88583.82047  22950625.37947
  22143435.289 6    125382.734 6     92520.68049  22143435.27749
 20  5 16  3 15 48.0000000  0  8G01G04G07G08G09G11G16G27            -0.000104259
  22386726.031 6  -1157009.043 6   -850153.36349  22386727.34049
  23408574.063 4    110362.691 4     80543.36746  23408574.38746
  22366766.086 6  -1086011.336 6   -807638.64149  22366763.23849
  20644417.648 7   -190607.590 7   -142463.33649  20644417.88749
  23245148.602 5   -113337.316 5    -85817.94149  23245149.25049
  20501091.000 6   -732637.078 6   -560049.55149  20501087.96149
  22950509.320 6   -121996.879 6    -89067.89547  22950507.34447
  22143535.609 6    125907.840 6     92929.84849  22143535.08249
 20  5 16  3 15 49.0000000  0  8G01G04G07G08G09G11G16G27            -0.000105623
  22385661.195 6  -1162605.340 6   -854514.11749  22385662.35249
  23408664.828 4    110841.336 4     80916.35246  23408665.20746
  22365805.734 6  -1091058.113 6   -811571.19549  22365802.92249
  20644244.172 7   -191520.809 7   -143174.93449  20644244.45349
  23245042.156 5   -113897.266 5    -86254.27049  23245042.45749
  20500409.328 6   -736218.805 6   -562840.50449  20500406.54349
  22950391.094 6   -122618.758 6    -89552.46947  22950389.18447
  22143634.984 6    126432.301 6     93338.52049  22143635.22349
 20  5 16  3 15 50.0000000  0  8G01G04G07G08G09G11G16G27            -0.000106985
  22384596.117 6  -1168201.586 6   -858874.83249  22384597.27349
  23408756.055 4    111319.750 4     81289.15646  23408756.64146
  22364845.273 6  -1096104.785 6   -815503.67649  22364842.57449
  20644070.383 7   -192433.934 7   -143886.46149  20644070.43849
  23244935.570 5   -114457.152 5    -86690.54349  23244935.67649
  20499728.063 6   -739800.172 6   -565631.18049  20499725.10949
  22950272.805 6   -123240.766 6    -90037.15647  22950270.49247
  22143735.039 6    126956.652 6     93747.10549  22143734.63749
 20  5 16  3 15 51.0000000  0  8G01G04G07G08G09G11G16G27            -0.000108351
  22383530.828 6  -1173798.316 6   -863235.92249  22383532.48449
  23408847.000 4    111797.570 4     81661.46946  23408847.47346
  22363884.719 6  -1101151.906 6   -819436.50049  22363882.03949
  20643896.352 7   -193347.457 7   -144598.30549  20643896.61749
  23244829.000 5   -115017.336 5    -87127.05149  23244829.53549
  20499046.430 6   -743381.750 6   -568422.02049  20499043.43849
  22950154.680 6   -123863.379 6    -90522.30947  22950151.61747
  22143834.680 6    127480.395 6     94155.21149  22143834.39849
 20  5 16  3 15 52.0000000  0  8G01G04G07G08G09G11G16G27            -0.000109715
  22382465.664 6  -1179395.262 6   -867597.17649  22382467.23849
  23408937.289 4    112274.926 4     82033.42246  23408937.89146
  22362924.578 6  -1106199.199 6   -823369.45349  22362922.09849
  20643722.859 7   -194261.184 7   -145310.30149  20643723.07849
  23244722.000 5   -115577.762 5    -87563.75049  23244722.82449
  20498364.805 6   -746963.277 6   -571212.81349  20498361.83649
  22950035.672 6   -124486.418 6    -91007.79347  22950033.18447
  22143934.195 6    128003.715 6     94562.99649  22143934.33649
 20  5 16  3 15 53.0000000  0  8G01G04G07G08G09G11G16G27            -0.000111080
  22381400.672 6  -1184992.449 6   -871958.61349  22381402.12549
  23409028.555 4    112751.840 4     82405.02746  23409028.62546
  22361963.938 6  -1111246.684 6   -827302.55549  22361961.06649
  20643548.984 7   -195175.102 7   -146022.44949  20643548.91849
  23244616.047 5   -116138.336 5    -88000.55949  23244616.32449
  20497683.367 6   -750544.742 6   -574003.56649  20497679.94549
  22949917.398 6   -125109.871 6    -91493.59847  22949914.41847
  22144034.117 6    128526.684 6     94970.49649  22144033.59049
 20  5 16  3 15 54.0000000  0  8G01G04G07G08G09G11G16G27            -0.000112442
  22380335.469 6  -1190589.914 6   -876320.28149  22380336.73049
  23409119.297 4    113228.293 4     82776.27746  23409119.45346
  22361003.391 6  -1116294.402 6   -831235.83649  22361000.30549
  20643374.852 7   -196089.219 7   -146734.75049  20643375.18449
  23244508.695 5   -116699.102 5    -88437.52049  23244509.30949
  20497002.016 6   -754126.191 6   -576794.30949  20496999.14549
  22949798.039 6   -125733.742 6    -91979.73847  22949795.80547
  22144133.211 6    129049.176 6     95377.63749  22144133.15649
 20  5 16  3 15 55.0000000  0  8G01G04G07G08G09G11G16G27            -0.000113810
  22379270.414 6  -1196187.672 6   -880682.16849  22379271.62549
  23409209.977 4    113704.309 4     83147.19946  23409209.73446
  22360042.867 6  -1121342.305 6   -835169.26649  22360040.17249
  20643200.617 7   -197003.555 7   -147447.21149  20643201.15249
  23244402.156 5   -117260.121 5    -88874.68049  23244402.88749
  20496320.258 6   -757707.637 6   -579585.03549  20496316.94949
  22949679.500 6   -126358.098 6    -92466.25047  22949676.91047
  22144232.695 6    129571.293 6     95784.48449  22144232.42249
 20  5 16  3 15 56.0000000  0  8G01G04G07G08G09G11G16G27            -0.000115173
  22378205.047 6  -1201785.660 6   -885044.23049  22378205.93849
  23409300.391 4    114179.859 4     83517.75046  23409300.27046
  22359082.164 6  -1126390.461 6   -839102.89849  22359079.41049
  20643026.617 7   -197918.102 7   -148159.84849  20643027.07049
  23244295.305 5   -117821.289 5    -89311.95349  23244295.84449
  20495638.672 7   -761289.027 7   -582375.73449  20495635.69549
  22949560.438 6   -126982.863 6    -92953.08247  22949558.10947
  22144332.172 6    130092.984 6     96191.00049  22144332.28949
 20  5 16  3 15 57.0000000  0  8G01G04G07G08G09G11G16G27            -0.000116541
  22377139.977 6  -1207383.934 6   -889406.52049  22377140.86749
  23409390.453 4    114654.938 4     83887.96946  23409390.77746
  22358121.336 6  -1131438.758 6   -843036.64149  22358118.77749
  20642852.914 7   -198832.855 7   -148872.64549  20642852.96549
  23244187.961 5   -118382.680 5    -89749.39849  23244189.46549
  20494957.375 7   -764870.398 7   -585166.41849  20494954.03949
  22949442.086 6   -127608.012 6    -93440.21147  22949438.87147
  22144430.961 6    130614.242 6     96597.17649  22144430.66049
 20  5 16  3 15 58.0000000  0  8G01G04G07G08G09G11G16G27            -0.000117905
  22376074.555 6  -1212982.488 6   -893769.03149  22376075.42249
  23409481.172 4    115129.563 4     84257.80546  23409480.60946
  22357160.773 6  -1136487.355 6   -846970.62549  22357157.93049
  20642678.719 7   -199747.840 7   -149585.62149  20642678.64849
  23244081.484 5   -118944.238 5    -90186.98049  23244082.55149
  20494275.844 6   -768451.781 6   -587957.10249  20494272.58249
  22949322.797 6   -128233.637 6    -93927.71147  22949320.18047
  22144530.742 6    131135.063 6     97003.00449  22144529.73049
 20  5 16  3 15 59.0000000  0  8G01G04G07G08G09G11G16G27            -0.000119274
  22375008.133 6  -1218581.395 6   -898131.81349  22375009.90649
  23409571.117 4    115603.617 4     84627.19946  23409571.06646
  22356200.023 6  -1141536.242 6   -850904.82849  22356196.99649
  20642504.602 7   -200663.102 7   -150298.81649  20642504.84449
  23243974.484 5   -119506.121 5    -90624.80949  23243975.78549
  20493594.227 7   -772033.203 7   -590747.82449  20493591.39149
  22949203.781 6   -128859.820 6    -94415.64847  22949201.07847
  22144629.281 6    131655.379 6     97408.43849  22144628.86749
 20  5 16  3 16  0.0000000  0  8G01G04G07G08G09G11G16G27            -0.000120638
  22373943.633 6  -1224180.664 6   -902494.88349  22373944.64849
  23409661.813 4    116077.125 4     84996.16046  23409660.67246
  22355238.773 6  -1146585.445 6   -854839.27349  22355236.10949
  20642330.500 7   -201578.676 7   -151012.24649  20642330.78949
  23243867.828 4   -120068.273 4    -91062.84849  23243868.97749
  20492912.594 7   -775614.707 7   -593538.60949  20492909.44949
  22949084.344 6   -129486.516 6    -94903.99647  22949081.45747
  22144728.484 6    132175.176 6     97813.47749  22144727.88349
 20  5 16  3 16  1.0000000  0  8G01G04G07G08G09G11G16G27            -0.000122007
  22372877.500 6  -1229780.207 6   -906858.16449  22372878.75049
  23409751.117 4    116550.133 4     85364.73846  23409751.30546
  22354278.336 6  -1151634.906 6   -858773.91049  22354275.13749
  20642156.102 7   -202494.508 7   -151725.88749  20642156.28549
  23243760.383 4   -120630.668 4    -91501.08649  23243761.93849
  20492230.906 7   -779196.203 7   -596329.38349  20492228.07449
  22948965.586 6   -130113.660 6    -95392.67647  22948962.14847
  22144827.492 6    132694.535 6     98218.16849  22144826.65249
 20  5 16  3 16  2.0000000  0  8G01G04G07G08G09G11G16G27            -0.000123373
  22371812.188 6  -1235380.031 6   -911221.66849  22371813.59049
  23409840.984 4    117022.691 4     85732.94146  23409840.77746
  22353317.031 6  -1156684.578 6   -862708.70349  22353314.36749
  20641981.719 7   -203410.543 7   -152439.68449  20641982.07449
  23243653.695 5   -121193.234 5    -91939.45349  23243654.56349
  20491549.414 7   -782777.676 7   -599120.14849  20491546.62149
  22948845.797 6   -130741.246 6    -95881.70347  22948843.10547
  22144926.109 6    133213.453 6     98622.52349  22144925.69149
 20  5 16  3 16  3.0000000  0  8G01G04G07G08G09G11G16G27            -0.000124743
  22370746.422 6  -1240980.160 6   -915585.39849  22370747.71949
  23409930.813 4    117494.758 4     86100.77746  23409930.78146
  22352356.383 6  -1161734.477 6   -866643.66849  22352353.64549
  20641807.281 7   -204326.828 7   -153153.66849  20641807.74649
  23243546.781 5   -121756.039 5    -92378.00449  23243547.43849
  20490867.891 7   -786359.141 7   -601910.89849  20490864.96149
  22948726.484 6   -131369.309 6    -96371.10547  22948723.23847
  22145024.625 6    133731.941 6     99026.53549  22145023.91849
 20  5 16  3 16  4.0000000  0  8G01G04G07G08G09G11G16G27            -0.000126110
  22369680.789 6  -1246580.270 6   -919949.11349  22369682.56349
  23410020.805 4    117966.641 4     86468.48446  23410020.36746
  22351395.430 6  -1166784.293 6   -870578.59049  22351392.81349
  20641632.750 7   -205243.047 7   -153867.60549  20641633.22349
  23243439.445 5   -122318.801 5    -92816.52049  23243440.47349
  20490186.414 6   -789940.340 6   -604701.44149  20490183.73049
  22948606.352 6   -131997.504 6    -96860.60947  22948603.93047
  22145123.156 6    134250.273 6     99430.43849  22145122.82449
 20  5 16  3 16  5.0000000  0  8G01G04G07G08G09G11G16G27            -0.000127480
  22368614.938 6  -1252180.613 6   -924313.01649  22368616.31649
  23410110.266 4    118438.117 4     86835.86946  23410110.66846
  22350434.414 6  -1171834.352 6   -874513.69549  22350431.53549
  20641458.359 7   -206159.457 7   -154581.69549  20641458.94549
  23243332.078 4   -122881.678 4    -93255.13449  23243333.30149
  20489505.195 7   -793521.465 7   -607491.93049  20489502.17249
  22948486.773 5   -132626.133 5    -97350.44947  22948484.50847
  22145221.719 6    134768.223 6     99834.03549  22145221.29749
 20  5 16  3 16  6.0000000  0  8G01G04G07G08G09G11G16G27            -0.000128847
  22367548.820 6  -1257781.227 6   -928677.12549  22367550.79349
  23410199.594 4    118909.063 4     87202.85946  23410199.82846
  22349473.008 6  -1176884.578 6   -878448.94149  22349470.39149
  20641283.734 7   -207076.098 7   -155295.96149  20641284.30949
  23243225.086 5   -123444.797 5    -93693.93049  23243226.06649
  20488823.820 6   -797102.563 6   -610282.39849  20488820.52349
  22948367.508 6   -133255.172 6    -97840.61747  22948364.44147
  22145320.305 6    135285.742 6    100237.29349  22145319.54349
 20  5 16  3 16  7.0000000  0  8G01G04G07G08G09G11G16G27            -0.000130219
  22366483.055 6  -1263382.234 6   -933041.54749  22366484.69949
  23410289.352 4    119379.441 4     87569.37546  23410289.57846
  22348512.156 6  -1181935.168 6   -882384.47349  22348509.50049
  20641109.617 7   -207993.086 7   -156010.49649  20641109.93849
  23243117.531 4   -124008.242 4    -94132.97749  23243119.39849
  20488142.578 6   -800683.793 6   -613072.96149  20488139.24649
  22948247.352 6   -133884.805 6    -98331.23847  22948244.79747
  22145419.094 6    135802.711 6    100640.12549  22145418.08249
 20  5 16  3 16  8.0000000  0  8G01G04G07G08G09G11G16G27            -0.000131586
  22365417.406 6  -1268983.527 6   -937406.19549  22365419.14549
  23410378.141 4    119849.339 4     87935.49646  23410378.63746
  22347551.281 6  -1186986.008 6   -886320.19149  22347548.11349
  20640934.953 7   -208910.285 7   -156725.20349  20640935.58649
  23243010.313 4   -124571.930 4    -94572.21149  23243011.93049
  20487460.883 6   -804265.027 6   -615863.54349  20487457.71949
  22948127.719 6   -134514.879 6    -98822.20347  22948125.19947
  22145517.102 6    136319.195 6    101042.58249  22145516.51649
 20  5 16  3 16  9.0000000  0  8G01G04G07G08G09G11G16G27            -0.000132957
  22364351.445 6  -1274585.219 6   -941771.14849  22364353.54349
  23410468.250 4    120318.688 4     88301.21146  23410468.28146
  22346589.680 6  -1192037.215 6   -890256.19149  22346587.14549
  20640760.297 7   -209827.855 7   -157440.19149  20640760.97749
  23242903.531 5   -125135.930 5    -95011.69949  23242904.39849
  20486779.328 6   -807846.352 6   -618654.18049  20486775.89849
  22948007.516 6   -135145.539 6    -99313.62547  22948005.00047
  22145615.430 6    136835.145 6    101444.62149  22145614.69149
 20  5 16  3 16 10.0000000  0  8G01G04G07G08G09G11G16G27            -0.000134327
  22363285.234 6  -1280187.129 6   -946136.27349  22363287.21549
  23410557.102 4    120787.566 4     88666.57446  23410557.39846
  22345628.844 6  -1197088.527 6   -894192.28149  22345625.91849
  20640585.680 7   -210745.551 7   -158155.27749  20640586.58649
  23242796.109 5   -125700.043 5    -95451.27049  23242796.88349
  20486097.430 6   -811427.594 6   -621444.75849  20486094.43849
  22947887.359 6   -135776.590 6    -99805.35547  22947885.00847
  22145713.094 6    137350.762 6    101846.39849  22145712.71549
 20  5 16  3 16 11.0000000  0  8G01G04G07G08G09G11G16G27            -0.000135698
  22362219.258 6  -1285789.242 6   -950501.55149  22362221.13349
  23410646.313 3    121256.133 3     89031.70346  23410646.74646
  22344667.313 6  -1202140.004 6   -898128.49649  22344664.60249
  20640411.258 7   -211663.414 7   -158870.49649  20640411.67249
  23242689.266 5   -126264.313 5    -95890.95749  23242689.64849
  20485416.219 6   -815008.754 6   -624235.27749  20485413.04749
  22947767.766 6   -136407.980 6   -100297.34847  22947764.57847
  22145811.828 6    137865.988 6    102247.87549  22145810.92649
 20  5 16  3 16 12.0000000  0  8G01G04G07G08G09G11G16G27            -0.000137068
  22361152.969 6  -1291391.699 6   -954867.10249  22361155.08649
  23410734.680 4    121724.070 4     89396.35546  23410735.57846
  22343706.156 6  -1207191.785 6   -902064.94549  22343703.27349
  20640236.188 7   -212581.570 7   -159585.94549  20640237.08649
  23242580.781 5   -126828.871 5    -96330.87149  23242582.42649
  20484734.711 6   -818589.961 6   -627025.82049  20484731.55949
  22947647.023 6   -137039.902 6   -100789.75847  22947644.65247
  22145909.078 6    138380.727 6    102648.96549  22145908.68449
 20  5 16  3 16 13.0000000  0  8G01G04G07G08G09G11G16G27            -0.000138441
  22360087.320 5  -1296994.570 5   -959232.97749  22360089.25849
  23410824.422 3    122191.371 3     89760.49246  23410824.42246
  22342744.477 6  -1212243.926 6   -906001.68449  22342741.69149
  20640061.398 7   -213500.074 7   -160301.66049  20640062.42649
  23242473.594 5   -127393.777 5    -96771.05949  23242474.74249
  20484053.305 6   -822171.316 6   -629816.48849  20484050.03949
  22947526.359 6   -137672.402 6   -101282.60947  22947524.22347
  22146007.242 6    138894.891 6    103049.61349  22146006.79749
 20  5 16  3 16 14.0000000  0  8G01G04G07G08G09G11G16G27            -0.000139811
  22359020.656 5  -1302597.727 5   -963599.06649  22359022.93849
  23410913.242 4    122658.250 4     90124.28546  23410913.33646
  22341782.805 6  -1217296.344 6   -909938.63349  22341780.26649
  20639886.641 7   -214418.867 7   -161017.60249  20639887.09449
  23242366.484 5   -127958.941 5    -97211.44549  23242367.10249
  20483371.750 6   -825752.699 6   -632607.17249  20483368.27049
  22947406.219 6   -138305.430 6   -101775.87547  22947403.55947
  22146105.023 6    139408.570 6    103449.88749  22146104.63349
 20  5 16  3 16 15.0000000  0  8G01G04G07G08G09G11G16G27            -0.000141184
  22357954.781 6  -1308201.090 6   -967965.32849  22357956.30949
  23411002.680 4    123124.711 4     90487.73046  23411002.32046
  22340821.703 6  -1222348.891 6   -913875.68449  22340818.69549
  20639711.859 7   -215337.777 7   -161733.64149  20639712.53549
  23242259.039 5   -128524.219 5    -97651.92649  23242260.00849
  20482689.953 6   -829333.949 6   -635397.76249  20482687.21949
  22947285.781 6   -138938.746 6   -102269.37547  22947283.40247
  22146202.305 6    139921.930 6    103849.89849  22146202.01249
 20  5 16  3 16 16.0000000  0  8G01G04G07G08G09G11G16G27            -0.000142555
  22356888.102 5  -1313804.750 5   -972331.81349  22356890.16049
  23411090.523 4    123590.707 4     90850.84846  23411090.76246
  22339860.055 6  -1227401.648 6   -917812.89549  22339857.20749
  20639536.914 7   -216256.930 7   -162449.85949  20639537.49249
  23242150.484 4   -129089.695 4    -98092.56349  23242152.03949
  20482008.820 6   -832915.234 6   -638188.37549  20482005.45749
  22947164.984 6   -139572.539 6   -102763.24247  22947162.79747
  22146300.008 6    140434.820 6    104249.55949  22146299.55149
 20  5 16  3 16 17.0000000  0  8G01G04G07G08G09G11G16G27            -0.000143929
  22355821.867 5  -1319408.480 5   -976698.35949  22355823.33649
  23411178.703 4    124056.336 4     91213.68446  23411179.51646
  22338898.859 6  -1232454.492 6   -921750.18049  22338895.80149
  20639362.234 7   -217176.137 7   -163166.12949  20639362.42649
  23242043.195 4   -129655.246 4    -98533.26649  23242044.24649
  20481327.000 6   -836496.328 6   -640978.83649  20481324.21549
  22947043.813 6   -140206.613 6   -103257.33647  22947041.51247
  22146397.563 6    140947.449 6    104649.00449  22146397.01249
 20  5 16  3 16 18.0000000  0  8G01G04G07G08G09G11G16G27            -0.000145300
  22354755.227 5  -1325012.559 5   -981065.17649  22354757.41849
  23411267.492 4    124521.531 4     91576.18046  23411267.83646
  22337936.922 6  -1237507.578 6   -925687.64549  22337934.09049
  20639186.945 7   -218095.602 7   -163882.60249  20639187.31349
  23241935.617 4   -130221.016 4    -98974.12949  23241936.69549
  20480645.609 6   -840077.445 6   -643769.31349  20480642.73049
  22946923.727 6   -140841.180 6   -103751.80147  22946921.53947
  22146495.016 6    141459.621 6    105048.09849  22146494.66849
 20  5 16  3 16 19.0000000  0  8G01G04G07G08G09G11G16G27            -0.000146675
  22353688.930 5  -1330616.867 5   -985432.16449  22353691.00449
  23411356.359 3    124986.277 3     91938.29346  23411356.03546
  22336975.766 6  -1242560.879 6   -929625.28149  22336972.57849
  20639012.109 7   -219015.250 7   -164599.20749  20639012.35549
  23241828.266 5   -130786.996 5    -99415.16449  23241829.00049
  20479964.352 6   -843658.516 6   -646559.75849  20479961.33649
  22946802.656 6   -141476.141 6   -104246.57447  22946800.48847
  22146592.602 6    141971.379 6    105446.86749  22146592.18049
 20  5 16  3 16 20.0000000  0  8G01G04G07G08G09G11G16G27            -0.000148046
  22352622.680 5  -1336221.469 5   -989799.38749  22352624.75049
  23411444.766 4    125450.445 4     92299.98446  23411444.48046
  22336013.859 6  -1247614.422 6   -933563.10549  22336010.59849
  20638837.125 7   -219935.137 7   -165316.00849  20638837.37149
  23241719.891 5   -131353.184 5    -99856.34049  23241720.94549
  20479282.625 6   -847239.586 6   -649350.20349  20479280.03949
  22946681.641 6   -142111.582 6   -104741.72747  22946679.87147
  22146689.898 6    142482.688 6    105845.28549  22146689.22349
 20  5 16  3 16 21.0000000  0  8G01G04G07G08G09G11G16G27            -0.000149424
  22351555.813 5  -1341826.527 5   -994166.95749  22351558.00049
  23411532.883 4    125914.082 4     92661.27046  23411532.88746
  22335052.367 6  -1252668.316 6   -937501.20749  22335049.15649
  20638662.023 7   -220855.422 7   -166033.11349  20638662.30549
  23241612.109 5   -131919.711 5   -100297.78549  23241613.41449
  20478601.000 6   -850820.809 6   -652140.76649  20478598.30949
  22946561.227 6   -142747.617 6   -105237.34047  22946558.74647
  22146786.664 6    142993.422 6    106243.26249  22146786.07449
 20  5 16  3 16 22.0000000  0  8G01G04G07G08G09G11G16G27            -0.000150795
  22350489.727 6  -1347431.605 6   -998534.55149  22350491.35549
  23411621.211 4    126377.340 4     93022.25046  23411621.21946
  22334090.609 6  -1257722.262 6   -941439.34849  22334087.09449
  20638487.016 7   -221775.762 7   -166750.26249  20638487.09049
  23241504.266 5   -132486.285 5   -100739.27249  23241505.57449
  20477919.906 6   -854401.805 6   -654931.15249  20477917.16849
  22946440.000 6   -143383.902 6   -105733.15247  22946437.16447
  22146884.016 6    143503.895 6    106641.03149  22146883.45349
 20  5 16  3 16 23.0000000  0  8G01G04G07G08G09G11G16G27            -0.000152170
  22349422.563 6  -1353036.879 6  -1002902.29349  22349424.65249
  23411709.359 3    126840.332 3     93382.99646  23411709.33246
  22333128.969 6  -1262776.301 6   -945377.56349  22333125.75049
  20638311.750 7   -222696.180 7   -167467.46549  20638312.06349
  23241396.625 5   -133052.996 5   -101180.85949  23241397.36349
  20477238.508 6   -857982.688 6   -657721.45349  20477235.59049
  22946318.891 5   -144020.520 5   -106229.22747  22946316.16847
  22146981.563 6    144014.066 6    107038.57049  22146980.90249
 20  5 16  3 16 24.0000000  0  8G01G04G07G08G09G11G16G27            -0.000153545
  22348356.234 6  -1358642.410 6  -1007270.23449  22348358.03549
  23411797.234 4    127302.887 4     93743.42246  23411796.99646
  22332166.711 6  -1267830.563 6   -949315.94949  22332164.01649
  20638136.336 7   -223616.813 7   -168184.84449  20638136.54749
  23241288.695 5   -133619.875 5   -101622.58249  23241289.78149
  20476557.164 6   -861563.531 6   -660511.71549  20476554.23849
  22946196.969 6   -144657.547 6   -106725.61347  22946194.93847
  22147077.891 6    144523.801 6    107435.77049  22147077.07849
 20  5 16  3 16 25.0000000  0  8G01G04G07G08G09G11G16G27            -0.000154921
  22347289.484 6  -1364248.230 6  -1011638.41049  22347291.74249
  23411884.711 3    127764.852 3     94103.39846  23411884.80546
  22331205.320 6  -1272885.082 6   -953254.53149  22331202.04749
  20637961.500 7   -224537.684 7   -168902.40249  20637961.37149
  23241181.016 5   -134186.961 5   -102064.47749  23241181.75849
  20475875.938 6   -865144.414 6   -663302.01649  20475872.97749
  22946075.938 6   -145295.078 6   -107222.38747  22946073.63747
  22147174.906 6    145033.090 6    107832.62549  22147174.15649
 20  5 16  3 16 26.0000000  0  8G01G04G07G08G09G11G16G27            -0.000156296
  22346222.781 6  -1369854.082 6  -1016006.60249  22346224.53549
  23411972.563 3    128226.605 3     94463.20346  23411972.60946
  22330243.484 6  -1277939.551 6   -957193.08649  22330240.00449
  20637786.281 7   -225458.531 7   -169619.94949  20637786.33649
  23241073.492 5   -134754.031 5   -102506.34849  23241073.75849
  20475194.352 6   -868725.008 6   -666092.09049  20475191.53949
  22945954.930 6   -145932.785 6   -107719.30147  22945952.09847
  22147271.672 6    145542.191 6    108229.32449  22147270.89549
 20  5 16  3 16 27.0000000  0  8G01G04G07G08G09G11G16G27            -0.000157673
  22345156.148 6  -1375460.207 6  -1020375.00849  22345157.82849
  23412060.742 3    128687.961 3     94822.70345  23412060.62945
  22329281.531 6  -1282994.262 6   -961131.82449  22329278.50849
  20637610.797 7   -226379.613 7   -170337.67249  20637611.49249
  23240965.594 5   -135321.320 5   -102948.39149  23240965.55149
  20474512.953 6   -872305.594 6   -668882.16049  20474509.83249
  22945833.273 6   -146570.945 6   -108216.57047  22945830.79347
  22147368.570 6    146050.848 6    108625.67249  22147368.09049
 20  5 16  3 16 28.0000000  0  8G01G04G07G08G09G11G16G27            -0.000159046
  22344089.227 6  -1381066.672 6  -1024743.68449  22344091.02749
  23412147.773 3    129148.703 3     95181.69945  23412148.24245
  22328320.047 6  -1288049.258 6   -965070.77749  22328316.68049
  20637435.273 7   -227301.004 7   -171055.64149  20637435.80549
  23240857.688 5   -135888.902 5   -103390.66049  23240857.39849
  20473831.977 6   -875886.242 6   -671672.27349  20473828.68449
  22945712.039 6   -147209.625 6   -108714.24247  22945709.28547
  22147465.320 6    146559.020 6    109021.65249  22147464.66049
 20  5 16  3 16 29.0000000  0  8G01G04G07G08G09G11G16G27            -0.000160425
  22343022.438 6  -1386673.434 6  -1029112.58249  22343024.17249
  23412235.203 3    129608.906 3     95540.26246  23412235.62546
  22327357.516 6  -1293104.520 6   -969009.93849  22327354.38349
  20637260.047 7   -228222.652 7   -171773.80549  20637260.18449
  23240749.008 5   -136456.688 5   -103833.09049  23240749.69949
  20473150.313 6   -879466.887 6   -674462.39149  20473147.10549
  22945590.086 6   -147848.797 6   -109212.30147  22945587.95747
  22147562.586 6    147066.727 6    109417.26649  22147561.14849
 20  5 16  3 16 30.0000000  0  8G01G04G07G08G09G11G16G27            -0.000161800
  22341955.375 6  -1392280.492 6  -1033481.71949  22341957.06349
  23412322.945 2    130068.746 2     95898.57846  23412323.04746
  22326395.430 6  -1298160.004 6   -972949.28149  22326392.42249
  20637084.758 7   -229144.527 7   -172492.15249  20637084.95749
  23240640.875 5   -137024.715 5   -104275.71149  23240641.43849
  20472469.180 6   -883047.551 6   -677252.51249  20472465.91049
  22945468.391 6   -148488.395 6   -109710.70347  22945466.00847
  22147658.289 6    147573.969 6    109812.52049  22147657.77349
 20  5 16  3 16 31.0000000  0  8G01G04G07G08G09G11G16G27            -0.000163179
  22340888.617 6  -1397887.676 6  -1037850.95349  22340889.93849
  23412409.609 2    130528.180 2     96256.57045  23412409.85545
  22325433.852 6  -1303215.566 6   -976888.68049  22325430.47749
  20636908.883 7   -230066.488 7   -173210.56349  20636909.45349
  23240533.773 5   -137592.855 5   -104718.42249  23240533.48449
  20471787.531 7   -886628.070 7   -680042.52749  20471784.69149
  22945346.445 6   -149128.305 6   -110209.33247  22945344.20747
  22147755.445 6    148080.938 6    110207.55549  22147754.21949
 20  5 16  3 16 32.0000000  0  8G01G04G07G08G09G11G16G27            -0.000164555
  22339821.578 6  -1403494.859 6  -1042220.18449  22339823.26249
  23412496.672 2    130987.434 2     96614.46945  23412497.99245
  22324471.547 6  -1308271.047 6   -980828.02049  22324468.49649
  20636733.883 7   -230988.355 7   -173928.90249  20636734.09449
  23240425.047 5   -138160.836 5   -105161.00449  23240425.45349
  20471106.445 6   -890208.223 6   -682832.25849  20471103.37949
  22945224.422 6   -149768.367 6   -110708.08247  22945222.46547
  22147851.273 6    148587.738 6    110602.46549  22147850.27749
 20  5 16  3 16 33.0000000  0  8G01G04G07G08G09G11G16G27            -0.000165934
  22338753.992 6  -1409102.184 6  -1046589.53149  22338755.94949
  23412584.633 2    131446.289 2     96972.02345  23412585.07045
  22323509.688 6  -1313326.684 6   -984767.47749  22323506.42249
  20636558.477 7   -231910.359 7   -174647.34449  20636558.32849
  23240316.664 5   -138728.969 5   -105603.71149  23240317.20749
  20470425.219 6   -893788.313 6   -685621.93449  20470421.81649
  22945102.992 6   -150408.773 6   -111207.08647  22945100.77047
  22147947.805 6    149094.246 6    110997.14849  22147946.94549
 20  5 16  3 16 34.0000000  0  8G01G04G07G08G09G11G16G27            -0.000167309
  22337687.102 6  -1414709.703 6  -1050959.02349  22337688.85549
  23412671.227 2    131904.785 2     97329.28945  23412672.30945
  22322547.094 6  -1318382.441 6   -988707.02749  22322544.14149
  20636382.781 7   -232832.492 7   -175365.88749  20636383.26249
  23240208.258 5   -139297.215 5   -106046.50449  23240208.93049
  20469743.570 6   -897368.289 6   -688411.52749  20469740.76649
  22944981.164 6   -151049.480 6   -111706.34047  22944978.68047
  22148044.836 6    149600.391 6    111391.55149  22148043.69549
 20  5 16  3 16 35.0000000  0  8G01G04G07G08G09G11G16G27            -0.000168690
  22336620.016 6  -1420317.496 6  -1055328.72349  22336621.70749
  23412758.945 2    132362.816 2     97686.18845  23412759.86345
  22321585.117 6  -1323438.461 6   -992646.78949  22321581.98849
  20636207.320 7   -233754.898 7   -176084.64549  20636207.47749
  23240100.695 5   -139865.676 5   -106489.46149  23240101.03549
  20469062.711 6   -900948.270 6   -691201.12549  20469059.73449
  22944859.266 6   -151690.746 6   -112206.02047  22944856.89847
  22148140.414 6    150106.094 6    111785.60549  22148139.51249
 20  5 16  3 16 36.0000000  0  8G01G04G07G08G09G11G16G27            -0.000170067
  22335553.023 6  -1425925.523 6  -1059698.61349  22335554.39549
  23412846.109 2    132820.395 2     98042.72345  23412846.85945
  22320622.883 6  -1328494.633 6   -996586.65649  22320619.84849
  20636031.680 7   -234677.469 7   -176803.53149  20636032.02749
  23239992.016 5   -140434.289 5   -106932.53949  23239992.81349
  20468381.242 6   -904528.172 6   -693990.66049  20468378.50049
  22944736.961 6   -152332.340 6   -112705.96947  22944734.55947
  22148236.867 6    150611.406 6    112179.35249  22148235.80949
 20  5 16  3 16 37.0000000  0  8G01G04G07G08G09G11G16G27            -0.000171446
  22334485.594 6  -1431533.609 6  -1064068.54749  22334487.29749
  23412933.992 2    133277.738 2     98399.04745  23412934.18845
  22319660.992 6  -1333550.797 6  -1000526.52749  22319657.68849
  20635856.391 7   -235600.031 7   -177522.41049  20635856.29749
  23239884.109 5   -141002.926 5   -107375.63349  23239884.17649
  20467699.734 6   -908107.859 6   -696780.02749  20467696.94149
  22944615.023 6   -152974.133 6   -113206.07447  22944612.81647
  22148332.766 6    151116.500 6    112572.93449  22148332.09449
 20  5 16  3 16 38.0000000  0  8G01G04G07G08G09G11G16G27            -0.000172823
  22333418.125 6  -1437141.922 6  -1068438.66049  22333420.08249
  23413020.156 2    133734.637 2     98755.06645  23413021.09045
  22318698.672 6  -1338607.172 6  -1004466.55949  22318695.38349
  20635680.570 7   -236522.816 7   -178241.46549  20635680.45349
  23239775.969 5   -141571.723 5   -107818.85949  23239776.01249
  20467019.039 6   -911687.484 6   -699569.34849  20467015.80949
  22944492.234 6   -153616.406 6   -113706.55147  22944490.44147
  22148428.711 6    151621.199 6    112966.20349  22148427.73449
 20  5 16  3 16 39.0000000  0  8G01G04G07G08G09G11G16G27            -0.000174204
  22332350.914 6  -1442750.496 6  -1072808.97349  22332352.89849
  23413107.398 2    134191.055 2     99110.71945  23413108.02745
  22317736.227 6  -1343663.762 6  -1008406.75849  22317733.25849
  20635504.898 7   -237445.809 7   -178960.68049  20635504.89549
  23239667.813 5   -142140.750 5   -108262.25849  23239667.70349
  20466337.711 6   -915267.094 6   -702358.65249  20466334.64849
  22944370.797 6   -154259.090 6   -114207.34847  22944368.49247
  22148525.344 6    152125.449 6    113359.12149  22148523.97349
 20  5 16  3 16 40.0000000  0  8G01G04G07G08G09G11G16G27            -0.000175583
  22331283.625 6  -1448359.230 6  -1077179.41849  22331285.64549
  23413194.523 2    134647.102 2     99466.09045  23413194.72345
  22316774.383 6  -1348720.422 6  -1012347.01649  22316771.44549
  20635329.594 7   -238368.910 7   -179679.98049  20635329.52749
  23239559.680 5   -142709.813 5   -108705.68449  23239559.37149
  20465656.859 6   -918846.578 6   -705147.85949  20465653.59049
  22944248.047 5   -154902.105 5   -114708.39147  22944245.86747
  22148620.766 6    152629.410 6    113751.81649  22148619.90249
 20  5 16  3 16 41.0000000  0  8G01G04G07G08G09G11G16G27            -0.000176964
  22330216.219 6  -1453968.129 6  -1081549.98449  22330218.25049
  23413280.633 2    135102.809 2     99821.19545  23413281.46945
  22315811.555 6  -1353777.227 6  -1016287.38349  22315809.00449
  20635153.539 7   -239292.141 7   -180399.38349  20635153.65249
  23239451.242 5   -143279.059 5   -109149.25848  23239451.21148
  20464975.398 6   -922425.922 6   -707936.96549  20464972.47349
  22944125.656 5   -155545.453 5   -115209.69947  22944123.46147
  22148717.000 6    153133.039 6    114144.25449  22148716.12949
 20  5 16  3 16 42.0000000  0  8G01G04G07G08G09G11G16G27            -0.000178341
  22329149.102 6  -1459577.355 6  -1085920.80949  22329150.95749
  23413367.695 2    135557.953 2    100175.83645  23413367.77345
  22314849.656 6  -1358834.324 6  -1020227.98049  22314846.53149
  20634977.836 7   -240215.652 7   -181119.00449  20634977.48049
  23239342.813 5   -143848.578 5   -109593.04748  23239342.47748
  20464294.313 6   -926005.332 6   -710726.11349  20464291.25849
  22944002.805 5   -156189.336 5   -115711.43047  22944000.65247
  22148812.523 6    153636.141 6    114536.28149  22148811.63349
 20  5 16  3 16 43.0000000  0  8G01G04G07G08G09G11G16G27            -0.000179724
  22328082.055 6  -1465186.887 6  -1090291.87149  22328083.12949
  23413453.758 2    136012.637 2    100530.16445  23413454.25445
  22313886.797 6  -1363891.637 6  -1024168.74249  22313884.02049
  20634802.063 7   -241139.398 7   -181838.80949  20634801.92649
  23239234.227 5   -144418.258 5   -110036.95349  23239234.40249
  20463613.141 6   -929584.742 6   -713515.27049  20463610.25449
  22943880.688 6   -156833.648 6   -116213.50047  22943878.44147
  22148908.172 6    154138.828 6    114927.98449  22148907.27349
 20  5 16  3 16 44.0000000  0  8G01G04G07G08G09G11G16G27            -0.000181103
  22327014.219 6  -1470796.809 6  -1094663.24249  22327015.60549
  23413541.148 2    136466.691 2    100883.96545  23413540.77045
  22312924.508 6  -1368949.309 6  -1028109.78949  22312921.54749
  20634626.258 7   -242063.531 7   -182558.91449  20634625.95749
  23239126.156 5   -144988.363 5   -110481.19549  23239126.17649
  20462932.297 6   -933164.262 6   -716304.50849  20462929.05149
  22943757.406 6   -157478.551 6   -116716.02747  22943755.41047
  22149003.484 6    154640.922 6    115319.23049  22149002.85249
 20  5 16  3 16 45.0000000  0  8G01G04G07G08G09G11G16G27            -0.000182486
  22325946.102 6  -1476406.957 6  -1099034.78149  22325947.85949
  23413626.070 2    136920.270 2    101237.40245  23413626.82845
  22311962.148 6  -1374007.188 6  -1032050.98849  22311958.95349
  20634450.430 7   -242987.840 7   -183279.14849  20634450.01649
  23239016.164 5   -145558.605 5   -110925.53949  23239017.57849
  20462250.961 6   -936743.754 6   -719093.71549  20462248.07849
  22943634.820 6   -158123.883 6   -117218.87947  22943632.73847
  22149098.961 6    155142.613 6    115710.15249  22149098.38749
 20  5 16  3 16 46.0000000  0  8G01G04G07G08G09G11G16G27            -0.000183867
  22324878.531 6  -1482017.270 6  -1103406.45749  22324880.62549
  23413713.023 2    137373.496 2    101590.56645  23413713.12945
  22310999.641 6  -1379065.145 6  -1035992.25049  22310996.37949
  20634274.438 7   -243912.242 7   -183999.46549  20634274.52349
  23238908.180 5   -146128.945 5   -111369.96549  23238908.92649
  20461569.992 6   -940323.113 6   -721882.82849  20461566.99249
  22943512.227 5   -158769.516 5   -117721.96547  22943509.48847
  22149194.406 6    155644.008 6    116100.84849  22149193.72349
 20  5 16  3 16 47.0000000  0  8G01G04G07G08G09G11G16G27            -0.000185249
  22323810.898 6  -1487627.770 6  -1107778.27749  22323812.64149
  23413799.852 2    137826.395 2    101943.44545  23413799.38345
  22310037.328 6  -1384123.242 6  -1039933.62549  22310034.43449
  20634098.547 7   -244836.785 7   -184719.89549  20634098.25049
  23238799.844 5   -146699.410 5   -111814.48849  23238800.22749
  20460888.648 6   -943902.363 6   -724671.85549  20460885.84849
  22943389.109 5   -159415.523 5   -118225.35247  22943386.74247
  22149289.906 6    156145.031 6    116491.26249  22149288.98049
 20  5 16  3 16 48.0000000  0  8G01G04G07G08G09G11G16G27            -0.000186630
  22322743.125 6  -1493238.473 6  -1112150.24649  22322744.94149
  23413886.430 2    138278.883 2    102296.02745  23413885.25445
  22309074.406 6  -1389181.469 6  -1043875.09849  22309071.57849
  20633922.531 7   -245761.492 7   -185440.44149  20633922.30949
  23238691.328 5   -147269.988 5   -112259.10248  23238692.01648
  20460207.602 7   -947481.520 7   -727460.80949  20460204.91049
  22943266.109 5   -160061.875 5   -118729.00047  22943263.96947
  22149384.711 6    156645.723 6    116881.40649  22149384.06349
 20  5 16  3 16 49.0000000  0  8G01G04G07G08G09G11G16G27            -0.000188013
  22321675.844 6  -1498849.258 6  -1116522.28149  22321677.44149
  23413971.586 2    138731.066 2    102648.40646  23413971.47746
  22308112.094 6  -1394239.750 6  -1047816.61349  22308109.18849
  20633747.125 7   -246686.254 7   -186161.03949  20633746.65649
  23238582.648 5   -147840.660 5   -112703.78148  23238583.23048
  20459526.289 7   -951060.496 7   -730249.62549  20459523.54749
  22943142.688 5   -160708.500 5   -119232.85947  22943140.97347
  22149480.234 6    157146.117 6    117271.32049  22149479.05149
 20  5 16  3 16 50.0000000  0  8G01G04G07G08G09G11G16G27            -0.000189394
  22320608.219 6  -1504460.148 6  -1120894.40249  22320609.91049
  23414058.172 3    139182.828 3    103000.40646  23414058.29746
  22307149.516 6  -1399298.078 6  -1051758.16849  22307146.12949
  20633570.344 7   -247611.066 7   -186881.66849  20633570.43449
  23238473.945 5   -148411.332 5   -113148.46549  23238474.84849
  20458845.633 7   -954639.289 7   -733038.28949  20458842.57049
  22943020.203 5   -161355.402 5   -119736.94147  22943017.87147
  22149575.531 6    157646.293 6    117661.06349  22149574.78149
 20  5 16  3 16 51.0000000  0  8G01G04G07G08G09G11G16G27            -0.000190779
  22319540.141 6  -1510071.449 6  -1125266.84449  22319541.75449
  23414143.688 3    139634.094 3    103352.05945  23414143.52045
  22306186.977 6  -1404356.797 6  -1055700.02749  22306183.67249
  20633394.383 7   -248536.254 7   -187602.59449  20633394.31649
  23238365.367 5   -148982.402 5   -113593.45748  23238366.10548
  20458164.461 7   -958218.191 7   -735827.04349  20458161.27049
  22942896.273 5   -162002.914 5   -120241.49247  22942894.47347
  22149670.203 6    158145.859 6    118050.34049  22149669.90249
 20  5 16  3 16 52.0000000  0  8G01G04G07G08G09G11G16G27            -0.000192162
  22318472.578 6  -1515682.945 6  -1129639.43849  22318473.78549
  23414230.367 2    140084.914 2    103703.34445  23414229.60245
  22305224.172 6  -1409415.625 6  -1059641.97349  22305221.18049
  20633218.469 7   -249461.594 7   -188323.64149  20633218.13749
  23238256.414 4   -149553.570 4   -114038.52348  23238257.29348
  20457483.188 7   -961797.027 7   -738615.74249  20457480.48449
  22942773.648 5   -162650.781 5   -120746.32047  22942771.18447
  22149765.250 6    158645.047 6    118439.32049  22149765.08649
 20  5 16  3 16 53.0000000  0  8G01G04G07G08G09G11G16G27            -0.000193544
  22317404.727 6  -1521294.566 6  -1134012.12949  22317406.03149
  23414315.805 3    140535.406 3    104054.35945  23414314.75845
  22304261.477 6  -1414474.547 6  -1063583.99249  22304258.66849
  20633042.406 7   -250387.012 7   -189044.74249  20633042.13749
  23238147.414 4   -150124.805 4   -114483.64148  23238148.54348
  20456802.523 7   -965375.684 7   -741404.30549  20456799.29349
  22942649.859 5   -163298.930 5   -121251.37147  22942647.30547
  22149860.656 6    159144.000 6    118828.10549  22149859.88349
 20  5 16  3 16 54.0000000  0  8G01G04G07G08G09G11G16G27            -0.000194927
  22316336.805 6  -1526906.320 6  -1138384.92249  22316338.24249
  23414401.445 3    140985.531 3    104405.12145  23414400.46545
  22303298.641 6  -1419533.574 6  -1067526.09449  22303295.95749
  20632866.227 7   -251312.531 7   -189765.93049  20632865.89849
  23238038.672 4   -150696.141 4   -114928.84048  23238040.21148
  20456121.805 6   -968954.188 6   -744192.74649  20456118.66849
  22942527.188 6   -163947.398 6   -121756.67247  22942524.57047
  22149955.492 6    159642.598 6    119216.63349  22149954.94549
 20  5 16  3 16 55.0000000  0  8G01G04G07G08G09G11G16G27            -0.000196314
  22315268.609 6  -1532518.352 6  -1142757.93449  22315270.19149
  23414485.898 3    141435.273 3    104755.55945  23414486.35945
  22302335.734 6  -1424592.809 6  -1071468.35249  22302332.97749
  20632689.969 7   -252238.266 7   -190487.28149  20632690.00849
  23237930.172 4   -151267.703 4   -115374.22348  23237931.63748
  20455440.461 6   -972532.703 6   -746981.19949  20455437.69149
  22942403.141 5   -164596.309 5   -122262.32047  22942400.79747
  22150049.742 6    160140.773 6    119604.81349  22150049.44949
 20  5 16  3 16 56.0000000  0  8G01G04G07G08G09G11G16G27            -0.000197697
  22314200.930 6  -1538130.578 6  -1147131.09849  22314202.37949
  23414572.016 3    141884.512 3    105105.61345  23414571.52745
  22301372.977 6  -1429652.176 6  -1075410.71149  22301370.46549
  20632514.094 7   -253164.184 7   -191208.77349  20632513.54749
  23237821.438 4   -151839.402 4   -115819.71148  23237822.71548
  20454759.313 6   -976111.121 6   -749769.58249  20454756.99249
  22942280.250 6   -165245.602 6   -122768.26647  22942277.06347
  22150144.836 6    160638.605 6    119992.73849  22150144.35249
 20  5 16  3 16 57.0000000  0  8G01G04G07G08G09G11G16G27            -0.000199081
  22313132.852 6  -1543742.980 6  -1151504.39549  22313134.23049
  23414657.516 3    142333.418 3    105455.43446  23414657.24246
  22300410.430 6  -1434711.656 6  -1079353.16449  22300407.44949
  20632337.836 7   -254090.230 7   -191930.37149  20632337.78549
  23237712.438 4   -152411.219 4   -116265.28948  23237713.88348
  20454078.430 6   -979689.406 6   -752557.85949  20454075.23849
  22942156.445 6   -165895.223 6   -123274.46547  22942153.88347
  22150239.891 6    161136.070 6    120380.36749  22150239.02749
 20  5 16  3 16 58.0000000  0  8G01G04G07G08G09G11G16G27            -0.000200466
  22312064.727 6  -1549355.586 6  -1155877.85249  22312066.27349
  23414742.352 3    142781.879 3    105804.86346  23414742.26646
  22299447.250 6  -1439771.332 6  -1083295.76649  22299444.82049
  20632161.227 7   -255016.473 7   -192652.11749  20632161.42649
  23237604.109 4   -152983.184 4   -116710.97748  23237604.98048
  20453397.586 6   -983267.645 6   -755346.09849  20453394.61749
  22942032.594 6   -166545.277 6   -123781.00447  22942030.27347
  22150334.133 6    161633.176 6    120767.71949  22150333.55549
 20  5 16  3 16 59.0000000  0  8G01G04G07G08G09G11G16G27            -0.000201853
  22310996.914 6  -1554968.469 6  -1160251.52749  22310998.36749
  23414828.055 3    143229.852 3    106153.96146  23414827.77746
  22298484.625 6  -1444831.215 6  -1087238.53149  22298481.72349
  20631985.078 7   -255942.918 7   -193374.02049  20631985.25449
  23237495.219 4   -153555.359 4   -117156.82848  23237496.21548
  20452716.469 6   -986845.840 6   -758134.30149  20452713.70749
  22941908.648 6   -167195.727 6   -124287.85547  22941906.25847
  22150428.766 6    162129.824 6    121154.72349  22150427.93849
 20  5 16  3 17  0.0000000  0  8G01G04G07G08G09G11G16G27            -0.000203236
  22309928.250 6  -1560581.551 6  -1164625.35549  22309930.20349
  23414912.813 3    143677.402 3    106502.71946  23414912.89546
  22297521.633 6  -1449891.266 6  -1091181.42649  22297519.16449
  20631808.875 7   -256869.551 7   -194096.07449  20631808.74249
  23237386.594 4   -154127.691 4   -117602.80548  23237387.35948
  20452036.234 6   -990423.996 6   -760922.47349  20452033.16849
  22941784.828 6   -167846.594 6   -124795.02347  22941782.32047
  22150523.031 6    162626.105 6    121541.43449  22150522.75849
 20  5 16  3 17  1.0000000  0  8G01G04G07G08G09G11G16G27            -0.000204624
  22308860.453 6  -1566194.809 6  -1168999.32049  22308861.68449
  23414998.586 3    144124.688 3    106851.23045  23414998.06345
  22296558.703 6  -1454951.422 6  -1095124.40649  22296555.91449
  20631632.172 7   -257796.270 7   -194818.19149  20631632.36749
  23237277.273 4   -154700.152 4   -118048.88348  23237278.35948
  20451354.773 6   -994002.035 6   -763710.55549  20451352.18049
  22941660.609 6   -168497.773 6   -125302.43447  22941658.30947
  22150617.195 6    163122.066 6    121927.89849  22150616.85249
 20  5 16  3 17  2.0000000  0  8G01G04G07G08G09G11G16G27            -0.000206009
  22307792.031 6  -1571808.289 6  -1173373.46149  22307793.64149
  23415083.539 3    144571.371 3    107199.28546  23415083.43046
  22295596.031 6  -1460011.766 6  -1099067.53149  22295593.17649
  20631456.133 7   -258723.191 7   -195540.46949  20631456.05549
  23237168.313 4   -155272.777 4   -118495.09048  23237169.44548
  20450673.820 6   -997579.988 6   -766498.57049  20450671.17249
  22941536.844 6   -169149.402 6   -125810.19947  22941533.98847
  22150711.898 6    163617.633 6    122314.05549  22150711.31349
 20  5 16  3 17  3.0000000  0  8G01G04G07G08G09G11G16G27            -0.000207396
  22306724.258 6  -1577421.953 6  -1177747.74249  22306725.32849
  23415167.734 3    145017.707 3    107547.07046  23415168.48046
  22294632.727 6  -1465072.227 6  -1103010.75049  22294629.66049
  20631279.594 7   -259650.262 7   -196262.85549  20631279.78549
  23237058.406 4   -155845.555 4   -118941.40648  23237060.57448
  20449993.289 6  -1001157.867 6   -769286.52749  20449990.77349
  22941412.609 6   -169801.371 6   -126318.23047  22941409.95347
  22150806.039 6    164112.797 6    122699.89549  22150804.92249
 20  5 16  3 17  4.0000000  0  8G01G04G07G08G09G11G16G27            -0.000208782
  22305655.875 6  -1583035.738 6  -1182122.11749  22305657.07849
  23415253.328 3    145463.801 3    107894.66446  23415253.40646
  22293669.930 6  -1470132.746 6  -1106954.01649  22293667.15649
  20631103.008 7   -260577.391 7   -196985.29749  20631103.25449
  23236949.672 4   -156418.332 4   -119387.72748  23236951.58648
  20449312.859 6  -1004735.570 6   -772074.35249  20449309.38349
  22941288.594 6   -170453.598 6   -126826.45347  22941286.35547
  22150900.148 6    164607.734 6    123085.56349  22150899.28549
 20  5 16  3 17  5.0000000  0  8G01G04G07G08G09G11G16G27            -0.000210169
  22304587.109 6  -1588649.695 6  -1186496.62549  22304588.92249
  23415337.273 3    145909.438 3    108241.90246  23415337.84846
  22292707.117 6  -1475193.434 6  -1110897.41049  22292704.01649
  20630926.688 7   -261504.707 7   -197707.87549  20630926.75849
  23236841.414 4   -156991.320 4   -119834.21548  23236842.48448
  20448631.930 6  -1008313.164 6   -774862.08249  20448628.88749
  22941164.422 6   -171106.179 6   -127334.96647  22941161.89547
  22150993.938 6    165102.293 6    123470.93449  22150993.50849
 20  5 16  3 17  6.0000000  0  8G01G04G07G08G09G11G16G27            -0.000211555
  22303518.789 6  -1594263.879 6  -1190871.30949  22303520.47749
  23415423.016 3    146354.691 3    108588.83246  23415422.71946
  22291743.609 6  -1480254.242 6  -1114840.89849  22291740.71549
  20630749.898 7   -262432.148 7   -198430.55549  20630750.35949
  23236731.242 4   -157564.359 4   -120280.73048  23236733.21548
  20447951.102 7  -1011890.672 7   -777649.75849  20447948.04749
  22941040.359 6   -171759.164 6   -127843.78947  22941037.51647
  22151088.273 6    165596.516 6    123856.03549  22151087.57849
 20  5 16  3 17  7.0000000  0  8G01G04G07G08G09G11G16G27            -0.000212944
  22302450.734 6  -1599878.359 6  -1195246.23049  22302452.28949
  23415507.813 4    146799.355 4    108935.33246  23415507.42246
  22290780.758 6  -1485315.367 6  -1118784.62549  22290777.86749
  20630573.633 7   -263359.898 7   -199153.47749  20630573.68049
  23236622.750 4   -158137.746 4   -120727.53148  23236623.87148
  20447270.383 7  -1015468.250 7   -780437.47749  20447266.93849
  22940915.938 6   -172412.656 6   -128353.00447  22940913.66847
  22151182.211 6    166090.211 6    124240.73049  22151181.89849
 20  5 16  3 17  8.0000000  0  8G01G04G07G08G09G11G16G27            -0.000214331
  22301382.297 6  -1605493.090 6  -1199621.34449  22301383.88749
  23415592.617 4    147243.648 4    109281.54346  23415592.14846
  22289817.539 6  -1490376.629 6  -1122728.46549  22289814.61349
  20630397.141 7   -264287.801 7   -199876.52349  20630397.68449
  23236513.641 4   -158711.301 4   -121174.45348  23236515.28148
  20446589.227 7  -1019045.723 7   -783225.12149  20446586.37949
  22940791.664 6   -173066.535 6   -128862.52347  22940789.18847
  22151276.094 6    166583.516 6    124625.11749  22151275.62949
 20  5 16  3 17  9.0000000  0  8G01G04G07G08G09G11G16G27            -0.000215721
  22300313.336 6  -1611108.090 6  -1203996.66849  22300315.20349
  23415676.398 4    147687.422 4    109627.36346  23415676.56346
  22288854.641 6  -1495438.152 6  -1126672.51249  22288851.47749
  20630220.445 7   -265215.961 7   -200599.76649  20630220.66849
  23236404.336 3   -159285.082 3   -121621.56348  23236406.33648
  20445908.688 7  -1022623.238 7   -786012.80149  20445905.81349
  22940666.750 6   -173720.867 6   -129372.39547  22940664.63747
  22151369.969 6    167076.367 6    125009.15249  22151369.09449
 20  5 16  3 17 10.0000000  0  8G01G04G07G08G09G11G16G27            -0.000217108
  22299244.805 6  -1616723.133 6  -1208372.02349  22299247.07449
  23415760.867 4    148130.918 4    109972.93446  23415760.93046
  22287891.695 6  -1500499.652 6  -1130616.53549  22287889.02349
  20630043.766 7   -266144.141 7   -201323.02049  20630043.95749
  23236294.500 3   -159858.855 3   -122068.66048  23236296.91848
  20445227.617 7  -1026200.504 7   -788800.27349  20445224.94949
  22940542.484 6   -174375.445 6   -129882.45747  22940539.67647
  22151463.648 6    167569.023 6    125393.05149  22151462.84049
 20  5 16  3 17 11.0000000  0  8G01G04G07G08G09G11G16G27            -0.000218498
  22298176.320 6  -1622338.285 6  -1212747.46549  22298178.80149
  23415845.336 4    148574.105 4    110318.25446  23415845.50046
  22286928.078 6  -1505561.215 6  -1134560.60549  22286925.04349
  20629867.609 7   -267072.363 7   -202046.31349  20629867.43849
  23236185.320 3   -160432.672 3   -122515.78948  23236187.21948
  20444546.773 7  -1029777.598 7   -791587.61749  20444544.12949
  22940417.758 6   -175030.316 6   -130392.74647  22940415.32847
  22151557.516 6    168061.383 6    125776.70349  22151556.38349
 20  5 16  3 17 12.0000000  0  8G01G04G07G08G09G11G16G27            -0.000219885
  22297107.977 6  -1627953.766 6  -1217123.16449  22297109.41849
  23415929.539 4    149016.789 4    110663.19546  23415929.58246
  22285964.859 6  -1510623.078 6  -1138504.92249  22285961.89549
  20629690.656 7   -268000.910 7   -202769.85549  20629690.95349
  23236076.383 3   -161006.742 3   -122963.12148  23236078.58248
  20443866.406 7  -1033354.719 7   -794374.98449  20443863.54349
  22940293.141 6   -175685.645 6   -130903.39547  22940290.82847
  22151650.906 6    168553.254 6    126159.97749  22151650.19949
 20  5 16  3 17 13.0000000  0  8G01G04G07G08G09G11G16G27            -0.000221277
  22296038.969 6  -1633569.457 6  -1221499.02349  22296040.94949
  23416013.984 4    149459.008 4    111007.76246  23416013.73846
  22285001.695 6  -1515685.094 6  -1142449.34449  22284998.56649
  20629513.789 7   -268929.590 7   -203493.50449  20629514.21549
  23235966.922 3   -161581.023 3   -123410.62148  23235969.46148
  20443185.438 7  -1036931.773 7   -797162.29349  20443182.52749
  22940168.422 6   -176341.391 6   -131414.37947  22940165.83247
  22151744.992 6    169044.742 6    126542.95349  22151743.89849
 20  5 16  3 17 14.0000000  0  8G01G04G07G08G09G11G16G27            -0.000222664
  22294970.633 6  -1639185.180 6  -1225874.91849  22294972.32449
  23416098.195 4    149901.016 4    111352.17246  23416097.85946
  22284038.430 6  -1520747.098 6  -1146393.76249  22284035.71149
  20629337.031 7   -269858.285 7   -204217.15649  20629337.21949
  23235858.047 3   -162155.242 3   -123858.06348  23235859.56348
  20442505.070 6  -1040508.613 6   -799949.44549  20442502.20749
  22940043.656 6   -176997.355 6   -131925.52347  22940040.93847
  22151838.211 6    169536.023 6    126925.76649  22151836.96949
 20  5 16  3 17 15.0000000  0  8G01G04G07G08G09G11G16G27            -0.000224056
  22293901.773 6  -1644801.254 6  -1230251.07449  22293903.96949
  23416181.859 4    150342.445 4    111696.12146  23416182.02046
  22283075.109 6  -1525809.371 6  -1150338.39549  22283071.98449
  20629160.172 7   -270787.262 7   -204941.03549  20629160.85249
  23235748.875 3   -162729.773 3   -124305.75448  23235750.46948
  20441824.180 6  -1044085.445 6   -802736.58249  20441821.34849
  22939918.609 6   -177653.789 6   -132437.03547  22939916.02047
  22151931.406 6    170026.785 6    127308.18449  22151930.80149
 20  5 16  3 17 16.0000000  0  8G01G04G07G08G09G11G16G27            -0.000225445
  22292832.742 6  -1650417.469 6  -1234627.34049  22292834.69549
  23416265.523 4    150783.523 4    112039.86346  23416266.30146
  22282111.789 6  -1530871.781 6  -1154283.12149  22282108.69149
  20628983.539 7   -271716.371 7   -205665.02349  20628983.46149
  23235639.727 3   -163304.461 3   -124753.56348  23235641.28548
  20441143.797 6  -1047662.219 6   -805523.68449  20441140.87549
  22939793.547 6   -178310.602 6   -132948.84047  22939791.31347
  22152025.156 6    170517.234 6    127690.35549  22152023.99249
 20  5 16  3 17 17.0000000  0  8G01G04G07G08G09G11G16G27            -0.000226837
  22291764.570 6  -1656033.766 6  -1239003.67649  22291765.98049
  23416349.109 4    151224.348 4    112383.37546  23416349.68046
  22281148.117 6  -1535934.207 6  -1158227.87549  22281145.41849
  20628806.711 7   -272645.492 7   -206389.01249  20628807.07049
  23235530.281 3   -163879.117 3   -125201.34448  23235531.98848
  20440463.078 6  -1051238.750 6   -808310.59849  20440460.38749
  22939668.508 6   -178967.660 6   -133460.83247  22939666.13347
  22152118.172 6    171007.426 6    128072.31649  22152117.42649
 20  5 16  3 17 18.0000000  0  8G01G04G07G08G09G11G16G27            -0.000228226
  22290695.578 6  -1661650.402 6  -1243380.27349  22290697.10249
  23416433.359 4    151664.539 4    112726.37546  23416434.00446
  22280184.750 6  -1540996.914 6  -1162172.84449  22280181.82049
  20628629.883 7   -273574.922 7   -207113.25049  20628630.01249
  23235421.195 4   -164453.992 4   -125649.29348  23235422.69548
  20439782.523 6  -1054815.344 6   -811097.54749  20439779.32049
  22939543.313 6   -179625.238 6   -133973.21547  22939540.99247
  22152211.438 6    171497.098 6    128453.87549  22152210.65649
 20  5 16  3 17 19.0000000  0  8G01G04G07G08G09G11G16G27            -0.000229618
  22289626.867 6  -1667267.133 6  -1247756.93849  22289628.26249
  23416516.766 3    152104.469 3    113069.17246  23416517.23046
  22279221.508 6  -1546059.672 6  -1166117.85249  22279218.64149
  20628453.188 7   -274504.414 7   -207837.52749  20628453.20749
  23235312.266 4   -165029.004 4   -126097.36348  23235313.00048
  20439102.164 6  -1058391.742 6   -813884.35549  20439099.21149
  22939418.453 6   -180283.051 6   -134485.79347  22939415.85247
  22152304.508 6    171986.543 6    128835.26249  22152303.42649
 20  5 16  3 17 20.0000000  0  8G01G04G07G08G09G11G16G27            -0.000231009
  22288557.930 6  -1672884.172 6  -1252133.85249  22288559.46149
  23416600.633 4    152543.852 4    113411.51646  23416600.78146
  22278258.023 6  -1551122.695 6  -1170063.06349  22278255.09449
  20628276.406 7   -275434.191 7   -208562.03149  20628276.48049
  23235202.938 4   -165604.250 4   -126545.60948  23235203.42248
  20438421.508 6  -1061968.172 6   -816671.18849  20438418.49649
  22939293.180 6   -180941.363 6   -134998.77047  22939290.49647
  22152397.563 6    172475.488 6    129216.25849  22152396.50849
 20  5 16  3 17 21.0000000  0  8G01G04G07G08G09G11G16G27            -0.000232401
  22287489.461 6  -1678501.148 6  -1256510.71549  22287490.44949
  23416683.594 4    152983.086 4    113753.76646  23416684.51646
  22277294.641 6  -1556185.609 6  -1174008.19149  22277291.59449
  20628099.211 7   -276363.867 7   -209286.45349  20628099.30549
  23235093.664 3   -166179.445 3   -126993.81348  23235094.15248
  20437740.867 6  -1065544.262 6   -819457.74249  20437737.89849
  22939167.805 6   -181599.836 6   -135511.86747  22939165.22747
  22152490.531 6    172964.332 6    129597.17649  22152489.61749
 20  5 16  3 17 22.0000000  0  8G01G04G07G08G09G11G16G27            -0.000233791
  22286420.250 6  -1684118.352 6  -1260887.75449  22286421.73449
  23416767.250 4    153421.902 4    114095.72346  23416768.02346
  22276331.195 6  -1561248.691 6  -1177953.44549  22276328.00449
  20627922.359 7   -277293.723 7   -210011.01649  20627922.54749
  23234983.539 3   -166754.707 3   -127442.07048  23234984.11348
  20437060.508 6  -1069120.281 6   -822244.25449  20437057.33649
  22939042.398 6   -182258.652 6   -136025.23447  22939039.91447
  22152583.492 6    173452.758 6    129977.76649  22152582.68449
 20  5 16  3 17 23.0000000  0  8G01G04G07G08G09G11G16G27            -0.000235186
  22285351.422 6  -1689735.816 6  -1265264.99649  22285352.75049
  23416851.141 4    153860.230 4    114437.28546  23416851.64846
  22275367.688 6  -1566311.988 6  -1181898.87149  22275364.69949
  20627745.117 7   -278223.805 7   -210735.75049  20627744.85249
  23234873.641 3   -167330.195 3   -127890.50448  23234875.29748
  20436379.891 6  -1072696.293 6   -825030.75849  20436377.08649
  22938916.977 6   -182917.941 6   -136538.96147  22938914.13747
  22152676.398 6    173940.770 6    130358.03149  22152676.05149
 20  5 16  3 17 24.0000000  0  8G01G04G07G08G09G11G16G27            -0.000236576
  22284282.453 6  -1695353.504 6  -1269642.41849  22284283.76649
  23416934.688 4    154298.180 4    114778.54746  23416934.94146
  22274404.305 6  -1571375.449 6  -1185844.42249  22274401.12549
  20627568.297 7   -279154.094 7   -211460.64849  20627568.46549
  23234764.609 3   -167905.891 3   -128339.10548  23234765.34048
  20435699.430 6  -1076272.238 6   -827817.21149  20435696.55949
  22938791.109 6   -183577.625 6   -137053.00847  22938788.68047
  22152769.391 6    174428.410 6    130738.01249  22152768.52049
 20  5 16  3 17 25.0000000  0  8G01G04G07G08G09G11G16G27            -0.000237970
  22283213.398 6  -1700971.297 6  -1274019.91849  22283214.41849
  23417017.203 4    154735.695 4    115119.46746  23417018.02046
  22273440.656 6  -1576438.988 6  -1189790.03549  22273437.61749
  20627391.266 7   -280084.480 7   -212185.62949  20627391.23049
  23234655.055 4   -168481.715 4   -128787.80548  23234655.98848
  20435018.781 6  -1079848.031 6   -830603.54349  20435015.78949
  22938665.586 6   -184237.598 6   -137567.28147  22938663.50847
  22152862.000 6    174915.688 6    131117.70349  22152861.03949
 20  5 16  3 17 26.0000000  0  8G01G04G07G08G09G11G16G27            -0.000239363
  22282144.047 6  -1706589.457 6  -1278397.70349  22282145.56349
  23417100.758 4    155172.723 4    115459.98046  23417101.42646
  22272477.141 6  -1581502.844 6  -1193735.90249  22272474.11749
  20627214.156 7   -281015.176 7   -212910.84849  20627213.94949
  23234545.742 4   -169057.777 4   -129236.68848  23234546.29348
  20434338.172 6  -1083423.887 6   -833389.91849  20434335.44149
  22938540.242 6   -184898.074 6   -138081.94947  22938538.14847
  22152954.648 6    175402.492 6    131497.03549  22152953.97349
 20  5 16  3 17 27.0000000  0  8G01G04G07G08G09G11G16G27            -0.000240757
  22281074.977 6  -1712207.590 6  -1282775.46949  22281076.42649
  23417184.117 4    155609.555 4    115800.35946  23417184.71546
  22271513.469 6  -1586566.574 6  -1197681.67249  22271510.34449
  20627036.867 7   -281945.793 7   -213636.00849  20627036.98449
  23234436.406 4   -169633.758 4   -129685.49648  23234436.55948
  20433657.961 6  -1086999.445 6   -836176.07049  20433655.10249
  22938414.063 6   -185558.746 6   -138596.75847  22938411.93447
  22153047.773 6    175889.156 6    131876.25049  22153046.10249
 20  5 16  3 17 28.0000000  0  8G01G04G07G08G09G11G16G27            -0.000242149
  22280006.211 6  -1717825.941 6  -1287153.40249  22280007.13349
  23417266.305 4    156045.922 4    116140.37146  23417267.30146
  22270549.797 6  -1591630.559 6  -1201627.63749  22270546.50449
  20626859.578 7   -282876.625 7   -214361.32849  20626859.92649
  23234325.742 4   -170209.973 4   -130134.49648  23234326.75048
  20432977.656 6  -1090574.945 6   -838962.17249  20432974.80549
  22938288.305 6   -186219.789 6   -139111.86347  22938286.16047
  22153139.641 6    176375.395 6    132255.14549  22153139.08649
 20  5 16  3 17 29.0000000  0  8G01G04G07G08G09G11G16G27            -0.000243544
  22278936.828 6  -1723444.355 6  -1291531.39549  22278938.34049
  23417349.625 4    156482.027 4    116480.18446  23417350.35946
  22269586.383 6  -1596694.516 6  -1205573.57449  22269582.87149
  20626682.750 7   -283807.504 7   -215086.69149  20626682.89149
  23234216.750 4   -170786.141 4   -130583.44948  23234217.21148
  20432297.531 6  -1094150.219 6   -841748.09849  20432294.57849
  22938162.281 6   -186881.074 6   -139627.14847  22938160.22747
  22153232.078 6    176861.434 6    132633.87149  22153231.14549
 20  5 16  3 17 30.0000000  0  8G01G04G07G08G09G11G16G27            -0.000244936
  22277867.422 6  -1729063.004 6  -1295909.55949  22277869.30549
  23417432.563 4    156917.664 4    116819.64846  23417433.49646
  22268622.633 6  -1601758.660 6  -1209519.66449  22268619.36749
  20626505.336 7   -284738.574 7   -215812.19949  20626505.55949
  23234107.234 4   -171362.484 4   -131032.55148  23234107.85948
  20431616.727 6  -1097725.449 6   -844533.99649  20431613.91449
  22938036.828 6   -187542.797 6   -140142.77747  22938034.45747
  22153324.906 6    177347.039 6    133012.26249  22153324.05549
 20  5 16  3 17 31.0000000  0  8G01G04G07G08G09G11G16G27            -0.000246332
  22276798.477 6  -1734681.809 6  -1300287.84049  22276799.67649
  23417515.922 4    157352.926 4    117158.81346  23417515.93446
  22267658.672 6  -1606822.898 6  -1213465.82449  22267655.52749
  20626328.586 7   -285669.715 7   -216537.76249  20626328.31649
  23233997.055 4   -171938.992 4   -131481.78148  23233997.77748
  20430936.461 6  -1101300.543 6   -847319.78549  20430933.57449
  22937911.281 6   -188204.813 6   -140658.62547  22937908.37547
  22153417.188 6    177832.320 6    133390.39549  22153415.94549
 20  5 16  3 17 32.0000000  0  8G01G04G07G08G09G11G16G27            -0.000247726
  22275728.992 6  -1740300.789 6  -1304666.26249  22275730.89549
  23417598.516 4    157787.801 4    117497.68046  23417599.10946
  22266695.367 6  -1611887.262 6  -1217412.08249  22266691.82049
  20626151.148 7   -286600.992 7   -217263.42649  20626151.18849
  23233887.633 4   -172515.570 4   -131931.07048  23233888.57048
  20430256.117 6  -1104875.535 6   -850105.49249  20430253.58649
  22937785.406 6   -188867.203 6   -141174.77747  22937782.40647
  22153509.453 6    178317.238 6    133768.24649  22153508.16849
 20  5 16  3 17 33.0000000  0  8G01G04G07G08G09G11G16G27            -0.000249123
  22274659.484 6  -1745919.883 6  -1309044.77349  22274661.03549
  23417681.313 5    158222.449 5    117836.39146  23417681.59846
  22265731.469 6  -1616951.695 6  -1221358.39549  22265728.06349
  20625973.875 7   -287532.324 7   -217989.14549  20625973.92649
  23233777.430 4   -173092.277 4   -132380.46148  23233778.62948
  20429575.984 6  -1108450.328 6   -852891.04349  20429573.18449
  22937659.313 6   -189529.891 6   -141691.15247  22937656.26647
  22153601.453 6    178801.906 6    134145.91449  22153600.39149
 20  5 16  3 17 34.0000000  0  8G01G04G07G08G09G11G16G27            -0.000250515
  22273590.141 6  -1751539.109 6  -1313423.39149  22273592.07049
  23417763.953 4    158656.604 4    118174.67446  23417764.71146
  22264767.594 6  -1622016.250 6  -1225304.80149  22264764.61349
  20625796.836 7   -288463.844 7   -218714.99649  20625796.20349
  23233667.500 4   -173669.039 4   -132829.87948  23233668.72348
  20428895.625 6  -1112025.059 6   -855676.54749  20428892.97749
  22937532.602 6   -190192.934 6   -142207.81347  22937530.18847
  22153693.781 6    179286.219 6    134523.30149  22153693.05549
 20  5 16  3 17 35.0000000  0  8G01G04G07G08G09G11G16G27            -0.000251913
  22272520.734 6  -1757158.648 6  -1317802.25849  22272522.04749
  23417845.563 4    159090.281 4    118512.59446  23417846.79746
  22263804.047 6  -1627081.000 6  -1229251.35549  22263800.83249
  20625619.438 7   -289395.555 7   -219441.00449  20625619.24249
  23233557.883 4   -174246.047 4   -133279.49648  23233559.31348
  20428215.375 6  -1115599.719 6   -858461.99249  20428212.35249
  22937406.258 6   -190856.391 6   -142724.78947  22937403.73447
  22153785.750 6    179770.098 6    134900.34849  22153784.84049
 20  5 16  3 17 36.0000000  0  8G01G04G07G08G09G11G16G27            -0.000253307
  22271451.188 6  -1762778.336 6  -1322181.23449  22271452.98049
  23417928.570 4    159523.617 4    118850.23846  23417929.02746
  22262839.883 6  -1632145.898 6  -1233198.03149  22262836.41849
  20625442.078 7   -290327.402 7   -220167.12549  20625441.70349
  23233447.508 3   -174823.148 3   -133729.18848  23233449.11748
  20427535.453 6  -1119174.301 6   -861247.38749  20427532.57449
  22937280.367 6   -191520.184 6   -143242.04347  22937277.52747
  22153877.742 6    180253.637 6    135277.13749  22153877.30549
 20  5 16  3 17 37.0000000  0  8G01G04G07G08G09G11G16G27            -0.000254704
  22270381.758 6  -1768398.078 6  -1326560.26249  22270383.61349
  23418010.938 4    159956.609 4    119187.62145  23418011.98845
  22261876.000 6  -1637210.797 6  -1237144.70349  22261872.97749
  20625264.688 7   -291259.297 7   -220893.27349  20625264.23049
  23233338.289 4   -175400.340 4   -134178.94948  23233339.78148
  20426854.914 6  -1122748.684 6   -864032.61349  20426851.92649
  22937153.953 6   -192184.270 6   -143759.51247  22937151.13347
  22153969.992 6    180736.891 6    135653.69549  22153969.11749
 20  5 16  3 17 38.0000000  0  8G01G04G07G08G09G11G16G27            -0.000256100
  22269312.750 6  -1774017.961 6  -1330939.39549  22269314.10949
  23418092.969 4    160389.340 4    119524.79746  23418094.26646
  22260912.109 6  -1642275.781 6  -1241091.44549  22260909.28549
  20625087.570 7   -292191.262 7   -221619.48449  20625087.10249
  23233228.117 4   -175977.555 4   -134628.73848  23233229.96148
  20426175.109 6  -1126322.875 6   -866817.70349  20426172.21949
  22937027.586 6   -192848.613 6   -144277.19147  22937024.83247
  22154061.367 6    181219.922 6    136030.08249  22154061.02349
 20  5 16  3 17 39.0000000  0  8G01G04G07G08G09G11G16G27            -0.000257496
  22268243.484 6  -1779638.016 6  -1335318.65249  22268245.27349
  23418175.773 4    160821.602 4    119861.61346  23418176.85946
  22259948.289 6  -1647340.902 6  -1245038.29349  22259945.31649
  20624910.078 7   -293123.398 7   -222345.82849  20624909.69149
  23233118.359 4   -176554.934 4   -135078.65648  23233119.89848
  20425494.547 6  -1129897.012 6   -869602.74649  20425491.98449
  22936900.664 6   -193513.352 6   -144795.16847  22936898.16847
  22154153.859 6    181702.520 6    136406.13749  22154152.64849
 20  5 16  3 17 40.0000000  0  8G01G04G07G08G09G11G16G27            -0.000258892
  22267173.773 6  -1785258.301 6  -1339698.09849  22267175.15249
  23418257.563 4    161253.461 4    120198.12946  23418258.39146
  22258984.305 6  -1652406.199 6  -1248985.28149  22258981.33249
  20624732.383 7   -294055.730 7   -223072.31349  20624732.68849
  23233008.461 3   -177132.469 3   -135528.68848  23233010.07048
  20424814.594 6  -1133471.055 6   -872387.71549  20424811.63749
  22936773.969 6   -194178.488 6   -145313.45347  22936771.76247
  22154245.102 6    182184.746 6    136781.89149  22154244.53949
 20  5 16  3 17 41.0000000  0  8G01G04G07G08G09G11G16G27            -0.000260290
  22266104.141 6  -1790878.801 6  -1344077.70749  22266105.69549
  23418339.281 4    161684.852 4    120534.27345  23418340.67245
  22258020.563 6  -1657471.641 6  -1252932.38349  22258017.58649
  20624555.211 7   -294988.227 7   -223798.93449  20624555.02049
  23232898.656 4   -177710.180 4   -135978.85948  23232900.24248
  20424134.578 6  -1137045.035 6   -875172.63349  20424131.69949
  22936647.414 6   -194844.008 6   -145832.03547  22936644.70747
  22154337.195 6    182666.594 6    137157.35249  22154336.24649
 20  5 16  3 17 42.0000000  0  8G01G04G07G08G09G11G16G27            -0.000261686
  22265034.578 6  -1796499.559 6  -1348457.52049  22265036.41049
  23418421.328 5    162115.835 5    120870.09345  23418422.65645
  22257056.875 6  -1662537.313 6  -1256879.66049  22257053.82049
  20624377.523 7   -295920.957 7   -224525.73849  20624377.40649
  23232788.875 4   -178288.113 4   -136429.19948  23232789.91448
  20423454.273 6  -1140619.027 6   -877957.56349  20423451.80949
  22936520.852 6   -195509.988 6   -146350.98447  22936518.15647
  22154428.328 6    183148.000 6    137532.47749  22154427.95349
 20  5 16  3 17 43.0000000  0  8G01G04G07G08G09G11G16G27            -0.000263086
  22263964.773 6  -1802120.492 6  -1352837.46149  22263966.62549
  23418503.359 4    162546.305 4    121205.52746  23418504.72746
  22256092.680 6  -1667603.152 6  -1260827.07049  22256089.75849
  20624200.023 7   -296853.859 7   -225252.68049  20624199.99649
  23232679.398 4   -178866.203 4   -136879.66048  23232680.01248
  20422774.391 6  -1144192.945 6   -880742.43849  20422771.69949
  22936394.047 6   -196176.348 6   -146870.23047  22936391.20347
  22154520.258 6    183629.004 6    137907.28549  22154519.47749
 20  5 16  3 17 44.0000000  0  8G01G04G07G08G09G11G16G27            -0.000264482
  22262895.266 6  -1807741.613 6  -1357217.55149  22262896.85949
  23418585.180 4    162976.473 4    121540.73446  23418586.82846
  22255128.727 6  -1672669.051 6  -1264774.52349  22255125.83249
  20624022.336 7   -297786.848 7   -225979.68449  20624022.58649
  23232569.547 4   -179444.359 4   -137330.17248  23232569.75048
  20422094.273 6  -1147766.695 6   -883527.17249  20422091.47349
  22936267.234 6   -196842.988 6   -147389.69147  22936264.63747
  22154611.977 6    184109.738 6    138281.88749  22154610.78549
 20  5 16  3 17 45.0000000  0  8G01G04G07G08G09G11G16G27            -0.000265882
  22261825.844 6  -1813362.918 6  -1361597.79349  22261826.89849
  23418667.633 4    163406.242 4    121875.64545  23418668.69945
  22254164.688 6  -1677735.109 6  -1268722.10249  22254161.68849
  20623844.773 7   -298720.012 7   -226706.82049  20623844.76249
  23232458.336 3   -180022.691 3   -137780.82048  23232459.78148
  20421414.289 6  -1151340.367 6   -886311.85949  20421411.39849
  22936139.969 6   -197510.008 6   -147909.45347  22936137.43847
  22154703.313 6    184590.082 6    138656.18049  22154702.41849
 20  5 16  3 17 46.0000000  0  8G01G04G07G08G09G11G16G27            -0.000267279
  22260755.375 5  -1818984.328 5  -1365978.10949  22260757.47349
  23418748.906 4    163835.625 4    122210.24645  23418749.93845
  22253200.781 6  -1682801.203 6  -1272669.70749  22253197.69949
  20623667.273 7   -299653.273 7   -227434.03549  20623667.14849
  23232348.352 4   -180601.105 4   -138231.53148  23232349.63348
  20420734.242 6  -1154913.898 6   -889096.42649  20420731.47349
  22936013.055 6   -198177.348 6   -148429.45347  22936010.69147
  22154794.289 6    185070.129 6    139030.23849  22154793.53549
 20  5 16  3 17 47.0000000  0  8G01G04G07G08G09G11G16G27            -0.000268679
  22259686.086 6  -1824605.965 6  -1370358.60249  22259687.70349
  23418830.086 4    164264.582 4    122544.48445  23418831.61345
  22252236.656 6  -1687867.527 6  -1276617.49249  22252233.21949
  20623489.688 7   -300586.723 7   -228161.39849  20623489.92249
  23232238.727 4   -181179.695 4   -138682.38348  23232239.58648
  20420054.133 6  -1158487.363 6   -891880.94149  20420051.68049
  22935886.063 6   -198845.098 6   -148949.77347  22935883.64547
  22154885.195 6    185549.762 6    139403.98049  22154884.94149
 20  5 16  3 17 48.0000000  0  8G01G04G07G08G09G11G16G27            -0.000270077
  22258616.305 6  -1830227.867 6  -1374739.30949  22258617.85249
  23418912.406 4    164693.066 4    122878.33245  23418913.49245
  22251272.586 6  -1692934.051 6  -1280565.43049  22251269.46949
  20623311.859 7   -301520.387 7   -228888.93449  20623312.28149
  23232128.109 4   -181758.488 4   -139133.39848  23232129.77048
  20419374.344 6  -1162060.773 6   -894665.41849  20419371.64149
  22935758.555 6   -199513.266 6   -149470.43047  22935756.37547
  22154976.406 6    186028.969 6    139777.38349  22154975.85949
 20  5 16  3 17 49.0000000  0  8G01G04G07G08G09G11G16G27            -0.000271479
  22257546.195 6  -1835849.891 6  -1379120.10249  22257548.05949
  23418993.508 4    165121.188 4    123211.91045  23418995.05945
  22250308.172 6  -1698000.625 6  -1284513.41049  22250305.31649
  20623134.352 7   -302454.160 7   -229616.54349  20623134.55149
  23232017.867 4   -182337.387 4   -139584.49248  23232019.30948
  20418694.359 6  -1165634.082 6   -897449.81349  20418691.10549
  22935631.750 6   -200181.754 6   -149991.33247  22935629.43847
  22155067.711 6    186507.895 6    140150.57449  22155066.96949
 20  5 16  3 17 50.0000000  0  8G01G04G07G08G09G11G16G27            -0.000272877
  22256476.891 5  -1841472.156 5  -1383501.08649  22256478.03149
  23419074.688 4    165548.887 4    123545.15645  23419076.07445
  22249344.125 6  -1703067.414 6  -1288461.55549  22249341.23449
  20622956.477 7   -303388.152 7   -230344.33249  20622956.55949
  23231908.234 4   -182916.461 4   -140035.72348  23231909.28948
  20418014.258 6  -1169207.313 6   -900234.15649  20418011.51649
  22935504.367 6   -200850.637 6   -150512.53947  22935501.82447
  22155158.523 6    186986.371 6    140523.40649  22155158.11349
 20  5 16  3 17 51.0000000  0  8G01G04G07G08G09G11G16G27            -0.000274279
  22255406.789 6  -1847094.582 6  -1387882.19149  22255408.18849
  23419155.914 4    165976.176 4    123878.10245  23419157.92245
  22248380.031 6  -1708134.313 6  -1292409.78549  22248377.32049
  20622778.563 7   -304322.277 7   -231072.21949  20622778.84049
  23231797.883 4   -183495.691 4   -140487.06648  23231798.85948
  20417334.227 6  -1172780.465 6   -903018.43049  20417331.83649
  22935376.836 6   -201519.910 6   -151034.05147  22935374.41447
  22155249.867 6    187464.496 6    140895.97749  22155248.88349
 20  5 16  3 17 52.0000000  0  8G01G04G07G08G09G11G16G27            -0.000275677
  22254336.633 6  -1852717.313 6  -1392263.53549  22254338.43049
  23419236.523 4    166402.934 4    124210.66045  23419238.81345
  22247415.633 6  -1713201.473 6  -1296358.21949  22247412.99249
  20622601.070 7   -305256.664 7   -231800.31349  20622601.09849
  23231687.586 4   -184075.137 4   -140938.58248  23231688.69148
  20416654.992 6  -1176353.578 6   -905802.67249  20416651.67249
  22935249.641 5   -202189.641 5   -151555.91847  22935247.44947
  22155340.633 6    187942.168 6    141268.19149  22155339.89549
 20  5 16  3 17 53.0000000  0  8G01G04G07G08G09G11G16G27            -0.000277079
  22253266.398 6  -1858340.191 6  -1396644.99649  22253268.21149
  23419318.695 4    166829.336 4    124542.95345  23419319.59445
  22246451.555 6  -1718268.734 6  -1300306.73449  22246448.70749
  20622422.859 7   -306191.184 7   -232528.51249  20622423.10549
  23231577.305 4   -184654.708 4   -141390.19348  23231578.35548
  20415974.352 6  -1179926.617 6   -908586.85549  20415971.55549
  22935121.984 6   -202859.727 6   -152078.07047  22935119.63747
  22155431.438 6    188419.492 6    141640.13349  22155430.79749
 20  5 16  3 17 54.0000000  0  8G01G04G07G08G09G11G16G27            -0.000278479
  22252196.945 6  -1863963.215 6  -1401026.57049  22252198.23449
  23419399.648 4    167255.371 4    124874.94545  23419400.62545
  22245487.516 6  -1723336.070 6  -1304255.30949  22245484.43049
  20622245.133 7   -307125.789 7   -233256.77749  20622245.16849
  23231467.453 4   -185234.383 4   -141841.88748  23231468.26248
  20415294.672 6  -1183499.488 6   -911370.91049  20415291.64549
  22934994.523 6   -203530.098 6   -152600.43447  22934992.10547
  22155522.523 6    188896.543 6    142011.85549  22155521.39849
 20  5 16  3 17 55.0000000  0  8G01G04G07G08G09G11G16G27            -0.000279881
  22251126.680 6  -1869586.430 6  -1405408.29349  22251128.42249
  23419481.164 5    167681.000 5    125206.59445  23419481.91045
  22244523.039 6  -1728403.582 6  -1308204.01649  22244519.85249
  20622067.367 7   -308060.563 7   -233985.17249  20622067.73449
  23231357.313 4   -185814.195 4   -142293.70348  23231357.77048
  20414614.828 6  -1187072.301 6   -914154.91849  20414611.77049
  22934866.547 6   -204200.871 6   -153123.11347  22934864.74247
  22155613.086 6    189373.180 6    142383.25849  22155612.42249
 20  5 16  3 17 56.0000000  0  8G01G04G07G08G09G11G16G27            -0.000281281
  22250056.586 6  -1875209.695 6  -1409790.05549  22250058.07449
  23419561.852 5    168106.363 5    125538.02046  23419562.93846
  22243558.227 6  -1733471.082 6  -1312152.71549  22243555.38349
  20621889.484 7   -308995.359 7   -234713.58649  20621889.65649
  23231246.781 4   -186394.016 4   -142745.52048  23231247.75448
  20413935.047 6  -1190644.855 6   -916938.73049  20413932.05549
  22934739.555 5   -204871.855 5   -153645.96147  22934736.73447
  22155703.836 6    189849.613 6    142754.50849  22155702.53549
 20  5 16  3 17 57.0000000  0  8G01G04G07G08G09G11G16G27            -0.000282684
  22248986.492 5  -1880833.098 5  -1414171.92649  22248988.58249
  23419642.836 5    168531.371 5    125869.19946  23419643.55546
  22242593.992 6  -1738538.664 6  -1316101.47749  22242591.15649
  20621711.719 7   -309930.281 7   -235442.09849  20621711.62149
  23231136.141 4   -186973.949 4   -143197.42648  23231136.77748
  20413255.211 6  -1194217.293 6   -919722.44949  20413252.50049
  22934611.641 5   -205543.180 5   -154169.07047  22934609.09847
  22155794.133 6    190325.727 6    143125.50049  22155793.79349
 20  5 16  3 17 58.0000000  0  8G01G04G07G08G09G11G16G27            -0.000284084
  22247916.203 6  -1886456.637 6  -1418553.90249  22247918.42249
  23419723.617 5    168955.977 5    126200.05546  23419724.06346
  22241629.734 6  -1743606.355 6  -1320050.32849  22241626.53949
  20621533.852 7   -310865.324 7   -236170.70749  20621533.74649
  23231026.109 4   -187553.980 4   -143649.39848  23231026.90248
  20412574.930 6  -1197789.586 6   -922506.05549  20412572.48849
  22934484.242 6   -206214.805 6   -154692.41847  22934481.51647
  22155885.203 6    190801.488 6    143496.21949  22155883.95349
 20  5 16  3 17 59.0000000  0  8G01G04G07G08G09G11G16G27            -0.000285488
  22246846.172 6  -1892080.504 6  -1422936.13349  22246847.78549
  23419804.570 5    169380.063 5    126530.50046  23419805.02046
  22240665.633 6  -1748674.305 6  -1323999.37549  22240662.38749
  20621355.781 7   -311800.641 7   -236899.52349  20621356.18049
  23230915.930 4   -188134.297 4   -144101.59048  23230916.35548
  20411895.648 6  -1201361.891 6   -925289.66449  20411892.59049
  22934355.977 6   -206886.922 6   -155216.14147  22934353.29347
  22155975.516 6    191276.754 6    143866.55549  22155974.57449
 20  5 16  3 18  0.0000000  0  8G01G04G07G08G09G11G16G27            -0.000286890
  22245775.789 6  -1897704.441 6  -1427318.42249  22245777.98049
  23419885.523 5    169803.848 5    126860.73845  23419885.68445
  22239701.242 6  -1753742.297 6  -1327948.46149  22239698.33649
  20621177.875 7   -312736.043 7   -237628.41049  20621178.27049
  23230805.047 4   -188714.629 4   -144553.79348  23230806.05548
  20411215.656 6  -1204934.027 6   -928073.15249  20411212.78549
  22934227.680 6   -207559.316 6   -155740.08247  22934225.12547
  22156065.758 6    191751.777 6    144236.70349  22156065.21149
 20  5 16  3 18  1.0000000  0  8G01G04G07G08G09G11G16G27            -0.000288294
  22244705.188 6  -1903328.773 6  -1431701.02349  22244707.35249
  23419965.813 5    170227.004 5    127190.45345  23419966.31645
  22238736.766 6  -1758810.609 6  -1331897.79749  22238733.50849
  20620999.680 7   -313671.770 7   -238357.54749  20620999.65249
  23230694.711 4   -189295.328 4   -145006.28948  23230695.53548
  20410535.867 6  -1208506.254 6   -930856.70749  20410532.78549
  22934100.219 6   -208232.246 6   -156264.44547  22934097.43047
  22156156.719 6    192226.250 6    144606.42249  22156155.70349
 20  5 16  3 18  2.0000000  0  8G01G04G07G08G09G11G16G27            -0.000289696
  22243635.266 5  -1908953.313 5  -1436083.78149  22243637.12949
  23420045.883 5    170649.766 5    127519.86745  23420047.08245
  22237772.227 6  -1763879.105 6  -1335847.27749  22237769.24249
  20620821.500 7   -314607.691 7   -239086.83249  20620821.86749
  23230584.023 4   -189876.195 4   -145458.91848  23230585.12148
  20409856.422 6  -1212078.422 6   -933640.21549  20409853.32049
  22933971.844 6   -208905.594 6   -156789.14147  22933969.22347
  22156246.492 6    192700.316 6    144975.82449  22156245.51249
 20  5 16  3 18  3.0000000  0  8G01G04G07G08G09G11G16G27            -0.000291101
  22242564.781 6  -1914578.125 6  -1440466.74249  22242566.81349
  23420126.375 5    171072.039 5    127848.89546  23420127.06646
  22236807.742 6  -1768947.805 6  -1339796.91049  22236804.27349
  20620643.328 7   -315543.852 7   -239816.30149  20620643.42649
  23230473.867 4   -190457.297 4   -145911.72748  23230474.61348
  20409176.547 6  -1215650.590 6   -936423.72349  20409173.51249
  22933843.211 6   -209579.395 6   -157314.18447  22933840.90247
  22156336.688 6    193173.938 6    145344.87549  22156335.46949
 20  5 16  3 18  4.0000000  0  8G01G04G07G08G09G11G16G27            -0.000292503
  22241494.547 5  -1920202.977 5  -1444849.73849  22241496.24249
  23420206.805 5    171493.969 5    128177.65246  23420207.11346
  22235843.070 6  -1774016.504 6  -1343746.54749  22235839.91049
  20620465.164 7   -316480.012 7   -240545.77749  20620465.69549
  23230362.703 4   -191038.410 4   -146364.55148  23230363.71548
  20408496.820 6  -1219222.512 6   -939207.03949  20408493.89149
  22933714.977 6   -210253.410 6   -157839.39147  22933712.61347
  22156426.680 6    193647.328 6    145713.75049  22156425.41849
 20  5 16  3 18  5.0000000  0  8G01G04G07G08G09G11G16G27            -0.000293909
  22240424.156 6  -1925827.922 6  -1449232.81349  22240426.39849
  23420286.664 4    171915.662 4    128506.23746  23420287.03546
  22234878.945 6  -1779085.277 6  -1347696.23449  22234875.67249
  20620287.102 7   -317416.250 7   -241275.32049  20620287.12949
  23230251.875 4   -191619.539 4   -146817.37148  23230253.16848
  20407817.172 6  -1222794.262 6   -941990.21949  20407814.38349
  22933586.977 5   -210927.703 5   -158364.81347  22933584.73447
  22156516.461 6    194120.426 6    146082.39549  22156515.31649
 20  5 16  3 18  6.0000000  0  8G01G04G07G08G09G11G16G27            -0.000295311
  22239353.727 5  -1931453.129 5  -1453616.09849  22239355.85949
  23420366.727 4    172336.828 4    128834.41845  23420367.50845
  22233913.734 6  -1784154.219 6  -1351646.06349  22233911.02049
  20620109.023 7   -318352.695 7   -242005.01649  20620109.07449
  23230141.922 4   -192200.898 4   -147270.37548  23230142.14148
  20407137.406 6  -1226365.969 6   -944773.37149  20407134.78549
  22933458.484 6   -211602.441 6   -158890.58247  22933456.10547
  22156606.375 6    194593.129 6    146450.73049  22156605.30549
 20  5 16  3 18  7.0000000  0  8G01G04G07G08G09G11G16G27            -0.000296717
  22238283.352 5  -1937078.328 5  -1457999.36749  22238285.44149
  23420447.117 4    172757.754 4    129162.43045  23420447.74645
  22232949.320 6  -1789223.125 6  -1355595.86349  22232946.19149
  20619930.844 7   -319289.129 7   -242734.70349  20619931.07049
  23230031.906 4   -192782.230 4   -147723.36348  23230031.82848
  20406457.961 6  -1229937.434 6   -947556.32849  20406455.03149
  22933330.047 6   -212277.379 6   -159416.51647  22933327.50447
  22156696.430 6    195065.625 6    146818.91449  22156695.34449
 20  5 16  3 18  8.0000000  0  8G01G04G07G08G09G11G16G27            -0.000298120
  22237212.609 6  -1942703.586 6  -1462382.68449  22237214.54749
  23420527.625 5    173178.477 5    129490.29745  23420527.48045
  22231984.680 6  -1794292.051 6  -1359545.67649  22231981.82849
  20619752.617 7   -320225.566 7   -243464.39549  20619753.14549
  23229920.828 4   -193363.582 4   -148176.36749  23229921.43849
  20405778.516 6  -1233508.633 6   -950339.08249  20405775.32049
  22933201.516 6   -212952.508 6   -159942.59047  22933199.27347
  22156786.570 6    195537.898 6    147186.91449  22156785.30149
 20  5 16  3 18  9.0000000  0  8G01G04G07G08G09G11G16G27            -0.000299526
  22236142.555 5  -1948329.082 5  -1466766.18449  22236144.37949
  23420607.023 5    173598.695 5    129817.74646  23420607.76246
  22231020.016 6  -1799361.141 6  -1363495.61349  22231017.30149
  20619574.344 7   -321162.211 7   -244194.24649  20619574.84849
  23229810.438 4   -193945.109 4   -148629.50848  23229810.47748
  20405098.953 6  -1237079.813 6   -953121.81649  20405095.92649
  22933073.570 6   -213628.082 6   -160469.01247  22933070.83247
  22156876.148 6    196009.746 6    147554.59449  22156875.16449
 20  5 16  3 18 10.0000000  0  8G01G04G07G08G09G11G16G27            -0.000300932
  22235071.883 6  -1953954.773 6  -1471149.84449  22235073.87149
  23420686.570 5    174018.473 5    130144.83246  23420687.43446
  22230055.406 6  -1804430.398 6  -1367445.68449  22230052.56349
  20619396.031 7   -322099.047 7   -244924.25849  20619396.17249
  23229699.438 5   -194526.824 5   -149082.79748  23229699.99248
  20404419.078 6  -1240650.898 6   -955904.47749  20404415.82049
  22932944.539 6   -214304.035 6   -160995.73047  22932941.85247
  22156965.844 6    196481.215 6    147921.97349  22156964.59849
 20  5 16  3 18 11.0000000  0  8G01G04G07G08G09G11G16G27            -0.000302338
  22234001.016 5  -1959580.500 5  -1475533.53549  22234003.28949
  23420767.211 5    174437.949 5    130471.67246  23420766.73846
  22229090.992 6  -1809499.680 6  -1371395.77049  22229087.92649
  20619217.578 7   -323035.895 7   -245654.26649  20619218.00849
  23229588.672 5   -195108.573 5   -149536.10849  23229589.14549
  20403739.844 6  -1244221.813 6   -958687.00849  20403736.82049
  22932815.109 5   -214980.258 5   -161522.66047  22932812.87547
  22157055.500 6    196952.445 6    148289.16049  22157054.43049
 20  5 16  3 18 12.0000000  0  8G01G04G07G08G09G11G16G27            -0.000303743
  22232930.531 5  -1965206.535 5  -1479917.45349  22232932.50049
  23420847.031 5    174856.973 5    130798.18046  23420846.45346
  22228125.977 6  -1814569.152 6  -1375346.01249  22228123.21549
  20619039.484 7   -323973.000 7   -246384.47749  20619039.57049
  23229477.719 5   -195690.449 5   -149989.52749  23229478.21549
  20403060.063 6  -1247792.672 6   -961469.49649  20403057.11349
  22932686.719 5   -215656.891 5   -162049.89847  22932684.29747
  22157145.031 6    197423.230 6    148656.00449  22157144.00449
 20  5 16  3 18 13.0000000  0  8G01G04G07G08G09G11G16G27            -0.000305149
  22231860.492 5  -1970832.547 5  -1484301.35549  22231861.92249
  23420926.680 5    175275.801 5    131124.55545  23420926.39145
  22227161.648 6  -1819638.602 6  -1379296.23049  22227158.02749
  20618861.148 7   -324910.098 7   -247114.68849  20618861.55549
  23229367.008 4   -196272.402 4   -150442.99649  23229368.14849
  20402380.477 6  -1251363.273 6   -964251.78149  20402377.46149
  22932557.680 5   -216333.723 5   -162577.30147  22932555.43447
  22157234.641 6    197893.840 6    149022.71549  22157233.62949
 20  5 16  3 18 14.0000000  0  8G01G04G07G08G09G11G16G27            -0.000306555
  22230789.492 5  -1976458.707 5  -1488685.37949  22230791.31649
  23421006.453 5    175694.188 5    131450.58245  23421005.94145
  22226197.227 6  -1824708.145 6  -1383246.52349  22226193.71149
  20618682.688 7   -325847.316 7   -247844.98849  20618682.71549
  23229256.148 4   -196854.449 4   -150896.54748  23229257.22748
  20401701.500 6  -1254933.758 6   -967033.98049  20401698.23849
  22932429.781 6   -217010.898 6   -163104.97347  22932426.67247
  22157323.672 6    198364.102 6    149389.14849  22157323.28149
 20  5 16  3 18 15.0000000  0  8G01G04G07G08G09G11G16G27            -0.000307962
  22229718.797 5  -1982085.023 5  -1493069.52349  22229720.74649
  23421086.078 5    176112.238 5    131776.34045  23421085.48845
  22225232.078 6  -1829777.766 6  -1387196.87949  22225228.93049
  20618504.352 7   -326784.594 7   -248575.33249  20618504.70349
  23229145.469 4   -197436.563 4   -151350.14149  23229146.18849
  20401021.953 6  -1258504.078 6   -969816.05149  20401018.86349
  22932300.859 5   -217688.371 5   -163632.87147  22932297.78147
  22157413.563 6    198834.055 6    149755.34449  22157412.58649
 20  5 16  3 18 16.0000000  0  8G01G04G07G08G09G11G16G27            -0.000309368
  22228648.281 5  -1987711.441 5  -1497453.74649  22228649.75449
  23421165.414 5    176529.930 5    132101.82046  23421165.05146
  22224267.891 6  -1834847.473 6  -1391147.30549  22224263.87949
  20618325.883 7   -327722.012 7   -249305.78949  20618326.04749
  23229034.969 4   -198018.785 4   -151803.81649  23229035.27349
  20400342.617 6  -1262074.262 6   -972598.01649  20400339.17649
  22932171.477 6   -218366.168 6   -164161.02347  22932169.27747
  22157502.930 6    199303.680 6    150121.28149  22157501.96549
 20  5 16  3 18 17.0000000  0  8G01G04G07G08G09G11G16G27            -0.000310778
  22227577.305 5  -1993337.988 5  -1501838.06649  22227579.28549
  23421245.047 5    176947.297 5    132427.01246  23421244.07046
  22223302.547 6  -1839917.242 6  -1395097.77049  22223299.37549
  20618147.734 7   -328659.496 7   -250036.29749  20618147.95749
  23228923.906 4   -198601.086 4   -152257.55549  23228924.49649
  20399663.602 6  -1265644.270 6   -975379.84049  20399660.04349
  22932042.125 6   -219044.242 6   -164689.39547  22932039.80547
  22157592.156 6    199773.027 6    150487.01249  22157591.05949
 20  5 16  3 18 18.0000000  0  8G01G04G07G08G09G11G16G27            -0.000312183
  22226506.555 5  -1998964.758 5  -1506222.55949  22226508.48049
  23421323.906 5    177364.191 5    132751.89846  23421323.46946
  22222337.859 6  -1844987.203 6  -1399048.39549  22222334.49249
  20617969.094 7   -329597.176 7   -250766.96149  20617969.46149
  23228812.586 4   -199183.578 4   -152711.44549  23228813.78949
  20398983.805 6  -1269214.246 6   -978161.64549  20398980.45349
  22931913.188 6   -219722.754 6   -165218.10547  22931910.71547
  22157681.344 6    200241.957 6    150852.40649  22157680.30949
 20  5 16  3 18 19.0000000  0  8G01G04G07G08G09G11G16G27            -0.000313593
  22225435.813 5  -2004591.813 5  -1510607.27749  22225437.53949
  23421403.266 5    177780.641 5    133076.39546  23421402.67646
  22221373.125 6  -1850057.332 6  -1402999.13749  22221369.73849
  20617791.188 7   -330535.074 7   -251497.78949  20617790.86749
  23228701.961 4   -199766.262 4   -153165.48848  23228703.08248
  20398304.930 6  -1272784.172 6   -980943.40249  20398301.33649
  22931784.344 6   -220401.684 6   -165747.14547  22931781.71147
  22157770.688 6    200710.473 6    151217.47749  22157769.60949
 20  5 16  3 18 20.0000000  0  8G01G04G07G08G09G11G16G27            -0.000314999
  22224365.180 5  -2010219.039 5  -1514992.12549  22224366.48049
  23421482.180 5    178196.587 5    133400.48546  23421481.80146
  22220408.453 6  -1855127.680 6  -1406950.05949  22220404.89149
  20617612.469 7   -331473.180 7   -252228.77749  20617612.41049
  23228590.977 4   -200349.121 4   -153619.66449  23228592.13749
  20397625.313 6  -1276354.051 6   -983725.12149  20397621.94949
  22931654.750 6   -221081.027 6   -166276.50047  22931652.14547
  22157859.867 6    201178.555 6    151582.21949  22157858.52049
 20  5 16  3 18 21.0000000  0  8G01G04G07G08G09G11G16G27            -0.000316408
  22223294.047 5  -2015846.387 5  -1519377.06649  22223295.86749
  23421561.273 5    178612.281 5    133724.41846  23421560.66046
  22219443.398 6  -1860198.051 6  -1410900.99649  22219440.22749
  20617433.789 7   -332411.348 7   -252959.82049  20617433.99249
  23228480.172 4   -200932.082 4   -154073.92248  23228481.12148
  20396946.117 6  -1279923.746 6   -986506.69949  20396942.57449
  22931525.516 6   -221760.625 6   -166806.06347  22931523.03547
  22157948.664 6    201646.367 6    151946.74249  22157947.36349
 20  5 16  3 18 22.0000000  0  8G01G04G07G08G09G11G16G27            -0.000317816
  22222223.406 5  -2021473.902 5  -1523762.14149  22222225.05949
  23421640.422 5    179027.523 5    134047.97746  23421640.05146
  22218478.336 6  -1865268.547 6  -1414852.03149  22218475.37949
  20617254.992 7   -333349.723 7   -253691.02349  20617255.53949
  23228369.039 4   -201515.130 4   -154528.25049  23228370.02749
  20396266.484 6  -1283493.344 6   -989288.21149  20396263.68049
  22931395.984 6   -222440.598 6   -167335.92247  22931393.84847
  22158037.211 6    202113.820 6    152310.99249  22158036.32849
 20  5 16  3 18 23.0000000  0  8G01G04G07G08G09G11G16G27            -0.000319225
  22221152.414 5  -2027101.641 5  -1528147.38749  22221154.05549
  23421719.586 5    179442.340 5    134371.20346  23421718.55546
  22217513.406 6  -1870339.219 6  -1418803.20349  22217510.46549
  20617076.359 7   -334288.242 7   -254422.33649  20617076.68449
  23228258.125 4   -202098.410 4   -154982.75449  23228259.27049
  20395587.359 6  -1287062.859 6   -992069.64849  20395584.49649
  22931266.633 6   -223120.938 6   -167866.06647  22931264.14147
  22158126.250 6    202580.898 6    152674.94949  22158125.89549
 20  5 16  3 18 24.0000000  0  8G01G04G07G08G09G11G16G27            -0.000320633
  22220081.367 5  -2032729.688 5  -1532532.87949  22220082.95349
  23421797.930 5    179856.594 5    134694.01646  23421797.55546
  22216548.508 6  -1875410.152 6  -1422754.57449  22216545.61749
  20616897.961 7   -335227.086 7   -255153.90249  20616898.21549
  23228147.281 4   -202681.930 4   -155437.44949  23228148.37549
  20394908.188 6  -1290632.477 6   -994851.16849  20394905.30949
  22931137.000 5   -223801.852 5   -168396.64847  22931134.16847
  22158215.227 6    203047.426 6    153038.47749  22158214.48449
 20  5 16  3 18 25.0000000  0  8G01G04G07G08G09G11G16G27            -0.000322044
  22219010.453 5  -2038357.836 5  -1536918.44949  22219012.34449
  23421877.055 5    180270.547 5    135016.55946  23421876.20346
  22215583.672 6  -1880481.168 6  -1426706.02349  22215580.32049
  20616719.453 7   -336166.004 7   -255885.52049  20616719.27749
  23228035.914 4   -203265.527 4   -155892.19949  23228037.16049
  20394228.930 6  -1294201.875 6   -997632.51649  20394226.08649
  22931007.094 5   -224482.977 5   -168927.39547  22931004.81647
  22158304.094 6    203513.723 6    153401.82849  22158302.85549
 20  5 16  3 18 26.0000000  0  8G01G04G07G08G09G11G16G27            -0.000323452
  22217939.250 5  -2043986.133 5  -1541304.12949  22217941.47749
  23421955.578 5    180684.078 5    135338.79746  23421954.66446
  22214618.844 6  -1885552.258 6  -1430657.51649  22214615.65649
  20616540.773 7   -337105.016 7   -256617.22349  20616540.65649
  23227925.305 4   -203849.277 4   -156347.07049  23227926.60949
  20393550.047 6  -1297771.113 6  -1000413.73849  20393546.48849
  22930877.781 6   -225164.465 6   -169458.42647  22930874.79747
  22158392.766 6    203979.680 6    153764.91049  22158391.83649
 20  5 16  3 18 27.0000000  0  8G01G04G07G08G09G11G16G27            -0.000324865
  22216868.156 5  -2049614.695 5  -1545690.02749  22216870.08649
  23422033.875 5    181097.156 5    135660.67646  23422033.08646
  22213654.219 6  -1890623.582 6  -1434609.19549  22213650.69149
  20616362.156 7   -338044.273 7   -257349.11749  20616361.76249
  23227814.055 4   -204433.229 4   -156802.09549  23227815.47749
  20392870.281 6  -1301340.383 6  -1003194.98849  20392867.19949
  22930748.281 6   -225846.402 6   -169989.80947  22930745.47347
  22158481.133 6    204445.145 6    154127.60549  22158479.99649
 20  5 16  3 18 28.0000000  0  8G01G04G07G08G09G11G16G27            -0.000326273
  22215797.156 5  -2055243.418 5  -1550076.04349  22215798.82849
  23422112.938 5    181509.836 5    135982.23846  23422111.67246
  22212688.945 6  -1895695.020 6  -1438560.96549  22212685.47749
  20616183.023 7   -338983.676 7   -258081.11349  20616183.39549
  23227702.344 4   -205017.313 4   -157257.21949  23227704.01649
  20392191.320 6  -1304909.520 6  -1005976.13349  20392188.36349
  22930618.281 6   -226528.684 6   -170521.45347  22930615.71147
  22158569.609 6    204910.281 6    154490.04749  22158568.42249
 20  5 16  3 18 29.0000000  0  8G01G04G07G08G09G11G16G27            -0.000327686
  22214726.016 5  -2060872.375 5  -1554462.24649  22214728.02349
  23422191.281 5    181922.063 5    136303.43446  23422190.00846
  22211723.625 6  -1900766.637 6  -1442512.87949  22211719.89849
  20616004.398 7   -339923.324 7   -258813.30949  20616004.76649
  23227592.352 4   -205601.570 4   -157712.49249  23227593.00049
  20391512.242 6  -1308478.641 6  -1008757.26649  20391509.05149
  22930488.258 6   -227211.391 6   -171053.43847  22930485.77047
  22158658.297 6    205375.020 6    154852.18049  22158657.46149
 20  5 16  3 18 30.0000000  0  8G01G04G07G08G09G11G16G27            -0.000329096
  22213655.164 5  -2066501.441 5  -1558848.52349  22213656.64549
  23422268.961 5    182333.922 5    136624.35246  23422268.28946
  22210758.609 6  -1905838.293 6  -1446464.81649  22210755.14849
  20615825.297 7   -340863.035 7   -259545.55149  20615825.91449
  23227480.883 4   -206185.875 4   -158167.79749  23227482.02049
  20390833.039 6  -1312047.566 6  -1011538.25049  20390829.84049
  22930358.484 6   -227894.371 6   -171585.63747  22930355.89547
  22158746.953 6    205839.457 6    155214.07449  22158745.75049
 20  5 16  3 18 31.0000000  0  8G01G04G07G08G09G11G16G27            -0.000330507
  22212583.164 5  -2072130.621 5  -1563234.89849  22212585.71949
  23422348.594 5    182745.438 5    136945.00046  23422346.81646
  22209793.289 6  -1910910.031 6  -1450416.81649  22209790.33249
  20615646.766 7   -341802.840 7   -260277.86349  20615646.82449
  23227369.445 4   -206770.352 4   -158623.24249  23227370.85949
  20390153.984 6  -1315616.344 6  -1014319.11349  20390150.78949
  22930228.164 6   -228577.688 6   -172118.09047  22930225.59847
  22158834.688 6    206303.582 6    155575.72749  22158834.17249
 20  5 16  3 18 32.0000000  0  8G01G04G07G08G09G11G16G27            -0.000331919
  22211512.234 5  -2077760.039 5  -1567621.44949  22211514.24249
  23422425.992 5    183156.539 5    137265.34046  23422424.75046
  22208828.094 6  -1915981.961 6  -1454368.96949  22208824.98449
  20615467.453 7   -342742.836 7   -261010.33249  20615467.61749
  23227258.164 4   -207354.973 4   -159078.79349  23227259.20349
  20389474.727 6  -1319185.047 6  -1017099.92649  20389471.69149
  22930098.227 6   -229261.375 6   -172650.83247  22930095.80947
  22158923.125 6    206767.305 6    155937.06649  22158922.42249
 20  5 16  3 18 33.0000000  0  8G01G04G07G08G09G11G16G27            -0.000333330
  22210440.789 5  -2083389.762 5  -1572008.24649  22210443.01249
  23422504.273 5    183567.055 5    137585.23446  23422502.95746
  22207862.938 6  -1921054.137 6  -1458321.31649  22207859.71949
  20615288.625 7   -343683.125 7   -261743.02349  20615288.87149
  23227146.859 4   -207939.902 4   -159534.57849  23227147.96949
  20388795.625 6  -1322753.809 6  -1019880.78149  20388792.62949
  22929967.602 5   -229945.559 5   -173183.96147  22929965.27347
  22159011.375 6    207230.578 6    156298.06349  22159010.19949
 20  5 16  3 18 34.0000000  0  8G01G04G07G08G09G11G16G27            -0.000334742
  22209369.227 5  -2089019.906 5  -1576395.37149  22209371.50049
  23422582.508 5    183976.957 5    137904.65246  23422581.10246
  22206897.344 6  -1926126.680 6  -1462273.94149  22206894.62949
  20615109.617 7   -344623.820 7   -262476.03549  20615109.75449
  23227035.617 4   -208525.148 4   -159990.61349  23227036.66049
  20388116.547 6  -1326322.691 6  -1022661.72749  20388113.12149
  22929837.750 6   -230630.348 6   -173717.57047  22929835.00447
  22159099.617 6    207693.223 6    156658.56649  22159098.60549
 20  5 16  3 18 35.0000000  0  8G01G04G07G08G09G11G16G27            -0.000336157
  22208297.719 5  -2094650.098 5  -1580782.52749  22208299.85549
  23422660.297 5    184386.543 5    138223.81645  23422658.91045
  22205932.367 6  -1931199.270 6  -1466226.61349  22205929.18049
  20614930.648 7   -345564.578 7   -263209.09049  20614931.21549
  23226923.586 4   -209110.492 4   -160446.72349  23226925.25049
  20387437.352 6  -1329891.395 6  -1025442.53149  20387434.53949
  22929706.484 6   -231315.430 6   -174251.39547  22929704.91447
  22159187.227 6    208155.547 6    157018.81649  22159186.87149
 20  5 16  3 18 36.0000000  0  8G01G04G07G08G09G11G16G27            -0.000337568
  22207227.047 5  -2100280.379 5  -1585169.75849  22207228.89849
  23422737.875 5    184795.832 5    138542.73846  23422736.67646
  22204967.234 6  -1936271.871 6  -1470179.28949  22204964.09049
  20614751.664 7   -346505.363 7   -263942.17249  20614751.66049
  23226812.633 4   -209695.867 4   -160902.85249  23226814.09849
  20386758.516 7  -1333459.883 7  -1028223.17249  20386755.18449
  22929576.773 5   -232000.727 5   -174785.39847  22929574.36347
  22159274.844 6    208617.668 6    157378.91049  22159273.91049
 20  5 16  3 18 37.0000000  0  8G01G04G07G08G09G11G16G27            -0.000338982
  22206155.500 5  -2105910.938 5  -1589557.20749  22206157.31649
  23422815.719 5    185204.582 5    138861.19946  23422814.38746
  22204001.586 6  -1941344.711 6  -1474132.14849  22203998.54749
  20614572.727 7   -347446.418 7   -264675.46549  20614572.39849
  23226700.945 4   -210281.465 4   -161359.17249  23226702.48849
  20386079.383 6  -1337028.391 6  -1031003.83249  20386076.35949
  22929446.023 5   -232686.504 5   -175319.77747  22929443.77047
  22159362.727 6    209079.293 6    157738.61749  22159362.07049
 20  5 16  3 18 38.0000000  0  8G01G04G07G08G09G11G16G27            -0.000340393
  22205084.063 5  -2111541.777 5  -1593944.86749  22205085.90649
  23422893.609 5    185612.855 5    139179.33246  23422892.32846
  22203036.773 6  -1946417.773 6  -1478085.18849  22203033.27749
  20614393.445 7   -348387.734 7   -265408.95349  20614393.87149
  23226589.625 4   -210867.340 4   -161815.70349  23226591.09049
  20385400.266 7  -1340596.887 7  -1033784.47349  20385397.15249
  22929315.797 5   -233372.723 5   -175854.49647  22929313.00447
  22159450.664 6    209540.445 6    158097.96149  22159449.94549
 20  5 16  3 18 39.0000000  0  8G01G04G07G08G09G11G16G27            -0.000341808
  22204012.492 5  -2117172.855 5  -1598332.72349  22204014.13749
  23422971.539 5    186020.645 5    139497.09446  23422969.83646
  22202071.266 6  -1951491.055 6  -1482038.38749  22202068.10549
  20614214.328 7   -349329.273 7   -266142.62149  20614214.34049
  23226478.688 4   -211453.391 4   -162272.36349  23226479.42649
  20384721.313 7  -1344165.352 7  -1036565.09849  20384717.89549
  22929185.219 5   -234059.410 5   -176389.58247  22929182.29747
  22159538.664 6    210001.199 6    158456.98049  22159537.66849
 20  5 16  3 18 40.0000000  0  8G01G04G07G08G09G11G16G27            -0.000343222
  22202941.164 5  -2122804.168 5  -1602720.75849  22202942.90249
  23423048.883 5    186427.945 5    139814.49246  23423047.91846
  22201105.219 6  -1956564.480 6  -1485991.70749  22201102.50849
  20614035.008 7   -350271.027 7   -266876.45349  20614035.09049
  23226366.555 4   -212039.693 4   -162729.22149  23226367.79349
  20384042.414 7  -1347733.777 7  -1039345.68849  20384038.91849
  22929053.961 5   -234746.488 5   -176924.96947  22929051.86347
  22159626.133 6    210461.531 6    158815.68849  22159625.69949
 20  5 16  3 18 41.0000000  0  8G01G04G07G08G09G11G16G27            -0.000344637
  22201869.391 5  -2128435.779 5  -1607109.02849  22201870.95349
  23423126.258 5    186834.754 5    140131.47746  23423125.12546
  22200140.164 6  -1961638.219 6  -1489945.27349  22200137.04349
  20613855.727 7   -351213.066 7   -267610.50849  20613855.90249
  23226254.352 4   -212626.258 4   -163186.28549  23226256.15249
  20383363.070 6  -1351302.227 6  -1042126.29749  20383359.93449
  22928922.859 5   -235434.070 5   -177460.74247  22928920.73847
  22159713.953 6    210921.375 6    159174.01249  22159712.64149
 20  5 16  3 18 42.0000000  0  8G01G04G07G08G09G11G16G27            -0.000346052
  22200797.578 5  -2134067.496 5  -1611497.38349  22200799.14149
  23423203.484 5    187241.207 5    140448.18846  23423202.24646
  22199174.016 6  -1966712.004 6  -1493898.87149  22199171.07449
  20613676.180 7   -352155.172 7   -268344.61749  20613676.66449
  23226142.883 4   -213212.797 4   -163643.32049  23226144.43049
  20382683.797 7  -1354870.516 7  -1044906.78149  20382681.07049
  22928793.094 5   -236121.918 5   -177996.71947  22928790.11347
  22159801.430 6    211380.953 6    159532.14149  22159800.19149
 20  5 16  3 18 43.0000000  0  8G01G04G07G08G09G11G16G27            -0.000347467
  22199725.414 5  -2139699.527 5  -1615885.98049  22199727.38349
  23423281.156 5    187647.109 5    140764.43846  23423279.08646
  22198208.828 6  -1971786.035 6  -1497852.65649  22198205.54749
  20613497.250 7   -353097.598 7   -269078.97749  20613497.28549
  23226031.609 4   -213799.695 4   -164100.65649  23226033.03149
  20382005.102 7  -1358438.852 7  -1047687.31649  20382001.89549
  22928661.313 5   -236810.297 5   -178533.11347  22928658.81647
  22159888.703 6    211839.961 6    159889.82849  22159887.15249
 20  5 16  3 18 44.0000000  0  8G01G04G07G08G09G11G16G27            -0.000348881
  22198654.313 5  -2145331.957 5  -1620274.88349  22198655.90649
  23423357.953 5    188052.414 5    141080.25846  23423356.44946
  22197243.414 6  -1976860.375 6  -1501806.68849  22197240.30549
  20613317.891 7   -354040.359 7   -269813.59849  20613317.96949
  23225919.602 4   -214386.973 4   -164558.27049  23225921.15249
  20381325.875 6  -1362007.289 6  -1050467.91049  20381323.15249
  22928530.844 5   -237499.227 5   -179069.94947  22928527.94147
  22159975.594 6    212298.383 6    160247.02749  22159974.46549
 20  5 16  3 18 45.0000000  0  8G01G04G07G08G09G11G16G27            -0.000350298
  22197582.305 5  -2150964.418 5  -1624663.80949  22197583.82849
  23423434.203 5    188457.434 5    141395.84446  23423433.42646
  22196277.867 6  -1981934.711 6  -1505760.71949  22196274.52749
  20613138.422 7   -354983.129 7   -270548.22749  20613138.67249
  23225808.133 4   -214974.227 4   -165015.87549  23225809.69949
  20380646.922 6  -1365575.477 6  -1053248.31349  20380643.71149
  22928399.086 6   -238188.320 6   -179606.91047  22928396.57847
  22160062.766 6    212756.645 6    160604.08249  22160062.20349
 20  5 16  3 18 46.0000000  0  8G01G04G07G08G09G11G16G27            -0.000351713
  22196510.414 5  -2156596.996 5  -1629052.82049  22196512.08249
  23423511.477 5    188862.063 5    141711.15646  23423510.89546
  22195312.195 6  -1987009.180 6  -1509714.84849  22195308.89149
  20612959.211 7   -355926.023 7   -271282.95349  20612959.14149
  23225696.133 4   -215561.613 4   -165473.57849  23225697.61349
  20379967.906 6  -1369143.547 6  -1056028.62549  20379965.01649
  22928267.898 6   -238877.816 6   -180144.18447  22928265.63747
  22160149.898 6    213214.547 6    160960.87549  22160148.89149
 20  5 16  3 18 47.0000000  0  8G01G04G07G08G09G11G16G27            -0.000353130
  22195438.133 5  -2162229.836 5  -1633442.04749  22195440.03549
  23423588.031 5    189266.250 5    142026.12546  23423588.16046
  22194346.289 6  -1992083.816 6  -1513669.10549  22194342.95349
  20612779.570 7   -356869.113 7   -272017.82849  20612779.77349
  23225584.500 4   -216149.141 4   -165931.38749  23225585.73049
  20379289.156 7  -1372711.551 7  -1058808.87949  20379286.02749
  22928137.172 6   -239567.688 6   -180681.75047  22928134.56347
  22160236.773 6    213672.051 6    161317.36349  22160236.63349
 20  5 16  3 18 48.0000000  0  8G01G04G07G08G09G11G16G27            -0.000354546
  22194366.180 5  -2167862.898 5  -1637831.45349  22194368.07049
  23423665.055 5    189669.941 5    142340.70346  23423664.48446
  22193380.711 6  -1997158.652 6  -1517623.51649  22193377.53949
  20612599.688 7   -357812.434 7   -272752.87549  20612599.99249
  23225472.711 4   -216736.930 4   -166389.41049  23225473.83649
  20378610.180 6  -1376279.559 6  -1061589.15249  20378606.84449
  22928006.016 5   -240258.012 5   -181219.66447  22928003.17647
  22160323.969 6    214129.102 6    161673.50849  22160322.91449
 20  5 16  3 18 49.0000000  0  8G01G04G07G08G09G11G16G27            -0.000355965
  22193294.516 5  -2173496.137 5  -1642220.98449  22193295.98049
  23423742.227 5    190073.277 5    142654.97346  23423741.62946
  22192414.883 6  -2002233.582 6  -1521578.00449  22192411.75049
  20612420.336 7   -358755.879 7   -273488.02349  20612420.44149
  23225360.680 4   -217324.773 4   -166847.47349  23225361.96549
  20377931.297 6  -1379847.414 6  -1064369.29349  20377928.09449
  22927873.758 5   -240948.652 5   -181757.82847  22927871.22347
  22160411.125 6    214585.840 6    162029.40649  22160410.43449
 20  5 16  3 18 50.0000000  0  8G01G04G07G08G09G11G16G27            -0.000357380
  22192222.461 5  -2179129.637 5  -1646610.72749  22192224.43049
  23423818.672 5    190476.074 5    142968.82446  23423818.32046
  22191448.766 6  -2007308.773 6  -1525532.69949  22191445.95349
  20612240.703 7   -359699.629 7   -274223.41849  20612241.09849
  23225248.859 4   -217912.957 4   -167305.79749  23225250.30149
  20377251.984 6  -1383415.313 6  -1067149.48049  20377248.91449
  22927742.711 5   -241639.805 5   -182296.38747  22927739.80547
  22160497.969 6    215042.055 6    162384.90649  22160497.16049
 20  5 16  3 18 51.0000000  0  8G01G04G07G08G09G11G16G27            -0.000358799
  22191150.375 5  -2184763.422 5  -1651000.68849  22191152.21149
  23423895.414 5    190878.363 5    143282.30146  23423894.74646
  22190483.023 6  -2012384.203 6  -1529487.57849  22190480.15249
  20612061.352 7   -360643.629 7   -274959.00449  20612061.23849
  23225136.656 4   -218501.402 4   -167764.32449  23225138.37549
  20376573.180 6  -1386983.203 6  -1069929.65649  20376569.88349
  22927611.203 6   -242331.395 6   -182835.28947  22927608.50447
  22160584.727 6    215497.828 6    162740.05149  22160583.55549
 20  5 16  3 18 52.0000000  0  8G01G04G07G08G09G11G16G27            -0.000360216
  22190078.117 5  -2190397.270 5  -1655390.69549  22190080.34049
  23423971.195 5    191280.367 5    143595.54346  23423971.18446
  22189517.422 6  -2017459.586 6  -1533442.42249  22189514.23449
  20611881.820 7   -361587.648 7   -275694.59849  20611881.84849
  23225025.141 4   -219089.789 4   -168222.82049  23225025.92249
  20375894.391 6  -1390550.848 6  -1072709.64149  20375891.13349
  22927479.250 5   -243023.215 5   -183374.37547  22927476.44147
  22160671.438 6    215953.363 6    163095.01249  22160670.66049
 20  5 16  3 18 53.0000000  0  8G01G04G07G08G09G11G16G27            -0.000361635
  22189006.016 5  -2196031.277 5  -1659780.82449  22189007.83649
  23424047.625 5    191681.973 5    143908.48846  23424047.79746
  22188551.891 6  -2022535.133 6  -1537397.39149  22188548.75449
  20611701.984 7   -362531.848 7   -276430.34049  20611702.06649
  23224913.094 4   -219678.367 4   -168681.45349  23224914.33649
  20375215.375 7  -1394118.402 7  -1075489.55149  20375212.43049
  22927347.617 6   -243715.402 6   -183913.74247  22927344.94947
  22160758.055 6    216408.563 6    163449.71149  22160757.15649
 20  5 16  3 18 54.0000000  0  8G01G04G07G08G09G11G16G27            -0.000363052
  22187934.281 5  -2201665.594 5  -1664171.19949  22187935.87149
  23424124.625 5    192083.016 5    144220.97746  23424124.46946
  22187585.945 6  -2027610.953 6  -1541352.57849  22187582.73849
  20611522.195 7   -363476.344 7   -277166.31649  20611522.22749
  23224801.109 4   -220267.242 4   -169140.31349  23224802.23449
  20374536.516 6  -1397686.020 6  -1078269.51249  20374533.06349
  22927215.461 6   -244408.102 6   -184453.51247  22927213.24647
  22160844.602 6    216863.207 6    163803.98049  22160843.55549
 20  5 16  3 18 55.0000000  0  8G01G04G07G08G09G11G16G27            -0.000364471
  22186861.930 5  -2207300.195 5  -1668561.79749  22186863.66449
  23424201.281 5    192483.584 5    144533.10146  23424200.46146
  22186619.914 6  -2032686.965 6  -1545307.91049  22186616.82849
  20611342.172 7   -364421.059 7   -277902.45749  20611342.69149
  23224689.414 4   -220856.332 4   -169599.34849  23224690.21949
  20373857.930 7  -1401253.598 7  -1081049.44549  20373854.55549
  22927083.430 6   -245101.227 6   -184993.61347  22927081.52047
  22160930.914 6    217317.434 6    164157.91849  22160929.98049
 20  5 16  3 18 56.0000000  0  8G01G04G07G08G09G11G16G27            -0.000365891
  22185789.297 5  -2212935.035 5  -1672952.57849  22185791.23049
  23424277.156 5    192883.664 5    144844.81646  23424276.58646
  22185653.867 6  -2037763.195 6  -1549263.41449  22185650.97349
  20611162.453 7   -365365.988 7   -278638.76249  20611162.80949
  23224577.133 5   -221445.641 5   -170058.54349  23224577.87149
  20373179.281 6  -1404821.129 6  -1083829.34049  20373175.54749
  22926951.578 6   -245794.789 6   -185534.05547  22926949.37547
  22161017.328 6    217771.203 6    164511.50449  22161016.39149
 20  5 16  3 18 57.0000000  0  8G01G04G07G08G09G11G16G27            -0.000367311
  22184717.242 5  -2218569.918 5  -1677343.39549  22184719.03549
  23424353.094 5    193283.426 5    145156.28946  23424353.01246
  22184687.398 6  -2042839.410 6  -1553218.90649  22184684.76649
  20610982.703 7   -366310.961 7   -279375.10549  20610982.71949
  23224464.773 5   -222034.980 5   -170517.77049  23224465.76649
  20372500.227 6  -1408388.477 6  -1086609.09449  20372497.03549
  22926819.188 6   -246488.598 6   -186074.68047  22926817.57047
  22161103.992 6    218224.750 6    164864.92249  22161102.89549
 20  5 16  3 18 58.0000000  0  8G01G04G07G08G09G11G16G27            -0.000368729
  22183644.445 5  -2224205.082 5  -1681734.43849  22183646.91849
  23424428.883 5    193682.680 5    145467.38346  23424428.43846
  22183721.547 6  -2047915.859 6  -1557174.57849  22183718.69549
  20610802.992 7   -367256.180 7   -280111.64849  20610802.89549
  23224353.195 5   -222624.586 5   -170977.20349  23224353.33649
  20371821.039 6  -1411955.801 6  -1089388.82449  20371817.91449
  22926687.867 6   -247182.828 6   -186615.64147  22926685.18847
  22161189.648 6    218677.828 6    165217.96949  22161188.93849
 20  5 16  3 18 59.0000000  0  8G01G04G07G08G09G11G16G27            -0.000370152
  22182572.438 5  -2229840.574 5  -1686125.72749  22182574.25449
  23424504.656 5    194081.379 5    145778.07046  23424504.88346
  22182755.414 6  -2052992.598 6  -1561130.48049  22182752.65649
  20610623.000 7   -368201.723 7   -280848.43049  20610623.03549
  23224240.188 5   -223214.414 5   -171436.80949  23224241.53549
  20371142.273 6  -1415523.188 6  -1092168.60949  20371139.31649
  22926555.797 6   -247877.641 6   -187157.05547  22926553.17647
  22161275.828 6    219130.355 6    165570.59049  22161275.23449
 20  5 16  3 19  0.0000000  0  8G01G04G07G08G09G11G16G27            -0.000371569
  22181499.758 5  -2235476.250 5  -1690517.15649  22181501.84049
  23424580.875 5    194479.691 5    146088.46546  23424580.58246
  22181789.664 6  -2058069.461 6  -1565086.48049  22181786.54349
  20610443.195 7   -369147.445 7   -281585.35949  20610443.52349
  23224128.344 4   -223804.457 4   -171896.59048  23224128.91048
  20370463.805 6  -1419090.480 6  -1094948.31649  20370460.42649
  22926423.133 5   -248572.758 5   -187698.71147  22926420.37547
  22161362.070 6    219582.547 6    165922.94549  22161361.28949
 20  5 16  3 19  1.0000000  0  8G01G04G07G08G09G11G16G27            -0.000372992
  22180427.750 5  -2241112.141 5  -1694908.76249  22180429.41449
  23424656.672 5    194877.492 5    146398.46546  23424656.46546
  22180823.555 6  -2063146.512 6  -1569042.62549  22180820.69549
  20610262.938 7   -370093.383 7   -282322.44949  20610262.77749
  23224015.461 4   -224394.676 4   -172356.50848  23224016.23048
  20369784.688 6  -1422657.754 6  -1097728.01249  20369781.18449
  22926291.195 5   -249268.359 5   -188240.73847  22926288.58647
  22161448.195 6    220034.313 6    166274.96949  22161447.08649
 20  5 16  3 19  2.0000000  0  8G01G04G07G08G09G11G16G27            -0.000374411
  22179355.008 5  -2246748.359 5  -1699300.61349  22179356.90249
  23424732.578 5    195274.727 5    146708.01646  23424732.41846
  22179856.875 6  -2068223.844 6  -1572998.98849  22179854.07049
  20610082.969 7   -371039.637 7   -283059.78949  20610082.96549
  23223903.586 4   -224985.230 4   -172816.67648  23223904.09848
  20369105.813 6  -1426225.063 6  -1100507.73449  20369102.38349
  22926158.344 5   -249964.441 5   -188783.13747  22926155.34047
  22161534.180 6    220485.539 6    166626.57449  22161533.30949
 20  5 16  3 19  3.0000000  0  8G01G04G07G08G09G11G16G27            -0.000375834
  22178281.938 5  -2252384.680 5  -1703692.55549  22178284.37149
  23424807.766 5    195671.641 5    147017.26246  23424807.82046
  22178890.961 6  -2073301.238 6  -1576955.39849  22178888.08249
  20609902.867 7   -371985.961 7   -283797.18449  20609902.69149
  23223790.523 5   -225575.859 5   -173276.92649  23223791.90649
  20368427.094 7  -1429792.188 7  -1103287.30949  20368424.17249
  22926025.609 5   -250660.797 5   -189325.74647  22926023.30547
  22161619.625 6    220936.492 6    166977.96549  22161618.62149
 20  5 16  3 19  4.0000000  0  8G01G04G07G08G09G11G16G27            -0.000377254
  22177209.922 5  -2258021.141 5  -1708084.59849  22177211.73449
  23424882.766 5    196068.223 5    147326.25846  23424883.48046
  22177924.852 6  -2078378.684 6  -1580911.85249  22177921.94549
  20609722.703 7   -372932.379 7   -284534.65649  20609722.71949
  23223677.992 4   -226166.535 4   -173737.19549  23223679.04349
  20367748.195 6  -1433359.176 6  -1106066.78149  20367745.31649
  22925893.820 6   -251357.457 6   -189868.59847  22925890.70747
  22161705.461 6    221387.098 6    167329.09049  22161704.84049
 20  5 16  3 19  5.0000000  0  8G01G04G07G08G09G11G16G27            -0.000378677
  22176137.445 5  -2263657.914 5  -1712476.89149  22176138.94149
  23424958.297 5    196464.207 5    147634.82846  23424959.07846
  22176958.742 6  -2083456.410 6  -1584868.52749  22176955.58249
  20609542.781 7   -373879.125 7   -285272.38749  20609542.26649
  23223565.891 4   -226757.543 4   -174197.71948  23223566.65248
  20367069.344 7  -1436926.227 7  -1108846.30149  20367066.65249
  22925760.422 6   -252054.672 6   -190411.88347  22925757.97347
  22161790.836 6    221837.219 6    167679.83649  22161790.30149
 20  5 16  3 19  6.0000000  0  8G01G04G07G08G09G11G16G27            -0.000380098
  22175064.695 5  -2269294.980 5  -1716869.40649  22175065.69149
  23425033.555 5    196859.688 5    147943.00846  23425033.86346
  22175991.961 6  -2088534.395 6  -1588825.39149  22175989.16449
  20609362.758 7   -374826.133 7   -286010.30949  20609362.44549
  23223453.594 4   -227348.801 4   -174658.43848  23223454.49248
  20366390.672 6  -1440493.289 6  -1111625.83249  20366387.72349
  22925627.727 6   -252752.340 6   -190955.52747  22925625.25447
  22161876.805 6    222286.855 6    168030.19549  22161875.84849
 20  5 16  3 19  7.0000000  0  8G01G04G07G08G09G11G16G27            -0.000381523
  22173991.773 5  -2274932.219 5  -1721262.06349  22173993.55549
  23425109.141 5    197254.723 5    148250.83246  23425109.24646
  22175025.859 6  -2093612.527 6  -1592782.37949  22175022.67249
  20609182.102 7   -375773.297 7   -286748.36349  20609181.87149
  23223340.375 4   -227940.246 4   -175119.30548  23223341.73848
  20365711.805 6  -1444060.266 6  -1114405.29749  20365708.77049
  22925494.961 6   -253450.387 6   -191499.45747  22925492.21547
  22161961.875 6    222736.121 6    168380.27049  22161961.30949
 20  5 16  3 19  8.0000000  0  8G01G04G07G08G09G11G16G27            -0.000382944
  22172919.125 5  -2280569.680 5  -1725654.89149  22172920.89149
  23425184.219 5    197649.320 5    148558.30946  23425184.49646
  22174059.242 6  -2098690.793 6  -1596739.46549  22174056.51649
  20609001.719 7   -376720.641 7   -287486.55549  20609001.50449
  23223228.430 4   -228531.836 4   -175580.28548  23223229.46148
  20365033.305 7  -1447627.137 7  -1117184.67649  20365030.12949
  22925361.789 6   -254148.801 6   -192043.68047  22925359.59047
  22162047.164 6    223184.973 6    168730.01649  22162046.78549
 20  5 16  3 19  9.0000000  0  8G01G04G07G08G09G11G16G27            -0.000384369
  22171846.383 5  -2286207.406 5  -1730047.92249  22171847.39149
  23425258.906 5    198043.439 5    148865.42646  23425259.34446
  22173092.859 6  -2103769.313 6  -1600696.75449  22173090.16449
  20608821.305 7   -377668.297 7   -288224.98049  20608821.19149
  23223115.539 4   -229123.703 4   -176041.48048  23223116.46948
  20364354.211 6  -1451194.059 6  -1119964.09449  20364350.85549
  22925228.984 6   -254847.719 6   -192588.30147  22925226.44147
  22162132.688 6    223633.352 6    169079.40249  22162132.24649
 20  5 16  3 19 10.0000000  0  8G01G04G07G08G09G11G16G27            -0.000385790
  22170773.570 5  -2291845.383 5  -1734441.15249  22170774.95349
  23425333.914 5    198437.020 5    149172.12546  23425334.25446
  22172126.469 6  -2108848.000 6  -1604654.17649  22172123.40249
  20608641.148 7   -378616.164 7   -288963.58249  20608641.15649
  23223003.289 4   -229715.789 4   -176502.84048  23223004.04348
  20363675.508 6  -1454760.922 6  -1122743.46949  20363672.76249
  22925096.336 6   -255547.063 6   -193133.23847  22925093.23447
  22162217.883 6    224081.313 6    169428.46149  22162217.48449
 20  5 16  3 19 11.0000000  0  8G01G04G07G08G09G11G16G27            -0.000387217
  22169700.148 5  -2297483.496 5  -1738834.48449  22169701.52049
  23425408.352 5    198830.258 5    149478.53946  23425409.44946
  22171159.992 6  -2113926.785 6  -1608611.66849  22171156.93849
  20608460.656 7   -379564.145 7   -289702.27049  20608460.39149
  23222890.570 4   -230307.969 4   -176964.28548  23222891.11348
  20362996.656 6  -1458327.664 6  -1125522.74649  20362993.67649
  22924963.148 6   -256246.707 6   -193678.41047  22924960.29747
  22162303.023 6    224528.949 6    169777.27049  22162302.55949
 20  5 16  3 19 12.0000000  0  8G01G04G07G08G09G11G16G27            -0.000388639
  22168627.789 5  -2303121.902 5  -1743228.04749  22168628.94949
  23425483.070 5    199222.957 5    149784.55146  23425483.99246
  22170193.656 6  -2119005.820 6  -1612569.35949  22170190.77349
  20608279.945 7   -380512.375 7   -290441.14849  20608280.02049
  23222777.711 4   -230900.422 4   -177425.94148  23222778.36348
  20362317.844 6  -1461894.430 6  -1128302.04349  20362315.32449
  22924829.914 6   -256946.832 6   -194223.96547  22924827.06647
  22162388.195 6    224976.082 6    170125.68449  22162387.63749
 20  5 16  3 19 13.0000000  0  8G01G04G07G08G09G11G16G27            -0.000390064
  22167554.500 5  -2308760.496 5  -1747621.75049  22167556.43449
  23425557.906 5    199615.219 5    150090.18846  23425558.34046
  22169227.141 6  -2124085.016 6  -1616527.17649  22169224.29749
  20608099.961 7   -381460.859 7   -291180.23049  20608099.82449
  23222664.531 4   -231493.047 4   -177887.73048  23222665.74248
  20361638.898 6  -1465461.109 6  -1131081.27749  20361636.29749
  22924696.656 6   -257647.367 6   -194769.83647  22924693.89847
  22162473.102 6    225422.820 6    170473.79349  22162472.56349
 20  5 16  3 19 14.0000000  0  8G01G04G07G08G09G11G16G27            -0.000391489
  22166481.133 5  -2314399.387 5  -1752015.69149  22166483.43849
  23425632.539 5    200006.977 5    150395.44946  23425632.91846
  22168260.422 6  -2129164.422 6  -1620485.14849  22168257.84849
  20607919.469 7   -382409.566 7   -291919.48049  20607919.13749
  23222551.961 4   -232085.898 4   -178349.69548  23222552.75048
  20360960.594 6  -1469027.805 6  -1133860.52349  20360957.57449
  22924563.266 6   -258348.344 6   -195316.05547  22924560.28147
  22162557.883 6    225869.105 6    170821.54349  22162557.68049
 20  5 16  3 19 15.0000000  0  8G01G04G07G08G09G11G16G27            -0.000392914
  22165408.141 5  -2320038.371 5  -1756409.70749  22165409.76249
  23425707.438 5    200398.371 5    150700.39546  23425707.82846
  22167294.117 6  -2134243.859 6  -1624443.15649  22167290.89149
  20607738.711 7   -383358.340 7   -292658.78949  20607738.63749
  23222438.273 4   -232678.902 4   -178811.77748  23222439.73848
  20360282.242 6  -1472594.305 6  -1136639.61349  20360278.93449
  22924430.063 6   -259049.609 6   -195862.50047  22924426.87147
  22162642.906 6    226315.102 6    171169.06649  22162642.42249
 20  5 16  3 19 16.0000000  0  8G01G04G07G08G09G11G16G27            -0.000394339
  22164335.414 5  -2325677.523 5  -1760803.84849  22164336.62549
  23425781.641 5    200789.395 5    151005.08646  23425781.80946
  22166327.469 6  -2139323.441 6  -1628401.27049  22166324.14149
  20607558.297 7   -384307.270 7   -293398.21549  20607558.36349
  23222325.992 4   -233271.984 4   -179273.91848  23222326.88348
  20359603.344 6  -1476160.734 6  -1139418.64549  20359600.29749
  22924296.016 6   -259751.234 6   -196409.22347  22924293.24647
  22162727.930 6    226760.715 6    171516.30149  22162727.33249
 20  5 16  3 19 17.0000000  0  8G01G04G07G08G09G11G16G27            -0.000395765
  22163261.977 5  -2331316.770 5  -1765198.05949  22163263.62549
  23425856.102 5    201180.039 5    151309.48446  23425856.49246
  22165360.555 6  -2144403.121 6  -1632359.46549  22165357.80549
  20607377.398 7   -385256.328 7   -294137.73849  20607377.54349
  23222212.352 4   -233865.188 4   -179736.15248  23222214.20348
  20358924.555 6  -1479726.988 6  -1142197.54749  20358921.61349
  22924162.313 6   -260453.184 6   -196956.20347  22924159.89547
  22162812.422 6    227206.020 6    171863.28949  22162812.06349
 20  5 16  3 19 18.0000000  0  8G01G04G07G08G09G11G16G27            -0.000397190
  22162189.102 5  -2336956.340 5  -1769592.53949  22162190.60549
  23425930.008 5    201570.129 5    151613.44946  23425930.51246
  22164394.227 6  -2149483.023 6  -1636317.83249  22164390.98849
  20607196.875 7   -386205.660 7   -294877.47749  20607196.85249
  23222099.641 3   -234458.656 3   -180198.60248  23222100.91448
  20358246.063 6  -1483293.273 6  -1144976.47349  20358243.04749
  22924028.719 6   -261155.590 6   -197503.52747  22924026.15647
  22162897.211 6    227650.824 6    172209.89149  22162896.69549
 20  5 16  3 19 19.0000000  0  8G01G04G07G08G09G11G16G27            -0.000398619
  22161115.805 5  -2342596.102 5  -1773987.15249  22161117.57849
  23426003.875 5    201959.801 5    151917.10246  23426004.53546
  22163427.688 6  -2154563.109 6  -1640276.34049  22163424.39849
  20607016.391 7   -387155.184 7   -295617.36749  20607016.21149
  23221986.672 4   -235052.332 4   -180661.21148  23221988.21148
  20357567.250 6  -1486859.500 6  -1147755.34849  20357564.42649
  22923895.234 6   -261858.414 6   -198051.18047  22923892.43447
  22162981.734 6    228095.246 6    172556.19549  22162981.34049
 20  5 16  3 19 20.0000000  0  8G01G04G07G08G09G11G16G27            -0.000400043
  22160042.297 5  -2348236.059 5  -1778381.92249  22160044.30549
  23426078.609 5    202349.035 5    152220.38346  23426078.43446
  22162460.555 6  -2159643.273 6  -1644234.90649  22162457.50449
  20606835.250 7   -388104.867 7   -296357.38349  20606836.06649
  23221873.898 4   -235646.117 4   -181123.89848  23221875.07448
  20356889.047 6  -1490425.633 6  -1150534.15649  20356885.85249
  22923761.055 6   -262561.594 6   -198599.10947  22923758.66847
  22163065.977 6    228539.309 6    172902.21549  22163065.61749
 20  5 16  3 19 21.0000000  0  8G01G04G07G08G09G11G16G27            -0.000401472
  22158969.609 5  -2353876.164 5  -1782776.81349  22158970.67249
  23426152.734 5    202737.852 5    152523.35946  23426152.70346
  22161494.266 6  -2164723.598 6  -1648193.59849  22161490.84849
  20606654.547 7   -389054.715 7   -297097.52349  20606654.87949
  23221760.773 4   -236240.066 4   -181586.71548  23221761.83648
  20356210.063 6  -1493991.652 6  -1153312.87549  20356207.01649
  22923627.828 6   -263265.137 6   -199147.32847  22923625.04347
  22163150.914 6    228982.988 6    173247.94149  22163149.94149
 20  5 16  3 19 22.0000000  0  8G01G04G07G08G09G11G16G27            -0.000402897
  22157895.750 5  -2359516.617 5  -1787171.96949  22157897.75049
  23426226.359 5    203126.090 5    152825.86746  23426226.44946
  22160527.375 6  -2169804.199 6  -1652152.50849  22160524.41449
  20606474.094 7   -390004.891 7   -297837.92249  20606474.05549
  23221647.477 4   -236834.348 4   -182049.79748  23221648.83248
  20355531.539 6  -1497557.746 6  -1156091.64549  20355528.75849
  22923493.344 6   -263969.191 6   -199695.94147  22923491.05547
  22163235.000 6    229426.133 6    173593.24249  22163234.52049
 20  5 16  3 19 23.0000000  0  8G01G04G07G08G09G11G16G27            -0.000404327
  22156822.273 5  -2365157.348 5  -1791567.34049  22156824.17249
  23426300.000 5    203513.789 5    153127.98046  23426300.34446
  22159560.789 6  -2174885.074 6  -1656111.62949  22159557.12549
  20606293.180 7   -390955.340 7   -298578.53149  20606293.28949
  23221534.539 3   -237428.852 3   -182513.05548  23221536.09048
  20354852.656 6  -1501123.859 6  -1158870.43849  20354849.85949
  22923359.016 6   -264673.727 6   -200244.93447  22923356.98447
  22163319.430 6    229868.789 6    173938.16849  22163318.57049
 20  5 16  3 19 24.0000000  0  8G01G04G07G08G09G11G16G27            -0.000405752
  22155749.203 5  -2370798.309 5  -1795962.89149  22155750.53149
  23426374.125 5    203901.047 5    153429.74646  23426374.17246
  22158593.453 6  -2179966.121 6  -1660070.88749  22158590.41449
  20606112.117 7   -391906.027 7   -299319.32049  20606112.35249
  23221420.813 3   -238023.617 3   -182976.52048  23221422.18448
  20354174.633 6  -1504689.938 6  -1161649.19949  20354171.02049
  22923225.289 6   -265378.695 6   -200794.25847  22923222.67647
  22163403.289 6    230311.012 6    174282.75449  22163402.64149
 20  5 16  3 19 25.0000000  0  8G01G04G07G08G09G11G16G27            -0.000407183
  22154675.773 5  -2376439.426 5  -1800358.56649  22154677.75849
  23426447.875 5    204287.914 5    153731.19946  23426447.69946
  22157626.609 6  -2185047.234 6  -1664030.19549  22157623.62149
  20605931.078 7   -392856.805 7   -300060.19549  20605931.37149
  23221307.930 3   -238618.480 3   -183440.04348  23221309.32448
  20353495.711 7  -1508255.863 7  -1164427.83249  20353492.74249
  22923090.859 6   -266083.988 6   -201343.83647  22923088.24247
  22163487.609 6    230752.930 6    174627.10549  22163486.65649
 20  5 16  3 19 26.0000000  0  8G01G04G07G08G09G11G16G27            -0.000408609
  22153601.828 5  -2382080.867 5  -1804754.50049  22153603.76249
  23426521.000 5    204674.223 5    154032.22346  23426520.89546
  22156659.766 6  -2190128.645 6  -1667989.73449  22156656.47749
  20605749.828 7   -393807.883 7   -300801.28949  20605750.52349
  23221194.305 3   -239213.633 3   -183903.79748  23221195.99648
  20352817.031 6  -1511821.832 6  -1167206.51649  20352814.02349
  22922956.891 6   -266789.766 6   -201893.79347  22922954.48047
  22163571.344 6    231194.309 6    174971.03949  22163570.87549
 20  5 16  3 19 27.0000000  0  8G01G04G07G08G09G11G16G27            -0.000410040
  22152528.672 5  -2387722.617 5  -1809150.66049  22152530.18449
  23426594.547 5    205059.922 5    154332.76646  23426594.31346
  22155692.828 6  -2195210.332 6  -1671949.49249  22155689.43049
  20605568.789 7   -394759.316 7   -301542.66849  20605569.44549
  23221081.250 3   -239809.145 3   -184367.83648  23221082.87548
  20352138.641 7  -1515387.883 7  -1169985.25449  20352135.19949
  22922822.352 6   -267496.105 6   -202444.19147  22922819.69147
  22163655.352 6    231635.160 6    175314.55949  22163654.65649
 20  5 16  3 19 28.0000000  0  8G01G04G07G08G09G11G16G27            -0.000411469
  22151454.883 5  -2393364.469 5  -1813546.91049  22151456.64849
  23426667.898 5    205445.313 5    154633.07846  23426667.85546
  22154725.523 6  -2200292.094 6  -1675909.30949  22154722.80549
  20605388.164 7   -395710.836 7   -302284.11749  20605388.14549
  23220967.531 3   -240404.652 3   -184831.87548  23220969.24248
  20351460.023 6  -1518953.746 6  -1172763.85549  20351457.31349
  22922687.883 6   -268202.711 6   -202994.78947  22922685.28147
  22163739.242 6    232075.723 6    175657.85549  22163738.62949
 20  5 16  3 19 29.0000000  0  8G01G04G07G08G09G11G16G27            -0.000412899
  22150381.078 5  -2399006.574 5  -1817943.35549  22150382.75849
  23426740.609 5    205830.250 5    154933.02046  23426740.64546
  22153758.789 6  -2205374.008 6  -1679869.23849  22153755.50849
  20605206.492 7   -396662.563 7   -303025.71949  20605207.13349
  23220855.133 3   -241000.383 3   -185296.09048  23220855.64148
  20350781.492 6  -1522519.574 6  -1175542.42249  20350778.19949
  22922553.516 6   -268909.715 6   -203545.70747  22922551.10547
  22163822.500 6    232515.859 6    176000.81649  22163822.14149
 20  5 16  3 19 30.0000000  0  8G01G04G07G08G09G11G16G27            -0.000414328
  22149307.844 5  -2404648.895 5  -1822339.96949  22149309.26649
  23426814.227 5    206214.621 5    155232.51646  23426813.80946
  22152791.305 6  -2210456.160 6  -1683829.36349  22152788.57849
  20605025.750 7   -397614.570 7   -303767.54349  20605026.43049
  23220741.719 3   -241596.438 3   -185760.54348  23220742.65248
  20350102.781 6  -1526085.387 6  -1178320.97749  20350099.52749
  22922418.766 6   -269617.211 6   -204097.00847  22922416.20347
  22163906.797 6    232955.523 6    176343.41449  22163906.65649
 20  5 16  3 19 31.0000000  0  8G01G04G07G08G09G11G16G27            -0.000415760
  22148233.813 5  -2410291.461 5  -1826736.77349  22148235.46949
  23426887.047 5    206598.613 5    155531.72746  23426887.16846
  22151824.180 6  -2215538.457 6  -1687789.59849  22151821.44549
  20604844.508 7   -398566.762 7   -304509.51249  20604845.02749
  23220627.969 3   -242192.613 3   -186225.09048  23220629.09848
  20349424.320 6  -1529651.148 6  -1181099.49249  20349420.84849
  22922284.320 6   -270325.078 6   -204648.59447  22922281.32447
  22163990.000 6    233394.805 6    176685.70749  22163989.54749
 20  5 16  3 19 32.0000000  0  8G01G04G07G08G09G11G16G27            -0.000417189
  22147159.680 5  -2415934.270 5  -1831133.76649  22147161.62149
  23426960.023 5    206982.074 5    155830.52346  23426959.75446
  22150856.984 6  -2220620.941 6  -1691749.96949  22150854.23449
  20604663.313 7   -399519.156 7   -305251.63749  20604663.71549
  23220513.766 3   -242788.996 3   -186689.80948  23220515.55548
  20348745.563 6  -1533216.855 6  -1183877.96549  20348742.32449
  22922149.352 6   -271033.371 6   -205200.51647  22922146.39547
  22164073.719 6    233833.645 6    177027.66449  22164072.98049
 20  5 16  3 19 33.0000000  0  8G01G04G07G08G09G11G16G27            -0.000418621
  22146086.266 5  -2421577.375 5  -1835530.98449  22146087.76249
  23427032.805 5    207365.020 5    156128.91846  23427032.95746
  22149890.047 6  -2225703.680 6  -1695710.54749  22149887.08649
  20604482.125 7   -400471.879 7   -305994.02049  20604482.08249
  23220400.148 3   -243385.684 3   -187154.76248  23220402.09848
  20348067.477 6  -1536782.602 6  -1186656.47349  20348064.04749
  22922014.344 6   -271742.184 6   -205752.84047  22922011.50447
  22164157.031 6    234272.000 6    177369.23449  22164156.90649
 20  5 16  3 19 34.0000000  0  8G01G04G07G08G09G11G16G27            -0.000420050
  22145012.398 5  -2427220.668 5  -1839928.35949  22145014.12149
  23427105.797 5    207747.531 5    156426.99246  23427105.43446
  22148922.945 6  -2230786.594 6  -1699671.26249  22148919.51649
  20604300.875 7   -401424.758 7   -306736.52349  20604300.75049
  23220286.156 3   -243982.555 3   -187619.85948  23220288.13348
  20347388.844 6  -1540348.285 6  -1189434.93049  20347385.60549
  22921879.297 6   -272451.363 6   -206305.44547  22921876.49247
  22164240.656 6    234709.945 6    177710.48849  22164240.03949
 20  5 16  3 19 35.0000000  0  8G01G04G07G08G09G11G16G27            -0.000421484
  22143938.156 5  -2432864.074 5  -1844325.81649  22143940.16449
  23427178.391 5    208129.645 5    156724.75846  23427178.21146
  22147955.250 6  -2235869.559 6  -1703632.01649  22147952.28149
  20604119.680 7   -402377.742 7   -307479.10949  20604119.77349
  23220172.664 2   -244579.496 2   -188085.01648  23220174.75448
  20346710.070 6  -1543913.816 6  -1192213.26249  20346706.89149
  22921744.711 6   -273160.840 6   -206858.29747  22921741.82447
  22164323.250 6    235147.539 6    178051.46949  22164322.77349
 20  5 16  3 19 36.0000000  0  8G01G04G07G08G09G11G16G27            -0.000422913
  22142864.383 5  -2438507.770 5  -1848723.50049  22142866.18049
  23427251.289 5    208511.242 5    157022.10546  23427250.73446
  22146988.031 6  -2240952.758 6  -1707592.95349  22146984.82449
  20603937.781 7   -403331.039 7   -308221.93449  20603938.33649
  23220060.055 2   -245176.672 2   -188550.35248  23220061.28548
  20346031.500 6  -1547479.359 6  -1194991.60549  20346028.68449
  22921609.031 6   -273870.805 6   -207411.50847  22921606.50847
  22164406.828 6    235584.691 6    178392.10949  22164406.17249
 20  5 16  3 19 37.0000000  0  8G01G04G07G08G09G11G16G27            -0.000424347
  22141790.297 5  -2444151.566 5  -1853121.25449  22141792.31349
  23427324.094 5    208892.508 5    157319.18446  23427323.35946
  22146020.453 6  -2246036.020 6  -1711553.93449  22146017.77349
  20603756.844 7   -404284.371 7   -308964.78949  20603756.66049
  23219946.172 2   -245774.047 2   -189015.84048  23219947.42648
  20345353.430 6  -1551044.746 6  -1197769.83249  20345349.73449
  22921474.594 6   -274581.047 6   -207964.94147  22921471.64147
  22164490.000 6    236021.555 6    178732.52349  22164489.55549
 20  5 16  3 19 38.0000000  0  8G01G04G07G08G09G11G16G27            -0.000425777
  22140716.555 5  -2449795.609 5  -1857519.19949  22140718.36749
  23427396.094 5    209273.273 5    157615.87146  23427395.59846
  22145053.492 6  -2251119.488 6  -1715515.07849  22145050.75849
  20603575.141 7   -405237.957 7   -309707.84449  20603575.64149
  23219832.938 3   -246371.535 3   -189481.41448  23219833.84048
  20344674.711 6  -1554610.066 6  -1200548.00849  20344671.42649
  22921338.852 6   -275291.762 6   -208518.74647  22921336.45747
  22164573.047 6    236457.953 6    179072.56649  22164572.18849
 20  5 16  3 19 39.0000000  0  8G01G04G07G08G09G11G16G27            -0.000427212
  22139642.188 5  -2455439.945 5  -1861917.38349  22139643.98049
  23427468.656 5    209653.496 5    157912.12546  23427467.74246
  22144086.109 6  -2256203.203 6  -1719476.41049  22144082.95349
  20603393.516 7   -406191.820 7   -310451.11749  20603393.71949
  23219718.055 2   -246969.355 2   -189947.26248  23219720.37948
  20343996.461 6  -1558175.461 6  -1203326.23449  20343993.23049
  22921203.883 6   -276002.934 6   -209072.91447  22921200.64147
  22164656.375 6    236893.848 6    179412.22749  22164655.83649
 20  5 16  3 19 40.0000000  0  8G01G04G07G08G09G11G16G27            -0.000428644
  22138568.336 5  -2461084.531 5  -1866315.76649  22138570.14149
  23427540.945 5    210033.188 5    158207.98046  23427540.55946
  22143118.273 6  -2261287.129 6  -1723437.91049  22143115.39549
  20603212.227 7   -407145.945 7   -311194.59849  20603211.81349
  23219604.242 2   -247567.398 2   -190413.27048  23219606.22348
  20343317.703 6  -1561740.836 6  -1206104.44549  20343314.77349
  22921067.930 6   -276714.566 6   -209627.43847  22921065.10947
  22164738.742 6    237329.289 6    179751.52749  22164738.20749
 20  5 16  3 19 41.0000000  0  8G01G04G07G08G09G11G16G27            -0.000430079
  22137494.313 5  -2466729.156 5  -1870714.17249  22137495.76649
  23427612.961 5    210412.660 5    158503.68846  23427612.07846
  22142150.953 6  -2266371.031 6  -1727399.38749  22142148.13749
  20603030.453 7   -408100.059 7   -311938.06349  20603030.69549
  23219490.844 2   -248165.480 2   -190879.31648  23219492.70348
  20342639.523 6  -1565305.938 6  -1208882.45349  20342636.07049
  22920932.977 6   -277426.371 6   -210182.10247  22920930.23447
  22164821.633 6    237764.535 6    180090.68449  22164821.42649
 20  5 16  3 19 42.0000000  0  8G01G04G07G08G09G11G16G27            -0.000431511
  22136419.953 5  -2472373.871 5  -1875112.65249  22136421.58649
  23427685.047 5    210791.777 5    158799.10546  23427684.71946
  22141183.469 6  -2271454.973 6  -1731360.90249  22141180.59849
  20602848.672 7   -409054.281 7   -312681.60949  20602848.86749
  23219377.266 2   -248763.504 2   -191345.32448  23219378.58648
  20341960.813 6  -1568870.871 6  -1211660.32449  20341957.84049
  22920797.047 6   -278138.500 6   -210737.00047  22920794.40647
  22164904.211 6    238199.469 6    180429.59849  22164903.93849
 20  5 16  3 19 43.0000000  0  8G01G04G07G08G09G11G16G27            -0.000432945
  22135345.547 5  -2478018.895 5  -1879511.37149  22135347.25449
  23427757.539 5    211170.301 5    159094.05946  23427756.60546
  22140216.320 6  -2276539.227 6  -1735322.65649  22140213.28549
  20602667.258 7   -410008.844 7   -313425.42249  20602667.50049
  23219263.234 2   -249362.000 2   -191811.68848  23219264.78548
  20341282.234 6  -1572435.902 6  -1214438.26649  20341279.28149
  22920661.445 6   -278851.152 6   -211292.30947  22920658.68447
  22164987.453 6    238633.859 6    180768.07849  22164986.79749
 20  5 16  3 19 44.0000000  0  8G01G04G07G08G09G11G16G27            -0.000434380
  22134271.414 5  -2483664.191 5  -1883910.30549  22134272.89149
  23427828.727 5    211548.355 5    159388.63846  23427828.63346
  22139248.523 6  -2281623.609 6  -1739284.52049  22139245.60949
  20602485.492 7   -410963.613 7   -314169.40249  20602485.97749
  23219148.258 2   -249960.656 2   -192278.17248  23219151.05148
  20340604.188 6  -1576000.836 6  -1217216.13349  20340601.19149
  22920525.688 6   -279564.191 6   -211847.93047  22920523.03147
  22165069.508 6    239067.867 6    181106.27049  22165069.17249
 20  5 16  3 19 45.0000000  0  8G01G04G07G08G09G11G16G27            -0.000435816
  22133197.500 5  -2489309.621 5  -1888309.34049  22133199.11349
  23427900.813 5    211926.004 5    159682.91846  23427900.28946
  22138280.523 6  -2286708.176 6  -1743246.52049  22138278.42249
  20602303.688 7   -411918.551 7   -314913.50849  20602304.02049
  23219036.063 2   -250559.457 2   -192744.77048  23219037.02048
  20339926.000 6  -1579565.711 6  -1219993.95749  20339922.62149
  22920390.391 6   -280277.633 6   -212403.85947  22920387.16447
  22165152.117 6    239501.438 6    181444.11349  22165151.80149
 20  5 16  3 19 46.0000000  0  8G01G04G07G08G09G11G16G27            -0.000437248
  22132122.898 5  -2494955.316 5  -1892708.57849  22132124.44549
  23427972.406 5    212303.145 5    159976.77746  23427971.85946
  22137313.703 6  -2291792.906 6  -1747208.65249  22137310.71149
  20602122.109 7   -412873.730 7   -315657.80949  20602122.28949
  23218921.133 2   -251158.402 2   -193211.47748  23218922.93848
  20339247.180 6  -1583130.559 6  -1222771.76649  20339244.54749
  22920254.430 6   -280991.469 6   -212960.09047  22920251.62547
  22165234.961 6    239934.613 6    181781.64849  22165234.11349
 20  5 16  3 19 47.0000000  0  8G01G04G07G08G09G11G16G27            -0.000438684
  22131048.133 5  -2500601.336 5  -1897108.07049  22131050.02049
  23428043.914 5    212679.734 5    160270.22346  23428043.93846
  22136346.156 6  -2296877.938 6  -1751171.01249  22136342.87149
  20601940.203 7   -413829.223 7   -316402.35549  20601940.31349
  23218807.977 2   -251757.855 2   -193678.60248  23218808.47348
  20338569.047 6  -1586695.484 6  -1225549.62949  20338565.56649
  22920118.305 6   -281705.879 6   -213516.76647  22920115.46147
  22165316.758 6    240367.230 6    182118.75049  22165316.70749
 20  5 16  3 19 48.0000000  0  8G01G04G07G08G09G11G16G27            -0.000440119
  22129974.266 5  -2506247.613 5  -1901507.76249  22129975.55549
  23428115.633 4    213055.824 4    160563.25846  23428115.39146
  22135378.172 6  -2301963.160 6  -1755133.52349  22135375.64549
  20601758.453 7   -414784.957 7   -317147.07849  20601758.80549
  23218693.859 2   -252357.379 2   -194145.76248  23218694.95748
  20337890.766 7  -1590260.359 7  -1228327.46149  20337887.48049
  22919982.500 6   -282420.691 6   -214073.77047  22919979.51247
  22165399.078 6    240799.422 6    182455.52349  22165399.00849
 20  5 16  3 19 49.0000000  0  8G01G04G07G08G09G11G16G27            -0.000441557
  22128899.313 5  -2511894.090 5  -1905907.60249  22128901.02049
  23428187.094 5    213431.402 5    160855.91046  23428187.03146
  22134410.609 6  -2307048.594 6  -1759096.19949  22134407.67649
  20601576.352 7   -415740.930 7   -317891.99649  20601576.74249
  23218579.563 2   -252957.188 2   -194613.14148  23218580.58648
  20337212.516 6  -1593825.234 6  -1231105.28149  20337209.36349
  22919846.445 6   -283135.949 6   -214631.11747  22919843.42247
  22165481.406 6    241231.152 6    182791.93449  22165481.01649
 20  5 16  3 19 50.0000000  0  8G01G04G07G08G09G11G16G27            -0.000442991
  22127824.766 5  -2517540.863 5  -1910307.68849  22127826.76249
  23428257.961 5    213806.496 5    161148.19546  23428257.96546
  22133442.406 6  -2312134.227 6  -1763059.03149  22133439.84849
  20601394.531 7   -416697.160 7   -318637.10949  20601394.73849
  23218465.094 2   -253557.293 2   -195080.75048  23218466.55148
  20336533.945 6  -1597390.086 6  -1233883.08249  20336531.06649
  22919710.000 6   -283851.645 6   -215188.80147  22919707.74647
  22165563.758 6    241662.430 6    183127.99649  22165562.89149
 20  5 16  3 19 51.0000000  0  8G01G04G07G08G09G11G16G27            -0.000444429
  22126749.914 5  -2523187.719 5  -1914707.83649  22126752.10549
  23428329.789 5    214181.273 5    161440.23046  23428329.64146
  22132474.969 6  -2317219.887 6  -1767021.87949  22132472.11349
  20601212.328 7   -417653.449 7   -319382.27349  20601212.30149
  23218349.930 2   -254157.367 2   -195548.34448  23218352.21948
  20335855.688 6  -1600954.758 6  -1236660.75049  20335852.14849
  22919573.906 6   -284567.625 6   -215746.71147  22919570.98047
  22165645.672 6    242093.438 6    183463.85249  22165645.41049
 20  5 16  3 19 52.0000000  0  8G01G04G07G08G09G11G16G27            -0.000445864
  22125676.008 5  -2528834.818 5  -1919108.16849  22125677.39549
  23428401.016 5    214555.488 5    161731.81346  23428400.95746
  22131507.289 6  -2322305.797 6  -1770984.92649  22131503.75849
  20601030.563 7   -418609.996 7   -320127.62949  20601031.03549
  23218236.289 2   -254757.754 2   -196016.18048  23218238.07048
  20335177.406 6  -1604519.414 6  -1239438.41049  20335174.27349
  22919437.570 6   -285284.082 6   -216304.98447  22919434.76647
  22165727.023 6    242523.934 6    183799.30149  22165727.15649
 20  5 16  3 19 53.0000000  0  8G01G04G07G08G09G11G16G27            -0.000447304
  22124600.969 5  -2534482.172 5  -1923508.70349  22124602.64549
  23428472.578 5    214929.258 5    162023.05546  23428472.28146
  22130539.250 6  -2327391.848 6  -1774948.08649  22130536.16449
  20600848.375 7   -419566.758 7   -320873.16049  20600848.60949
  23218122.195 1   -255358.234 1   -196484.08648  23218123.69948
  20334499.195 6  -1608084.035 6  -1242216.03549  20334496.03949
  22919301.297 6   -286000.922 6   -216863.56647  22919297.93447
  22165808.898 6    242954.047 6    184134.45749  22165809.05949
 20  5 16  3 19 54.0000000  0  8G01G04G07G08G09G11G16G27            -0.000448740
  22123526.305 5  -2540129.793 5  -1927909.44549  22123528.03149
  23428542.977 5    215302.512 5    162313.89546  23428543.27046
  22129571.742 6  -2332478.137 6  -1778911.42649  22129568.62149
  20600666.039 7   -420523.801 7   -321618.90249  20600666.23049
  23218007.133 2   -255959.102 2   -196952.29348  23218009.11348
  20333820.602 6  -1611648.648 6  -1244993.65649  20333817.38349
  22919164.484 6   -286718.238 6   -217422.51647  22919161.67247
  22165890.773 6    243383.680 6    184469.23049  22165890.64149
 20  5 16  3 19 55.0000000  0  8G01G04G07G08G09G11G16G27            -0.000450178
  22122451.148 5  -2545777.723 5  -1932310.42649  22122453.05949
  23428613.805 5    215675.164 5    162604.27346  23428613.69146
  22128603.805 6  -2337564.707 6  -1782874.98849  22128600.92249
  20600484.125 7   -421481.141 7   -322364.88749  20600484.25049
  23217893.523 2   -256560.203 2   -197420.68448  23217895.02048
  20333142.258 6  -1615213.320 6  -1247771.32449  20333139.22749
  22919027.781 6   -287436.070 6   -217981.86747  22919025.05547
  22165972.641 6    243812.793 6    184803.60549  22165972.57449
 20  5 16  3 19 56.0000000  0  8G01G04G07G08G09G11G16G27            -0.000451616
  22121376.453 5  -2551425.875 5  -1936711.58249  22121378.26649
  23428684.852 4    216047.406 4    162894.31946  23428684.76246
  22127635.766 6  -2342651.469 6  -1786838.70349  22127632.67649
  20600302.109 7   -422438.699 7   -323111.04349  20600302.12949
  23217778.609 2   -257161.594 2   -197889.31648  23217780.84848
  20332464.008 6  -1618777.961 6  -1250548.96149  20332460.91449
  22918891.195 6   -288154.313 6   -218541.53947  22918888.60547
  22166054.234 6    244241.484 6    185137.64549  22166054.09849
 20  5 16  3 19 57.0000000  0  8G01G04G07G08G09G11G16G27            -0.000453056
  22120302.234 5  -2557074.160 5  -1941112.84049  22120303.37949
  23428756.094 5    216419.227 5    163184.03146  23428755.48446
  22126667.367 6  -2347738.262 6  -1790802.44149  22126664.90649
  20600119.734 7   -423396.371 7   -323857.27049  20600119.80949
  23217664.500 2   -257762.980 2   -198357.93848  23217666.45748
  20331785.523 6  -1622342.426 6  -1253326.47349  20331782.33649
  22918754.875 6   -288872.875 6   -219101.46147  22918752.02047
  22166136.047 6    244669.855 6    185471.43849  22166135.69549
 20  5 16  3 19 58.0000000  0  8G01G04G07G08G09G11G16G27            -0.000454493
  22119227.234 5  -2562722.535 5  -1945514.17249  22119228.37949
  23428826.305 4    216790.691 4    163473.47746  23428826.12546
  22125699.609 6  -2352825.141 6  -1794766.24249  22125696.51249
  20599937.586 7   -424354.180 7   -324603.62149  20599937.30549
  23217550.133 2   -258364.516 2   -198826.66448  23217551.93048
  20331107.625 6  -1625906.750 6  -1256103.86349  20331104.28149
  22918617.727 6   -289591.750 6   -219661.62547  22918615.05147
  22166217.109 6    245097.875 6    185804.96149  22166216.93049
 20  5 16  3 19 59.0000000  0  8G01G04G07G08G09G11G16G27            -0.000455933
  22118152.109 5  -2568371.113 5  -1949915.66449  22118153.55549
  23428896.906 5    217161.789 5    163762.66846  23428896.79346
  22124731.672 6  -2357912.129 6  -1798730.12949  22124728.40649
  20599755.023 7   -425312.082 7   -325350.03549  20599754.94549
  23217435.492 2   -258966.215 2   -199295.53148  23217437.22348
  20330429.359 6  -1629470.945 6  -1258881.16049  20330425.70749
  22918481.078 6   -290310.934 6   -220222.02347  22918477.85947
  22166298.539 6    245525.570 6    186138.22749  22166298.58249
 20  5 16  3 20  0.0000000  0  8G01G04G07G08G09G11G16G27            -0.000457371
  22117077.195 5  -2574019.992 5  -1954317.38749  22117078.81349
  23428967.563 5    217532.230 5    164051.31646  23428967.57846
  22123763.680 6  -2362999.453 6  -1802694.27749  22123760.64549
  20599572.750 7   -426270.383 7   -326096.77049  20599572.74649
  23217321.172 2   -259568.246 2   -199764.65248  23217322.83248
  20329751.102 6  -1633035.223 6  -1261658.52049  20329747.70749
  22918344.172 6   -291030.676 6   -220782.86347  22918341.14547
  22166379.508 6    245952.707 6    186471.05949  22166379.73049
 20  5 16  3 20  1.0000000  0  8G01G04G07G08G09G11G16G27            -0.000458813
  22116002.625 5  -2579669.031 5  -1958719.22749  22116003.96149
  23429038.266 5    217902.309 5    164339.68846  23429037.76246
  22122795.070 6  -2368086.852 6  -1806658.48849  22122792.52749
  20599390.305 7   -427228.801 7   -326843.59049  20599390.18849
  23217206.727 2   -260170.395 2   -200233.86348  23217208.53548
  20329072.867 6  -1636599.410 6  -1264435.80949  20329069.22349
  22918207.055 6   -291750.789 6   -221343.99247  22918203.79747
  22166461.234 6    246379.477 6    186803.60949  22166461.27049
 20  5 16  3 20  2.0000000  0  8G01G04G07G08G09G11G16G27            -0.000460251
  22114927.602 5  -2585318.219 5  -1963121.18849  22114929.10949
  23429108.773 5    218271.965 5    164627.73046  23429108.20746
  22121827.305 6  -2373174.371 6  -1810622.78549  22121824.28149
  20599207.961 7   -428187.387 7   -327590.53549  20599208.06649
  23217092.313 2   -260772.676 2   -200703.18448  23217093.64548
  20328394.570 6  -1640163.480 6  -1267213.00449  20328391.43449
  22918069.938 6   -292471.250 6   -221905.39147  22918066.98047
  22166542.156 6    246805.879 6    187135.86749  22166542.19149
 20  5 16  3 20  3.0000000  0  8G01G04G07G08G09G11G16G27            -0.000461693
  22113852.594 5  -2590967.594 5  -1967523.30549  22113853.86349
  23429178.563 5    218641.223 5    164915.46946  23429178.30146
  22120859.305 6  -2378261.992 6  -1814587.16449  22120856.02349
  20599025.156 7   -429146.113 7   -328337.59049  20599025.15249
  23216977.406 2   -261375.152 2   -201172.65248  23216979.02748
  20327716.102 6  -1643727.430 6  -1269990.10549  20327713.13349
  22917933.023 6   -293192.023 6   -222467.03547  22917929.94947
  22166623.430 6    247231.957 6    187467.87549  22166622.98449
 20  5 16  3 20  4.0000000  0  8G01G04G07G08G09G11G16G27            -0.000463131
  22112777.211 5  -2596617.262 5  -1971925.64849  22112778.69549
  23429249.148 5    219009.910 5    165202.75046  23429248.80946
  22119890.852 6  -2383349.898 6  -1818551.77049  22119887.88349
  20598842.781 7   -430105.168 7   -329084.89849  20598843.15249
  23216862.906 2   -261977.914 2   -201642.34048  23216864.40248
  20327038.258 6  -1647291.430 6  -1272767.25049  20327034.60949
  22917795.492 6   -293913.359 6   -223029.12147  22917792.74647
  22166704.234 6    247657.465 6    187799.43849  22166704.56649
 20  5 16  3 20  5.0000000  0  8G01G04G07G08G09G11G16G27            -0.000464575
  22111701.953 5  -2602267.086 5  -1976328.10549  22111703.23849
  23429318.797 5    219378.184 5    165489.69946  23429318.87546
  22118922.813 6  -2388437.902 6  -1822516.44949  22118919.91449
  20598660.328 7   -431064.379 7   -329832.33649  20598660.44949
  23216747.609 2   -262580.805 2   -202112.12948  23216749.14148
  20326359.828 6  -1650855.352 6  -1275544.33249  20326357.13349
  22917657.891 6   -294635.043 6   -223591.47747  22917655.32847
  22166785.359 6    248082.641 6    188130.73849  22166784.90249
 20  5 16  3 20  6.0000000  0  8G01G04G07G08G09G11G16G27            -0.000466013
  22110626.961 5  -2607917.055 5  -1980730.67649  22110628.62149
  23429389.117 5    219746.090 5    165776.37946  23429388.94546
  22117954.531 6  -2393525.992 6  -1826481.19149  22117951.73449
  20598478.047 7   -432023.676 7   -330579.84049  20598478.19949
  23216633.156 2   -263183.797 2   -202581.99248  23216635.06348
  20325681.898 6  -1654419.078 6  -1278321.26249  20325678.70749
  22917520.859 6   -295356.996 6   -224154.03147  22917517.79347
  22166866.094 6    248507.488 6    188461.78949  22166866.02749
 20  5 16  3 20  7.0000000  0  8G01G04G07G08G09G11G16G27            -0.000467457
  22109551.602 5  -2613567.410 5  -1985133.54349  22109553.30949
  23429459.313 5    220113.340 5    166062.52746  23429458.85946
  22116986.391 6  -2398614.414 6  -1830446.19949  22116983.14849
  20598295.367 7   -432983.371 7   -331327.65649  20598295.37949
  23216518.641 2   -263787.160 2   -203052.14148  23216520.12948
  20325003.688 6  -1657982.965 6  -1281098.31649  20325000.66049
  22917383.992 6   -296079.574 6   -224717.07847  22917380.33647
  22166946.984 6    248931.738 6    188792.37549  22166946.71549
 20  5 16  3 20  8.0000000  0  8G01G04G07G08G09G11G16G27            -0.000468897
  22108476.336 5  -2619217.930 5  -1989536.53549  22108478.62949
  23429528.828 5    220480.137 5    166348.32446  23429529.21146
  22116017.594 6  -2403702.988 6  -1834411.32049  22116014.80949
  20598112.539 7   -433943.262 7   -332075.62149  20598112.69149
  23216403.656 2   -264390.738 2   -203522.46548  23216405.09848
  20324325.609 6  -1661546.754 6  -1283875.29349  20324322.64149
  22917246.188 6   -296802.516 6   -225280.41047  22917242.98847
  22167027.242 6    249355.625 6    189122.68049  22167026.96949
 20  5 16  3 20  9.0000000  0  8G01G04G07G08G09G11G16G27            -0.000470341
  22107401.141 5  -2624868.406 5  -1993939.51649  22107402.80149
  23429598.578 5    220846.773 5    166634.02346  23429598.85246
  22115049.828 6  -2408791.445 6  -1838376.35549  22115046.87949
  20597930.227 7   -434903.090 7   -332823.54349  20597930.21149
  23216289.023 2   -264994.223 2   -203992.71948  23216290.37948
  20323647.461 6  -1665110.211 6  -1286652.01249  20323644.36749
  22917108.016 6   -297525.574 6   -225843.83647  22917105.18447
  22167108.031 6    249779.336 6    189452.84049  22167107.89549
 20  5 16  3 20 10.0000000  0  8G01G04G07G08G09G11G16G27            -0.000471781
  22106325.719 5  -2630519.008 5  -1998342.57849  22106327.33649
  23429668.016 5    221213.023 5    166919.41846  23429668.31646
  22114080.914 6  -2413880.000 6  -1842341.46149  22114078.00849
  20597747.180 7   -435863.047 7   -333571.55949  20597747.25049
  23216173.727 3   -265597.816 3   -204463.05148  23216175.60548
  20322969.547 6  -1668673.547 6  -1289428.63749  20322965.98849
  22916970.477 6   -298248.980 6   -226407.53547  22916967.28547
  22167188.477 6    250202.719 6    189782.74649  22167188.39849
 20  5 16  3 20 11.0000000  0  8G01G04G07G08G09G11G16G27            -0.000473227
  22105250.617 5  -2636169.820 5  -2002745.80549  22105251.91449
  23429738.352 5    221578.816 5    167204.46146  23429738.12946
  22113112.609 6  -2418968.715 6  -1846306.69149  22113109.96949
  20597564.602 7   -436823.223 7   -334319.75049  20597564.35949
  23216059.289 3   -266201.645 3   -204933.57048  23216060.46148
  20322291.125 6  -1672236.813 6  -1292205.20749  20322287.91449
  22916833.023 6   -298972.785 6   -226971.54747  22916830.43847
  22167269.125 6    250625.668 6    190112.31349  22167268.60949
 20  5 16  3 20 12.0000000  0  8G01G04G07G08G09G11G16G27            -0.000474667
  22104175.258 5  -2641820.879 5  -2007149.22749  22104177.17249
  23429807.500 5    221944.102 5    167489.09846  23429807.75046
  22112144.445 6  -2424057.629 6  -1850272.07849  22112141.43449
  20597381.953 7   -437783.656 7   -335068.13749  20597381.72749
  23215944.305 3   -266805.656 3   -205404.23448  23215946.00048
  20321613.195 6  -1675800.078 6  -1294981.78149  20321609.82449
  22916694.695 6   -299697.043 6   -227535.89847  22916692.11347
  22167349.594 6    251048.195 6    190441.55549  22167349.55549
 20  5 16  3 20 13.0000000  0  8G01G04G07G08G09G11G16G27            -0.000476112
  22103099.922 5  -2647472.168 5  -2011552.82849  22103101.65249
  23429876.563 5    222308.879 5    167773.33246  23429877.47746
  22111175.727 6  -2429146.758 6  -1854237.63349  22111173.14149
  20597199.313 7   -438744.297 7   -335816.69149  20597199.48049
  23215829.328 3   -267409.898 3   -205875.07048  23215830.45348
  20320934.945 6  -1679363.289 6  -1297758.30949  20320932.25049
  22916556.961 6   -300421.703 6   -228100.57047  22916554.18447
  22167429.703 6    251470.254 6    190770.43049  22167429.34449
 20  5 16  3 20 14.0000000  0  8G01G04G07G08G09G11G16G27            -0.000477554
  22102024.727 5  -2653123.727 5  -2015956.63349  22102025.88749
  23429946.211 5    222673.168 5    168057.17246  23429946.33246
  22110207.695 6  -2434236.051 6  -1858203.31349  22110204.73449
  20597016.063 7   -439705.172 7   -336565.42649  20597016.30149
  23215714.281 3   -268014.418 3   -206346.13348  23215715.78548
  20320257.070 6  -1682926.508 6  -1300534.84449  20320254.17249
  22916419.195 6   -301146.820 6   -228665.59847  22916416.25047
  22167510.008 6    251891.906 6    191098.98849  22167509.88749
 20  5 16  3 20 15.0000000  0  8G01G04G07G08G09G11G16G27            -0.000479000
  22100948.430 6  -2658775.453 6  -2020360.57449  22100950.27049
  23430014.992 5    223037.020 5    168340.67646  23430016.02746
  22109239.023 6  -2439325.516 6  -1862169.13349  22109236.29349
  20596833.570 7   -440666.254 7   -337314.32049  20596833.25449
  23215599.742 3   -268619.109 3   -206817.32448  23215600.36348
  20319579.063 6  -1686489.641 6  -1303311.30949  20319575.80949
  22916281.102 6   -301872.320 6   -229230.92247  22916277.94147
  22167590.070 6    252313.113 6    191427.19949  22167589.89849
 20  5 16  3 20 16.0000000  0  8G01G04G07G08G09G11G16G27            -0.000480442
  22099873.680 5  -2664427.391 5  -2024764.68449  22099874.94949
  23430084.531 5    223400.398 5    168623.84446  23430084.91846
  22108270.523 6  -2444415.117 6  -1866135.05549  22108267.72749
  20596650.664 7   -441627.520 7   -338063.36749  20596650.40649
  23215483.602 3   -269223.977 3   -207288.65648  23215485.70748
  20318900.742 6  -1690052.695 6  -1306087.71949  20318897.57449
  22916142.578 6   -302598.211 6   -229796.55147  22916140.40647
  22167670.500 6    252733.934 6    191755.11349  22167669.89849
 20  5 16  3 20 17.0000000  0  8G01G04G07G08G09G11G16G27            -0.000481888
  22098797.984 5  -2670079.500 5  -2029168.93449  22098799.14149
  23430153.828 5    223763.355 5    168906.67246  23430154.51646
  22107301.500 6  -2449504.867 6  -1870101.09449  22107299.12949
  20596467.578 7   -442588.977 7   -338812.54749  20596467.30149
  23215368.367 3   -269829.027 3   -207760.12548  23215370.41048
  20318223.117 6  -1693615.684 6  -1308864.07449  20318219.70349
  22916004.781 6   -303324.492 6   -230362.48847  22916001.95347
  22167750.008 6    253154.379 6    192082.73049  22167750.10949
 20  5 16  3 20 18.0000000  0  8G01G04G07G08G09G11G16G27            -0.000483332
  22097722.047 5  -2675731.762 5  -2033573.29749  22097723.45349
  23430221.906 5    224125.902 5    169189.17646  23430223.24246
  22106333.406 6  -2454594.719 6  -1874067.21149  22106330.50849
  20596284.578 7   -443550.609 7   -339561.87549  20596284.53149
  23215253.477 3   -270434.262 3   -208231.73448  23215255.37948
  20317545.039 6  -1697178.539 6  -1311640.32449  20317541.75049
  22915866.219 6   -304051.121 6   -230928.69147  22915863.50047
  22167830.805 6    253574.430 6    192410.04749  22167830.13349
 20  5 16  3 20 19.0000000  0  8G01G04G07G08G09G11G16G27            -0.000484779
  22096647.094 5  -2681384.242 5  -2037977.82849  22096648.37549
  23430291.344 5    224488.004 5    169471.34046  23430292.07846
  22105364.625 6  -2459684.734 6  -1878033.45749  22105361.80549
  20596101.594 7   -444512.438 7   -340311.34849  20596101.85549
  23215137.734 3   -271039.613 3   -208703.42648  23215140.34448
  20316867.023 6  -1700741.355 6  -1314416.53949  20316863.85249
  22915728.000 6   -304778.117 6   -231495.18047  22915725.07047
  22167910.141 6    253994.082 6    192737.04349  22167910.01249
 20  5 16  3 20 20.0000000  0  8G01G04G07G08G09G11G16G27            -0.000486221
  22095571.156 5  -2687036.836 5  -2042382.44149  22095572.49649
  23430360.063 5    224849.719 5    169753.20346  23430360.80546
  22104395.820 6  -2464774.824 6  -1881999.76649  22104393.57849
  20595918.453 7   -445474.375 7   -341060.91449  20595918.12149
  23215023.281 3   -271645.066 3   -209175.20748  23215024.96148
  20316188.766 6  -1704304.008 6  -1317192.63749  20316185.98849
  22915589.586 6   -305505.461 6   -232061.94147  22915586.75847
  22167990.141 6    254413.387 6    193063.77349  22167989.72749
 20  5 16  3 20 21.0000000  0  8G01G04G07G08G09G11G16G27            -0.000487669
  22094495.680 5  -2692689.711 5  -2046787.27749  22094496.83649
  23430429.109 5    225210.906 5    170034.64546  23430429.82046
  22103427.406 6  -2469865.129 6  -1885966.23449  22103424.60549
  20595735.188 7   -446436.559 7   -341810.66849  20595735.26249
  23214907.789 3   -272250.828 3   -209647.22748  23214909.62948
  20315511.000 6  -1707866.660 6  -1319968.73049  20315508.27049
  22915450.938 6   -306233.254 6   -232629.05147  22915448.35247
  22168069.484 6    254832.266 6    193390.16849  22168069.25049
 20  5 16  3 20 22.0000000  0  8G01G04G07G08G09G11G16G27            -0.000489115
  22093419.539 5  -2698342.707 5  -2051192.20349  22093421.17249
  23430497.680 5    225571.730 5    170315.79746  23430498.27346
  22102458.906 6  -2474955.504 6  -1889932.76249  22102455.82449
  20595552.109 7   -447398.887 7   -342560.53149  20595551.81649
  23214792.383 3   -272856.727 3   -210119.36348  23214794.33648
  20314833.109 6  -1711429.188 6  -1322744.72349  20314830.23049
  22915312.211 6   -306961.371 6   -233196.41847  22915309.89547
  22168149.367 6    255250.770 6    193716.27349  22168148.93049
 20  5 16  3 20 23.0000000  0  8G01G04G07G08G09G11G16G27            -0.000490562
  22092344.031 5  -2703995.855 5  -2055597.25449  22092345.29349
  23430565.977 5    225932.113 5    170596.60546  23430566.66846
  22101489.898 6  -2480046.027 6  -1893899.39849  22101487.50049
  20595369.016 7   -448361.367 7   -343310.51649  20595369.11349
  23214677.547 3   -273462.727 3   -210591.56648  23214679.39148
  20314155.133 7  -1714991.602 7  -1325520.62949  20314152.52049
  22915173.602 6   -307689.820 6   -233764.03947  22915171.05947
  22168229.258 6    255668.922 6    194042.10249  22168228.38749
 20  5 16  3 20 24.0000000  0  8G01G04G07G08G09G11G16G27            -0.000492006
  22091268.547 6  -2709649.305 6  -2060002.53549  22091269.16849
  23430634.352 5    226291.961 5    170876.99246  23430635.21946
  22100521.414 6  -2485136.770 6  -1897866.20349  22100518.51249
  20595185.672 7   -449324.125 7   -344060.72349  20595185.94149
  23214562.047 3   -274069.086 3   -211064.06348  23214563.69548
  20313477.508 6  -1718554.031 6  -1328296.54749  20313474.51249
  22915035.164 6   -308418.781 6   -234332.06647  22915032.50447
  22168308.508 6    256086.590 6    194367.55949  22168308.00049
 20  5 16  3 20 25.0000000  0  8G01G04G07G08G09G11G16G27            -0.000493456
  22090192.367 6  -2715303.000 6  -2064408.01249  22090193.58249
  23430703.344 5    226651.320 5    171157.00046  23430703.91446
  22099552.109 6  -2490227.727 6  -1901833.18849  22099549.71549
  20595002.453 7   -450287.117 7   -344811.10549  20595002.68449
  23214446.203 3   -274675.582 3   -211536.65648  23214448.18448
  20312799.617 6  -1722116.453 6  -1331072.46549  20312796.50049
  22914896.188 6   -309148.176 6   -234900.42647  22914893.47347
  22168387.734 6    256503.820 6    194692.67249  22168387.32449
 20  5 16  3 20 26.0000000  0  8G01G04G07G08G09G11G16G27            -0.000494902
  22089116.516 6  -2720956.727 6  -2068813.50849  22089117.85549
  23430771.656 5    227010.352 5    171436.77746  23430771.88746
  22098583.719 6  -2495318.695 6  -1905800.17649  22098580.86749
  20594819.430 7   -451250.180 7   -345561.55149  20594819.27749
  23214331.938 3   -275282.172 3   -212009.32848  23214333.02348
  20312121.352 6  -1725678.668 6  -1333848.21549  20312118.62549
  22914757.727 6   -309877.801 6   -235468.96147  22914754.98447
  22168467.219 6    256920.734 6    195017.53949  22168467.10949
 20  5 16  3 20 27.0000000  0  8G01G04G07G08G09G11G16G27            -0.000496349
  22088040.797 6  -2726610.586 6  -2073219.10949  22088042.13349
  23430839.586 5    227369.016 5    171716.25846  23430840.23446
  22097615.180 6  -2500409.734 6  -1909767.22349  22097611.72749
  20594636.344 7   -452213.379 7   -346312.09449  20594636.04349
  23214216.633 4   -275888.883 4   -212482.09048  23214217.63748
  20311443.523 6  -1729240.742 6  -1336623.85549  20311440.60249
  22914618.688 6   -310607.770 6   -236037.77047  22914615.84047
  22168546.375 6    257337.332 6    195342.16049  22168545.82449
 20  5 16  3 20 28.0000000  0  8G01G04G07G08G09G11G16G27            -0.000497797
  22086964.188 5  -2732264.633 5  -2077624.86749  22086965.95349
  23430907.883 5    227727.238 5    171995.38746  23430908.44946
  22096645.891 6  -2505500.898 6  -1913734.35949  22096643.41049
  20594452.461 7   -453176.734 7   -347062.75449  20594452.68849
  23214100.461 3   -276495.766 3   -212954.99248  23214102.21948
  20310765.867 6  -1732802.730 6  -1339399.43049  20310763.20749
  22914479.625 6   -311338.074 6   -236606.84447  22914477.29347
  22168625.492 6    257753.559 6    195666.49249  22168625.17649
 20  5 16  3 20 29.0000000  0  8G01G04G07G08G09G11G16G27            -0.000499247
  22085888.961 6  -2737918.867 6  -2082030.76249  22085890.09449
  23430975.656 5    228085.008 5    172274.17246  23430976.77746
  22095677.492 6  -2510592.230 6  -1917701.62949  22095674.11749
  20594269.633 7   -454140.316 7   -347813.60549  20594269.46949
  23213985.961 4   -277102.848 4   -213428.04748  23213986.36748
  20310088.031 6  -1736364.641 6  -1342174.94549  20310085.10549
  22914340.680 6   -312068.828 6   -237176.26247  22914337.75047
  22168704.680 6    258169.367 6    195990.49649  22168704.37149
 20  5 16  3 20 30.0000000  0  8G01G04G07G08G09G11G16G27            -0.000500692
  22084813.016 6  -2743573.297 6  -2086436.80949  22084813.96949
  23431043.844 5    228442.344 5    172552.62146  23431044.73846
  22094708.422 6  -2515683.680 6  -1921668.99649  22094705.56649
  20594086.172 7   -455104.051 7   -348564.56649  20594085.93449
  23213869.258 4   -277710.023 4   -213901.17248  23213870.54748
  20309410.344 6  -1739926.434 6  -1344950.36749  20309407.36749
  22914201.555 6   -312799.910 6   -237745.93847  22914199.17647
  22168784.094 6    258584.805 6    196314.21949  22168783.28949
 20  5 16  3 20 30.9990000  0  8G01G04G07G08G09G11G16G27             0.000497858
  22083737.800 6  -2749222.148 6  -2090838.50849  22083738.79249
  23431111.042 5    228798.965 5    172830.49246  23431112.58146
  22093740.605 6  -2520770.102 6  -1925632.44149  22093737.63249
  20593902.956 7   -456066.926 7   -349314.85549  20593902.64449
  23213753.925 4   -278316.770 4   -214373.96548  23213755.52248
  20308733.433 6  -1743484.559 6  -1347722.93849  20308730.53849
  22914062.714 6   -313530.598 6   -238315.30947  22914059.97647
  22168862.651 6    258999.496 6    196637.34849  22168862.51549
 20  5 16  3 20 31.9990000  0  8G01G04G07G08G09G11G16G27             0.000496412
  22082661.956 6  -2754876.977 6  -2095244.87149  22082663.05849
  23431179.620 5    229155.371 5    173108.21946  23431180.29246
  22092771.706 6  -2525861.891 6  -1929600.06649  22092768.67549
  20593719.315 7   -457031.078 7   -350066.14549  20593718.99949
  23213638.214 4   -278924.410 4   -214847.45348  23213639.75348
  20308055.409 6  -1747046.250 6  -1350498.27749  20308052.26949
  22913923.105 6   -314262.496 6   -238885.61747  22913920.81247
  22168941.730 6    259414.090 6    196960.41049  22168940.71849
 20  5 16  3 20 32.9990000  0  8G01G04G07G08G09G11G16G27             0.000494961
  22081586.565 6  -2760531.938 6  -2099651.33649  22081587.01149
  23431247.534 5    229511.395 5    173385.62946  23431247.98046
  22091802.542 6  -2530953.746 6  -1933567.75049  22091799.77249
  20593536.151 7   -457995.348 7   -350817.52749  20593535.69849
  23213522.995 3   -279532.168 3   -215321.03148  23213524.13648
  20307377.917 6  -1750607.816 6  -1353273.52349  20307374.81949
  22913783.823 6   -314994.703 6   -239456.17647  22913781.14047
  22169020.276 6    259828.367 6    197283.22349  22169020.14749
 20  5 16  3 20 33.9990000  0  8G01G04G07G08G09G11G16G27             0.000493513
  22080509.737 6  -2766186.945 6  -2104057.83649  22080510.83949
  23431315.269 5    229867.145 5    173662.83646  23431315.44446
  22090833.644 6  -2536045.602 6  -1937535.43049  22090830.65149
  20593352.495 7   -458959.672 7   -351568.95349  20593352.40149
  23213405.901 3   -280139.930 3   -215794.61748  23213408.18348
  20306700.136 6  -1754169.156 6  -1356048.59449  20306697.28049
  22913644.386 6   -315727.184 6   -240026.93447  22913641.90947
  22169099.003 6    260242.367 6    197605.81649  22169098.98049
 20  5 16  3 20 34.9990000  0  8G01G04G07G08G09G11G16G27             0.000492062
  22079433.026 6  -2771842.121 6  -2108464.46949  22079434.25749
  23431382.886 5    230222.453 5    173939.69546  23431383.34346
  22089864.948 6  -2541137.582 6  -1941503.20349  22089861.98749
  20593168.862 7   -459924.180 7   -352320.51649  20593168.77249
  23213291.175 3   -280747.848 3   -216268.32048  23213292.65948
  20306022.511 6  -1757730.426 6  -1358823.60549  20306019.45649
  22913504.925 6   -316460.020 6   -240597.97747  22913501.93747
  22169177.745 6    260656.016 6    197928.14549  22169177.73049
 20  5 16  3 20 35.9990000  0  8G01G04G07G08G09G11G16G27             0.000490614
  22078357.487 6  -2777497.371 6  -2112871.15249  22078358.39449
  23431450.550 5    230577.395 5    174216.26646  23431450.69846
  22088895.581 6  -2546229.602 6  -1945471.00849  22088893.03849
  20592985.355 7   -460888.773 7   -353072.14549  20592985.39049
  23213175.190 3   -281355.953 3   -216742.16448  23213177.05848
  20305344.956 6  -1761291.508 6  -1361598.47349  20305341.79249
  22913364.948 6   -317193.121 6   -241169.22347  22913362.60147
  22169256.659 6    261069.352 6    198250.21949  22169256.27249
 20  5 16  3 20 36.9990000  0  8G01G04G07G08G09G11G16G27             0.000489161
  22077281.355 6  -2783152.691 6  -2117277.89549  22077282.46449
  23431517.855 5    230932.000 5    174492.56646  23431518.23046
  22087926.792 6  -2551321.660 6  -1949438.85249  22087923.89049
  20592801.800 7   -461853.438 7   -353823.82849  20592801.39749
  23213059.940 3   -281964.012 3   -217215.97748  23213061.35548
  20304667.370 6  -1764852.402 6  -1364373.19549  20304663.95249
  22913226.386 6   -317926.516 6   -241740.69947  22913223.12047
  22169335.511 6    261482.383 6    198572.06349  22169334.58149
 20  5 16  3 20 37.9990000  0  8G01G04G07G08G09G11G16G27             0.000487713
  22076204.745 6  -2788808.148 6  -2121684.74249  22076205.81249
  23431584.925 5    231286.238 5    174768.59846  23431585.65946
  22086957.745 6  -2556413.789 6  -1953406.73449  22086955.08549
  20592618.034 7   -462818.230 7   -354575.61749  20592617.79649
  23212943.706 3   -282572.258 3   -217689.93448  23212945.50348
  20303989.472 6  -1768413.156 6  -1367147.80949  20303986.56549
  22913086.792 6   -318660.223 6   -242312.41847  22913083.48747
  22169413.558 6    261895.102 6    198893.66049  22169413.46849
 20  5 16  3 20 38.9990000  0  8G01G04G07G08G09G11G16G27             0.000486259
  22075128.698 6  -2794463.813 6  -2126091.75449  22075129.95249
  23431652.542 5    231640.004 5    175044.27346  23431652.90146
  22085988.745 6  -2561506.098 6  -1957374.77349  22085985.74549
  20592434.534 7   -463783.270 7   -355327.59049  20592434.79649
  23212827.870 3   -283180.711 3   -218164.05148  23212829.62848
  20303312.190 6  -1771973.879 6  -1369922.39849  20303308.62449
  22912946.112 6   -319394.316 6   -242884.44547  22912944.06547
  22169492.097 6    262307.391 6    199214.92649  22169491.99549
 20  5 16  3 20 39.9990000  0  8G01G04G07G08G09G11G16G27             0.000484810
  22074052.144 6  -2800119.484 6  -2130498.77049  22074053.54649
  23431719.698 5    231993.520 5    175319.74646  23431720.14746
  22085019.558 6  -2566598.371 6  -1961342.77749  22085016.82749
  20592250.761 7   -464748.238 7   -356079.51249  20592250.78049
  23212712.542 3   -283789.109 3   -218638.12948  23212713.73348
  20302634.034 6  -1775534.313 6  -1372696.76649  20302631.47649
  22912806.511 6   -320128.613 6   -243456.61747  22912804.54247
  22169570.675 6    262719.477 6    199536.03149  22169570.16349
 20  5 16  3 20 40.9990000  0  8G01G04G07G08G09G11G16G27             0.000483358
  22072975.909 6  -2805775.281 6  -2134905.87949  22072977.50349
  23431787.284 5    232346.648 5    175594.91046  23431787.39746
  22084050.409 6  -2571690.684 6  -1965310.81349  22084047.65549
  20592067.144 7   -465713.391 7   -356831.58249  20592067.12849
  23212597.245 4   -284397.645 4   -219112.30548  23212598.19048
  20301956.956 6  -1779094.602 6  -1375471.02049  20301953.65949
  22912667.214 6   -320863.227 6   -244029.05147  22912664.64047
  22169648.823 6    263131.238 6    199856.88749  22169648.89049
 20  5 16  3 20 41.9990000  0  8G01G04G07G08G09G11G16G27             0.000481907
  22071899.980 6  -2811431.184 6  -2139313.07049  22071901.14049
  23431854.323 5    232699.379 5    175869.76646  23431854.24146
  22083081.808 6  -2576783.105 6  -1969278.93449  22083078.78849
  20591883.144 7   -466678.660 7   -357583.74249  20591883.49949
  23212481.151 3   -285006.336 3   -219586.60548  23212482.44448
  20301279.440 6  -1782654.770 6  -1378245.17249  20301276.26949
  22912527.167 6   -321598.191 6   -244601.75047  22912524.73347
  22169727.151 6    263542.629 6    200177.44549  22169726.65949
 20  5 16  3 20 42.9990000  0  8G01G04G07G08G09G11G16G27             0.000480455
  22070823.581 6  -2817087.352 6  -2143720.47349  22070824.76149
  23431921.097 5    233051.582 5    176144.20746  23431921.24546
  22082112.230 6  -2581875.734 6  -1973247.21149  22082109.60849
  20591699.745 7   -467644.180 7   -358336.09449  20591699.94449
  23212364.464 4   -285615.223 4   -220061.06348  23212366.21448
  20300601.855 6  -1786214.918 6  -1381019.31649  20300598.86649
  22912386.901 6   -322333.594 6   -245174.79347  22912384.44047
  22169805.136 6    263953.590 6    200497.67649  22169805.27649
 20  5 16  3 20 43.9990000  0  8G01G04G07G08G09G11G16G27             0.000479004
  22069747.331 6  -2822743.672 6  -2148127.99649  22069748.53449
  23431988.120 5    233403.395 5    176418.34446  23431987.82746
  22081143.034 6  -2586968.477 6  -1977215.58649  22081140.33149
  20591515.917 7   -468609.867 7   -359088.57449  20591516.21049
  23212248.917 3   -286224.289 3   -220535.66848  23212250.57348
  20299924.464 6  -1789774.941 6  -1383793.36349  20299921.67149
  22912247.245 6   -323069.324 6   -245748.08647  22912244.54647
  22169883.761 6    264364.180 6    200817.61349  22169882.92149
 20  5 16  3 20 44.9990000  0  8G01G04G07G08G09G11G16G27             0.000477551
  22068671.081 6  -2828400.223 6  -2152535.69549  22068672.48049
  23432055.206 5    233754.742 5    176692.10546  23432054.92146
  22080174.003 6  -2592061.375 6  -1981184.07849  22080170.86649
  20591332.198 7   -469575.785 7   -359841.23449  20591332.14749
  23212133.269 3   -286833.570 3   -221010.42648  23212134.67548
  20299246.948 6  -1793334.941 6  -1386567.38749  20299243.92549
  22912107.206 6   -323805.480 6   -246321.71547  22912104.70247
  22169961.440 6    264774.328 6    201137.20749  22169961.07349
 20  5 16  3 20 45.9990000  0  8G01G04G07G08G09G11G16G27             0.000476099
  22067594.190 6  -2834057.008 6  -2156943.57849  22067595.68749
  23432121.605 5    234105.570 5    176965.48046  23432121.89446
  22079204.698 6  -2597154.480 6  -1985152.72749  22079201.97249
  20591148.222 7   -470541.957 7   -360594.09449  20591148.40549
  23212017.355 4   -287443.094 4   -221485.38348  23212018.75348
  20298569.425 6  -1796894.891 6  -1389341.37149  20298566.39449
  22911967.355 6   -324542.074 6   -246895.69547  22911964.06247
  22170039.659 6    265184.035 6    201456.45749  22170039.23749
 20  5 16  3 20 46.9990000  0  8G01G04G07G08G09G11G16G27             0.000474644
  22066518.081 6  -2839713.867 6  -2161351.52049  22066519.17549
  23432187.878 5    234456.039 5    177238.56646  23432188.40146
  22078235.409 6  -2602247.617 6  -1989121.40249  22078232.77249
  20590964.276 7   -471508.199 7   -361347.01649  20590964.42949
  23211901.534 4   -288052.668 4   -221960.38348  23211902.49548
  20297892.269 6  -1800454.676 6  -1392115.23049  20297889.28449
  22911827.034 6   -325278.945 6   -247469.88747  22911824.12847
  22170117.159 6    265593.418 6    201775.45749  22170117.00749
