     2.10           OBSERVATION DATA    Mixed(MIXED)        RINEX VERSION / TYPE
cnvtToRINEX 3.07.0  convertToRINEX OPR  19-May-20 12:31 UTC PGM / RUN BY / DATE 
----------------------------------------------------------- COMMENT             
GBA0                                                        MARKER NAME         
GBA0                                                        MARKER NUMBER       
GNSS Observer       Trimble                                 OBSERVER / AGENCY   
0440102809          5700                2.32                REC # / TYPE / VERS 
                    TRM39105.00                             ANT # / TYPE        
 -3050757.1625  4927683.8301  2654111.6706                  APPROX POSITION XYZ 
        0.0000        0.0000        0.0000                  ANTENNA: DELTA H/E/N
     1     1     0                                          WAVELENGTH FACT L1/2
     4    C1    L1    L2    P2                              # / TYPES OF OBSERV 
  2020     5    16     1    38    3.0000000     GPS         TIME OF FIRST OBS   
  2020     5    16     3     9   37.0000000     GPS         TIME OF LAST OBS    
     0                                                      RCV CLOCK OFFS APPL 
    18                                                      LEAP SECONDS        
    11                                                      # OF SATELLITES     
   G01  1919  1886  1907  1907                              PRN / # OF OBS      
   G04  5495  5491  5495  5495                              PRN / # OF OBS      
   G07  3893  3879  3887  3887                              PRN / # OF OBS      
   G08  5495  5495  5495  5495                              PRN / # OF OBS      
   G09  5335  5274  5329  5329                              PRN / # OF OBS      
   G11  5478  5478  5478  5478                              PRN / # OF OBS      
   G16  5289  5271  5139  5139                              PRN / # OF OBS      
   G21    61    51     0     0                              PRN / # OF OBS      
   G26  3858  3806  3485  3485                              PRN / # OF OBS      
   G27  5495  5495  5495  5495                              PRN / # OF OBS      
   G31   504   459   205   205                              PRN / # OF OBS      
CARRIER PHASE MEASUREMENTS: PHASE SHIFTS REMOVED            COMMENT             
                                                            END OF HEADER       
 20  5 16  1 38  3.0000000  0  4G04G08G27G31                         0.000261290
  21489656.19516    -38120.41416    -12621.36357  21489654.21157
  20814158.47717    -62178.39817    -22597.02759  20814157.24259
  20175305.91417    -36776.72317    -15127.51259  20175305.14859
  23527515.63315    -17443.34015      -233.84056  23527512.04756
 20  5 16  1 38  4.0000000  0  4G04G08G27G31                         0.000259018
  21489060.273 6    -41253.133 6    -15062.43847  21489058.11347
  20813173.789 7    -67353.516 7    -26629.59049  20813172.35549
  20174725.422 7    -39826.816 7    -17504.21549  20174724.66449
  23527292.547 5    -18619.090 5     -1149.99246  23527288.00046
 20  5 16  1 38  5.0000000  0  4G04G08G27G31                         0.000256746
  21488464.031 6    -44387.930 6    -17505.12947  21488462.20747
  20812188.844 7    -72530.773 7    -30663.81649  20812187.26649
  20174144.664 7    -42878.996 7    -19882.53149  20174143.76649
  23527068.000 4    -19797.266 4     -2068.05946  23527064.03946
 20  5 16  1 38  6.0000000  0  4G04G08G27G31                         0.000254475
  21487866.617 6    -47524.930 6    -19949.54347  21487864.66047
  20811202.789 7    -77710.254 7    -34699.77749  20811201.18049
  20173563.500 7    -45933.367 7    -22262.56649  20173562.49249
  23526842.930 4    -20977.980 4     -2988.09046  23526839.26646
 20  5 16  1 38  7.0000000  0  4G04G08G27G31                         0.000252199
  21487269.125 6    -50663.637 6    -22395.28947  21487267.53547
  20810216.727 7    -82891.582 7    -38737.17249  20810215.59849
  20172981.820 7    -48989.477 7    -24643.93849  20172980.94149
  23526618.281 4    -22160.793 4     -3909.77746  23526614.38346
 20  5 16  1 38  8.0000000  0  4G04G08G27G31                         0.000249924
  21486671.422 6    -53804.531 6    -24842.74247  21486670.05547
  20809230.359 7    -88075.102 7    -42776.28149  20809229.29349
  20172400.375 7    -52047.727 7    -27026.99649  20172398.71549
  23526392.766 4    -23346.078 4     -4833.38346  23526388.80146
 20  5 16  1 38  9.0000000  0  4G04G08G27G31                         0.000247658
  21486073.086 6    -56947.168 6    -27291.55547  21486071.98447
  20808243.875 7    -93260.410 7    -46816.77749  20808242.41449
  20171818.086 7    -55107.738 7    -29411.41849  20171816.40649
  23526166.352 4    -24533.465 4     -5758.60946  23526162.69946
 20  5 16  1 38 10.0000000  0  4G04G08G27G31                         0.000245378
  21485475.359 6    -60091.438 6    -29741.62947  21485473.60247
  20807256.672 7    -98447.445 7    -50858.61349  20807254.95349
  20171234.977 7    -58169.395 7    -31797.12549  20171233.87549
  23525939.422 4    -25722.801 4     -6685.37146  23525936.39846
 20  5 16  1 38 11.0000000  0  4G04G08G27G31                         0.000243097
  21484876.320 6    -63237.336 6    -32192.98047  21484874.79347
  20806269.406 7   -103636.141 7    -54901.75449  20806268.50049
  20170652.391 7    -61232.637 7    -34184.07049  20170651.10949
  23525713.172 4    -26914.078 4     -7613.64146  23525709.68446
 20  5 16  1 38 12.0000000  0  4G04G08G27G31                         0.000240814
  21484277.563 6    -66384.523 6    -34645.33247  21484276.33247
  20805281.938 7   -108826.242 7    -58945.98849  20805280.15249
  20170069.164 7    -64297.215 7    -36572.05549  20170068.06349
  23525486.234 4    -28107.051 4     -8543.23846  23525482.36346
 20  5 16  1 38 13.0000000  0  4G04G08G27G31                         0.000238531
  21483678.422 6    -69533.023 6    -37098.71147  21483677.16447
  20804294.203 7   -114017.641 7    -62991.23849  20804292.73449
  20169485.547 7    -67363.082 7    -38961.04349  20169484.28949
  23525259.008 3    -29301.621 3     -9474.06646  23525255.12146
 20  5 16  1 38 14.0000000  0  4G04G08G27G31                         0.000236246
  21483078.516 6    -72682.738 6    -39553.03547  21483077.85547
  20803305.680 7   -119210.348 7    -67037.50049  20803304.23049
  20168901.945 7    -70430.152 7    -41350.97749  20168900.68449
  23525030.797 4    -30497.742 4    -10406.10246  23525027.39846
 20  5 16  1 38 15.0000000  0  4G04G08G27G31                         0.000233961
  21482478.969 6    -75833.598 6    -42008.24647  21482477.88347
  20802317.063 7   -124404.262 7    -71084.70349  20802315.85949
  20168318.070 7    -73498.355 7    -43741.77749  20168316.73849
  23524803.492 4    -31695.340 4    -11339.30946  23524799.30946
 20  5 16  1 38 16.0000000  0  4G04G08G27G31                         0.000231674
  21481879.758 6    -78985.500 6    -44464.27747  21481877.98047
  20801328.555 7   -129599.305 7    -75132.79749  20801327.45749
  20167734.609 7    -76567.637 7    -46133.42649  20167732.86349
  23524574.625 3    -32894.395 3    -12273.64546  23524570.96546
 20  5 16  1 38 17.0000000  0  4G04G08G27G31                         0.000229387
  21481279.758 6    -82138.262 6    -46920.98047  21481278.36347
  20800340.086 7   -134795.254 7    -79181.58649  20800338.14849
  20167149.867 7    -79637.777 7    -48525.75049  20167148.56349
  23524346.445 4    -34094.484 4    -13208.75846  23524343.02346
 20  5 16  1 38 18.0000000  0  4G04G08G27G31                         0.000227098
  21480679.617 6    -85291.793 6    -49378.27747  21480678.71947
  20799350.961 7   -139992.035 7    -83231.02349  20799349.16449
  20166565.547 7    -82708.672 7    -50918.65649  20166564.27049
  23524118.328 3    -35295.824 3    -14144.85946  23524114.33246
 20  5 16  1 38 19.0000000  0  5G04G08G26G27G31                      0.000224808
  21480079.570 6    -88446.160 6    -51836.22347  21480077.78147
  20798362.055 7   -145189.703 7    -87281.15249  20798360.71549
  22929535.28915    -42051.33815    -15570.55856  22929531.12956
  20165980.922 7    -85780.406 7    -53312.21149  20165979.38749
  23523889.961 3    -36498.281 3    -15081.84446  23523885.34446
 20  5 16  1 38 20.0000000  0  7G04G08G11G16G26G27G31                0.000222517
  21479478.805 6    -91601.164 6    -54294.67247  21479477.48447
  20797372.930 7   -150388.063 7    -91331.82449  20797371.33649
  23557949.78114   -187317.22314    -61403.14555  23557946.87955
  21531982.30516    -63956.75416    -30481.05557  21531977.66057
  22929175.422 5    -43937.590 5    -17040.37546  22929172.32446
  20165396.102 7    -88852.770 7    -55706.25449  20165394.82449
  23523660.813 3    -37701.734 3    -16019.59846  23523656.10546
 20  5 16  1 38 21.0000000  0  7G04G08G11G16G26G27G31                0.000220226
  21478878.086 6    -94756.883 6    -56753.68047  21478876.92647
  20796383.328 7   -155587.156 7    -95383.06649  20796381.70349
  23556610.766 4   -194347.898 4    -66881.60945  23556608.66845
  21531527.500 6    -66348.523 6    -32344.77347  21531522.58647
  22928816.484 5    -45825.180 5    -18511.22746  22928812.76646
  20164811.633 7    -91925.852 7    -58100.86749  20164810.00849
  23523431.141 3    -38906.199 3    -16958.13746  23523427.19546
 20  5 16  1 38 22.0000000  0  7G04G08G11G16G26G27G31                0.000217934
  21478277.508 6    -97913.063 6    -59213.04347  21478276.55547
  20795394.156 7   -160786.828 7    -99434.75049  20795392.89549
  23555272.711 4   -201379.652 4    -72360.91445  23555270.32045
  21531071.898 6    -68741.320 6    -34209.28547  21531067.03547
  22928457.328 5    -47713.898 5    -19982.94546  22928453.66846
  20164226.484 7    -94999.406 7    -60495.84849  20164225.19549
  23523201.594 3    -40111.488 3    -17897.30146  23523197.37146
 20  5 16  1 38 23.0000000  0  7G04G08G11G16G26G27G31                0.000215641
  21477677.000 6   -101069.750 6    -61672.79747  21477675.74247
  20794404.711 7   -165987.027 7   -103486.85549  20794403.18449
  23553933.813 3   -208412.379 3    -77840.95345  23553932.45345
  21530616.070 6    -71135.148 6    -36074.60547  21530611.54347
  22928097.867 5    -49603.727 5    -21455.55546  22928094.09446
  20163641.586 7    -98073.445 7    -62891.21549  20163640.54749
  23522972.164 1    -41317.598 1    -18837.09846  23522968.11346
 20  5 16  1 38 24.0000000  0  7G04G08G11G16G26G27G31                0.000213348
  21477076.344 6   -104226.883 6    -64132.89547  21477074.70347
  20793414.844 7   -171187.738 7   -107539.36349  20793413.60249
  23552595.461 2   -215446.188 2    -83321.80945  23552593.71545
  21530160.273 6    -73530.008 6    -37940.73047  21530155.95747
  22927738.680 4    -51494.594 4    -22928.98046  22927734.72346
  20163056.586 7   -101147.949 7    -65286.93449  20163055.29749
  23522743.031 2    -42524.504 2    -19777.51246  23522738.19946
 20  5 16  1 38 25.0000000  0  7G04G08G11G16G26G27G31                0.000211056
  21476475.055 6   -107384.355 6    -66593.27347  21476474.09047
  20792424.813 6   -176388.840 6   -111592.16849  20792423.69949
  23551257.531 4   -222480.723 4    -88803.27745  23551254.98045
  21529704.969 6    -75925.711 6    -39807.52047  21529699.66847
  22927377.539 4    -53386.426 4    -24403.12546  22927374.35546
  20162471.438 7   -104222.801 7    -67682.91849  20162470.39149
  23522512.977 3    -43732.086 3    -20718.50446  23522509.03546
 20  5 16  1 38 26.0000000  0  7G04G08G11G16G26G27G31                0.000208761
  21475874.281 6   -110542.102 6    -69053.85247  21475873.14547
  20791435.422 6   -181590.270 6   -115645.23049  20791433.48049
  23549918.281 4   -229516.086 4    -94285.38745  23549916.07045
  21529248.719 6    -78322.211 6    -41674.93047  21529244.16447
  22927017.602 4    -55279.109 4    -25877.95746  22927014.54746
  20161885.930 7   -107297.887 7    -70079.08649  20161884.98849
  23522282.359 3    -44940.238 3    -21659.94946  23522278.63746
 20  5 16  1 38 27.0000000  0  7G04G08G11G16G26G27G31                0.000206467
  21475273.531 6   -113700.063 6    -71514.59847  21475271.92647
  20790445.375 6   -186792.023 6   -119698.54349  20790444.34849
  23548579.336 4   -236552.297 4    -99768.14545  23548577.01245
  21528792.773 6    -80719.488 6    -43542.93447  21528787.76647
  22926656.727 4    -57172.664 4    -27353.46946  22926654.40646
  20161300.898 7   -110373.223 7    -72475.45349  20161299.73849
  23522052.766 3    -46148.953 3    -22601.85546  23522048.73446
 20  5 16  1 38 28.0000000  0  7G04G08G11G16G26G27G31                0.000204170
  21474672.898 6   -116858.305 6    -73975.57447  21474671.19947
  20789455.633 6   -191994.063 6   -123752.09049  20789454.07449
  23547240.242 4   -243589.246 4   -105251.47745  23547237.93845
  21528336.242 6    -83117.578 6    -45411.57447  21528331.50047
  22926296.914 4    -59067.086 4    -28829.65246  22926294.28946
  20160715.797 7   -113448.809 7    -74872.02349  20160714.47349
  23521823.313 4    -47358.293 4    -23544.23846  23521818.67246
 20  5 16  1 38 29.0000000  0  7G04G08G11G16G26G27G31                0.000201874
  21474071.609 6   -120016.703 6    -76436.67247  21474070.12547
  20788465.320 6   -197196.336 6   -127805.81349  20788463.85949
  23545900.859 4   -250626.887 4   -110735.35945  23545898.84445
  21527880.273 6    -85516.344 6    -47280.73847  21527874.96147
  22925935.711 4    -60962.270 4    -30306.43046  22925933.38346
  20160130.336 7   -116524.566 7    -77268.72349  20160129.25849
  23521592.625 3    -48568.125 3    -24486.98846  23521588.31346
 20  5 16  1 38 30.0000000  0  7G04G08G11G16G26G27G31                0.000199577
  21473470.523 6   -123175.340 6    -78897.94147  21473468.94947
  20787475.141 6   -202398.891 6   -131859.75049  20787474.23049
  23544561.406 4   -257665.265 4   -116219.81445  23544559.35545
  21527423.609 6    -87915.898 6    -49150.52347  21527418.39547
  22925573.289 4    -62858.301 4    -31783.84446  22925572.96946
  20159545.094 7   -119600.555 7    -79665.59049  20159543.64149
  23521363.117 3    -49778.535 3    -25430.13746  23521358.34446
 20  5 16  1 38 31.0000000  0  7G04G08G11G16G26G27G31                0.000197279
  21472868.930 6   -126334.113 6    -81359.32447  21472867.77347
  20786485.461 6   -207601.672 6   -135913.85949  20786484.01649
  23543222.594 4   -264704.402 4   -121704.84845  23543219.77745
  21526967.070 6    -90316.156 6    -51020.86347  21526961.72747
  22925212.906 4    -64755.086 4    -33261.85246  22925212.34446
  20158959.898 7   -122676.699 7    -82062.57849  20158958.54349
  23521132.055 3    -50989.398 3    -26373.64546  23521127.81346
 20  5 16  1 38 32.0000000  0  7G04G08G11G16G26G27G31                0.000194983
  21472268.242 6   -129492.840 6    -83820.67247  21472266.89547
  20785495.141 6   -212804.445 6   -139967.96549  20785493.73049
  23541882.914 4   -271743.918 4   -127190.17645  23541880.34445
  21526509.836 6    -92716.883 6    -52891.56347  21526504.88747
  22924852.016 4    -66652.449 4    -34740.33245  22924850.98045
  20158374.625 7   -125752.773 7    -84459.51249  20158373.41449
  23520901.859 4    -52200.559 4    -27317.37946  23520897.17246
 20  5 16  1 38 33.0000000  0  7G04G08G11G16G26G27G31                0.000192684
  21471667.313 6   -132651.590 6    -86282.03147  21471665.69147
  20784505.148 7   -218007.297 7   -144022.13349  20784503.90249
  23540543.039 4   -278784.020 4   -132675.97345  23540540.66845
  21526052.648 6    -95118.176 6    -54762.69547  21526047.94147
  22924490.906 4    -68550.434 4    -36219.30145  22924490.21145
  20157789.016 7   -128828.879 7    -86856.47749  20157787.88349
  23520671.156 4    -53412.082 4    -28261.40246  23520666.72346
 20  5 16  1 38 34.0000000  0  7G04G08G11G16G26G27G31                0.000190386
  21471066.133 6   -135810.367 6    -88743.42247  21471064.81347
  20783514.984 7   -223210.227 7   -148076.35949  20783513.66849
  23539203.313 4   -285824.688 4   -138162.21946  23539200.98846
  21525595.703 6    -97520.012 6    -56634.25447  21525591.50847
  22924130.641 4    -70449.027 4    -37698.74245  22924128.74645
  20157203.406 7   -131905.004 7    -89253.45749  20157202.62549
  23520440.266 4    -54623.941 4    -29205.71546  23520436.00046
 20  5 16  1 38 35.0000000  0  7G04G08G11G16G26G27G31                0.000188087
  21470465.320 6   -138968.992 6    -91204.68447  21470463.57447
  20782524.711 7   -228413.074 7   -152130.52749  20782523.66049
  23537862.992 4   -292865.754 4   -143648.76245  23537861.49645
  21525138.391 6    -99922.250 6    -58506.12947  21525133.91047
  22923769.469 4    -72348.129 4    -39178.55945  22923767.80945
  20156618.445 7   -134980.992 7    -91650.33249  20156616.85249
  23520209.984 4    -55836.035 4    -30150.20346  23520205.28546
 20  5 16  1 38 36.0000000  0  7G04G08G11G16G26G27G31                0.000185774
  21469863.797 6   -142127.414 6    -93665.79347  21469862.56647
  20781534.852 7   -233615.809 7   -156184.61349  20781534.00449
  23536523.602 3   -299907.102 3   -149135.53146  23536521.36346
  21524681.336 6   -102324.848 6    -60378.28147  21524676.68847
  22923407.648 4    -74247.621 4    -40658.68045  22923406.11345
  20156032.984 7   -138056.781 7    -94047.05149  20156031.62149
  23519979.141 4    -57048.246 4    -31094.79746  23519974.36746
 20  5 16  1 38 37.0000000  0  7G04G08G11G16G26G27G31                0.000183475
  21469263.078 6   -145285.703 6    -96126.80147  21469261.49647
  20780544.969 7   -238818.406 7   -160238.59049  20780543.55149
  23535183.344 4   -306948.887 4   -154622.63346  23535181.14146
  21524224.258 6   -104727.848 6    -62250.75447  21524219.50847
  22923045.750 4    -76147.551 4    -42139.14846  22923044.58246
  20155447.633 7   -141132.426 7    -96443.66049  20155446.53549
  23519748.242 4    -58260.633 4    -32039.53146  23519743.91446
 20  5 16  1 38 38.0000000  0  7G04G08G11G16G26G27G31                0.000181175
  21468662.031 6   -148443.902 6    -98587.73847  21468660.55547
  20779554.906 7   -244020.992 7   -164292.54749  20779553.59849
  23533843.305 3   -313991.078 3   -160110.05546  23533841.32446
  21523766.992 6   -107131.266 6    -64123.54347  21523762.12947
  22922684.375 4    -78048.113 4    -43620.09845  22922683.21945
  20154862.445 7   -144207.965 7    -98840.18449  20154861.01249
  23519517.578 4    -59473.277 4    -32984.45346  23519513.55546
 20  5 16  1 38 39.0000000  0  7G04G08G11G16G26G27G31                0.000178875
  21468060.969 6   -151602.027 6   -101048.61347  21468059.52047
  20778564.797 7   -249223.578 7   -168346.50849  20778563.72749
  23532503.461 4   -321033.723 4   -165597.84046  23532501.35246
  21523309.742 6   -109535.172 6    -65996.71947  21523304.82047
  22922322.141 3    -79949.133 3    -45101.38745  22922321.58645
  20154277.141 7   -147283.441 7   -101236.66049  20154275.58649
  23519286.695 4    -60686.172 4    -33929.57846  23519282.40646
 20  5 16  1 38 40.0000000  0  7G04G08G11G16G26G27G31                0.000176573
  21467460.305 6   -154760.152 6   -103509.48847  21467458.42647
  20777574.852 7   -254426.172 7   -172400.48049  20777573.63349
  23531163.000 3   -328076.891 3   -171086.01245  23531160.60245
  21522851.617 6   -111939.570 6    -67870.27347  21522847.08247
  22921959.563 3    -81850.785 3    -46583.22345  22921959.10945
  20153691.773 7   -150358.922 7   -103633.13749  20153690.34449
  23519055.773 4    -61899.383 4    -34874.94546  23519051.48446
 20  5 16  1 38 41.0000000  0  7G04G08G11G16G26G27G31                0.000174274
  21466858.844 6   -157918.047 6   -105970.18047  21466857.33247
  20776585.039 7   -259628.641 7   -176454.35249  20776583.81349
  23529822.570 3   -335120.383 3   -176574.44945  23529820.41045
  21522394.172 6   -114344.309 6    -69744.09847  21522389.34847
  22921597.469 3    -83752.789 3    -48065.30545  22921597.42245
  20153106.602 7   -153434.168 7   -106029.42649  20153105.16449
  23518825.195 4    -63112.750 4    -35820.41846  23518820.46546
 20  5 16  1 38 42.0000000  0  7G04G08G11G16G26G27G31                0.000171974
  21466258.266 6   -161075.664 6   -108430.66447  21466256.28947
  20775595.086 7   -264830.875 7   -180508.03549  20775593.67249
  23528482.844 3   -342164.090 3   -182063.05945  23528480.27045
  21521936.508 6   -116749.332 6    -71618.14847  21521931.40247
  22921234.773 3    -85655.098 3    -49547.61345  22921235.52345
  20152521.719 7   -156509.129 7   -108425.49649  20152519.93449
  23518594.516 4    -64326.117 4    -36765.91046  23518589.78546
 20  5 16  1 38 43.0000000  0  7G04G08G11G16G26G27G31                0.000169672
  21465657.234 6   -164233.109 6   -110891.00847  21465655.94147
  20774605.461 7   -270033.008 7   -184561.64549  20774603.83649
  23527141.906 3   -349208.191 3   -187551.96545  23527139.59445
  21521478.820 6   -119154.688 6    -73492.44946  21521473.93046
  22920872.570 3    -87557.883 3    -51030.30145  22920873.39545
  20151936.555 7   -159583.918 7   -110821.43849  20151934.75849
  23518363.953 4    -65539.664 4    -37711.52746  23518358.50446
 20  5 16  1 38 44.0000000  0  7G04G08G11G16G26G27G31                0.000167372
  21465056.414 6   -167390.324 6   -113351.17247  21465054.95347
  20773615.242 7   -275234.973 7   -188615.12549  20773614.33649
  23525801.609 4   -356252.590 4   -193041.10245  23525799.20345
  21521020.836 6   -121560.363 6    -75367.00047  21521016.73447
  22920510.242 3    -89461.102 3    -52513.32045  22920511.21145
  20151351.430 7   -162658.504 7   -113217.21949  20151349.91049
  23518132.898 4    -66753.371 4    -38657.27046  23518127.94146
 20  5 16  1 38 45.0000000  0  7G04G08G11G16G26G27G31                0.000165070
  21464455.719 6   -170547.336 6   -115811.17647  21464454.50447
  20772625.547 7   -280436.793 7   -192668.48849  20772624.34049
  23524461.016 4   -363297.297 4   -198530.47345  23524458.80545
  21520563.195 6   -123966.363 6    -77241.81347  21520558.46547
  22920146.984 3    -91364.703 3    -53996.64845  22920149.09045
  20150766.367 7   -165732.875 7   -115612.83649  20150764.99649
  23517901.352 4    -67967.129 4    -39603.07846  23517896.54346
 20  5 16  1 38 46.0000000  0  7G04G08G11G16G26G27G31                0.000162769
  21463854.844 6   -173704.145 6   -118271.03947  21463853.37547
  20771635.688 7   -285638.469 7   -196721.74249  20771634.43449
  23523120.648 4   -370342.320 4   -204020.10945  23523118.18445
  21520105.023 6   -126372.699 6    -79116.87147  21520100.68447
  22919784.820 2    -93268.680 2    -55480.25846  22919786.82046
  20150181.406 7   -168807.016 7   -118008.27349  20150179.93449
  23517670.344 4    -69181.035 4    -40548.99246  23517665.81346
 20  5 16  1 38 47.0000000  0  7G04G08G11G16G26G27G31                0.000160465
  21463253.992 6   -176860.867 6   -120730.82047  21463252.75847
  20770645.984 7   -290840.117 7   -200774.96949  20770644.43449
  23521779.344 4   -377387.789 4   -209510.07445  23521777.55145
  21519647.133 6   -128779.535 6    -80992.34047  21519642.60247
  22919422.680 2    -95173.203 2    -56964.30146  22919424.94946
  20149596.492 7   -171881.090 7   -120403.65249  20149595.09049
  23517439.766 4    -70395.246 4    -41495.13346  23517434.81646
 20  5 16  1 38 48.0000000  0  7G04G08G11G16G26G27G31                0.000158163
  21462653.313 6   -180017.379 6   -123190.43847  21462652.33647
  20769655.852 7   -296041.598 7   -204828.08249  20769654.63749
  23520438.281 3   -384433.582 3   -215000.32045  23520436.55945
  21519188.695 6   -131186.641 6    -82868.00447  21519185.08647
  22919059.891 2    -97078.098 2    -58448.63746  22919062.02746
  20149011.688 7   -174954.945 7   -122798.87149  20149009.95749
  23517208.414 4    -71609.500 4    -42441.30546  23517203.56646
 20  5 16  1 38 49.0000000  0  7G04G08G11G16G26G27G31                0.000155861
  21462052.734 6   -183173.461 6   -125649.71947  21462051.60947
  20768666.211 7   -301242.719 7   -208880.89849  20768665.18049
  23519098.336 3   -391479.430 3   -220490.59045  23519095.42645
  21518730.516 6   -133593.891 6    -84743.77747  21518726.87947
  22918698.094 2    -98983.145 2    -59933.05946  22918699.89846
  20148426.586 7   -178028.352 7   -125193.72749  20148425.10549
  23516977.195 4    -72823.719 4    -43387.44946  23516972.48046
 20  5 16  1 38 50.0000000  0  7G04G08G11G16G26G27G31                0.000153559
  21461452.117 6   -186329.141 6   -128108.69947  21461450.75047
  20767676.539 7   -306443.508 7   -212933.46549  20767675.66849
  23517757.734 3   -398525.488 3   -225981.05145  23517754.80945
  21518272.922 6   -136001.277 6    -86619.66447  21518268.55547
  22918335.422 2   -100888.461 2    -61417.74246  22918337.17646
  20147842.063 7   -181101.387 7   -127588.30149  20147840.32049
  23516745.969 4    -74037.840 4    -44333.51646  23516741.85546
 20  5 16  1 38 51.0000000  0  7G04G08G11G16G26G27G31                0.000151255
  21460851.789 6   -189484.527 6   -130567.43847  21460850.41847
  20766687.008 7   -311644.051 7   -216985.84049  20766685.97749
  23516416.719 3   -405571.719 3   -231471.62545  23516413.87945
  21517814.539 6   -138408.895 6    -88495.71947  21517810.59447
  22917972.672 2   -102794.113 2    -62902.69146  22917974.55946
  20147257.211 7   -184174.129 7   -129982.64549  20147255.57049
  23516515.156 4    -75251.992 4    -45279.62146  23516510.48446
 20  5 16  1 38 52.0000000  0  7G04G08G11G16G26G27G31                0.000148952
  21460251.203 6   -192639.625 6   -133025.95747  21460249.91047
  20765697.250 7   -316844.328 7   -221038.00449  20765696.11349
  23515075.453 3   -412618.211 3   -236962.37145  23515073.20345
  21517355.961 6   -140816.746 6    -90371.97347  21517351.94147
  22917608.867 2   -104700.027 2    -64387.82046  22917611.77046
  20146672.516 7   -187246.555 7   -132376.73849  20146671.00849
  23516283.695 4    -76466.219 4    -46225.77746  23516279.32846
 20  5 16  1 38 53.0000000  0  7G04G08G11G16G26G27G31                0.000146648
  21459651.008 6   -195794.391 6   -135484.21947  21459649.57447
  20764707.836 7   -322044.375 7   -225089.98049  20764707.13349
  23513734.797 3   -419664.852 3   -242453.26245  23513732.17645
  21516898.211 6   -143224.871 6    -92248.43047  21516893.87147
  22917246.867 2   -106606.230 2    -65873.14846  22917249.39546
  20146087.766 7   -190318.684 7   -134770.60549  20146086.29349
  23516052.977 4    -77680.445 4    -47171.94146  23516048.30546
 20  5 16  1 38 54.0000000  0  7G04G08G11G16G26G27G31                0.000144346
  21459051.313 6   -198948.895 6   -137942.27347  21459049.44547
  20763718.172 7   -327244.156 7   -229141.75849  20763717.51249
  23512394.117 4   -426711.820 4   -247944.41845  23512391.57045
  21516439.313 6   -145633.191 6    -94125.03947  21516435.59847
  22916883.219 2   -108512.805 2    -67358.77746  22916886.73046
  20145503.266 7   -193390.516 7   -137164.23849  20145501.82449
  23515822.141 4    -78894.738 4    -48118.13746  23515817.59046
 20  5 16  1 38 55.0000000  0  7G04G08G11G16G26G27G31                0.000142042
  21458450.891 6   -202102.906 6   -140399.94547  21458448.95747
  20762728.672 7   -332443.547 7   -233193.22749  20762728.23049
  23511053.797 4   -433758.809 4   -253435.59045  23511049.89545
  21515981.172 6   -148041.633 6    -96001.74647  21515977.34847
  22916520.633 2   -110419.551 2    -68844.57445  22916523.96545
  20144919.016 7   -196461.906 7   -139557.52749  20144917.67249
  23515591.164 4    -80108.895 4    -49064.22346  23515586.25046
 20  5 16  1 38 56.0000000  0  7G04G08G11G16G26G27G31                0.000139738
  21457850.234 6   -205256.637 6   -142857.38747  21457848.74247
  20761739.469 7   -337642.660 7   -237244.48049  20761738.39849
  23509712.391 4   -440806.008 4   -258926.91845  23509709.12545
  21515523.039 6   -150450.262 6    -97878.60547  21515519.48447
  22916157.234 1   -112326.543 1    -70330.55145  22916161.00445
  20144334.008 7   -199532.957 7   -141950.55549  20144332.88749
  23515360.555 4    -81323.094 4    -50010.35945  23515355.55545
 20  5 16  1 38 57.0000000  0  7G04G08G11G16G26G27G31                0.000137434
  21457250.406 6   -208409.977 6   -145314.53947  21457248.78947
  20760749.969 7   -342841.508 7   -241295.53549  20760749.29749
  23508370.711 4   -447853.379 4   -264418.37545  23508368.27745
  21515064.273 6   -152859.078 6    -99755.60946  21515060.68046
  22915794.766 1   -114233.754 1    -71816.68845  22915798.38745
  20143750.070 7   -202603.652 7   -144343.30949  20143748.69549
  23515128.508 4    -82537.230 4    -50956.44145  23515124.30145
 20  5 16  1 38 58.0000000  0  7G04G08G11G16G26G27G31                0.000135130
  21456650.398 6   -211562.953 6   -147771.40647  21456648.53147
  20759760.820 7   -348039.996 7   -245346.30549  20759759.97749
  23507028.992 4   -454900.910 4   -269909.94946  23507026.93046
  21514606.063 6   -155268.070 6   -101632.73447  21514602.32847
  22915431.703 1   -116141.246 1    -73303.06645  22915435.24245
  20143165.750 7   -205673.973 7   -146735.75849  20143164.23449
  23514898.484 4    -83751.293 4    -51902.46945  23514893.09445
 20  5 16  1 38 59.0000000  0  7G04G08G11G16G26G27G31                0.000132826
  21456050.719 6   -214715.672 6   -150228.07447  21456048.68847
  20758771.453 7   -353238.324 7   -249396.94949  20758770.68049
  23505688.672 4   -461948.688 4   -275401.73846  23505685.81646
  21514147.516 6   -157677.371 6   -103510.10947  21514144.07847
  22915068.688 1   -118049.074 1    -74789.68446  22915072.34846
  20142581.492 7   -208744.051 7   -149128.03549  20142580.03149
  23514667.023 4    -84965.477 4    -52848.58245  23514662.13745
 20  5 16  1 39  0.0000000  0  7G04G08G11G16G26G27G31                0.000130522
  21455451.070 6   -217868.063 6   -152684.48847  21455448.81647
  20757782.602 7   -358436.336 7   -253447.34849  20757781.55949
  23504346.867 4   -468996.648 4   -280893.63346  23504344.73846
  21513689.023 6   -160086.797 6   -105387.58246  21513685.10246
  22914705.344 1   -119957.148 1    -76276.50046  22914708.86746
  20141997.469 7   -211813.742 7   -151520.00049  20141996.34849
  23514436.234 4    -86179.680 4    -53794.71545  23514430.99245
 20  5 16  1 39  1.0000000  0  7G04G08G11G16G26G27G31                0.000128216
  21454850.586 6   -221020.074 6   -155140.59847  21454848.87547
  20756793.297 7   -363634.051 7   -257497.51649  20756792.73049
  23503005.758 4   -476044.785 4   -286385.66846  23503003.40646
  21513230.547 6   -162496.441 6   -107265.23447  21513226.86747
  22914342.070 2   -121865.504 2    -77763.53146  22914345.91046
  20141413.383 7   -214883.109 7   -153911.71549  20141411.85549
  23514204.930 4    -87393.793 4    -54740.78145  23514200.25445
 20  5 16  1 39  2.0000000  0  7G04G08G11G16G26G27G31                0.000125912
  21454251.391 6   -224171.656 6   -157596.37947  21454249.53147
  20755804.547 7   -368831.383 7   -261547.38349  20755803.76649
  23501664.570 4   -483092.992 4   -291877.78546  23501661.85246
  21512771.906 6   -164906.184 6   -109142.95346  21512768.15646
  22913978.648 1   -123774.039 1    -79250.69545  22913982.74645
  20140829.430 7   -217952.027 7   -156303.07449  20140827.90649
  23513973.625 4    -88607.844 4    -55686.80145  23513968.81645
 20  5 16  1 39  3.0000000  0  7G04G08G11G16G26G27G31                0.000123608
  21453651.445 6   -227322.777 6   -160051.79347  21453649.66447
  20754815.383 7   -374028.320 7   -265596.94549  20754814.90649
  23500323.922 4   -490141.270 4   -297369.94946  23500320.97746
  21512313.273 6   -167315.980 6   -111020.71147  21512309.57047
  22913614.797 1   -125682.668 1    -80737.93846  22913619.21546
  20140245.633 7   -221020.496 7   -158694.09449  20140244.26249
  23513743.117 4    -89821.746 4    -56632.71545  23513738.09845
 20  5 16  1 39  4.0000000  0  7G04G08G11G16G26G27G31                0.000121302
  21453052.055 6   -230473.551 6   -162506.94147  21453049.90647
  20753826.695 7   -379225.031 7   -269646.32449  20753826.13749
  23498981.969 4   -497189.805 4   -302862.29746  23498979.50046
  21511854.922 6   -169726.043 6   -112898.67646  21511850.89846
  22913252.727 1   -127591.668 1    -82225.43845  22913256.19545
  20139661.633 7   -224088.625 7   -161084.84449  20139660.49649
  23513512.102 4    -91035.699 4    -57578.65245  23513507.10945
 20  5 16  1 39  5.0000000  0  7G04G08G11G16G26G27G31                0.000118998
  21452452.711 6   -233624.000 6   -164961.84047  21452450.75847
  20752837.766 7   -384421.371 7   -273695.42649  20752836.90249
  23497641.266 4   -504238.469 4   -308354.75446  23497638.32446
  21511396.063 6   -172136.238 6   -114776.75046  21511392.35546
  22912888.055 1   -129500.879 1    -83713.14146  22912892.76246
  20139077.859 7   -227156.418 7   -163475.33249  20139076.35949
  23513281.641 4    -92249.590 4    -58524.56645  23513276.25845
 20  5 16  1 39  6.0000000  0  7G04G08G11G16G26G27G31                0.000116692
  21451853.266 6   -236774.027 6   -167416.40247  21451850.92247
  20751849.359 7   -389617.348 7   -277744.24249  20751848.25049
  23496299.680 4   -511287.184 4   -313847.27046  23496297.07846
  21510937.531 6   -174546.578 6   -116654.93046  21510933.34846
  22912524.906 1   -131410.281 1    -85200.98846  22912529.49246
  20138494.219 7   -230223.770 7   -165865.48049  20138492.89549
  23513050.422 4    -93463.355 4    -59470.31345  23513045.23445
 20  5 16  1 39  7.0000000  0  7G04G08G11G16G26G27G31                0.000114386
  21451253.883 6   -239923.734 6   -169870.72347  21451251.48447
  20750860.492 7   -394813.102 7   -281792.87549  20750859.70749
  23494958.453 5   -518336.215 5   -319340.02746  23494955.61746
  21510478.672 6   -176957.133 6   -118533.28146  21510474.30946
  22912161.461 1   -133320.012 1    -86689.08646  22912165.68046
  20137910.641 7   -233290.824 7   -168255.39149  20137908.94149
  23512819.266 3    -94677.242 3    -60416.20345  23512814.39845
 20  5 16  1 39  8.0000000  0  7G04G08G11G16G26G27G31                0.000112080
  21450654.570 6   -243073.020 6   -172324.71547  21450652.16847
  20749871.797 7   -400008.500 7   -285841.23849  20749871.31649
  23493616.797 4   -525385.270 4   -324832.78146  23493614.13346
  21510020.273 6   -179367.836 6   -120411.75446  21510015.85246
  22911798.953 1   -135229.852 1    -88177.27046  22911802.46146
  20137326.844 7   -236357.469 7   -170644.98449  20137325.48449
  23512587.688 3    -95891.031 3    -61362.01645  23512583.14845
 20  5 16  1 39  9.0000000  0  7G04G08G11G16G26G27G31                0.000109776
  21450055.164 6   -246221.945 6   -174778.41847  21450053.66447
  20748883.227 7   -405203.551 7   -289889.33649  20748882.46549
  23492275.289 4   -532434.488 4   -330325.66846  23492272.73046
  21509561.414 6   -181778.672 6   -122290.32847  21509557.20747
  22911433.531 1   -137140.016 1    -89665.71146  22911439.41846
  20136743.648 7   -239423.711 7   -173034.27049  20136742.20349
  23512357.633 3    -97104.691 3    -62307.75046  23512352.10546
 20  5 16  1 39 10.0000000  0  7G04G08G11G16G26G27G31                0.000107470
  21449455.953 6   -249370.422 6   -177231.78147  21449454.16047
  20747894.758 7   -410398.238 7   -293937.14149  20747893.88749
  23490933.617 5   -539483.852 5   -335818.67246  23490931.67246
  21509102.617 6   -184189.625 6   -124168.99646  21509098.25046
  22911070.922 1   -139050.289 1    -91154.21946  22911076.15246
  20136160.211 7   -242489.555 7   -175423.23049  20136158.89549
  23512126.070 3    -98318.313 3    -63253.43846  23512121.65646
 20  5 16  1 39 11.0000000  0  7G04G08G11G16G26G27G31                0.000105164
  21448856.852 6   -252518.523 6   -179684.85247  21448855.04747
  20746906.078 7   -415592.586 7   -297984.68449  20746905.50449
  23489592.367 4   -546533.270 4   -341311.73046  23489589.93846
  21508643.719 6   -186600.758 6   -126047.80147  21508639.46547
  22910707.469 1   -140960.789 1    -92642.93446  22910712.57446
  20135576.750 7   -245554.969 7   -177811.87549  20135575.27049
  23511895.492 3    -99531.859 3    -64199.03146  23511890.71946
 20  5 16  1 39 12.0000000  0  7G04G08G11G16G26G27G31                0.000102858
  21448258.008 6   -255666.141 6   -182137.53547  21448256.25447
  20745918.070 7   -420786.508 7   -302031.89549  20745917.22349
  23488251.305 5   -553582.766 5   -346804.87546  23488248.82846
  21508185.109 6   -189011.871 6   -127926.60247  21508180.83647
  22910343.195 1   -142871.488 1    -94131.75846  22910348.87146
  20134993.445 7   -248619.922 7   -180200.14149  20134992.17649
  23511663.617 3   -100745.270 3    -65144.55146  23511659.54746
 20  5 16  1 39 13.0000000  0  7G04G08G11G16G26G27G31                0.000100552
  21447659.461 6   -258813.305 6   -184589.86347  21447657.01647
  20744929.594 7   -425980.047 7   -306078.80549  20744928.60949
  23486909.070 4   -560632.383 4   -352298.09046  23486907.05946
  21507726.102 6   -191423.152 6   -129805.52047  21507722.00447
  22909980.172 1   -144782.328 1    -95620.71546  22909985.06646
  20134410.531 7   -251684.445 7   -182588.08649  20134409.02749
  23511432.352 3   -101958.574 3    -66089.98046  23511428.59046
 20  5 16  1 39 14.0000000  0  7G04G08G11G16G26G27G31                0.000098244
  21447060.266 6   -261960.020 6   -187041.84447  21447058.66847
  20743941.336 7   -431173.180 7   -310125.39549  20743940.60949
  23485566.875 4   -567682.012 4   -357791.30946  23485565.81346
  21507267.086 6   -193834.504 6   -131684.49647  21507263.14547
  22909615.578 1   -146693.340 1    -97109.80546  22909621.40246
  20133827.398 7   -254748.504 7   -184975.66049  20133826.15249
  23511202.461 3   -103171.809 3    -67035.33646  23511197.59446
 20  5 16  1 39 15.0000000  0  7G04G08G11G16G26G27G31                0.000095938
  21446461.383 6   -265106.309 6   -189493.50047  21446459.31347
  20742953.141 7   -436365.938 7   -314171.70349  20742952.58649
  23484226.789 5   -574731.758 5   -363284.60546  23484223.75446
  21506808.617 6   -196245.922 6   -133563.52747  21506804.02047
  22909252.031 1   -148604.359 1    -98598.90246  22909257.70346
  20133244.156 7   -257812.109 7   -187362.88749  20133243.08649
  23510971.102 3   -104384.832 3    -67980.59446  23510967.46546
 20  5 16  1 39 16.0000000  0  7G04G08G11G16G26G27G31                0.000093632
  21445863.383 6   -268252.148 6   -191944.80147  21445861.34047
  20741965.047 7   -441558.336 7   -318217.72749  20741964.40249
  23482885.148 5   -581781.594 5   -368777.96946  23482882.29346
  21506349.000 6   -198657.496 6   -135442.66847  21506345.14847
  22908888.773 1   -150515.758 1   -100088.33246  22908894.68446
  20132661.383 7   -260875.320 7   -189749.80949  20132660.30549
  23510739.898 2   -105597.801 2    -68925.73445  23510736.69945
 20  5 16  1 39 17.0000000  0  7G04G08G11G16G26G27G31                0.000091326
  21445263.883 6   -271397.629 6   -194395.82047  21445262.78947
  20740977.141 7   -446750.410 7   -322263.50049  20740976.30149
  23481543.445 5   -588831.594 5   -374271.47346  23481540.73846
  21505890.555 6   -201069.215 6   -137321.91447  21505886.42247
  22908524.148 1   -152427.293 1   -101577.84846  22908530.44146
  20132078.305 7   -263938.121 7   -192136.40249  20132077.16049
  23510508.773 3   -106810.754 3    -69870.89545  23510505.72745
 20  5 16  1 39 18.0000000  0  7G04G08G11G16G26G27G31                0.000089018
  21444665.898 6   -274542.559 6   -196846.42247  21444664.40647
  20739989.328 7   -451942.008 7   -326308.89849  20739988.59849
  23480201.813 5   -595881.535 5   -379764.93046  23480199.38746
  21505431.305 6   -203480.949 6   -139201.19147  21505427.62147
  22908160.273 1   -154338.918 1   -103067.40646  22908166.83646
  20131495.797 7   -267000.406 7   -194522.60249  20131494.67249
  23510278.195 2   -108023.543 2    -70815.94545  23510274.67245
 20  5 16  1 39 19.0000000  0  7G04G08G11G16G26G27G31                0.000086712
  21444067.586 6   -277687.059 6   -199296.68447  21444065.68047
  20739001.477 7   -457133.199 7   -330353.99249  20739000.62949
  23478860.023 5   -602931.609 5   -385258.50446  23478858.08646
  21504972.563 6   -205892.738 6   -141080.52047  21504968.60547
  22907796.938 1   -156250.773 1   -104557.14846  22907802.96546
  20130912.930 7   -270062.262 7   -196908.46549  20130911.91849
  23510048.453 2   -109236.191 2    -71760.87945  23510044.15245
 20  5 16  1 39 20.0000000  0  7G04G08G11G16G26G27G31                0.000084404
  21443469.102 6   -280831.219 6   -201746.67647  21443467.86747
  20738013.180 7   -462324.133 7   -334398.87549  20738012.40249
  23477518.742 5   -609981.836 5   -390752.19146  23477516.36346
  21504513.594 6   -208304.754 6   -142960.00447  21504509.89547
  22907433.219 1   -158162.801 1   -106047.03146  22907439.11346
  20130330.438 7   -273123.727 7   -199294.02749  20130329.75449
  23509817.414 2   -110448.871 2    -72705.82045  23509813.30145
 20  5 16  1 39 21.0000000  0  7G04G08G11G16G26G27G31                0.000082098
  21442871.063 6   -283974.898 6   -204196.30147  21442869.41847
  20737025.578 7   -467514.629 7   -338443.41049  20737024.92249
  23476177.375 5   -617032.098 5   -396245.89146  23476174.71546
  21504054.680 6   -210716.828 6   -144839.55147  21504050.90247
  22907069.508 1   -160075.008 1   -107537.05946  22907075.03946
  20129747.938 7   -276184.738 7   -201679.22749  20129746.75449
  23509586.461 2   -111661.309 2    -73650.55545  23509582.58645
 20  5 16  1 39 22.0000000  0  7G04G08G11G16G26G27G31                0.000079790
  21442272.703 6   -287117.887 6   -206645.37947  21442271.15647
  20736037.641 7   -472704.504 7   -342487.46949  20736036.94949
  23474835.828 5   -624082.250 5   -401739.52046  23474833.34446
  21503596.023 6   -213128.777 6   -146718.98847  21503592.01647
  22906705.766 1   -161987.109 1   -109026.98045  22906711.66445
  20129165.805 7   -279245.098 7   -204063.92249  20129164.61749
  23509355.578 1   -112873.406 1    -74595.02345  23509352.07445
 20  5 16  1 39 23.0000000  0  7G04G08G11G16G26G27G31                0.000077482
  21441675.016 6   -290260.453 6   -209094.13347  21441673.00847
  20735050.500 7   -477893.996 7   -346531.22749  20735050.23449
  23473493.359 5   -631132.434 5   -407233.16846  23473491.54346
  21503136.586 6   -215540.801 6   -148598.48847  21503132.91447
  22906341.586 1   -163899.477 1   -110517.13346  22906347.85546
  20128583.219 7   -282305.008 7   -206448.26649  20128582.21549
  23509124.594 1   -114085.535 1    -75539.55145  23509120.65245
 20  5 16  1 39 24.0000000  0  7G04G08G11G16G26G27G31                0.000075176
  21441077.242 6   -293402.625 6   -211542.58247  21441075.60947
  20734062.969 7   -483083.137 7   -350574.71149  20734062.23849
  23472152.109 5   -638182.777 5   -412726.93446  23472150.14146
  21502677.641 6   -217952.992 6   -150478.12147  21502674.20747
  22905977.625 1   -165811.934 1   -112007.38345  22905984.16045
  20128001.047 7   -285364.523 7   -208832.30149  20128000.03149
  23508893.773 1   -115297.477 1    -76483.94145  23508890.59445
 20  5 16  1 39 25.0000000  0  7G04G08G11G16G26G27G31                0.000072868
  21440479.375 6   -296544.418 6   -213990.73447  21440477.60547
  20733075.703 7   -488271.953 7   -354617.94149  20733074.93449
  23470810.836 5   -645233.250 5   -418220.81646  23470808.27346
  21502218.656 6   -220365.344 6   -152357.87547  21502215.03147
  22905614.227 1   -167724.691 1   -113497.83245  22905619.73845
  20127418.906 7   -288423.656 7   -211216.03949  20127417.78149
  23508664.008 2   -116509.387 2    -77428.29345  23508659.47345
 20  5 16  1 39 26.0000000  0  7G04G08G11G16G26G27G31                0.000070560
  21439881.430 6   -299685.617 6   -216438.42247  21439879.61747
  20732088.406 7   -493460.254 7   -358660.77749  20732087.80149
  23469468.648 5   -652283.672 5   -423714.64546  23469466.74246
  21501759.695 6   -222777.656 6   -154237.59847  21501755.89547
  22905249.328 1   -169637.457 1   -114988.27745  22905255.86745
  20126837.109 7   -291482.219 7   -213599.33649  20126835.68849
  23508432.703 1   -117721.113 1    -78372.48445  23508428.80545
 20  5 16  1 39 27.0000000  0  7G04G08G11G16G26G27G31                0.000068254
  21439283.984 6   -302826.352 6   -218885.74647  21439281.79747
  20731101.078 7   -498648.105 7   -362703.25449  20731100.74249
  23468127.070 5   -659334.109 5   -429208.50846  23468125.50846
  21501300.828 6   -225190.008 6   -156117.35247  21501296.80947
  22904884.797 1   -171550.406 1   -116478.88345  22904891.53945
  20126254.945 7   -294540.270 7   -215982.23849  20126253.75049
  23508202.172 1   -118932.605 1    -79316.50045  23508198.39545
 20  5 16  1 39 28.0000000  0  7G04G08G11G16G26G27G31                0.000065947
  21438686.164 6   -305966.531 6   -221332.63347  21438684.56347
  20730113.836 7   -503835.496 7   -366745.37549  20730113.69949
  23466785.539 5   -666384.578 5   -434702.38746  23466783.43446
  21500841.539 6   -227602.367 6   -157997.10547  21500837.63747
  22904521.789 1   -173463.285 1   -117969.47745  22904527.66845
  20125673.242 7   -297597.805 7   -218364.72749  20125672.20749
  23507971.797 1   -120143.953 1    -80260.41445  23507968.09845
 20  5 16  1 39 29.0000000  0  7G04G08G11G16G26G27G31                0.000063639
  21438088.719 6   -309106.230 6   -223779.16047  21438086.91047
  20729126.938 7   -509022.453 7   -370787.16049  20729126.37149
  23465444.250 5   -673435.051 5   -440196.26646  23465441.72746
  21500382.430 6   -230014.793 6   -159876.92647  21500378.85247
  22904157.805 1   -175376.445 1   -119460.23045  22904163.45745
  20125091.805 7   -300654.859 7   -220746.85249  20125090.46149
  23507740.914 1   -121355.160 1    -81204.23445  23507737.18045
 20  5 16  1 39 30.0000000  0  7G04G08G11G16G26G27G31                0.000061331
  21437490.906 6   -312245.527 6   -226225.36747  21437489.38347
  20728140.070 7   -514209.012 7   -374828.63349  20728139.81349
  23464102.422 5   -680485.609 5   -445690.20346  23464100.02746
  21499923.344 6   -232427.313 6   -161756.82047  21499919.99247
  22903792.789 1   -177289.590 1   -120950.98845  22903799.71545
  20124509.773 7   -303711.492 7   -223128.64549  20124508.82049
  23507510.898 1   -122566.242 1    -82147.90245  23507506.58645
 20  5 16  1 39 31.0000000  0  7G04G08G11G16G26G27G31                0.000059023
  21436894.234 6   -315384.238 6   -228671.11347  21436892.62147
  20727153.086 7   -519395.094 7   -378869.73049  20727152.87149
  23462761.094 5   -687536.168 5   -451184.14546  23462758.48846
  21499464.414 6   -234839.820 6   -163636.69947  21499460.63347
  22903428.797 1   -179203.000 1   -122441.99245  22903435.51645
  20123928.586 7   -306767.559 7   -225509.99249  20123927.13349
  23507280.031 1   -123777.109 1    -83091.42645  23507276.04345
 20  5 16  1 39 32.0000000  0  7G04G08G11G16G26G27G31                0.000056715
  21436296.992 6   -318522.551 6   -231116.55147  21436295.41447
  20726166.258 7   -524580.820 7   -382910.55549  20726165.80549
  23461419.617 5   -694586.824 5   -456678.14846  23461416.88746
  21499005.266 6   -237252.457 6   -165516.66847  21499001.78547
  22903063.172 1   -181116.484 1   -123933.03145  22903071.08245
  20123346.703 7   -309823.211 7   -227891.02049  20123345.55549
  23507050.047 1   -124987.902 1    -84034.91445  23507045.53545
 20  5 16  1 39 33.0000000  0  7G04G08G11G16G26G27G31                0.000054407
  21435699.680 6   -321660.234 6   -233561.50047  21435698.40247
  20725179.406 7   -529765.957 7   -386950.92649  20725179.10949
  23460077.234 5   -701637.367 5   -462172.07046  23460075.27046
  21498545.914 6   -239665.000 6   -167396.57847  21498542.59047
  22902699.289 1   -183029.984 1   -125424.05945  22902706.85945
  20122765.273 7   -312878.242 7   -230271.56349  20122764.40249
  23506818.445 1   -126198.367 1    -84978.13745  23506815.36745
 20  5 16  1 39 34.0000000  0  7G04G08G11G16G26G27G31                0.000052099
  21435102.883 6   -324797.406 6   -236006.05147  21435101.45347
  20724192.844 7   -534950.645 7   -390990.94549  20724192.93849
  23458735.945 5   -708687.906 5   -467666.00046  23458733.50846
  21498087.102 6   -242077.551 6   -169276.48847  21498083.52347
  22902335.266 1   -184943.633 1   -126915.21545  22902342.84845
  20122184.617 7   -315932.766 7   -232651.71149  20122183.27749
  23506588.891 1   -127408.629 1    -85921.24245  23506584.45745
 20  5 16  1 39 35.0000000  0  7G04G08G11G16G26G27G31                0.000049791
  21434506.352 6   -327934.090 6   -238450.22347  21434504.62547
  20723206.570 7   -540134.918 7   -395030.63749  20723206.11349
  23457394.188 5   -715738.527 5   -473159.98446  23457392.00446
  21497628.023 6   -244490.184 6   -171156.45747  21497624.39547
  22901971.742 1   -186857.320 1   -128406.37545  22901978.39145
  20121603.070 7   -318986.805 7   -235031.48049  20121602.14849
  23506359.023 1   -128618.852 1    -86864.28145  23506354.39845
 20  5 16  1 39 36.0000000  0  7G04G08G11G16G26G27G31                0.000047483
  21433909.547 6   -331070.277 6   -240894.00847  21433907.62147
  20722219.563 6   -545318.734 6   -399069.96949  20722219.55149
  23456051.969 5   -722789.113 5   -478653.95746  23456050.17646
  21497168.805 6   -246902.836 6   -173036.44947  21497165.49247
  22901607.445 1   -188771.199 1   -129897.69145  22901614.09845
  20121022.063 7   -322040.340 7   -237410.85949  20121020.85249
  23506128.727 1   -129828.883 1    -87807.17245  23506124.48845
 20  5 16  1 39 37.0000000  0  8G04G08G11G16G21G26G27G31             0.000045176
  21433312.664 6   -334206.047 6   -243337.46947  21433310.54347
  20721233.266 7   -550502.195 7   -403109.02749  20721233.07449
  23454710.195 5   -729839.785 5   -484148.00046  23454708.21946
  21496709.781 6   -249315.609 6   -174916.53947  21496706.50447
  25196070.18012    -24958.69912                
  22901241.750 1   -190685.160 1   -131389.12945  22901249.57845
  20120440.836 7   -325093.441 7   -239789.89849  20120439.83649
  23505898.406 1   -131038.820 1    -88749.93045  23505894.12145
 20  5 16  1 39 38.0000000  0  8G04G08G11G16G21G26G27G31             0.000042887
  21432716.344 6   -337341.203 6   -245780.45747  21432714.06347
  20720246.906 7   -555685.137 7   -407147.68449  20720246.98849
  23453368.758 5   -736890.473 5   -489642.04346  23453366.99246
  21496250.836 6   -251728.375 6   -176796.62547  21496247.15247
  25195749.125 1    -26642.520 1                
  22900879.328 1   -192599.180 1   -132880.59445  22900885.51645
  20119860.367 7   -328145.977 7   -242168.50449  20119859.05549
  23505668.742 1   -132248.457 1    -89692.49645  23505663.99245
 20  5 16  1 39 39.0000000  0  8G04G08G11G16G21G26G27G31             0.000040579
  21432118.820 6   -340476.109 6   -248223.23447  21432117.73047
  20719260.898 6   -560867.805 6   -411186.12949  20719260.61349
  23452027.508 5   -743941.336 5   -495136.22346  23452025.10246
  21495792.281 6   -254141.355 6   -178676.86347  21495788.23047
  25195430.992 2    -28326.313 2                
  22900514.984 1   -194513.543 1   -134372.30945  22900521.12145
  20119279.789 7   -331198.227 7   -244546.87949  20119278.27049
  23505437.813 1   -133458.156 1    -90635.10945  23505433.48445
 20  5 16  1 39 40.0000000  0  8G04G08G11G16G21G26G27G31             0.000038271
  21431522.648 6   -343610.402 6   -250665.54747  21431521.14547
  20718274.844 7   -566049.938 7   -415224.15249  20718274.48049
  23450685.273 5   -750992.168 5   -500630.37746  23450683.18446
  21495332.398 6   -256554.277 6   -180557.06347  21495329.21147
  25195110.227 2    -30009.762 2                
  22900150.148 1   -196427.852 1   -135863.95345  22900156.96945
  20118698.664 7   -334249.852 7   -246924.77049  20118697.73449
  23505207.883 1   -134667.566 1    -91577.48445  23505203.48845
 20  5 16  1 39 41.0000000  0  8G04G08G11G16G21G26G27G31             0.000035963
  21430926.898 6   -346744.105 6   -253107.39547  21430924.98047
  20717288.664 6   -571231.535 6   -419261.76649  20717288.72349
  23449344.219 5   -758042.855 5   -506124.41446  23449341.46546
  21494873.305 6   -258967.129 6   -182437.19547  21494869.75847
  25194789.430 2    -31692.813 2                
  22899786.320 1   -198342.215 1   -137355.67645  22899792.35945
  20118118.258 7   -337300.930 7   -249302.23449  20118116.75449
  23504977.063 1   -135876.816 1    -92519.78545  23504973.39845
 20  5 16  1 39 42.0000000  0  8G04G08G11G16G21G26G27G31             0.000033653
  21430330.602 6   -349877.387 6   -255548.91447  21430328.83647
  20716302.914 7   -576412.785 7   -423299.10249  20716302.62149
  23448002.359 5   -765093.703 5   -511618.57046  23447999.69546
  21494414.242 6   -261380.141 6   -184317.46947  21494411.03547
  25194468.633 2    -33375.633 2                
  22899423.000 1   -200256.797 1   -138847.57845  22899428.09445
  20117537.602 7   -340351.563 7   -251679.35249  20117536.42649
  23504746.695 1   -137085.879 1    -93461.94545  23504743.73445
 20  5 16  1 39 43.0000000  0  8G04G08G11G16G21G26G27G31             0.000031345
  21429734.180 6   -353010.234 6   -257990.09847  21429732.33647
  20715317.133 7   -581593.605 7   -427336.10549  20715316.79349
  23446660.734 5   -772144.586 5   -517112.75446  23446658.00046
  21493955.250 6   -263793.215 6   -186197.79747  21493951.73047
  25194148.836 1    -35058.281 1                
  22899058.891 1   -202171.539 1   -140339.59045  22899063.54345
  20116957.219 7   -343401.738 7   -254056.11349  20116956.32849
  23504516.883 1   -138294.797 1    -94403.98045  23504513.29745
 20  5 16  1 39 44.0000000  0  8G04G08G11G16G21G26G27G31             0.000029036
  21429138.398 6   -356142.617 6   -260430.91847  21429136.57447
  20714331.148 6   -586774.051 6   -431372.80949  20714330.87549
  23445319.000 5   -779195.559 5   -522607.01646  23445316.52746
  21493495.758 6   -266206.391 6   -188078.19947  21493492.51647
  25193829.219 2    -36740.609 2                
  22898694.547 1   -204086.457 1   -141831.74645  22898699.21145
  20116376.781 7   -346451.500 7   -256432.55149  20116375.69149
  23504285.25811                    -95346.02355  23504283.61755
 20  5 16  1 39 45.0000000  0  8G04G08G11G16G21G26G27G31             0.000026728
  21428542.211 6   -359274.398 6   -262871.27047  21428540.69547
  20713345.711 7   -591953.934 7   -435409.07849  20713345.71149
  23443977.172 5   -786246.445 5   -528101.23046  23443974.70746
  21493036.758 6   -268619.496 6   -189958.53947  21493033.04747
  25193509.961 1    -38422.613 1                
  22898330.734 2   -206001.355 2   -143323.88345  22898334.55945
  20115796.742 7   -349500.637 7   -258808.49649  20115795.58249
  23504055.141 1   -140712.281 1    -96287.71545  23504053.21945
 20  5 16  1 39 46.0000000  0  8G04G08G11G16G21G26G27G31             0.000024420
  21427946.461 6   -362405.738 6   -265311.26247  21427944.73047
  20712359.844 6   -597133.414 6   -439445.03949  20712359.68849
  23442635.570 5   -793297.391 5   -533595.48446  23442633.04746
  21492577.484 6   -271032.688 6   -191838.94147  21492574.27047
  25193189.852 1    -40104.336 1                
  22897966.492 2   -207916.395 2   -144816.10945  22897969.70345
  20115216.430 7   -352549.324 7   -261184.09849  20115215.24249
  23503827.656 1   -141920.801 1    -97229.43445  23503823.41045
 20  5 16  1 39 47.0000000  0  8G04G08G11G16G21G26G27G31             0.000022110
  21427350.727 6   -365536.512 6   -267750.83247  21427348.93847
  20711374.227 7   -602312.418 7   -443480.63349  20711373.66849
  23441293.352 5   -800348.324 5   -539089.72346  23441291.47746
  21492118.555 6   -273445.859 6   -193719.32847  21492114.60247
  25192870.219 1    -41785.816 1                
  22897603.289 1   -209831.523 1   -146308.41445  22897604.97745
  20114636.422 7   -355597.469 7   -263559.27749  20114635.57049
  23503597.406 1   -143129.043 1    -98170.90245  23503593.86745
 20  5 16  1 39 48.0000000  0  8G04G08G11G16G21G26G27G31             0.000019802
  21426755.172 6   -368666.809 6   -270190.02047  21426753.47347
  20710389.055 7   -607490.984 7   -447515.87549  20710388.60949
  23439951.992 5   -807399.270 5   -544583.96946  23439950.10946
  21491659.039 6   -275859.082 6   -195599.76647  21491655.94947
  25192551.438 1    -43466.938 1                
  22897237.578 2   -211746.719 2   -147800.77045  22897241.07045
  20114056.344 7   -358645.102 7   -265934.05549  20114055.71549
  23503367.156 1   -144337.141 1    -99112.28945  23503363.78945
 20  5 16  1 39 49.0000000  0  8G04G08G11G16G21G26G27G31             0.000017492
  21426159.406 6   -371796.699 6   -272628.89547  21426157.92647
  20709403.570 7   -612669.156 7   -451550.81349  20709403.50049
  23438609.602 5   -814450.348 5   -550078.31646  23438607.61746
  21491199.438 6   -278272.441 6   -197480.30947  21491196.49247
  25192232.227 1    -45147.949 1                
  22896873.289 1   -213662.137 1   -149293.28545  22896876.31345
  20113476.625 7   -361692.352 7   -268308.53549  20113475.03549
  23503136.266 1   -145545.172 1   -100053.62145  23503134.13745
 20  5 16  1 39 50.0000000  0  8G04G08G11G16G21G26G27G31             0.000015182
  21425564.367 6   -374926.059 6   -275067.35947  21425562.80547
  20708417.992 7   -617846.914 7   -455585.43049  20708418.10949
  23437268.016 5   -821501.371 5   -555572.59846  23437266.27346
  21490740.734 6   -280685.832 6   -199360.86747  21490737.14547
  25191912.625 1    -46828.559 1                
  22896508.320 1   -215577.641 1   -150785.87545  22896511.55545
  20112896.648 7   -364739.074 7   -270682.60249  20112895.71549
  23502907.461 1   -146753.102 1   -100994.89145  23502903.93045
 20  5 16  1 39 51.0000000  0  8G04G08G11G16G21G26G27G31             0.000012875
  21424968.586 6   -378054.855 6   -277505.39547  21424967.15647
  20707432.977 7   -623024.133 7   -459619.63349  20707432.72749
  23435926.563 5   -828552.422 5   -561066.93846  23435924.27746
  21490281.305 6   -283099.172 6   -201241.39547  21490277.78147
  25191593.055 1    -48508.844 1                
  22896144.219 2   -217493.223 2   -152278.56645  22896146.65645
  20112317.148 7   -367785.234 7   -273056.23849  20112315.94549
  23502678.070 1   -147960.648 1   -101935.84445  23502673.96945
 20  5 16  1 39 52.0000000  0  8G04G08G11G16G21G26G27G31             0.000010567
  21424373.289 6   -381183.129 6   -279943.01247  21424371.73847
  20706447.883 7   -628200.910 7   -463653.48049  20706447.45349
  23434584.711 5   -835603.426 5   -566561.21146  23434582.63346
  21489822.406 6   -285512.559 6   -203121.96947  21489818.28147
  25191274.195 1    -50188.930 1                
  22895779.313 2   -219408.922 2   -153771.32045  22895781.97345
  20111737.547 7   -370830.879 7   -275429.46549  20111736.69949
  23502447.844 1   -149168.086 1   -102876.71945  23502443.80945
 20  5 16  1 39 53.0000000  0  8G04G08G11G16G21G26G27G31             0.000008257
  21423778.102 6   -384310.941 6   -282380.27747  21423776.38347
  20705462.516 7   -633377.215 7   -467686.97349  20705462.81349
  23433242.828 5   -842654.469 5   -572055.53946  23433241.05546
  21489362.984 6   -287925.984 6   -205002.54747  21489359.58247
  25190954.820 1    -51868.609 1                
  22895414.055 2   -221324.652 2   -155264.11345  22895417.46945
  20111158.203 7   -373876.035 7   -277802.32049  20111157.00049
  23502218.078 1   -150375.367 1   -103817.46945  23502214.10245
 20  5 16  1 39 54.0000000  0  8G04G08G11G16G21G26G27G31             0.000005947
  21423183.148 6   -387438.105 6   -284817.02347  21423180.93847
  20704477.750 7   -638552.988 7   -471720.04349  20704477.45349
  23431900.789 5   -849705.418 5   -577549.78946  23431899.56346
  21488903.563 6   -290339.309 6   -206883.06347  21488900.07447
  25190636.102 1    -53547.973 1                
  22895050.539 2   -223240.402 2   -156756.88345  22895052.87545
  20110578.695 7   -376920.574 7   -280174.68849  20110577.73449
  23501988.406 1   -151582.383 1   -104758.00445  23501984.82845
 20  5 16  1 39 55.0000000  0  8G04G08G11G16G21G26G27G31             0.000003639
  21422587.898 6   -390564.867 6   -287253.46147  21422586.37947
  20703492.883 7   -643728.379 7   -475752.82049  20703492.77749
  23430559.352 5   -856756.453 5   -583044.10546  23430557.66046
  21488444.523 6   -292752.777 6   -208763.68847  21488440.35947
  25190317.352 1    -55227.133 1                
  22894685.852 2   -225156.332 2   -158249.81345  22894688.30145
  20109999.328 7   -379964.680 7   -282546.71549  20109998.41849
  23501758.328 1   -152789.219 1   -105698.39145  23501755.51645
 20  5 16  1 39 56.0000000  0  8G04G08G11G16G21G26G27G31             0.000001329
  21421993.578 6   -393691.039 6   -289689.43047  21421991.89547
  20702507.984 7   -648903.234 7   -479785.17249  20702508.06649
  23429217.453 5   -863807.438 5   -588538.36346  23429216.21146
  21487985.320 6   -295166.180 6   -210644.26647  21487981.18447
  25189998.195 1    -56905.844 1                
  22894321.852 2   -227072.320 2   -159742.77745  22894323.33645
  20109420.016 7   -383008.215 7   -284918.30549  20109419.21549
  23501529.914 1   -153995.902 1   -106638.65245  23501525.53145
 20  5 16  1 39 57.0000000  0  8G04G08G11G16G21G26G27G31            -0.000000978
  21421398.141 6   -396816.762 6   -292125.06647  21421396.45347
  20701523.664 7   -654077.699 7   -483817.21949  20701523.55949
  23427875.719 5   -870858.465 5   -594032.66446  23427874.16846
  21487525.891 6   -297579.672 6   -212524.90647  21487522.02347
  25189679.539 1    -58584.422 1                
  22893956.852 2   -228988.414 2   -161235.82845  22893958.59045
  20108841.336 7   -386051.301 7   -287289.53949  20108840.37949
  23501300.281 1   -155202.492 1   -107578.87545  23501296.00045
 20  5 16  1 39 58.0000000  0  8G04G08G11G16G21G26G27G31            -0.000003288
  21420803.609 6   -399941.840 6   -294560.18847  21420801.85547
  20700538.836 7   -659251.578 7   -487848.81349  20700538.76649
  23426534.461 5   -877909.387 5   -599526.88746  23426532.55546
  21487066.539 6   -299993.102 6   -214405.50047  21487062.77347
  25189360.672 1    -60262.570 1                
  22893591.617 2   -230904.539 2   -162728.92245  22893593.71145
  20108261.906 7   -389093.754 7   -289660.27749  20108261.08649
  23501070.039 1   -156408.676 1   -108518.78145  23501066.19145
 20  5 16  1 39 59.0000000  0  8G04G08G11G16G21G26G27G31            -0.000005598
  21420209.344 6   -403066.414 6   -296994.91847  21420207.56647
  20699554.242 7   -664425.004 7   -491880.05549  20699554.75449
  23425192.875 5   -884960.313 5   -605021.10946  23425190.67646
  21486607.234 6   -302406.508 6   -216286.07847  21486603.34047
  25189042.180 1    -61940.309 1                
  22893227.008 2   -232820.688 2   -164222.02345  22893228.77045
  20107683.180 7   -392135.680 7   -292030.61349  20107682.40649
  23500841.695 1   -157614.750 1   -109458.52745  23500836.65645
 20  5 16  1 40  0.0000000  0  8G04G08G11G16G21G26G27G31            -0.000007908
  21419614.836 6   -406190.430 6   -299429.22347  21419612.86747
  20698569.898 6   -669597.922 6   -495910.90249  20698569.95349
  23423851.117 5   -892011.238 5   -610515.34846  23423848.92646
  21486148.297 6   -304819.902 6   -218166.64547  21486144.39847
  25188723.211 1    -63617.840 1                
  22892862.430 2   -234736.945 2   -165715.21945  22892864.44545
  20107104.422 7   -395177.078 7   -294400.53549  20107103.62549
  23500610.961 1   -158820.586 1   -110398.14545  23500607.66045
 20  5 16  1 40  1.0000000  0  8G04G08G11G16G21G26G27G31            -0.000010216
  21419020.750 6   -409313.977 6   -301863.16447  21419019.07047
  20697585.586 6   -674770.453 6   -499941.44149  20697585.94549
  23422508.383 5   -899062.195 5   -616009.60246  23422507.50046
  21485688.898 6   -307233.379 6   -220047.27047  21485684.87147
  25188403.867 1    -65295.129 1                
  22892497.906 2   -236653.313 2   -167208.49246  22892499.62146
  20106525.688 7   -398218.004 7   -296770.08649  20106525.04749
  23500382.484 1   -160026.238 1   -111337.59845  23500378.29745
 20  5 16  1 40  2.0000000  0  8G04G08G11G16G21G26G27G31            -0.000012533
  21418426.305 6   -412437.020 6   -304296.69947  21418424.17647
  20696601.570 6   -679942.504 6   -503971.61349  20696601.34449
  23421167.078 5   -906113.152 5   -621503.84846  23421165.83646
  21485229.422 6   -309646.871 6   -221927.91047  21485225.58647
  25188086.617 1    -66972.047 1                
  22892133.383 2   -238569.836 2   -168701.88746  22892134.79346
  20105947.266 7   -401258.418 7   -299139.23849  20105945.98849
  23500153.078 1   -161231.844 1   -112276.98045  23500148.77345
 20  5 16  1 40  3.0000000  0  8G04G08G11G16G21G26G27G31            -0.000014843
  21417831.836 6   -415559.508 6   -306729.80547  21417830.33647
  20695617.547 6   -685114.066 6   -508001.40249  20695617.63349
  23419825.508 5   -913164.023 5   -626998.02546  23419823.90646
  21484770.313 6   -312060.359 6   -223808.55147  21484766.77747
  25187768.938 1    -68648.617 1                
  22891768.797 3   -240486.383 3   -170195.29346  22891770.28546
  20105369.063 7   -404298.289 7   -301507.97349  20105367.75049
  23499924.133 1   -162437.063 1   -113216.14145  23499919.38345
 20  5 16  1 40  4.0000000  0  8G04G08G11G16G21G26G27G31            -0.000017153
  21417237.961 6   -418681.543 6   -309162.57047  21417236.01647
  20694633.445 6   -690285.203 6   -512030.85549  20694633.46949
  23418483.570 5   -920215.039 5   -632492.32846  23418482.28546
  21484311.102 6   -314473.949 6   -225689.27347  21484307.16447
  25187453.273 1    -70325.051 1                
  22891405.227 3   -242403.016 3   -171688.78946  22891405.34446
  20104790.758 7   -407337.672 7   -303876.31649  20104789.68049
  23499694.766 1   -163642.262 1   -114155.30145  23499690.16445
 20  5 16  1 40  5.0000000  0  8G04G08G11G16G21G26G27G31            -0.000019463
  21416644.055 6   -421802.980 6   -311594.85947  21416642.33247
  20693649.094 6   -695455.820 6   -516059.91049  20693649.77749
  23417141.336 5   -927265.934 5   -637986.52746  23417140.30946
  21483851.523 6   -316887.441 6   -227569.91847  21483847.91047
  25187135.609 1    -72000.938 1                
  22891039.773 3   -244319.742 3   -173182.34446  22891040.54346
  20104212.328 7   -410376.461 7   -306244.21149  20104211.40249
  23499463.898 1   -164847.176 1   -115094.28145  23499460.82045
 20  5 16  1 40  6.0000000  0  8G04G08G11G16G21G26G27G31            -0.000021772
  21416049.859 6   -424923.973 6   -314026.80947  21416048.19147
  20692665.406 6   -700626.039 6   -520088.65649  20692665.73449
  23415799.922 5   -934316.895 5   -643480.78546  23415798.77046
  21483392.391 6   -319301.059 6   -229450.66447  21483388.55547
  25186815.508 1    -73676.742 1                
  22890675.109 3   -246236.590 3   -174675.98046  22890675.87146
  20103633.992 7   -413414.832 7   -308611.77049  20103633.19149
  23499235.094 1   -166051.965 1   -116033.05945  23499231.41445
 20  5 16  1 40  7.0000000  0  8G04G08G11G16G21G26G27G31            -0.000024099
  21415456.422 6   -428044.449 6   -316458.34447  21415454.49647
  20691681.508 6   -705795.781 6   -524117.02349  20691681.94549
  23414458.352 5   -941367.883 5   -648975.03946  23414457.33246
  21482933.469 6   -321714.641 6   -231331.37147  21482928.87947
  25186497.10211                                
  22890309.633 3   -248153.547 3   -176169.71146  22890310.63746
  20103055.945 7   -416452.680 7   -310978.92249  20103055.51649
  23499005.977 1   -167256.551 1   -116971.71545  23499002.48045
 20  5 16  1 40  8.0000000  0  8G04G08G11G16G21G26G27G31            -0.000026407
  21414863.016 6   -431164.332 6   -318889.42647  21414860.95747
  20690697.992 6   -710965.004 6   -528144.99249  20690698.25849
  23413116.883 5   -948418.793 5   -654469.27046  23413115.51246
  21482473.781 6   -324128.203 6   -233212.07047  21482469.68047
  25186181.94511                                
  22889945.844 3   -250070.508 3   -177663.44546  22889945.82446
  20102478.156 7   -419489.953 7   -313345.62949  20102476.99249
  23498775.531 1   -168460.992 1   -117910.23845  23498772.68445
 20  5 16  1 40  9.0000000  0  8G04G08G11G16G21G26G27G31            -0.000028717
  21414269.008 6   -434283.750 6   -321320.14547  21414267.29747
  20689714.766 6   -716133.824 6   -532172.64549  20689715.02049
  23411775.258 5   -955469.742 5   -659963.52046  23411773.55146
  21482014.742 6   -326541.832 6   -235092.82047  21482010.50847
  25185860.97711                                
  22889581.633 3   -251987.602 3   -179157.27746  22889580.64546
  20101900.156 7   -422526.738 7   -315711.95749  20101899.24649
  23498546.055 1   -169665.199 1   -118848.52045  23498544.12945
 20  5 16  1 40 10.0000000  0  7G04G08G11G16G26G27G31               -0.000031029
  21413675.789 6   -437402.805 6   -323750.57047  21413673.95347
  20688730.758 6   -721302.293 6   -536200.02749  20688731.12549
  23410432.953 5   -962520.840 5   -665457.87546  23410431.83246
  21481555.508 6   -328955.629 6   -236973.70747  21481551.02347
  22889215.656 3   -253904.965 3   -180651.33646  22889215.97346
  20101322.234 7   -425563.172 7   -318078.01249  20101321.33649
  23498316.820 1   -170869.445 1   -119786.89145  23498315.29345
 20  5 16  1 40 11.0000000  0  7G04G08G11G16G26G27G31               -0.000033339
  21413082.070 6   -440521.301 6   -326180.57047  21413080.14847
  20687747.289 6   -726470.285 6   -540227.03149  20687747.51249
  23409091.398 5   -969571.895 5   -670952.19946  23409090.35946
  21481095.570 6   -331369.418 6   -238854.57847  21481091.86747
  22888850.891 3   -255822.379 3   -182145.41846  22888851.48446
  20100744.992 7   -428599.059 7   -320443.63749  20100743.65249
  23498088.016 1   -172073.363 1   -120725.03145  23498086.09045
 20  5 16  1 40 12.0000000  0  7G04G08G11G16G26G27G31               -0.000035648
  21412488.742 6   -443639.258 6   -328610.15647  21412487.03147
  20686764.203 6   -731637.750 6   -544253.62549  20686764.60949
  23407749.922 5   -976622.934 5   -676446.52046  23407748.51246
  21480636.813 6   -333783.176 6   -240735.41847  21480632.16047
  22888485.125 3   -257739.832 3   -183639.54746  22888486.12946
  20100166.883 7   -431634.383 7   -322808.82449  20100165.98049
  23497857.492 1   -173277.133 1   -121663.02345  23497857.14145
 20  5 16  1 40 13.0000000  0  7G04G08G11G16G26G27G31               -0.000037960
  21411895.469 6   -446756.684 6   -331039.31647  21411894.07047
  20685780.867 6   -736804.754 6   -548279.85949  20685781.14849
  23406408.328 5   -983673.949 5   -681940.80946  23406407.07446
  21480177.641 6   -336196.988 6   -242616.31347  21480173.02047
  22888120.336 2   -259657.383 2   -185133.73446  22888121.32846
  20099589.820 7   -434669.191 7   -325173.60949  20099588.51649
  23497629.609 1   -174480.750 1   -122600.85545  23497627.82445
 20  5 16  1 40 14.0000000  0  7G04G08G11G16G26G27G31               -0.000040270
  21411302.484 6   -449873.500 6   -333468.00847  21411300.78147
  20684797.234 6   -741971.188 6   -552305.65649  20684798.09449
  23405066.773 5   -990724.867 5   -687435.02346  23405065.62146
  21479717.813 6   -338610.711 6   -244497.12947  21479713.47347
  22887755.531 3   -261574.883 3   -186627.88746  22887756.36346
  20099012.219 7   -437703.395 7   -327537.92649  20099011.36749
  23497399.406 1   -175684.055 1   -123538.46545  23497398.69545
 20  5 16  1 40 15.0000000  0  7G04G08G11G16G26G27G31               -0.000042580
  21410709.328 6   -452989.652 6   -335896.17647  21410707.48447
  20683814.547 6   -747137.027 6   -556330.98849  20683815.31649
  23403724.359 5   -997775.641 5   -692929.14846  23403723.28146
  21479258.445 6   -341024.305 6   -246377.85247  21479254.61747
  22887391.391 3   -263492.320 3   -188121.99246  22887391.72746
  20098434.836 7   -440736.914 7   -329901.70349  20098433.90249
  23497171.664 1   -176886.980 1   -124475.83245  23497169.79745
 20  5 16  1 40 16.0000000  0  7G04G08G11G16G26G27G31               -0.000044889
  21410116.867 6   -456105.262 6   -338323.92647  21410115.16047
  20682831.250 6   -752302.406 6   -560355.95749  20682832.00849
  23402382.555 5  -1004826.418 5   -698423.25046  23402381.78946
  21478799.273 6   -343437.938 6   -248258.60246  21478795.10246
  22887026.523 2   -265409.957 2   -189616.26246  22887026.64546
  20097857.828 7   -443769.918 7   -332265.09049  20097856.79749
  23496941.688 1   -178089.707 1   -125413.04745  23496940.53145
 20  5 16  1 40 17.0000000  0  7G04G08G11G16G26G27G31               -0.000047201
  21409523.477 6   -459220.438 6   -340751.32847  21409522.14147
  20681848.813 6   -757467.371 6   -564380.60949  20681849.26249
  23401040.797 5  -1011877.219 5   -703917.37146  23401039.97746
  21478339.477 6   -345851.613 6   -250139.38347  21478335.64547
  22886661.906 3   -267327.594 3   -191110.54746  22886661.84446
  20097280.695 7   -446802.473 7   -334628.11349  20097279.42649
  23496713.641 1   -179292.316 1   -126350.15245  23496712.25845
 20  5 16  1 40 18.0000000  0  7G04G08G11G16G26G27G31               -0.000049511
  21408931.219 6   -462335.109 6   -343178.34447  21408929.19947
  20680866.055 6   -762631.895 6   -568404.90649  20680866.48449
  23399698.914 5  -1018928.039 5   -709411.51246  23399698.35946
  21477880.820 6   -348265.359 6   -252020.23447  21477876.48847
  22886296.961 2   -269245.402 2   -192604.93446  22886296.66846
  20096703.633 7   -449834.523 7   -336990.75449  20096702.39549
  23496485.164 1   -180494.828 1   -127287.26245  23496483.02345
 20  5 16  1 40 19.0000000  0  8G04G08G09G11G16G26G27G31            -0.000051823
  21408338.305 6   -465449.203 6   -345604.91047  21408337.02047
  20679882.875 6   -767795.863 6   -572428.78149  20679883.69149
  23003614.82814   -132095.27014   -194904.28156  23003610.52056
  23398357.305 5  -1025978.773 5   -714905.59046  23398356.53546
  21477421.375 6   -350679.027 6   -253901.00847  21477416.76647
  22885931.766 3   -271163.230 3   -194099.35246  22885931.48446
  20096126.805 7   -452865.992 7   -339352.93849  20096125.55949
  23496255.406 1   -181697.121 1   -128224.08245  23496254.32445
 20  5 16  1 40 20.0000000  0  8G04G08G09G11G16G26G27G31            -0.000054132
  21407745.805 6   -468562.723 6   -348031.03147  21407744.34447
  20678900.656 6   -772959.332 6   -576452.25849  20678901.56649
  23002663.820 4   -137093.305 4   -198798.85247  23002659.72347
  23397015.906 5  -1033029.496 5   -720399.65646  23397015.16846
  21476962.273 6   -353092.699 6   -255781.78147  21476958.11747
  22885566.227 3   -273081.137 3   -195593.82446  22885566.48846
  20095549.813 7   -455896.914 7   -341714.69949  20095549.03549
  23496027.469 1   -182899.039 1   -129160.62945  23496025.74245
 20  5 16  1 40 21.0000000  0  8G04G08G09G11G16G26G27G31            -0.000056444
  21407153.602 6   -471675.793 6   -350456.80147  21407151.86347
  20677917.938 6   -778122.410 6   -580475.43449  20677919.09449
  23001712.875 4   -142090.953 4   -202693.12146  23001708.50846
  23395674.086 5  -1040080.270 5   -725893.77346  23395673.32846
  21476502.773 6   -355506.457 6   -257662.63747  21476498.51247
  22885201.578 2   -274999.098 2   -197088.35246  22885201.87546
  20094973.875 7   -458927.383 7   -344076.10249  20094972.37949
  23495799.000 1   -184100.973 1   -130097.20745  23495797.04345
 20  5 16  1 40 22.0000000  0  8G04G08G09G11G16G26G27G31            -0.000058754
  21406561.289 6   -474788.273 6   -352882.10947  21406559.45747
  20676935.719 6   -783284.918 6   -584498.17249  20676936.12949
  23000762.109 4   -147087.941 4   -206586.86346  23000757.70346
  23394332.383 5  -1047130.926 5   -731387.79346  23394331.58246
  21476043.078 6   -357920.133 6   -259543.42647  21476039.32447
  22884836.063 2   -276917.164 2   -198582.96146  22884836.39546
  20094397.164 7   -461957.230 7   -346437.02749  20094395.79749
  23495570.305 1   -185302.598 1   -131033.54745  23495568.40645
 20  5 16  1 40 23.0000000  0  8G04G08G09G11G16G26G27G31            -0.000061066
  21405968.953 6   -477900.188 6   -355306.97747  21405967.32447
  20675953.484 6   -788446.918 6   -588520.51249  20675954.19949
  22999811.008 4   -152084.570 4   -210480.32846  22999806.56646
  23392991.695 6  -1054181.563 6   -736881.79746  23392989.93846
  21475583.906 6   -360333.797 6   -261424.19947  21475579.88747
  22884471.727 3   -278835.242 3   -200077.59046  22884471.80946
  20093820.656 7   -464986.555 7   -348797.53549  20093819.37949
  23495342.047 1   -186503.969 1   -131969.65245  23495339.85545
 20  5 16  1 40 24.0000000  0  8G04G08G09G11G16G26G27G31            -0.000063377
  21405376.836 6   -481011.625 6   -357731.47347  21405375.12147
  20674971.578 6   -793608.496 6   -592542.51649  20674971.98449
  22998859.727 3   -157080.652 3   -214373.37546  22998856.00446
  23391648.797 5  -1061232.250 5   -742375.83646  23391648.31346
  21475124.414 6   -362747.516 6   -263305.02047  21475120.70347
  22884106.859 3   -280753.449 3   -201572.30146  22884106.54746
  20093244.094 7   -468015.375 7   -351157.65649  20093243.12549
  23495113.141 1   -187705.145 1   -132905.66045  23495111.53545
 20  5 16  1 40 25.0000000  0  8G04G08G09G11G16G26G27G31            -0.000065687
  21404784.930 6   -484122.656 6   -360155.64847  21404783.22347
  20673989.195 6   -798769.695 6   -596564.23049  20673989.88749
  22997909.086 4   -162076.344 4   -218266.11746  22997905.22746
  23390307.570 6  -1068283.004 6   -747869.93446  23390306.60246
  21474665.148 6   -365161.344 6   -265185.92647  21474661.44947
  22883741.508 3   -282671.848 3   -203067.15246  22883741.85546
  20092667.789 7   -471043.766 7   -353517.44949  20092666.80949
  23494885.953 1   -188906.309 1   -133841.64545  23494882.79745
 20  5 16  1 40 26.0000000  0  8G04G08G09G11G16G26G27G31            -0.000067999
  21404193.031 6   -487233.180 6   -362579.43047  21404191.54347
  20673006.953 6   -803930.461 6   -600585.60549  20673007.62949
  22996957.969 3   -167071.621 3   -222158.53547  22996954.84047
  23388966.039 6  -1075333.809 6   -753364.06346  23388965.10546
  21474205.836 6   -367575.250 6   -267066.89147  21474201.74647
  22883376.430 3   -284590.395 3   -204562.11746  22883376.19546
  20092091.453 7   -474071.676 7   -355876.85549  20092090.48049
  23494657.695 1   -190107.285 1   -134777.48845  23494654.18445
 20  5 16  1 40 27.0000000  0  8G04G08G09G11G16G26G27G31            -0.000070309
  21403600.906 6   -490343.109 6   -365002.75847  21403599.28947
  20672025.180 6   -809090.719 6   -604606.59049  20672025.82049
  22996008.070 3   -172066.359 3   -226050.53547  22996004.53547
  23387623.563 5  -1082384.520 5   -758858.12946  23387623.18846
  21473746.195 6   -369989.090 6   -268947.80147  21473742.50447
  22883011.789 3   -286508.934 3   -206057.09446  22883011.35546
  20091515.328 7   -477099.020 7   -358235.82849  20091514.10249
  23494430.070 1   -191308.027 1   -135713.10245  23494425.57045
 20  5 16  1 40 28.0000000  0  8G04G08G09G11G16G26G27G31            -0.000072620
  21403009.727 6   -493452.469 6   -367425.62947  21403008.17247
  20671043.234 6   -814250.449 6   -608627.16449  20671043.93449
  22995057.148 4   -177060.594 4   -229942.15246  22995053.59846
  23386282.594 5  -1089435.180 5   -764352.14546  23386281.68446
  21473287.086 6   -372402.879 6   -270828.67247  21473283.19547
  22882646.867 4   -288427.484 4   -207552.08246  22882646.07846
  20090939.469 7   -480125.758 7   -360594.32849  20090938.52749
  23494200.734 1   -192508.598 1   -136648.57445  23494197.33245
 20  5 16  1 40 29.0000000  0  8G04G08G09G11G16G26G27G31            -0.000074932
  21402418.156 6   -496561.367 6   -369848.14847  21402416.05947
  20670061.273 6   -819409.727 6   -612647.37949  20670061.97749
  22994107.227 3   -182054.336 3   -233833.38747  22994103.74647
  23384940.664 5  -1096485.898 5   -769846.20746  23384939.58246
  21472827.945 6   -374816.758 6   -272709.60947  21472823.98047
  22882281.617 3   -290346.195 3   -209047.18846  22882281.20746
  20090363.656 7   -483152.074 7   -362952.49649  20090362.90249
  23493971.813 1   -193708.926 1   -137583.92245  23493969.18445
 20  5 16  1 40 30.0000000  0  8G04G08G09G11G16G26G27G31            -0.000077244
  21401826.539 6   -499669.754 6   -372270.27747  21401824.49247
  20669079.938 6   -824568.563 6   -616667.25049  20669080.68849
  22993157.281 4   -187047.648 4   -237724.29346  22993153.49246
  23383598.961 6  -1103536.621 6   -775340.27046  23383597.83646
  21472368.383 6   -377230.684 6   -274590.59447  21472364.55147
  22881917.023 3   -292264.984 3   -210542.34446  22881916.51646
  20089787.883 7   -486177.859 7   -365310.25449  20089786.81649
  23493743.766 1   -194909.039 1   -138519.06645  23493740.65245
 20  5 16  1 40 31.0000000  0  8G04G08G09G11G16G26G27G31            -0.000079556
  21401235.227 6   -502777.504 6   -374691.89547  21401233.41047
  20668098.031 6   -829726.824 6   -620686.67649  20668098.76249
  22992206.289 3   -192040.359 3   -241614.71946  22992203.36746
  23382257.383 5  -1110587.199 5   -780834.21946  23382257.05146
  21471909.289 6   -379644.465 6   -276471.45747  21471905.14147
  22881551.273 4   -294183.695 4   -212037.43846  22881551.09046
  20089212.484 7   -489203.020 7   -367667.52049  20089211.00849
  23493515.109 1   -196108.887 1   -139453.99645  23493512.58645
 20  5 16  1 40 32.0000000  0  8G04G08G09G11G16G26G27G31            -0.000081865
  21400643.992 6   -505884.668 6   -377113.05947  21400642.25047
  20667116.477 6   -834884.488 6   -624705.64149  20667117.34449
  22991256.953 3   -197032.488 3   -245504.68046  22991253.83246
  23380915.086 5  -1117637.695 5   -786328.12946  23380914.78146
  21471450.156 6   -382058.207 6   -278352.29747  21471445.96147
  22881186.664 3   -296102.492 3   -213532.60246  22881185.92246
  20088636.469 7   -492227.539 7   -370024.28949  20088635.76649
  23493287.250 1   -197308.551 1   -140388.78945  23493283.78145
 20  5 16  1 40 33.0000000  0  9G04G08G09G11G16G21G26G27G31         -0.000084177
  21400053.016 6   -508991.227 6   -379533.75847  21400050.87547
  20666135.352 6   -840041.648 6   -628724.21149  20666136.38349
  22990306.594 3   -202024.102 3   -249394.24246  22990303.23446
  23379573.711 5  -1124688.137 5   -791821.97746  23379573.32446
  21470990.492 6   -384471.930 6   -280233.11747  21470986.75047
  25178223.95312                                
  22880821.008 3   -298021.309 3   -215027.79346  22880821.23046
  20088061.297 7   -495251.523 7   -372380.64149  20088060.33249
  23493059.430 1   -198507.902 1   -141323.37145  23493055.59045
 20  5 16  1 40 34.0000000  0  9G04G08G09G11G16G21G26G27G31         -0.000086489
  21399461.938 6   -512097.406 6   -381954.15647  21399459.71147
  20665154.313 6   -845198.473 6   -632742.51249  20665155.03949
  22989357.133 3   -207015.344 3   -253283.51247  22989353.77747
  23378232.578 5  -1131738.668 5   -797315.89146  23378231.94946
  21470531.469 6   -386885.777 6   -282114.04747  21470527.55147
  25177905.188 2                                
  22880455.898 4   -299940.313 4   -216523.12946  22880455.23846
  20087485.664 7   -498275.117 7   -374736.68849  20087484.79749
  23492830.789 1   -199707.211 1   -142257.92645  23492827.41845
 20  5 16  1 40 35.0000000  0  9G04G08G09G11G16G21G26G27G31         -0.000088800
  21398870.555 6   -515203.020 6   -384374.12147  21398868.65647
  20664172.930 6   -850354.785 6   -636760.41849  20664173.70349
  22988406.648 3   -212006.117 3   -257172.41847  22988404.19147
  23376890.148 5  -1138789.211 5   -802809.82046  23376890.24246
  21470071.883 6   -389299.609 6   -283994.95347  21470068.36347
  25177586.094 2                                
  22880090.930 3   -301859.348 3   -218018.49246  22880090.89846
  20086910.656 7   -501298.137 7   -377092.29349  20086909.77049
  23492602.789 1   -200906.340 1   -143192.35245  23492599.61345
 20  5 16  1 40 36.0000000  0  9G04G08G09G11G16G21G26G27G31         -0.000091112
  21398279.773 6   -518308.039 6   -386793.60947  21398278.01647
  20663191.445 6   -855510.535 6   -640777.89149  20663192.43849
  22987457.109 3   -216996.254 3   -261060.84847  22987454.45747
  23375549.070 5  -1145839.617 5   -808303.64546  23375548.03146
  21469612.414 6   -391713.367 6   -285875.80147  21469608.96147
  25177269.727 2                                
  22879724.125 3   -303778.387 3   -219513.82446  22879725.07846
  20086335.422 7   -504320.563 7   -379447.43049  20086334.29349
  23492374.844 1   -202105.070 1   -144126.42645  23492371.30145
 20  5 16  1 40 37.0000000  0  9G04G08G09G11G16G21G26G27G31         -0.000093424
  21397689.156 6   -521412.461 6   -389212.63747  21397687.38347
  20662210.609 6   -860665.773 6   -644794.95349  20662211.33649
  22986508.250 3   -221985.898 3   -264948.88747  22986504.91847
  23374207.539 5  -1152889.973 5   -813797.42246  23374206.48046
  21469153.383 6   -394127.094 6   -287756.62947  21469149.69547
  25176950.250 1    -13353.500 1                
  22879359.813 3   -305697.477 3   -221009.22746  22879360.16446
  20085760.305 7   -507342.410 7   -381802.11349  20085759.30949
  23492146.328 1   -203303.617 1   -145060.33645  23492143.18445
 20  5 16  1 40 38.0000000  0  9G04G08G09G11G16G21G26G27G31         -0.000095715
  21397098.516 6   -524516.348 6   -391631.24647  21397096.30147
  20661229.711 6   -865820.457 6   -648811.59449  20661230.84449
  22985558.484 3   -226975.020 3   -268836.51247  22985555.58647
  23372865.359 5  -1159940.281 5   -819291.16846  23372864.82846
  21468693.906 6   -396540.797 6   -289637.44147  21468690.64547
  25176632.711 1    -15019.133 1                
  22878994.609 3   -307616.582 3   -222504.65646  22878994.82846
  20085185.547 7   -510363.688 7   -384156.35549  20085185.02049
  23491918.711 1   -204501.918 1   -145994.09845  23491915.22345
 20  5 16  1 40 39.0000000  0  9G04G08G09G11G16G21G26G27G31         -0.000098026
  21396507.820 6   -527619.605 6   -394049.37547  21396505.76247
  20660249.117 6   -870974.594 6   -652827.80149  20660249.93849
  22984609.828 3   -231963.531 3   -272723.67247  22984606.51247
  23371523.047 5  -1166990.480 5   -824784.83246  23371523.17246
  21468234.141 6   -398954.438 6   -291518.20747  21468231.27747
  25176313.852 1    -16684.363 1                
  22878629.758 3   -309535.688 3   -224000.08646  22878629.80946
  20084610.633 7   -513384.355 7   -386510.12149  20084609.48849
  23491690.633 1   -205699.949 1   -146927.62545  23491686.83245
 20  5 16  1 40 40.0000000  0  9G04G08G09G11G16G21G26G27G31         -0.000100338
  21395917.508 6   -530722.297 6   -396467.05147  21395915.55547
  20659268.227 6   -876128.234 6   -656843.62949  20659269.50049
  22983660.055 3   -236951.574 3   -276610.45747  22983657.72747
  23370182.313 5  -1174040.637 5   -830278.45346  23370181.81346
  21467775.086 6   -401368.004 6   -293398.90647  21467771.91847
  25175996.109 2    -18349.246 2                
  22878264.195 3   -311454.852 3   -225495.54346  22878264.66846
  20084036.117 7   -516404.477 7   -388863.46949  20084034.67249
  23491463.180 1   -206897.781 1   -147860.98045  23491459.38745
 20  5 16  1 40 41.0000000  0  9G04G08G09G11G16G21G26G27G31         -0.000102652
  21395326.742 6   -533824.605 6   -398884.44147  21395325.41447
  20658287.844 6   -881281.500 6   -660859.15649  20658288.56649
  22982710.914 3   -241939.188 3   -280496.90647  22982708.30147
  23368841.125 5  -1181090.867 5   -835772.12946  23368840.29346
  21467315.508 6   -403781.738 6   -295279.73047  21467312.53147
  25175679.328 1    -20013.926 1                
  22877897.953 3   -313374.227 3   -226991.14846  22877899.51246
  20083461.273 7   -519424.168 7   -391216.47749  20083460.49249
  23491234.898 1   -208095.512 1   -148794.28945  23491231.32845
 20  5 16  1 40 42.0000000  0  9G04G08G09G11G16G21G26G27G31         -0.000104963
  21394736.742 6   -536926.270 6   -401301.32047  21394735.13747
  20657306.789 6   -886434.270 6   -664874.30549  20657308.27049
  22981762.148 3   -246926.281 3   -284382.95747  22981759.66447
  23367498.625 5  -1188141.047 5   -841265.78946  23367498.56346
  21466856.906 6   -406195.426 6   -297160.52047  21466853.53547
  25175361.523 1    -21678.160 1                
  22877534.305 2   -315293.551 2   -228486.71546  22877534.33246
  20082886.906 7   -522443.270 7   -393569.02749  20082885.77049
  23491006.875 1   -209292.977 1   -149727.39145  23491003.59845
 20  5 16  1 40 43.0000000  0  9G04G08G09G11G16G21G26G27G31         -0.000107275
  21394146.063 6   -540027.398 6   -403717.78547  21394145.24247
  20656326.445 6   -891586.512 6   -668889.04749  20656327.64549
  22980813.125 3   -251912.855 3   -288268.59847  22980810.53147
  23366157.156 5  -1195191.188 5   -846759.39546  23366157.00846
  21466397.055 6   -408609.059 6   -299041.27347  21466394.44547
  25175043.555 1    -23342.164 1                
  22877168.977 3   -317212.941 3   -229982.35546  22877169.20346
  20082312.320 7   -525461.824 7   -395921.14549  20082311.46549
  23490778.422 1   -210490.160 1   -150660.30545  23490775.71945
 20  5 16  1 40 44.0000000  0  9G04G08G09G11G16G21G26G27G31         -0.000109587
  21393556.469 6   -543128.094 6   -406133.91447  21393554.91447
  20655346.352 6   -896738.352 6   -672903.46549  20655347.48849
  22979863.992 3   -256898.992 3   -292153.89547  22979861.98047
  23364815.102 5  -1202241.391 5   -852253.06646  23364815.19146
  21465937.992 6   -411022.813 6   -300922.12147  21465935.00847
  25174726.000 1    -25005.863 1                
  22876802.695 3   -319132.531 3   -231478.16046  22876804.03546
  20081738.023 7   -528479.922 7   -398272.90649  20081737.23449
  23490550.430 1   -211687.340 1   -151593.13745  23490548.09845
 20  5 16  1 40 45.0000000  0  9G04G08G09G11G16G21G26G27G31         -0.000111898
  21392966.094 6   -546228.203 6   -408549.59047  21392965.09047
  20654365.938 6   -901889.656 6   -676917.46549  20654367.34449
  22978916.070 3   -261884.605 3   -296038.78547  22978913.37147
  23363474.352 5  -1209291.488 5   -857746.64846  23363473.83646
  21465478.477 6   -413436.504 6   -302802.92247  21465475.50047
  25174409.234 1    -26669.254 1                
  22876437.391 2   -321052.133 2   -232973.97746  22876438.76646
  20081163.563 7   -531497.457 7   -400624.23449  20081162.71149
  23490323.703 1   -212884.238 1   -152525.77745  23490320.36745
 20  5 16  1 40 46.0000000  0  9G04G08G09G11G16G21G26G27G31         -0.000114212
  21392376.180 6   -549327.699 6   -410964.77347  21392375.02747
  20653385.922 6   -907040.406 6   -680931.04349  20653386.69149
  22977967.211 3   -266869.691 3   -299923.26647  22977965.24647
  23362132.281 5  -1216341.500 5   -863240.15646  23362132.48046
  21465019.352 6   -415850.125 6   -304683.67247  21465016.48047
  25174092.781 1    -28332.238 1                
  22876072.352 3   -322971.664 3   -234469.73446  22876073.37946
  20080589.633 7   -534514.379 7   -402975.08249  20080588.46949
  23490095.867 1   -214080.758 1   -153458.10545  23490092.70345
 20  5 16  1 40 47.0000000  0  9G04G08G09G11G16G21G26G27G31         -0.000116524
  21391786.914 6   -552426.441 6   -413379.38347  21391785.36747
  20652405.891 6   -912190.445 6   -684944.06349  20652406.92249
  22977018.586 3   -271854.023 3   -303807.16847  22977016.62147
  23360791.023 5  -1223391.305 5   -868733.51246  23360790.66046
  21464559.563 6   -418263.555 6   -306564.26647  21464556.63347
  25173776.563 1    -29994.668 1                
  22875707.477 2   -324891.102 2   -235965.38746  22875708.18046
  20080015.398 7   -537530.566 7   -405325.35949  20080014.75849
  23489868.258 1   -215276.992 1   -154390.27745  23489865.08645
 20  5 16  1 40 48.0000000  0  9G04G08G09G11G16G21G26G27G31         -0.000118835
  21391196.594 6   -555524.746 6   -415793.64847  21391195.74647
  20651426.078 6   -917340.102 6   -688956.77349  20651427.45749
  22976070.172 3   -276837.957 3   -307690.75447  22976068.29347
  23359449.227 5  -1230441.160 5   -874226.90246  23359449.12946
  21464100.781 6   -420677.070 6   -308444.92647  21464097.50847
  25173461.383 1    -31656.910 1                
  22875343.203 3   -326810.727 3   -237461.19946  22875342.84846
  20079441.656 7   -540546.293 7   -407675.28149  20079440.77749
  23489640.508 1   -216473.090 1   -155322.30545  23489637.63745
 20  5 16  1 40 49.0000000  0  9G04G08G09G11G16G21G26G27G31         -0.000121147
  21390607.289 6   -558622.531 6   -418207.50447  21390606.43847
  20650446.008 6   -922489.309 6   -692969.15249  20650447.51649
  22975122.039 3   -281821.371 3   -311573.93847  22975119.96947
  23358107.805 5  -1237490.996 5   -879720.28146  23358107.68046
  21463641.641 6   -423090.609 6   -310325.61747  21463637.98447
  25173145.070 1    -33318.719 1                
  22874977.625 3   -328730.410 3   -238957.04746  22874977.78546
  20078868.352 7   -543561.508 7   -410024.80149  20078867.24649
  23489413.242 1   -217668.953 1   -156254.17245  23489410.14145
 20  5 16  1 40 50.0000000  0  9G04G08G09G11G16G21G26G27G31         -0.000123459
  21390017.805 6   -561719.805 6   -420620.96547  21390017.12147
  20649466.242 6   -927638.051 6   -696981.14849  20649467.32049
  22974173.719 4   -286804.410 4   -315456.82847  22974172.09447
  23356766.391 5  -1244540.844 5   -885213.66446  23356766.37546
  21463182.195 6   -425504.191 6   -312206.32447  21463179.21547
  25172830.258 1    -34980.352 1                
  22874611.773 2   -330650.168 2   -240452.93846  22874612.01646
  20078294.305 7   -546576.199 7   -412373.91049  20078293.17249
  23489186.203 1   -218864.668 1   -157185.88345  23489182.78145
 20  5 16  1 40 51.0000000  0  9G04G08G09G11G16G21G26G27G31         -0.000125772
  21389428.680 6   -564816.578 6   -423034.03147  21389427.91447
  20648486.914 6   -932786.301 6   -700992.77349  20648487.98049
  22973225.641 4   -291786.891 4   -319339.27747  22973224.01647
  23355424.984 5  -1251590.672 5   -890707.03546  23355424.06646
  21462723.141 6   -427917.750 6   -314087.02347  21462719.89547
  25172513.148 1    -36641.680 1                
  22874247.039 2   -332570.063 2   -241948.97746  22874246.96546
  20077720.539 7   -549590.391 7   -414722.62949  20077719.74649
  23488958.852 1   -220060.219 1   -158117.48845  23488955.14545
 20  5 16  1 40 52.0000000  0  9G04G08G09G11G16G21G26G27G31         -0.000128084
  21388839.313 6   -567912.746 6   -425446.62547  21388838.95347
  20647506.938 6   -937934.035 6   -705003.99649  20647508.45749
  22972276.969 4   -296768.859 4   -323221.33247  22972275.99247
  23354083.305 5  -1258640.472 5   -896200.37746  23354083.17246
  21462264.031 6   -430331.270 6   -315967.69147  21462260.77047
  25172198.563 1    -38302.621 1                
  22873881.039 3   -334489.941 3   -243444.98446  22873881.23846
  20077147.406 7   -552603.996 7   -417070.89149  20077146.19549
  23488731.492 1   -221255.441 1   -159048.81345  23488727.65245
 20  5 16  1 40 53.0000000  0  9G04G08G09G11G16G21G26G27G31         -0.000130396
  21388250.930 6   -571008.371 6   -427858.80147  21388249.95747
  20646527.578 6   -943081.262 6   -709014.82449  20646528.75849
  22971329.109 3   -301750.324 3   -327102.98447  22971328.27347
  23352741.453 5  -1265690.191 5   -901693.66846  23352741.71946
  21461804.438 6   -432744.805 6   -317848.37147  21461801.54747
  25171881.633 1    -39963.156 1                
  22873515.313 2   -336409.883 2   -244941.04746  22873516.25446
  20076574.156 7   -555617.063 7   -419418.73449  20076572.96949
  23488504.336 1   -222450.551 1   -159980.11345  23488500.33645
 20  5 16  1 40 54.0000000  0  9G04G08G09G11G16G21G26G27G31         -0.000132708
  21387661.188 6   -574103.453 6   -430270.55947  21387660.93847
  20645548.102 6   -948227.984 6   -713025.25849  20645549.53549
  22970381.609 4   -306731.262 4   -330984.23047  22970380.25447
  23351399.625 5  -1272739.875 5   -907186.93446  23351400.18046
  21461344.914 6   -435158.297 6   -319729.02047  21461341.95347
  25171564.828 1    -41623.574 1                
  22873150.844 3   -338329.922 3   -246437.20346  22873150.93846
  20076000.695 7   -558629.594 7   -421766.16449  20075999.71949
  23488277.180 1   -223645.438 1   -160911.21145  23488273.23445
 20  5 16  1 40 55.0000000  0  9G04G08G09G11G16G21G26G27G31         -0.000135036
  21387072.484 6   -577197.910 6   -432681.82847  21387071.97747
  20644568.406 6   -953374.145 6   -717035.25049  20644569.91849
  22969434.344 4   -311711.641 4   -334865.04747  22969432.75447
  23350058.242 5  -1279789.477 5   -912680.14146  23350058.44946
  21460885.758 6   -437571.742 6   -321609.61747  21460882.78147
  25171251.03911    -43283.30911                
  22872785.258 3   -340249.902 3   -247933.28946  22872785.57046
  20075427.758 7   -561641.484 7   -424113.09049  20075426.69549
  23488048.688 1   -224839.945 1   -161842.02345  23488045.96945
 20  5 16  1 40 56.0000000  0  9G04G08G09G11G16G21G26G27G31         -0.000137348
  21386483.820 6   -580291.688 6   -435092.56347  21386483.41447
  20643589.563 6   -958519.652 6   -721044.73849  20643590.97749
  22968486.500 4   -316691.355 4   -338745.35247  22968484.98847
  23348717.047 5  -1286838.891 5   -918173.19946  23348717.00046
  21460426.273 6   -439985.012 6   -323490.09047  21460423.57047
  25170933.813 1    -44942.758 1                
  22872420.133 3   -342169.816 3   -249429.32846  22872419.42246
  20074854.609 7   -564652.691 7   -426459.48449  20074853.58249
  23487821.617 1   -226034.148 1   -162772.55145  23487818.82045
 20  5 16  1 40 57.0000000  0  9G04G08G09G11G16G21G26G27G31         -0.000139660
  21385895.055 6   -583384.969 6   -437502.91047  21385894.81347
  20642610.773 6   -963664.750 6   -725053.90249  20642611.96149
  22967539.523 4   -321670.602 4   -342625.28147  22967537.72747
  23347375.164 5  -1293888.332 5   -923666.27346  23347375.62546
  21459966.984 6   -442398.340 6   -325370.60547  21459964.14847
  25170617.766 1    -46601.953 1                
  22872054.531 3   -344089.828 3   -250925.44546  22872054.26646
  20074281.516 7   -567663.441 7   -428805.52049  20074280.57849
  23487594.344 1   -227228.238 1   -163703.00445  23487591.53145
 20  5 16  1 40 58.0000000  0  9G04G08G09G11G16G21G26G27G31         -0.000141972
  21385306.766 6   -586477.738 6   -439912.87147  21385306.19147
  20641631.367 6   -968809.348 6   -729062.68449  20641633.05149
  22966591.969 4   -326649.383 4   -346504.84447  22966590.47747
  23346034.266 5  -1300937.730 5   -929159.29746  23346034.07046
  21459507.438 6   -444811.688 6   -327251.14147  21459504.84047
  25170302.32011                                
  22871689.359 3   -346009.957 3   -252421.63346  22871689.00046
  20073708.719 7   -570673.633 7   -431151.12949  20073707.89849
  23487366.641 1   -228422.004 1   -164633.19945  23487364.54345
 20  5 16  1 40 59.0000000  0  9G04G08G09G11G16G21G26G27G31         -0.000144283
  21384718.570 6   -589569.898 6   -442322.34847  21384717.62547
  20640652.938 6   -973953.402 6   -733071.03949  20640653.94149
  22965644.445 4   -331627.641 4   -350383.99647  22965643.15247
  23344692.641 5  -1307987.063 5   -934652.27746  23344692.95346
  21459048.992 6   -447224.969 6   -329131.62147  21459045.75447
  25169987.88311                                
  22871323.664 2   -347930.078 2   -253917.84046  22871323.51246
  20073136.172 7   -573683.258 7   -433496.29349  20073135.42649
  23487139.781 1   -229615.637 1   -165563.31345  23487137.37945
 20  5 16  1 41  0.0000000  0  9G04G08G09G11G16G21G26G27G31         -0.000146597
  21384129.938 6   -592661.570 6   -444731.44147  21384129.34447
  20639674.195 6   -979097.000 6   -737079.03549  20639675.05149
  22964697.313 4   -336605.359 4   -354262.73847  22964695.82047
  23343351.328 5  -1315036.387 5   -940145.25846  23343351.32046
  21458589.609 6   -449638.277 6   -331012.12546  21458586.40246
  25169671.87511                                
  22870959.063 2   -349850.234 2   -255414.08646  22870958.22746
  20072563.531 7   -576692.363 7   -435841.04749  20072562.52049
  23486913.281 1   -230809.027 1   -166493.23845  23486910.55945
 20  5 16  1 41  1.0000000  0  8G04G08G09G11G16G26G27G31            -0.000148909
  21383542.148 6   -595752.699 6   -447140.11347  21383541.35547
  20638695.367 6   -984240.160 6   -741086.69549  20638696.71149
  22963749.938 4   -341582.688 4   -358141.16447  22963748.93447
  23342009.555 5  -1322085.742 5   -945638.26246  23342009.95346
  21458130.320 6   -452051.613 6   -332892.64847  21458126.99647
  22870593.227 3   -351770.543 3   -256910.43046  22870592.94946
  20071990.953 7   -579700.973 7   -438185.41849  20071990.03549
  23486685.703 1   -232002.316 1   -167423.10545  23486683.47345
 20  5 16  1 41  2.0000000  0  8G04G08G09G11G16G26G27G31            -0.000151220
  21382954.258 6   -598843.367 6   -449548.42647  21382953.00447
  20637716.703 6   -989382.836 6   -745093.97749  20637718.09849
  22962803.172 4   -346559.504 4   -362019.20747  22962801.66447
  23340668.383 5  -1329135.086 5   -951131.25046  23340668.51246
  21457671.438 6   -454464.992 6   -334773.19947  21457668.25447
  22870227.703 2   -353690.980 2   -258406.86746  22870226.93846
  20071418.414 7   -582709.086 7   -440529.40649  20071417.40649
  23486458.289 1   -233195.402 1   -168352.77745  23486456.59845
 20  5 16  1 41  3.0000000  0  8G04G08G09G11G16G26G27G31            -0.000153534
  21382365.961 6   -601933.379 6   -451956.22747  21382364.64547
  20636738.258 6   -994524.938 6   -749100.81349  20636739.97749
  22961856.531 4   -351535.742 4   -365896.80547  22961855.07447
  23339326.875 5  -1336184.281 5   -956624.13746  23339326.92646
  21457211.500 6   -456878.273 6   -336653.67247  21457208.37947
  22869861.422 2   -355611.383 2   -259903.29746  22869862.27046
  20070846.227 7   -585716.559 7   -442872.89149  20070845.29349
  23486231.578 1   -234388.160 1   -169282.18045  23486229.84045
 20  5 16  1 41  4.0000000  0  8G04G08G09G11G16G26G27G31            -0.000155846
  21381778.211 6   -605022.879 6   -454363.62947  21381777.22347
  20635759.422 6   -999666.539 6   -753107.25849  20635760.91049
  22960909.039 4   -356511.484 4   -369774.00847  22960908.03947
  23337985.758 5  -1343233.477 5   -962117.02046  23337985.87546
  21456752.180 6   -459291.570 6   -338534.16447  21456749.28547
  22869497.070 3   -357531.840 3   -261399.74246  22869496.54746
  20070273.672 7   -588723.508 7   -445215.97349  20070272.73449
  23486004.250 1   -235580.789 1   -170211.46545  23486002.98045
 20  5 16  1 41  5.0000000  0  8G04G08G09G11G16G26G27G31            -0.000158157
  21381190.680 6   -608111.930 6   -456770.69147  21381189.16847
  20634781.406 6  -1004807.762 6   -757113.40649  20634782.89849
  22959962.961 4   -361486.809 4   -373650.89847  22959961.38747
  23336644.039 5  -1350282.746 5   -967609.94946  23336644.33646
  21456293.313 6   -461704.953 6   -340414.72347  21456290.23447
  22869131.281 2   -359452.418 2   -262896.31346  22869131.02346
  20069701.609 7   -591730.008 7   -447558.69149  20069700.67649
  23485777.570 1   -236773.203 1   -171140.60245  23485775.83645
 20  5 16  1 41  6.0000000  0  8G04G08G09G11G16G26G27G31            -0.000160469
  21380602.414 6   -611200.457 6   -459177.34447  21380601.43047
  20633803.086 6  -1009948.531 6   -761119.19949  20633804.47749
  22959016.094 4   -366461.684 4   -377527.42647  22959014.50047
  23335302.156 5  -1357332.023 5   -973102.89546  23335302.74246
  21455834.234 6   -464118.355 6   -342295.31347  21455830.83247
  22868765.484 3   -361373.156 3   -264392.96546  22868765.50446
  20069130.031 7   -594736.020 7   -449901.03949  20069128.75449
  23485550.273 1   -237965.523 1   -172069.68445  23485548.87545
 20  5 16  1 41  7.0000000  0  8G04G08G09G11G16G26G27G31            -0.000162783
  21380014.727 6   -614288.594 6   -461583.68447  21380013.96547
  20632824.992 6  -1015088.941 6   -765124.71549  20632825.99649
  22958069.469 5   -371436.152 5   -381403.63747  22958067.71547
  23333961.023 5  -1364381.406 5   -978595.91846  23333961.62946
  21455374.945 6   -466531.902 6   -344176.00046  21455371.62946
  22868400.398 2   -363294.059 2   -265889.77746  22868399.85246
  20068557.875 7   -597741.613 7   -452243.06349  20068556.44149
  23485323.367 1   -239157.707 1   -172998.71145  23485322.87945
 20  5 16  1 41  8.0000000  0  8G04G08G09G11G16G26G27G31            -0.000165096
  21379427.305 6   -617376.176 6   -463989.58647  21379426.32447
  20631847.008 6  -1020228.801 6   -769129.78949  20631848.32049
  22957122.945 5   -376410.125 5   -385279.45347  22957121.27047
  23332619.969 5  -1371430.703 5   -984088.86746  23332620.12546
  21454915.570 6   -468945.398 6   -346056.65647  21454912.23047
  22868034.172 2   -365214.996 2   -267386.62146  22868034.57046
  20067985.898 7   -600746.664 7   -454584.65649  20067984.65249
  23485096.180 1   -240349.660 1   -173927.50445  23485095.41845
 20  5 16  1 41  9.0000000  0  8G04G08G09G11G16G26G27G31            -0.000167406
  21378840.078 6   -620463.117 6   -466394.99647  21378838.87147
  20630868.359 6  -1025368.125 6   -773134.46149  20630870.26249
  22956176.602 5   -381383.555 5   -389154.85947  22956174.28947
  23331278.570 5  -1378479.914 5   -989581.75446  23331278.78146
  21454456.359 6   -471358.832 6   -347937.25047  21454453.46547
  22867669.016 2   -367135.941 2   -268883.46945  22867668.82445
  20067414.117 7   -603751.066 7   -456925.75049  20067412.93449
  23484869.77311                   -174856.14155  23484868.61355
 20  5 16  1 41 10.0000000  0  8G04G08G09G11G16G26G27G31            -0.000169720
  21378252.844 6   -623549.555 6   -468800.00847  21378251.33247
  20629890.820 6  -1030506.953 6   -777138.75049  20629892.16049
  22955230.586 5   -386356.422 5   -393029.81647  22955228.85947
  23329937.711 6  -1385529.074 6   -995074.60946  23329937.42246
  21453997.086 6   -473772.254 6   -349817.84847  21453993.46147
  22867302.258 2   -369057.004 2   -270380.40245  22867303.35245
  20066842.648 7   -606754.984 7   -459266.46149  20066841.61749
  23484643.227 1   -242732.918 1   -175784.63345  23484642.71945
 20  5 16  1 41 11.0000000  0  8G04G08G09G11G16G26G27G31            -0.000172033
  21377665.336 6   -626635.527 6   -471204.67247  21377664.06347
  20628912.922 6  -1035645.414 6   -781142.74649  20628914.32449
  22954284.109 5   -391328.926 5   -396904.49247  22954282.37547
  23328595.523 5  -1392578.336 5  -1000567.54746  23328595.91046
  21453537.391 6   -476185.781 6   -351698.50847  21453534.57047
  22866936.688 2   -370978.133 2   -271877.37946  22866938.13346
  20066271.242 7   -609758.434 7   -461606.80949  20066270.12949
  23484416.516 1   -243924.199 1   -176712.89145  23484416.25045
 20  5 16  1 41 12.0000000  0  8G04G08G09G11G16G26G27G31            -0.000174347
  21377078.094 6   -629721.004 6   -473608.93847  21377076.80947
  20627935.688 6  -1040783.371 6   -785146.35249  20627936.67249
  22953338.227 5   -396300.910 5   -400778.76647  22953336.28147
  23327254.258 5  -1399627.563 5  -1006060.44946  23327254.24246
  21453078.391 6   -478599.348 6   -353579.20747  21453075.27047
  22866571.633 2   -372899.410 2   -273374.45745  22866572.21145
  20065699.563 7   -612761.340 7   -463946.73849  20065698.44149
  23484188.891 1   -245115.477 1   -177641.14145  23484189.74245
 20  5 16  1 41 13.0000000  0  8G04G08G09G11G16G26G27G31            -0.000176661
  21376491.367 6   -632805.844 6   -476012.71547  21376489.72747
  20626957.852 6  -1045920.758 6   -789149.51249  20626958.89549
  22952392.406 5   -401272.340 5   -404652.60247  22952390.27347
  23325912.789 6  -1406676.691 6  -1011553.27346  23325912.83246
  21452619.461 6   -481012.801 6   -355459.82447  21452615.78947
  22866205.625 2   -374820.637 2   -274871.51645  22866206.87945
  20065128.367 7   -615763.660 7   -466286.21149  20065127.28549
  23483962.391 1   -246306.266 1   -178569.02045  23483962.83245
 20  5 16  1 41 14.0000000  0  8G04G08G09G11G16G26G27G31            -0.000178974
  21375904.188 6   -635890.230 6   -478416.13347  21375903.08647
  20625980.375 6  -1051057.750 6   -793152.36349  20625981.44149
  22951446.594 5   -406243.332 5   -408526.10547  22951444.13747
  23324571.297 5  -1413725.859 5  -1017046.13346  23324571.74246
  21452160.008 6   -483426.359 6   -357340.52047  21452156.78547
  22865840.945 2   -376742.016 2   -276368.70745  22865840.85245
  20064557.219 7   -618765.516 7   -468625.31649  20064555.96149
  23483735.40611   -247497.18411   -179496.99255  23483736.08655
 20  5 16  1 41 15.0000000  0  8G04G08G09G11G16G26G27G31            -0.000181286
  21375317.375 6   -638974.008 6   -480819.07447  21375316.30147
  20625002.672 6  -1056194.160 6   -797154.75449  20625004.04749
  22950500.930 5   -411213.832 5   -412399.21947  22950498.74647
  23323229.445 5  -1420774.899 5  -1022538.89446  23323229.99246
  21451701.219 6   -485839.836 6   -359221.15247  21451697.13347
  22865475.055 2   -378663.438 2   -277865.91445  22865475.31345
  20063985.891 7   -621766.797 7   -470963.98049  20063985.09449
  23483510.031 1   -248687.613 1   -180424.60545  23483510.06645
 20  5 16  1 41 16.0000000  0  8G04G08G09G11G16G26G27G31            -0.000183598
  21374730.781 6   -642057.277 6   -483221.61347  21374729.53947
  20624025.680 6  -1061330.121 6   -801156.80549  20624026.93849
  22949554.578 5   -416183.770 5   -416271.89847  22949552.80547
  23321888.242 5  -1427823.980 5  -1028031.69146  23321888.98046
  21451241.445 6   -488253.348 6   -361101.82047  21451237.98447
  22865109.375 2   -380584.883 2   -279363.12145  22865109.44545
  20063414.859 7   -624767.551 7   -473302.22749  20063413.77749
  23483282.672 1   -249877.973 1   -181352.16045  23483283.93845
 20  5 16  1 41 17.0000000  0  8G04G08G09G11G16G26G27G31            -0.000185911
  21374143.906 6   -645140.012 6   -485623.74247  21374142.81647
  20623048.555 6  -1066465.605 6   -805158.47749  20623049.77049
  22948608.781 5   -421153.230 5   -420144.20347  22948606.96947
  23320546.836 5  -1434873.031 5  -1033524.46146  23320547.36746
  21450782.813 6   -490666.879 6   -362982.48847  21450778.48047
  22864743.734 3   -382506.449 3   -280860.45745  22864743.68045
  20062844.305 7   -627767.777 7   -475640.06349  20062843.14549
  23483056.133 1   -251068.141 1   -182279.60245  23483057.16445
 20  5 16  1 41 18.0000000  0  8G04G08G09G11G16G26G27G31            -0.000188223
  21373557.359 6   -648222.078 6   -488025.36347  21373556.35547
  20622071.484 6  -1071600.438 6   -809159.64849  20622072.27349
  22947663.430 5   -426122.051 5   -424016.01647  22947661.19147
  23319205.969 5  -1441921.922 5  -1039017.10246  23319206.16846
  21450323.367 6   -493080.219 6   -364863.01247  21450319.13747
  22864378.406 3   -384427.949 3   -282357.73445  22864378.13745
  20062273.102 7   -630767.324 7   -477977.36749  20062272.21149
  23482829.30511                   -183206.64155  23482831.04355
 20  5 16  1 41 19.0000000  0  8G04G08G09G11G16G26G27G31            -0.000190536
  21372971.289 6   -651303.648 6   -490426.59447  21372970.13347
  20621094.141 6  -1076734.836 6   -813160.47749  20621095.35549
  22946718.164 5   -431090.414 5   -427887.46547  22946715.75047
  23317864.117 5  -1448970.785 5  -1044509.71546  23317864.86746
  21449864.016 6   -495493.641 6   -366743.60547  21449859.85947
  22864011.516 2   -386349.527 2   -283855.05945  22864012.50445
  20061702.375 7   -633766.363 7   -480314.28949  20061701.39149
  23482602.80511                   -184133.55155  23482604.48455
 20  5 16  1 41 20.0000000  0  8G04G08G09G11G16G26G27G31            -0.000192848
  21372385.109 6   -654384.773 6   -492827.46147  21372384.05147
  20620117.359 6  -1081868.840 6   -817161.00449  20620118.56649
  22945772.227 5   -436058.391 5   -431758.61347  22945770.61747
  23316523.180 5  -1456019.730 5  -1050002.39846  23316523.43446
  21449404.641 6   -497907.141 6   -368624.25447  21449400.64847
  22863645.914 2   -388271.270 2   -285352.51645  22863647.28945
  20061131.992 7   -636764.961 7   -482650.85949  20061131.03149
  23482377.07011                   -185060.50855  23482378.45755
 20  5 16  1 41 21.0000000  0  8G04G08G09G11G16G26G27G31            -0.000195164
  21371798.867 6   -657465.414 6   -495227.96147  21371797.84447
  20619140.477 6  -1087002.422 6   -821161.19949  20619141.40249
  22944827.328 5   -441025.914 5   -435629.41047  22944824.92647
  23315181.266 5  -1463068.723 5  -1055495.11346  23315181.97746
  21448945.203 6   -500320.703 6   -370504.95747  21448941.80547
  22863280.672 2   -390193.152 2   -286850.06345  22863281.50845
  20060561.266 7   -639763.121 7   -484987.08649  20060560.01649
  23482150.078 1                   -185987.27045  23482151.87545
 20  5 16  1 41 22.0000000  0  8G04G08G09G11G16G26G27G31            -0.000197475
  21371212.961 6   -660545.453 6   -497627.99647  21371211.00047
  20618164.063 6  -1092135.496 6   -825161.00049  20618164.58649
  22943882.109 5   -445992.887 5   -439499.78147  22943880.03147
  23313840.023 5  -1470117.594 5  -1060987.75046  23313840.50446
  21448485.742 6   -502734.203 6   -372385.60246  21448482.18046
  22862913.930 3   -392115.055 3   -288347.63745  22862915.44945
  20059990.688 7   -642760.668 7   -487322.83649  20059989.48449
  23481923.313 1                   -186913.81645  23481925.28545
 20  5 16  1 41 23.0000000  0  8G04G08G09G11G16G26G27G31            -0.000199789
  21370626.797 6   -663625.059 6   -500027.68847  21370625.39547
  20617186.688 6  -1097268.121 6   -829160.44149  20617188.07049
  22942937.750 5   -450959.430 5   -443369.82047  22942934.99647
  23312499.258 5  -1477166.539 5  -1066480.43046  23312499.29346
  21448026.133 6   -505147.793 6   -374266.32047  21448022.98847
  22862548.219 2   -394037.082 2   -289845.32446  22862549.85546
  20059420.586 7   -645757.754 7   -489658.22349  20059419.28149
  23481697.66411                   -187840.35555  23481699.93055
 20  5 16  1 41 24.0000000  0  8G04G08G09G11G16G26G27G31            -0.000202103
  21370040.539 6   -666703.871 6   -502426.76247  21370039.23847
  20616210.078 6  -1102400.008 6   -833159.32049  20616211.30549
  22941992.008 5   -455925.219 5   -447239.27047  22941989.83647
  23311157.836 5  -1484215.215 5  -1071972.90646  23311157.58246
  21447567.172 6   -507561.133 6   -376146.84847  21447563.75847
  22862182.281 2   -395958.902 2   -291342.85546  22862184.39546
  20058850.469 7   -648754.082 7   -491993.02349  20058849.53949
  23481471.398 1                   -188766.48445  23481473.89845
 20  5 16  1 41 25.0000000  0  8G04G08G09G11G16G26G27G31            -0.000204416
  21369454.922 6   -669782.219 6   -504825.48047  21369453.39847
  20615233.938 6  -1107531.461 6   -837157.85249  20615234.82049
  22941047.492 5   -460890.582 5   -451108.39147  22941044.96147
  23309815.969 5  -1491263.918 5  -1077465.40246  23309816.04746
  21447107.906 6   -509974.543 6   -378027.43047  21447103.89547
  22861815.898 2   -397880.891 2   -292840.51646  22861818.31346
  20058280.602 7   -651749.930 7   -494327.44949  20058279.31349
  23481245.21111                   -189692.52755  23481247.53555
 20  5 16  1 41 26.0000000  0  8G04G08G09G11G16G26G27G31            -0.000206730
  21368869.438 6   -672860.070 6   -507223.80147  21368867.98447
  20614257.453 6  -1112662.516 6   -841156.07449  20614258.32849
  22940103.164 5   -465855.543 5   -454977.18847  22940100.40247
  23308475.023 5  -1498312.645 5  -1082957.92246  23308474.87546
  21446648.734 6   -512388.023 6   -379908.06347  21446645.10247
  22861450.672 1   -399802.980 1   -294338.25046  22861452.87546
  20057710.320 7   -654745.293 7   -496661.50049  20057708.89549
  23481018.98411                   -190618.43455  23481021.42655
 20  5 16  1 41 27.0000000  0  8G04G08G09G11G16G26G27G31            -0.000209044
  21368284.008 6   -675937.336 6   -509621.66847  21368282.12147
  20613281.477 6  -1117793.008 6   -845153.87149  20613282.22749
  22939157.805 5   -470819.867 5   -458845.49247  22939155.79347
  23307134.102 5  -1505361.246 5  -1088450.33646  23307133.95346
  21446189.500 6   -514801.406 6   -381788.62147  21446185.85947
  22861085.711 2   -401725.082 2   -295835.98046  22861087.43446
  20057140.117 7   -657740.059 7   -498995.08249  20057139.16449
  23480792.828 1                   -191544.25445  23480796.09045
 20  5 16  1 41 28.0000000  0  7G04G08G09G11G16G26G27               -0.000211355
  21367698.352 6   -679014.031 6   -512019.09847  21367696.84047
  20612305.273 6  -1122922.988 6   -849151.25849  20612305.64549
  22938214.211 5   -475783.691 5   -462713.41047  22938211.28947
  23305792.359 5  -1512409.813 5  -1093942.73046  23305792.24646
  21445729.883 6   -517214.789 6   -383669.19147  21445726.68047
  22860719.938 1   -403647.262 1   -297333.75446  22860721.57446
  20056570.773 7   -660734.258 7   -501328.23049  20056569.36349
 20  5 16  1 41 29.0000000  0  7G04G08G09G11G16G26G27               -0.000213671
  21367112.867 6   -682090.105 6   -514416.03547  21367111.50047
  20611328.953 6  -1128052.371 6   -853148.18449  20611329.66049
  22937269.250 5   -480746.953 5   -466580.89147  22937266.97747
  23304451.008 5  -1519458.301 5  -1099435.05546  23304451.23446
  21445271.125 6   -519628.086 6   -385549.67647  21445267.38347
  22860353.242 1   -405569.352 1   -298831.49646  22860355.95346
  20056000.789 7   -663727.859 7   -503660.89849  20055999.69949
 20  5 16  1 41 30.0000000  0  7G04G08G09G11G16G26G27               -0.000215984
  21366527.484 6   -685165.707 6   -516812.60547  21366526.25047
  20610353.211 6  -1133181.348 6   -857144.78949  20610353.64549
  22936324.945 5   -485709.730 5   -470447.98847  22936322.35547
  23303109.391 5  -1526506.758 5  -1104927.35546  23303109.77746
  21444811.781 6   -522041.430 6   -387430.20347  21444808.04747
  22859988.180 2   -407491.570 2   -300329.33246  22859990.35946
  20055431.086 7   -666720.965 7   -505993.19149  20055430.09449
 20  5 16  1 41 31.0000000  0  7G04G08G09G11G16G26G27               -0.000218296
  21365942.797 6   -688240.750 6   -519208.74247  21365941.37147
  20609377.430 6  -1138309.777 6   -861140.96949  20609377.83249
  22935380.680 5   -490672.031 5   -474314.71948  22935378.22348
  23301768.609 5  -1533555.180 5  -1110419.62546  23301768.61746
  21444352.695 6   -524454.770 6   -389310.72347  21444348.99247
  22859621.609 2   -409413.914 2   -301827.25446  22859624.40646
  20054861.836 7   -669713.523 7   -508325.05149  20054860.66849
 20  5 16  1 41 32.0000000  0  7G04G08G09G11G16G26G27               -0.000220612
  21365357.641 6   -691315.309 6   -521604.50847  21365355.84447
  20608401.383 6  -1143437.766 6   -865136.79749  20608401.97749
  22934436.352 5   -495633.859 5   -478181.08248  22934434.19948
  23300427.156 5  -1540603.652 5  -1115911.94146  23300427.08646
  21443893.469 6   -526868.148 6   -391191.28147  21443889.50847
  22859256.438 2   -411336.254 2   -303325.20746  22859258.62946
  20054292.250 7   -672705.602 7   -510656.53949  20054291.36349
 20  5 16  1 41 33.0000000  0  7G04G08G09G11G16G26G27               -0.000222925
  21364772.773 6   -694389.254 6   -523999.79347  21364770.97747
  20607425.445 6  -1148565.207 6   -869132.20349  20607426.44149
  22933492.227 6   -500595.125 6   -482047.00448  22933490.17248
  23299085.844 5  -1547651.996 5  -1121404.15646  23299086.03546
  21443433.836 6   -529281.461 6   -393071.78547  21443430.27347
  22858890.516 2   -413258.707 2   -304823.22746  22858892.98846
  20053723.555 7   -675697.086 7   -512987.56649  20053721.96149
 20  5 16  1 41 34.0000000  0  7G04G08G09G11G16G26G27               -0.000225239
  21364187.672 6   -697462.664 6   -526394.66447  21364186.27347
  20606449.906 6  -1153692.168 6   -873127.24249  20606450.57049
  22932548.688 6   -505555.883 6   -485912.53148  22932546.43448
  23297744.477 5  -1554700.289 5  -1126896.34046  23297744.91446
  21442975.219 6   -531694.781 6   -394952.29347  21442971.18847
  22858525.211 2   -415181.125 2   -306321.21946  22858526.89846
  20053154.289 7   -678688.000 7   -515318.15249  20053153.15249
 20  5 16  1 41 35.0000000  0  7G04G08G09G11G16G26G27               -0.000227551
  21363602.617 6   -700535.621 6   -528789.17247  21363601.04347
  20605474.273 6  -1158818.691 6   -877121.93449  20605474.79349
  22931605.273 6   -510516.223 6   -489777.73048  22931602.38348
  23296402.969 5  -1561748.633 5  -1132388.55146  23296403.33646
  21442515.250 6   -534108.145 6   -396832.83647  21442511.86747
  22858159.078 2   -417103.730 2   -307819.35546  22858161.32446
  20052585.477 7   -681678.473 7   -517648.39149  20052583.83649
 20  5 16  1 41 36.0000000  0  7G04G08G09G11G16G26G27               -0.000229866
  21363017.953 6   -703608.125 6   -531183.32847  21363016.69947
  20604498.813 6  -1163944.840 6   -881116.34049  20604499.26649
  22930660.844 6   -515476.129 6   -493642.59448  22930658.86748
  23295061.453 5  -1568797.055 5  -1137880.83246  23295062.19146
  21442056.383 6   -536521.621 6   -398713.46147  21442052.69947
  22857792.641 2   -419026.543 2   -309317.63746  22857795.28546
  20052016.227 7   -684668.504 7   -519978.28549  20052014.90249
 20  5 16  1 41 37.0000000  0  7G04G08G09G11G16G26G27               -0.000232180
  21362433.875 6   -706680.145 6   -533577.10547  21362431.94947
  20603523.344 6  -1169070.543 6   -885110.39549  20603523.94949
  22929717.547 6   -520435.605 6   -497507.11748  22929715.02048
  23293720.695 5  -1575845.465 5  -1143373.10546  23293721.13746
  21441597.289 6   -538935.133 6   -400594.12947  21441593.78147
  22857427.047 2   -420949.379 2   -310815.94146  22857429.07846
  20051447.289 7   -687658.059 7   -522307.80949  20051445.86749
 20  5 16  1 41 38.0000000  0  7G04G08G09G11G16G26G27               -0.000234493
  21361849.227 6   -709751.617 6   -535970.45747  21361847.28147
  20602548.453 6  -1174195.785 6   -889104.08649  20602548.49249
  22928773.367 6   -525394.574 6   -501371.25848  22928771.26648
  23292379.180 5  -1582893.875 5  -1148865.37546  23292379.44946
  21441137.930 6   -541348.645 6   -402474.79347  21441134.61747
  22857061.125 2   -422872.293 2   -312314.32846  22857063.60946
  20050878.453 7   -690647.066 7   -524636.90249  20050876.93849
 20  5 16  1 41 39.0000000  0  7G04G08G09G11G16G26G27               -0.000236807
  21361264.953 6   -712822.438 6   -538363.30547  21361262.92647
  20601573.469 6  -1179320.387 6   -893097.28549  20601573.65249
  22927829.914 6   -530352.898 6   -505234.87948  22927828.03548
  23291038.258 5  -1589942.102 5  -1154357.50046  23291038.43446
  21440678.234 6   -543762.047 6   -404355.36347  21440675.13347
  22856695.320 2   -424795.215 2   -313812.71946  22856697.73446
  20050309.898 7   -693635.418 7   -526965.48449  20050308.46949
 20  5 16  1 41 40.0000000  0  7G04G08G09G11G16G26G27               -0.000239122
  21360680.211 6   -715892.602 6   -540755.64147  21360678.92247
  20600598.375 6  -1184444.398 6   -897090.02349  20600598.09049
  22926886.383 6   -535310.656 6   -509098.07048  22926884.40248
  23289697.195 5  -1596990.164 5  -1159849.49246  23289697.30146
  21440219.609 6   -546175.324 6   -406235.84047  21440216.01247
  22856329.281 2   -426718.059 2   -315311.02346  22856331.84846
  20049741.359 7   -696623.133 7   -529293.57449  20049740.12549
 20  5 16  1 41 41.0000000  0  7G04G08G09G11G16G26G27               -0.000241436
  21360096.516 6   -718962.223 6   -543147.55947  21360094.57847
  20599623.188 6  -1189567.918 6   -901082.38349  20599623.32449
  22925942.992 6   -540267.848 6   -512960.81348  22925941.60948
  23288355.555 5  -1604038.219 5  -1165341.48446  23288356.25846
  21439760.148 6   -548588.598 6   -408116.30947  21439756.74247
  22855963.727 2   -428640.941 2   -316809.39846  22855965.51246
  20049172.688 7   -699610.273 7   -531621.21549  20049171.20749
 20  5 16  1 41 42.0000000  0  7G04G08G09G11G16G26G27               -0.000243750
  21359512.516 6   -722031.320 6   -545539.06347  21359510.59847
  20598648.133 6  -1194690.961 6   -905074.35949  20598648.13349
  22924999.594 6   -545224.590 6   -516823.21548  22924998.43048
  23287014.531 5  -1611086.258 5  -1170833.46946  23287015.06646
  21439301.219 6   -551001.902 6   -409996.80947  21439297.79347
  22855597.930 2   -430563.918 2   -318307.81646  22855599.90646
  20048604.203 7   -702596.926 7   -533948.47749  20048603.09849
 20  5 16  1 41 43.0000000  0  7G04G08G09G11G16G26G27               -0.000246063
  21358928.492 6   -725099.910 6   -547930.18047  21358926.68047
  20597673.703 6  -1199813.527 6   -909065.97349  20597673.41049
  22924056.344 5   -550180.852 5   -520685.23848  22924055.30948
  23285672.727 5  -1618134.309 5  -1176325.44946  23285674.42646
  21438841.680 6   -553415.207 6   -411877.30947  21438838.60247
  22855231.492 2   -432486.988 2   -319806.29346  22855234.37946
  20048036.227 7   -705583.074 7   -536275.35249  20048034.82449
 20  5 16  1 41 44.0000000  0  7G04G08G09G11G16G26G27               -0.000248377
  21358344.555 6   -728167.910 6   -550320.82047  21358342.66447
  20596698.953 6  -1204935.527 6   -913057.13749  20596698.84849
  22923113.406 6   -555136.539 6   -524546.81648  22923112.67648
  23284331.828 5  -1625182.207 5  -1181817.31646  23284332.89146
  21438382.352 6   -555828.465 6   -413757.76647  21438379.27047
  22854866.313 3   -434410.047 3   -321304.78546  22854868.34046
  20047468.148 7   -708568.613 7   -538601.74649  20047466.65649
 20  5 16  1 41 45.0000000  0  7G04G08G09G11G16G26G27               -0.000250692
  21357760.859 6   -731235.367 6   -552711.04347  21357759.25047
  20595724.320 6  -1210057.051 6   -917047.93849  20595724.54749
  22922170.625 6   -560091.734 6   -528408.00848  22922169.91448
  23282991.328 5  -1632230.164 5  -1187309.23446  23282991.41446
  21437923.727 6   -558241.758 6   -415638.25047  21437920.61747
  22854500.148 2   -436333.223 2   -322803.35946  22854502.75046
  20046899.961 7   -711553.629 7   -540927.73049  20046898.63349
 20  5 16  1 41 46.0000000  0  7G04G08G09G11G16G26G27               -0.000253006
  21357177.406 6   -734302.223 6   -555100.80547  21357175.50447
  20594750.063 6  -1215177.984 6   -921038.27749  20594750.13749
  22921227.648 6   -565046.348 6   -532268.74248  22921226.81648
  23281649.453 5  -1639277.914 5  -1192800.98846  23281650.64546
  21437464.641 6   -560654.914 6   -417518.63347  21437461.05147
  22854134.563 3   -438256.301 3   -324301.84846  22854136.80546
  20046332.430 7   -714538.020 7   -543253.22749  20046331.08249
 20  5 16  1 41 47.0000000  0  7G04G08G09G11G16G26G27               -0.000255320
  21356593.852 6   -737368.430 6   -557490.05147  21356592.29347
  20593775.633 6  -1220298.344 6   -925028.16849  20593775.30949
  22920284.922 5   -570000.367 5   -536129.01648  22920284.55148
  23280308.703 5  -1646325.598 5  -1198292.68046  23280309.21946
  21437005.156 6   -563068.008 6   -419398.97347  21437001.87547
  22853768.977 3   -440179.449 3   -325800.42246  22853771.01646
  20045764.250 7   -717521.805 7   -545578.25449  20045763.25849
 20  5 16  1 41 48.0000000  0  7G04G08G09G11G16G26G27               -0.000257633
  21356010.625 6   -740434.063 6   -559878.85947  21356009.19947
  20592801.328 6  -1225418.172 6   -929017.64549  20592801.20349
  22919341.656 6   -574953.828 6   -539988.85548  22919342.18448
  23278968.039 5  -1653373.203 5  -1203784.32046  23278968.33246
  21436545.844 6   -565481.043 6   -421279.25447  21436542.60547
  22853402.094 3   -442102.555 3   -327298.94546  22853404.64146
  20045196.594 7   -720504.977 7   -547902.80149  20045195.44149
 20  5 16  1 41 49.0000000  0  7G04G08G09G11G16G26G27               -0.000259949
  21355427.336 6   -743499.125 6   -562267.21947  21355425.61747
  20591827.414 6  -1230537.441 6   -933006.68449  20591827.03949
  22918399.406 5   -579906.750 5   -543848.27748  22918399.63748
  23277626.492 5  -1660420.676 5  -1209275.87146  23277626.85246
  21436086.328 6   -567894.043 6   -423159.51647  21436083.62147
  22853036.555 3   -444025.645 3   -328797.45746  22853038.80146
  20044629.125 7   -723487.598 7   -550226.92649  20044628.09849
 20  5 16  1 41 50.0000000  0  7G04G08G09G11G16G26G27               -0.000262262
  21354844.141 6   -746563.566 6   -564655.09847  21354842.80147
  20590852.969 6  -1235656.195 6   -936995.32449  20590852.69149
  22917456.977 6   -584859.105 6   -547707.26648  22917457.47348
  23276285.508 5  -1667468.105 5  -1214767.37546  23276285.81346
  21435627.484 6   -570306.953 6   -425039.70747  21435624.80547
  22852670.352 3   -445948.809 3   -330296.03946  22852672.85546
  20044061.313 7   -726469.590 7   -552550.55549  20044060.58249
 20  5 16  1 41 51.0000000  0  7G04G08G09G11G16G26G27               -0.000264576
  21354260.953 6   -749627.422 6   -567042.52047  21354259.53547
  20589878.977 6  -1240774.379 6   -940983.52049  20589879.14149
  22916515.016 6   -589810.922 6   -551565.82048  22916515.37548
  23274944.313 5  -1674515.395 5  -1220258.75846  23274944.95746
  21435168.547 6   -572719.824 6   -426919.87147  21435165.55547
  22852304.133 3   -447871.941 3   -331794.58646  22852307.32446
  20043494.273 7   -729451.039 7   -554873.76649  20043493.23449
 20  5 16  1 41 52.0000000  0  7G04G08G09G11G16G26G27               -0.000266890
  21353678.250 6   -752690.781 6   -569429.55547  21353676.52747
  20588905.289 6  -1245892.105 6   -944971.35249  20588904.78949
  22915573.148 6   -594762.223 6   -555423.97348  22915573.38748
  23273603.273 5  -1681562.742 5  -1225750.20346  23273603.57046
  21434708.805 6   -575132.727 6   -428800.04747  21434706.45347
  22851938.273 3   -449795.156 3   -333293.19946  22851941.34846
  20042926.992 7   -732431.957 7   -557196.55949  20042925.73049
 20  5 16  1 41 53.0000000  0  7G04G08G09G11G16G26G27               -0.000269205
  21353095.359 6   -755753.605 6   -571816.16847  21353093.78947
  20587931.602 6  -1251009.352 6   -948958.81649  20587930.93049
  22914630.750 6   -599713.063 6   -559281.77348  22914631.07448
  23272261.961 5  -1688610.020 5  -1231241.58246  23272262.46546
  21434250.133 6   -577545.629 6   -430680.23847  21434247.09447
  22851573.273 3   -451718.531 3   -334791.93046  22851575.95346
  20042359.953 7   -735412.340 7   -559518.93849  20042358.64549
 20  5 16  1 41 54.0000000  0  7G04G08G09G11G16G26G27               -0.000271519
  21352512.680 6   -758815.730 6   -574202.24247  21352510.97747
  20586957.969 6  -1256125.957 6   -952945.77749  20586957.37149
  22913688.875 6   -604663.238 6   -563139.04748  22913689.16848
  23270921.453 5  -1695657.141 5  -1236732.84046  23270921.12146
  21433791.070 6   -579958.422 6   -432560.33647  21433788.14147
  22851206.352 3   -453641.742 3   -336290.51246  22851209.67246
  20041792.695 7   -738392.086 7   -561840.82049  20041791.36349
 20  5 16  1 41 55.0000000  0  7G04G08G09G11G16G26G27               -0.000273832
  21351929.500 6   -761877.484 6   -576588.02747  21351928.15247
  20585984.430 6  -1261242.191 6   -956932.45349  20585983.54749
  22912747.039 5   -609613.074 5   -566996.07048  22912747.83248
  23269580.336 5  -1702704.359 5  -1242224.17646  23269580.31646
  21433331.555 6   -582371.320 6   -434440.52747  21433328.89847
  22850840.344 3   -455565.184 3   -337789.28546  22850843.47746
  20041225.750 7   -741371.395 7   -564162.35549  20041224.92649
 20  5 16  1 41 56.0000000  0  7G04G08G09G11G16G26G27               -0.000276148
  21351347.352 6   -764938.699 6   -578973.39147  21351345.92247
  20585010.305 7  -1266357.961 7   -960918.76649  20585010.09849
  22911805.313 6   -614562.395 6   -570852.68448  22911805.85948
  23268239.016 5  -1709751.520 5  -1247715.46947  23268239.13347
  21432872.680 6   -584784.238 6   -436320.71547  21432869.89147
  22850474.828 4   -457488.680 4   -339288.12946  22850477.66046
  20040659.227 7   -744350.184 7   -566483.48849  20040658.15649
 20  5 16  1 41 57.0000000  0  7G04G08G09G11G16G26G27               -0.000278461
  21350764.906 6   -767999.305 6   -581358.27347  21350763.53547
  20584037.297 7  -1271473.168 7   -964904.64549  20584036.93849
  22910863.070 5   -619511.133 5   -574708.84848  22910864.05948
  23266898.070 5  -1716798.582 5  -1253206.68446  23266898.41046
  21432413.320 6   -587197.059 6   -438200.83247  21432410.53147
  22850109.063 4   -459412.191 4   -340786.98846  22850111.82446
  20040092.359 7   -747328.383 7   -568804.16449  20040091.15649
 20  5 16  1 41 58.0000000  0  7G04G08G09G11G16G26G27               -0.000280777
  21350183.070 6   -771059.363 6   -583742.73847  21350181.30947
  20583064.047 7  -1276587.887 7   -968890.14149  20583063.34849
  22909921.461 6   -624459.391 6   -578564.62948  22909922.93048
  23265557.125 5  -1723845.641 5  -1258697.90246  23265557.62946
  21431954.328 6   -589609.902 6   -440080.97347  21431951.51247
  22849742.414 4   -461335.734 4   -342285.85546  22849745.78146
  20039525.648 7   -750306.016 7   -571124.40249  20039524.19549
 20  5 16  1 41 59.0000000  0  7G04G08G09G11G16G26G27               -0.000283091
  21349600.500 6   -774118.875 6   -586126.77047  21349598.88747
  20582090.664 6  -1281702.078 6   -972875.22749  20582090.27049
  22908980.109 6   -629407.105 6   -582419.99248  22908981.07448
  23264215.758 5  -1730892.602 5  -1264189.03546  23264216.24646
  21431495.086 6   -592022.699 6   -441961.06347  21431492.50047
  22849377.094 4   -463259.328 4   -343784.75446  22849379.89846
  20038959.406 7   -753283.117 7   -573444.22349  20038957.95349
 20  5 16  1 42  0.0000000  0  7G04G08G09G11G16G26G27               -0.000285406
  21349018.094 6   -777177.766 6   -588510.31647  21349016.97347
  20581117.672 7  -1286815.711 7   -976859.87149  20581117.39149
  22908039.281 6   -634354.266 6   -586274.92648  22908040.15248
  23262875.383 5  -1737939.477 5  -1269680.10246  23262875.52746
  21431035.539 6   -594435.453 6   -443841.12147  21431033.62547
  22849010.805 4   -465182.926 4   -345283.68046  22849013.55546
  20038392.820 7   -756259.625 7   -575763.57449  20038391.48049
 20  5 16  1 42  1.0000000  0  7G04G08G09G11G16G26G27               -0.000287720
  21348436.383 6   -780236.066 6   -590893.41447  21348434.79747
  20580144.891 7  -1291928.773 7   -980844.07849  20580144.39549
  22907097.492 6   -639300.840 6   -590129.39848  22907098.70348
  23261533.898 5  -1744986.188 5  -1275171.04746  23261534.45346
  21430576.797 6   -596848.129 6   -445721.13347  21430574.25447
  22848644.938 4   -467106.531 4   -346782.58646  22848647.47346
  20037826.336 7   -759235.500 7   -578082.44149  20037825.17249
 20  5 16  1 42  2.0000000  0  7G04G08G09G11G16G26G27               -0.000290033
  21347854.336 6   -783293.914 6   -593276.15247  21347853.39847
  20579172.094 6  -1297041.465 6   -984827.99649  20579171.26649
  22906156.773 6   -644247.004 6   -593983.54348  22906157.67648
  23260193.383 5  -1752033.023 5  -1280662.09446  23260193.45746
  21430117.648 6   -599260.883 6   -447601.20747  21430115.16447
  22848278.906 4   -469030.266 4   -348281.58646  22848282.03546
  20037260.406 7   -762210.941 7   -580400.96549  20037259.21949
 20  5 16  1 42  3.0000000  0  7G04G08G09G11G16G26G27               -0.000292349
  21347272.492 6   -786351.180 6   -595658.44547  21347271.19147
  20578199.250 7  -1302153.602 7   -988811.47349  20578198.37549
  22905215.680 6   -649192.578 6   -597837.24248  22905216.54348
  23258852.133 5  -1759079.770 5  -1286153.06346  23258852.35546
  21429658.328 6   -601673.594 6   -449481.23847  21429656.14547
  22847912.820 4   -470954.004 4   -349780.60546  22847915.08646
  20036694.133 7   -765185.809 7   -582719.04349  20036692.95349
 20  5 16  1 42  4.0000000  0  7G04G08G09G11G16G26G27               -0.000294662
  21346690.797 6   -789407.949 6   -598040.33647  21346689.89147
  20577226.125 7  -1307265.297 7   -992794.61349  20577225.62949
  22904274.977 6   -654137.742 6   -601690.61348  22904275.68048
  23257510.883 5  -1766126.520 5  -1291644.04346  23257511.24246
  21429199.734 6   -604086.332 6   -451361.30547  21429196.74647
  22847547.055 4   -472877.902 4   -351279.75046  22847549.44146
  20036128.391 7   -768160.180 7   -585036.73449  20036127.23449
 20  5 16  1 42  5.0000000  0  7G04G08G09G11G16G26G27               -0.000296978
  21346109.977 6   -792464.129 6   -600421.77347  21346108.21547
  20576253.727 7  -1312376.441 7   -996777.31349  20576253.44549
  22903333.891 6   -659082.371 6   -605543.57448  22903334.84848
  23256170.492 5  -1773173.160 5  -1297134.93446  23256170.29746
  21428740.133 6   -606499.047 6   -453241.34047  21428737.96147
  22847180.891 5   -474801.789 5   -352778.87146  22847183.16046
  20035562.555 7   -771133.977 7   -587353.97749  20035560.86349
 20  5 16  1 42  6.0000000  0  7G04G08G09G11G16G26G27               -0.000299294
  21345527.813 6   -795519.660 6   -602802.70747  21345526.48447
  20575281.242 7  -1317486.930 7  -1000759.51649  20575280.52049
  22902392.984 6   -664026.316 6   -609395.99248  22902394.12548
  23254829.461 5  -1780219.652 5  -1302625.69946  23254829.32446
  21428281.406 6   -608911.609 6   -455121.25847  21428279.43047
  22846814.609 5   -476725.617 5   -354277.96946  22846816.98046
  20034996.758 7   -774107.102 7   -589670.69549  20034995.40249
 20  5 16  1 42  7.0000000  0  7G04G08G09G11G16G26G27               -0.000301607
  21344946.906 6   -798574.625 6   -605183.20747  21344945.30947
  20574308.500 7  -1322596.949 7  -1004741.34849  20574307.96949
  22901451.891 6   -668969.781 6   -613248.03948  22901453.61348
  23253488.938 5  -1787266.074 5  -1308116.42246  23253488.22346
  21427822.516 6   -611324.160 6   -457001.16847  21427819.78147
  22846448.586 4   -478649.457 4   -355777.07446  22846451.16446
  20034430.797 7   -777079.688 7   -591987.00449  20034429.37949
 20  5 16  1 42  8.0000000  0  7G04G08G09G11G16G26G27               -0.000303921
  21344365.141 6   -801629.035 6   -607563.26647  21344364.28547
  20573335.977 6  -1327706.457 6  -1008722.77349  20573335.76649
  22900511.766 6   -673912.684 6   -617099.65248  22900512.67648
  23252147.875 5  -1794312.461 5  -1313607.11746  23252147.46146
  21427363.164 6   -613736.703 6   -458881.07047  21427360.63747
  22846082.594 4   -480573.375 4   -357276.23446  22846085.74646
  20033865.297 7   -780051.719 7   -594302.87549  20033864.05549
 20  5 16  1 42  9.0000000  0  7G04G08G09G11G16G26G27               -0.000306236
  21343784.438 6   -804683.016 6   -609942.98847  21343783.52747
  20572364.016 6  -1332815.574 6  -1012703.90249  20572363.76249
  22899571.125 6   -678855.230 6   -620950.98448  22899572.02048
  23250806.820 5  -1801358.891 5  -1319097.83246  23250805.97346
  21426903.875 6   -616149.328 6   -460761.03547  21426901.62147
  22845716.453 4   -482497.449 4   -358775.51646  22845718.95746
  20033299.750 7   -783023.309 7   -596618.39549  20033298.39149
 20  5 16  1 42 10.0000000  0  7G04G08G09G11G16G26G27               -0.000308552
  21343203.609 6   -807736.309 6   -612322.17647  21343202.01647
  20571392.164 6  -1337924.059 6  -1016684.54349  20571391.37949
  22898629.938 6   -683797.070 6   -624801.76648  22898631.50448
  23249465.898 5  -1808405.168 5  -1324588.44146  23249465.60546
  21426444.813 6   -618561.801 6   -462640.87547  21426442.62947
  22845350.695 4   -484421.441 4   -360274.71946  22845352.59046
  20032734.633 7   -785994.227 7   -598933.40249  20032733.41049
 20  5 16  1 42 11.0000000  0  7G04G08G09G11G16G26G27               -0.000310865
  21342622.328 6   -810788.980 6   -614700.88347  21342621.22347
  20570419.711 7  -1343031.941 7  -1020664.71149  20570419.08649
  22897689.898 6   -688738.355 6   -628652.11748  22897691.12948
  23248124.945 5  -1815451.285 5  -1330078.92646  23248124.44146
  21425985.711 6   -620974.203 6   -464520.67247  21425983.84047
  22844984.398 5   -486345.402 5   -361773.89146  22844986.78946
  20032169.273 7   -788964.520 7   -601247.91049  20032168.15649
 20  5 16  1 42 12.0000000  0  7G04G08G09G11G16G26G27               -0.000313181
  21342041.656 6   -813841.094 6   -617079.14847  21342040.48847
  20569447.906 6  -1348139.328 6  -1024644.49249  20569447.53949
  22896749.789 6   -693679.102 6   -632502.05148  22896750.93848
  23246784.000 5  -1822497.379 5  -1335569.37946  23246783.32046
  21425526.156 6   -623386.590 6   -466400.46147  21425524.35947
  22844618.055 4   -488269.477 4   -363273.18446  22844620.37146
  20031604.047 7   -791934.277 7   -603562.00849  20031602.96149
 20  5 16  1 42 13.0000000  0  7G04G08G09G11G16G26G27               -0.000315495
  21341460.617 6   -816892.594 6   -619456.93847  21341459.59447
  20568476.156 7  -1353246.121 7  -1028623.81349  20568475.85249
  22895808.891 5   -698619.289 5   -636351.53948  22895810.34848
  23245443.063 5  -1829543.352 5  -1341059.74246  23245442.31646
  21425067.430 6   -625798.891 6   -468280.17247  21425065.30947
  22844251.500 4   -490193.457 4   -364772.38346  22844254.37146
  20031039.039 7   -794903.410 7   -605875.61749  20031037.88349
 20  5 16  1 42 14.0000000  0  7G04G08G09G11G16G26G27               -0.000317810
  21340880.195 6   -819943.512 6   -621834.27747  21340879.24247
  20567504.375 7  -1358352.402 7  -1032602.73449  20567504.38349
  22894868.961 6   -703558.910 6   -640200.58648  22894870.24248
  23244102.727 5  -1836589.234 5  -1346550.04346  23244102.05546
  21424608.453 6   -628211.145 6   -470159.84847  21424606.20747
  22843884.648 4   -492117.457 4   -366271.61346  22843888.17246
  20030474.148 7   -797871.945 7   -608188.76249  20030473.13349
 20  5 16  1 42 15.0000000  0  7G04G08G09G11G16G26G27               -0.000320126
  21340299.836 6   -822993.973 6   -624211.26247  21340298.95747
  20566532.703 6  -1363458.277 6  -1036581.34049  20566532.43049
  22893929.000 5   -708498.129 5   -644049.32448  22893930.50448
  23242761.391 5  -1843635.184 5  -1352040.40246  23242761.35246
  21424149.266 6   -630623.488 6   -472039.59447  21424147.23447
  22843519.078 4   -494041.656 4   -367770.98046  22843522.05546
  20029909.445 7   -800840.070 7   -610501.58649  20029908.30949
 20  5 16  1 42 16.0000000  0  7G04G08G09G11G16G26G27               -0.000322439
  21339719.227 6   -826043.938 6   -626587.86747  21339718.53147
  20565561.414 6  -1368563.680 6  -1040559.57049  20565560.90249
  22892989.070 5   -713436.871 5   -647897.69948  22892990.13748
  23241421.047 5  -1850681.109 5  -1357530.73446  23241420.18846
  21423690.125 6   -633035.867 6   -473919.37147  21423688.14147
  22843152.500 4   -495965.902 4   -369270.41046  22843156.23846
  20029344.852 7   -803807.645 7   -612813.98449  20029343.64849
 20  5 16  1 42 17.0000000  0  7G04G08G09G11G16G26G27               -0.000324755
  21339139.258 6   -829093.230 6   -628963.94147  21339137.81347
  20564589.531 6  -1373668.453 6  -1044537.31649  20564589.78949
  22892049.313 5   -718374.934 5   -651745.54348  22892050.77748
  23240080.227 5  -1857726.867 5  -1363020.93846  23240079.32046
  21423231.492 6   -635448.090 6   -475799.02047  21423228.84847
  22842786.844 4   -497890.109 4   -370769.80946  22842789.80146
  20028780.477 7   -806774.602 7   -615125.90249  20028778.59049
 20  5 16  1 42 18.0000000  0  7G04G08G09G11G16G26G27               -0.000327070
  21338559.000 6   -832141.922 6   -631339.54747  21338557.58647
  20563618.625 6  -1378772.676 6  -1048514.63349  20563618.32049
  22891109.930 5   -723312.480 5   -655592.98448  22891110.64148
  23238739.523 5  -1864772.516 5  -1368511.04746  23238739.06346
  21422772.219 6   -637860.242 6   -477678.61747  21422769.63747
  22842421.031 4   -499814.281 4   -372269.17246  22842424.00446
  20028215.953 7   -809740.930 7   -617437.32449  20028214.74249
 20  5 16  1 42 19.0000000  0  7G04G08G09G11G16G26G27               -0.000329384
  21337978.953 6   -835190.031 6   -633714.68847  21337977.62947
  20562647.344 6  -1383876.379 6  -1052491.54749  20562647.10249
  22890170.867 5   -728249.461 5   -659439.98448  22890171.28948
  23237397.953 5  -1871818.117 5  -1374001.12146  23237397.51246
  21422313.148 6   -640272.434 6   -479558.24247  21422310.65647
  22842054.563 4   -501738.558 4   -373768.59046  22842057.27346
  20027651.742 7   -812706.695 7   -619748.31349  20027649.94149
 20  5 16  1 42 20.0000000  0  7G04G08G09G11G16G26G27               -0.000331699
  21337399.359 6   -838237.645 6   -636089.44547  21337398.20347
  20561676.266 6  -1388979.609 6  -1056468.09449  20561676.18449
  22889231.172 5   -733185.953 5   -663286.59448  22889231.86348
  23236057.477 5  -1878863.672 5  -1379491.15646  23236057.03546
  21421854.289 6   -642684.563 6   -481437.83247  21421851.87547
  22841688.672 4   -503662.828 4   -375268.02746  22841691.49646
  20027087.258 7   -815671.961 7   -622058.90649  20027085.86349
 20  5 16  1 42 21.0000000  0  7G04G08G09G11G16G26G27               -0.000334015
  21336819.250 6   -841284.656 6   -638463.74647  21336817.91047
  20560705.219 6  -1394082.305 6  -1060444.21549  20560704.87549
  22888291.703 5   -738121.938 5   -667132.81648  22888292.35248
  23234716.641 5  -1885909.184 5  -1384981.16446  23234716.55546
  21421395.859 6   -645096.691 6   -483317.41447  21421392.63747
  22841322.031 4   -505587.133 4   -376767.48846  22841325.07446
  20026523.063 7   -818636.637 7   -624369.04349  20026521.85249
 20  5 16  1 42 22.0000000  0  7G04G08G09G11G16G26G27               -0.000336330
  21336239.234 6   -844331.223 6   -640837.69547  21336238.49647
  20559734.117 6  -1399184.563 6  -1064420.00449  20559734.36749
  22887352.242 5   -743057.426 5   -670978.64548  22887353.27748
  23233376.031 5  -1892954.641 5  -1390471.12546  23233375.46546
  21420936.461 6   -647508.855 6   -485197.02047  21420933.68047
  22840955.711 4   -507511.605 4   -378267.08646  22840958.66046
  20025958.516 7   -821600.836 7   -626678.81349  20025957.49649
 20  5 16  1 42 23.0000000  0  7G04G08G09G11G16G26G27               -0.000338644
  21335659.875 6   -847377.105 6   -643211.11747  21335658.77747
  20558763.516 6  -1404286.215 6  -1068395.31349  20558762.99249
  22886413.328 5   -747992.324 5   -674824.02048  22886413.89148
  23232035.688 5  -1900000.004 5  -1395961.02346  23232034.82046
  21420477.336 6   -649920.914 6   -487076.53947  21420474.44547
  22840589.719 4   -509435.977 4   -379766.59846  22840592.33646
  20025394.664 7   -824564.395 7   -628988.08249  20025393.50849
 20  5 16  1 42 24.0000000  0  7G04G08G09G11G16G26G27               -0.000340960
  21335080.250 6   -850422.438 6   -645584.10247  21335079.35547
  20557793.109 6  -1409387.344 6  -1072370.22349  20557792.41849
  22885474.328 5   -752926.688 5   -678668.98048  22885474.25448
  23230695.430 5  -1907045.270 5  -1401450.84046  23230694.49646
  21420018.266 6   -652332.930 6   -488956.03147  21420015.52747
  22840223.672 4   -511360.438 4   -381266.18446  22840226.12146
  20024831.078 7   -827527.395 7   -631296.90649  20024829.91049
 20  5 16  1 42 25.0000000  0  7G04G08G09G11G16G26G27               -0.000343275
  21334501.289 6   -853467.301 6   -647956.71947  21334499.96547
  20556822.031 6  -1414488.043 6  -1076344.79749  20556821.74249
  22884535.008 5   -757860.602 5   -682513.58648  22884535.41448
  23229353.820 5  -1914090.578 5  -1406940.69946  23229353.71946
  21419559.398 6   -654745.012 6   -490835.57847  21419556.53147
  22839858.102 4   -513284.977 4   -382765.82846  22839859.60946
  20024267.336 7   -830489.914 7   -633605.37149  20024265.96149
 20  5 16  1 42 26.0000000  0  7G04G08G09G11G16G26G27               -0.000345591
  21333921.516 6   -856511.516 6   -650328.83247  21333920.52047
  20555851.633 6  -1419588.141 6  -1080318.89849  20555851.38349
  22883596.406 5   -762793.918 5   -686357.72348  22883596.85948
  23228013.609 5  -1921135.750 5  -1412430.43446  23228012.70346
  21419100.109 6   -657157.016 6   -492715.07047  21419097.79347
  22839491.320 4   -515209.461 4   -384265.43046  22839493.77046
  20023703.844 7   -833451.820 7   -635913.34849  20023702.57049
 20  5 16  1 42 27.0000000  0  7G04G08G09G11G16G26G27               -0.000347904
  21333342.883 6   -859555.109 6   -652700.46547  21333342.00447
  20554881.297 6  -1424687.668 6  -1084292.55549  20554880.98049
  22882657.289 5   -767726.594 5   -690201.36348  22882657.85548
  23226672.805 5  -1928180.742 5  -1417920.04346  23226672.13746
  21418641.117 6   -659568.902 6   -494594.45747  21418638.47747
  22839125.117 4   -517134.008 4   -385765.07846  22839127.37546
  20023140.172 7   -836413.090 7   -638220.82849  20023139.07049
 20  5 16  1 42 28.0000000  0  7G04G08G09G11G16G26G27               -0.000350220
  21332763.422 6   -862598.102 6   -655071.62147  21332762.68047
  20553911.008 6  -1429786.633 6  -1088265.77349  20553910.54749
  22881718.961 5   -772658.742 5   -694044.59448  22881719.41848
  23225332.719 5  -1935225.707 5  -1423409.62146  23225331.71146
  21418181.828 6   -661980.762 6   -496473.83247  21418179.64147
  22838759.352 4   -519058.477 4   -387264.65646  22838761.14546
  20022576.758 7   -839373.750 7   -640527.83649  20022575.18449
 20  5 16  1 42 29.0000000  0  7G04G08G09G11G16G26G27               -0.000352535
  21332184.570 6   -865640.605 6   -657442.40647  21332183.63347
  20552940.469 6  -1434885.141 6  -1092238.63349  20552940.65649
  22880780.695 5   -777590.438 5   -697887.46948  22880780.91848
  23223992.141 5  -1942270.652 5  -1428899.19546  23223991.23846
  21417723.063 6   -664392.613 6   -498353.19547  21417720.91047
  22838393.070 4   -520983.031 4   -388764.30546  22838394.85946
  20022013.508 7   -842333.949 7   -642834.48449  20022012.22749
 20  5 16  1 42 30.0000000  0  7G04G08G09G11G16G26G27               -0.000354851
  21331605.984 6   -868682.309 6   -659812.56647  21331604.64847
  20551970.688 6  -1439982.895 6  -1096210.91049  20551970.24249
  22879842.266 5   -782521.352 5   -701729.74648  22879842.73048
  23222651.695 5  -1949315.258 5  -1434388.49246  23222650.43446
  21417264.516 6   -666804.219 6   -500232.36747  21417262.07447
  22838026.094 4   -522907.445 4   -390263.85946  22838028.57846
  20021450.391 7   -845293.336 7   -645140.50049  20021449.18449
 20  5 16  1 42 31.0000000  0  7G04G08G09G11G16G26G27               -0.000357164
  21331027.188 6   -871723.469 6   -662182.30147  21331025.92647
  20551000.656 6  -1445080.168 6  -1100182.81649  20551000.28549
  22878904.359 5   -787451.734 5   -705571.60548  22878904.09448
  23221310.078 5  -1956359.852 5  -1439877.78546  23221309.52046
  21416805.797 6   -669215.840 6   -502111.54747  21416802.58247
  22837660.469 4   -524831.922 4   -391763.47746  22837662.55546
  20020887.250 7   -848252.199 7   -647446.10949  20020885.82849
 20  5 16  1 42 32.0000000  0  7G04G08G09G11G16G26G27               -0.000359480
  21330448.289 6   -874764.047 6   -664551.58647  21330447.40647
  20550030.727 6  -1450176.910 6  -1104154.30549  20550030.79349
  22877965.898 5   -792381.621 5   -709413.08248  22877965.87948
  23219970.297 5  -1963404.359 5  -1445367.00446  23219969.12546
  21416346.773 6   -671627.395 6   -503990.66847  21416344.03547
  22837294.313 4   -526756.383 4   -393263.06346  22837295.99646
  20020324.391 7   -851210.461 7   -649751.24649  20020322.94949
 20  5 16  1 42 33.0000000  0  7G04G08G09G11G16G26G27               -0.000361795
  21329869.828 6   -877804.043 6   -666920.41847  21329868.90247
  20549061.109 6  -1455273.102 6  -1108125.35949  20549060.82449
  22877028.266 5   -797310.914 5   -713254.09048  22877028.26248
  23218629.867 5  -1970448.781 5  -1450856.16846  23218628.50046
  21415887.750 6   -674038.926 6   -505869.78947  21415884.69547
  22836927.633 4   -528680.875 4   -394762.65646  22836929.30946
  20019761.625 7   -854168.168 7   -652055.94949  20019760.27349
 20  5 16  1 42 34.0000000  0  7G04G08G09G11G16G26G27               -0.000364111
  21329291.477 6   -880843.414 6   -669288.75847  21329290.53547
  20548091.383 6  -1460368.711 6  -1112095.97349  20548091.41049
  22876090.133 5   -802239.645 5   -717094.65248  22876090.40248
  23217289.281 5  -1977493.070 5  -1456345.22746  23217288.23446
  21415428.984 6   -676450.352 6   -507748.82847  21415426.00047
  22836562.227 4   -530605.379 4   -396262.25846  22836562.82446
  20019198.672 7   -857125.223 7   -654360.15249  20019197.43049
 20  5 16  1 42 35.0000000  0  7G04G08G09G11G16G26G27               -0.000366426
  21328712.945 6   -883882.137 6   -671656.59447  21328712.03947
  20547121.797 6  -1465463.727 6  -1116066.10949  20547121.98449
  22875152.414 5   -807167.730 5   -720934.71948  22875152.19548
  23215948.484 5  -1984537.195 5  -1461834.16046  23215947.52746
  21414970.156 6   -678861.660 6   -509627.77047  21414966.85247
  22836195.797 4   -532529.750 4   -397761.77346  22836197.16446
  20018636.359 7   -860081.676 7   -656663.88349  20018635.14549
 20  5 16  1 42 36.0000000  0  7G04G08G09G11G16G26G27               -0.000368740
  21328134.422 6   -886920.480 6   -674024.12947  21328133.92247
  20546152.453 6  -1470558.367 6  -1120035.96149  20546152.41849
  22874214.570 5   -812095.449 5   -724774.50048  22874214.97348
  23214608.195 5  -1991581.453 5  -1467323.18846  23214607.01646
  21414511.070 6   -681273.109 6   -511506.82847  21414508.26247
  22835830.078 5   -534454.387 5   -399261.48846  22835830.67646
  20018073.570 7   -863037.715 7   -658967.28949  20018072.49649
 20  5 16  1 42 37.0000000  0  7G04G08G09G11G16G26G27               -0.000371056
  21327556.914 6   -889958.297 6   -676391.26647  21327555.93447
  20545182.711 6  -1475652.574 6  -1124005.47749  20545182.93849
  22873277.203 5   -817022.715 5   -728613.93448  22873277.28548
  23213268.031 5  -1998625.652 5  -1472812.16846  23213266.44146
  21414052.000 6   -683684.598 6   -513385.90247  21414049.52347
  22835463.461 5   -536379.105 5   -400761.28546  22835464.37146
  20017511.188 7   -865993.250 7   -661270.30149  20017510.13749
 20  5 16  1 42 38.0000000  0  7G04G08G09G11G16G26G27               -0.000373371
  21326978.688 6   -892995.500 6   -678757.92247  21326977.70347
  20544213.930 6  -1480746.184 6  -1127974.52049  20544213.50449
  22872339.688 5   -821949.371 5   -732452.88748  22872339.26648
  23211927.383 5  -2005669.777 5  -1478301.09046  23211925.66446
  21413593.281 6   -686095.992 6   -515264.91847  21413590.47347
  22835097.695 5   -538303.797 5   -402261.05146  22835097.78946
  20016948.992 7   -868948.172 7   -663572.83649  20016947.78949
 20  5 16  1 42 39.0000000  0  7G04G08G09G11G16G26G27               -0.000375687
  21326400.555 6   -896032.098 6   -681124.10947  21326400.08247
  20543244.734 6  -1485839.230 6  -1131943.12549  20543244.54749
  22871402.023 5   -826875.438 5   -736291.38348  22871402.29348
  23210587.094 5  -2012713.727 5  -1483789.89146  23210585.43046
  21413134.727 6   -688507.324 6   -517143.87547  21413131.67647
  22834731.016 5   -540228.457 5   -403760.77746  22834731.40646
  20016386.555 7   -871902.477 7   -665874.88749  20016385.39149
 20  5 16  1 42 40.0000000  0  7G04G08G09G11G16G26G27               -0.000378000
  21325823.359 6   -899068.109 6   -683489.82447  21325821.90647
  20542275.594 6  -1490931.738 6  -1135911.32049  20542275.75449
  22870464.984 5   -831800.965 5   -740129.45348  22870464.59848
  23209246.531 5  -2019757.633 5  -1489278.65646  23209245.08646
  21412675.086 6   -690918.602 6   -519022.78547  21412672.49247
  22834365.148 5   -542153.176 5   -405260.55546  22834365.34446
  20015824.836 7   -874856.215 7   -668176.50849  20015823.51249
 20  5 16  1 42 41.0000000  0  7G04G08G09G11G16G26G27               -0.000380316
  21325245.820 6   -902103.652 6   -685855.18047  21325244.51247
  20541306.547 6  -1496023.816 6  -1139879.17249  20541306.33649
  22869527.914 5   -836726.074 5   -743967.20348  22869527.64548
  23207906.039 5  -2026801.563 5  -1494767.43446  23207904.62546
  21412216.367 6   -693329.910 6   -520901.72347  21412213.73047
  22833998.742 5   -544078.023 5   -406760.43846  22833998.54746
  20015262.586 7   -877809.484 7   -670477.75449  20015261.68449
 20  5 16  1 42 42.0000000  0  7G04G08G09G11G16G26G27               -0.000382631
  21324668.203 6   -905138.559 6   -688220.04347  21324666.95347
  20540337.734 6  -1501115.309 6  -1143846.56349  20540337.54349
  22868590.094 5   -841650.590 5   -747804.48848  22868590.46948
  23206565.383 5  -2033845.340 5  -1500256.07846  23206564.12946
  21411758.063 6   -695741.184 6   -522780.63347  21411754.51647
  22833632.672 5   -546002.785 5   -408260.25846  22833632.70346
  20014700.914 7   -880762.121 7   -672778.50849  20014699.56649
 20  5 16  1 42 43.0000000  0  7G04G08G09G11G16G26G27               -0.000384947
  21324090.516 6   -908172.930 6   -690584.49247  21324089.30547
  20539368.813 6  -1506206.285 6  -1147813.55949  20539368.98449
  22867653.383 5   -846574.563 5   -751641.35248  22867653.52048
  23205225.477 5  -2040889.102 5  -1505744.71546  23205223.78546
  21411298.984 6   -698152.438 6   -524659.52747  21411295.62947
  22833266.414 5   -547927.660 5   -409760.14846  22833265.68046
  20014138.992 7   -883714.219 7   -675078.84449  20014137.92649
 20  5 16  1 42 44.0000000  0  7G04G08G09G11G16G26G27               -0.000387262
  21323513.430 6   -911206.816 6   -692948.56347  21323511.91447
  20538400.125 6  -1511296.820 6  -1151780.21149  20538400.24249
  22866716.102 5   -851498.090 5   -755477.86348  22866716.60248
  23203884.773 5  -2047932.836 5  -1511233.33246  23203883.14846
  21410839.914 6   -700563.715 6   -526538.45347  21410836.58247
  22832900.203 5   -549852.629 5   -411260.12946  22832900.08646
  20013577.234 7   -886665.828 7   -677378.80149  20013576.19949
 20  5 16  1 42 45.0000000  0  7G04G08G09G11G16G26G27               -0.000389578
  21322936.063 6   -914240.063 6   -695312.12947  21322934.67647
  20537431.336 6  -1516386.789 6  -1155746.41849  20537431.87149
  22865779.719 5   -856420.996 5   -759313.89848  22865779.49648
  23202544.477 5  -2054976.461 5  -1516721.87146  23202543.00046
  21410381.531 6   -702974.910 6   -528417.30947  21410378.03147
  22832533.695 5   -551777.586 5   -412760.07846  22832533.46946
  20013016.141 7   -889616.848 7   -679678.28949  20013014.88749
 20  5 16  1 42 46.0000000  0  7G04G08G09G11G16G26G27               -0.000391893
  21322358.813 6   -917272.758 6   -697675.27047  21322357.65247
  20536463.125 6  -1521476.215 6  -1159712.20749  20536463.21549
  22864842.609 5   -861343.398 5   -763149.53548  22864842.93048
  23201204.297 5  -2062019.996 5  -1522210.34846  23201202.47746
  21409922.406 6   -705386.078 6   -530296.14547  21409919.00447
  22832167.805 5   -553702.543 5   -414260.05546  22832167.51646
  20012454.375 7   -892567.246 7   -681977.30949  20012452.97749
 20  5 16  1 42 47.0000000  0  7G04G08G09G11G16G26G27               -0.000394209
  21321781.805 6   -920304.887 6   -700037.96947  21321780.64547
  20535494.625 6  -1526565.105 6  -1163677.57849  20535494.85549
  22863906.594 5   -866265.254 5   -766984.74648  22863906.29348
  23199864.000 5  -2069063.477 5  -1527698.78546  23199861.98446
  21409463.492 6   -707797.211 6   -532174.94947  21409460.28547
  22831801.453 5   -555627.547 5   -415760.05546  22831800.71146
  20011892.977 7   -895517.141 7   -684275.92649  20011891.97749
 20  5 16  1 42 48.0000000  0  7G04G08G09G11G16G26G27               -0.000396524
  21321205.164 6   -923336.492 6   -702400.26247  21321203.92647
  20534526.344 7  -1531653.563 7  -1167642.61749  20534526.78949
  22862969.781 5   -871186.665 5   -770819.61748  22862969.64548
  23198523.625 5  -2076106.957 5  -1533187.20346  23198521.64546
  21409005.000 6   -710208.410 6   -534053.80947  21409001.41847
  22831435.477 5   -557552.648 5   -417260.13346  22831434.06646
  20011331.891 7   -898466.531 7   -686574.14849  20011330.27349
 20  5 16  1 42 49.0000000  0  7G04G08G09G11G16G26G27               -0.000398840
  21320627.703 6   -926367.645 6   -704762.19547  21320627.10547
  20533558.477 7  -1536741.543 7  -1171607.27349  20533558.33249
  22862033.727 5   -876107.566 5   -774654.09448  22862033.11348
  23197183.148 5  -2083150.430 5  -1538675.62146  23197181.41446
  21408545.836 6   -712619.605 6   -535932.66047  21408542.85247
  22831068.000 5   -559477.886 5   -418760.32546  22831067.96146
  20010770.563 7   -901415.402 7   -688871.97349  20010769.75049
 20  5 16  1 42 50.0000000  0  7G04G08G09G11G16G26G27               -0.000401155
  21320051.625 6   -929398.051 6   -707123.55547  21320050.27347
  20532590.164 7  -1541828.906 7  -1175571.45349  20532590.55549
  22861097.180 5   -881027.816 5   -778488.04748  22861096.62148
  23195842.945 5  -2090193.676 5  -1544163.85946  23195841.05546
  21408087.273 6   -715030.668 6   -537811.39847  21408083.58647
  22830702.367 5   -561402.953 5   -420260.37546  22830700.99246
  20010209.766 7   -904363.598 7   -691169.27049  20010208.22749
 20  5 16  1 42 51.0000000  0  7G04G08G09G11G16G26G27               -0.000403471
  21319475.063 6   -932428.016 6   -709484.57447  21319473.80947
  20531622.219 7  -1546915.801 7  -1179535.26649  20531622.80149
  22860161.109 5   -885947.629 5   -782321.66048  22860160.98848
  23194502.234 5  -2097236.930 5  -1549652.10246  23194500.67246
  21407628.617 6   -717441.773 6   -539690.18447  21407624.68847
  22830335.797 5   -563328.195 5   -421760.55146  22830335.48846
  20009648.523 7   -907311.293 7   -693466.17649  20009647.56349
 20  5 16  1 42 52.0000000  0  7G04G08G09G11G16G26G27               -0.000405787
  21318898.234 6   -935457.461 6   -711845.17247  21318897.41447
  20530654.523 6  -1552002.258 6  -1183498.73849  20530654.66849
  22859225.055 5   -890866.934 5   -786154.88748  22859224.29348
  23193162.180 5  -2104280.215 5  -1555140.37946  23193160.30546
  21407169.852 6   -719852.926 6   -541569.00047  21407165.97747
  22829969.008 5   -565253.523 5   -423260.80546  22829968.46546
  20009087.695 7   -910258.520 7   -695762.71549  20009086.83249
 20  5 16  1 42 53.0000000  0  7G04G08G09G11G16G26G27               -0.000408102
  21318321.789 6   -938486.355 6   -714205.35547  21318320.77747
  20529686.305 7  -1557088.184 7  -1187461.80149  20529686.60949
  22858288.922 5   -895785.766 5   -789987.74648  22858288.18848
  23191822.352 5  -2111323.402 5  -1560628.57446  23191819.79346
  21406710.961 6   -722264.039 6   -543447.78947  21406706.78947
  22829602.234 5   -567178.891 5   -424761.08646  22829602.30146
  20008527.266 7   -913205.176 7   -698058.80949  20008526.50049
 20  5 16  1 42 54.0000000  0  7G04G08G09G11G16G26G27               -0.000410418
  21317745.531 6   -941514.750 6   -716565.14147  21317744.67647
  20528718.859 7  -1562173.652 7  -1191424.50449  20528718.84849
  22857353.000 5   -900704.105 5   -793820.20748  22857352.13748
  23190482.156 5  -2118366.586 5  -1566116.77746  23190479.95746
  21406252.422 6   -724675.188 6   -545326.61347  21406248.13347
  22829236.523 5   -569104.363 5   -426261.45746  22829235.76246
  20007966.445 7   -916151.355 7   -700354.53549  20007965.17249
 20  5 16  1 42 55.0000000  0  7G04G08G09G11G16G26G27               -0.000412733
  21317169.727 6   -944542.496 6   -718924.43047  21317168.64847
  20527751.359 7  -1567258.535 7  -1195386.74649  20527751.48049
  22856416.555 5   -905621.863 5   -797652.22848  22856416.16448
  23189141.695 5  -2125409.672 5  -1571604.89546  23189139.12946
  21405793.156 6   -727086.258 6   -547205.35947  21405788.94947
  22828869.789 5   -571029.781 5   -427761.78946  22828869.67246
  20007405.977 7   -919096.898 7   -702649.76249  20007405.16049
 20  5 16  1 42 56.0000000  0  7G04G08G09G11G16G26G27               -0.000415049
  21316593.195 6   -947569.723 6   -721283.30947  21316592.50047
  20526783.906 7  -1572342.879 7  -1199348.57849  20526783.71549
  22855481.375 5   -910539.035 5   -801483.80547  22855480.25047
  23187801.375 5  -2132452.672 5  -1577092.94946  23187798.93046
  21405334.664 6   -729497.285 6   -549084.08647  21405330.00047
  22828503.078 5   -572955.273 5   -429262.18046  22828503.11746
  20006845.359 7   -922041.883 7   -704944.55549  20006844.65649
 20  5 16  1 42 57.0000000  0  7G04G08G09G11G16G26G27               -0.000417366
  21316017.359 6   -950596.258 6   -723641.64547  21316016.50047
  20525816.359 7  -1577426.605 7  -1203309.91849  20525816.50049
  22854545.336 5   -915455.598 5   -805314.89547  22854544.88747
  23186461.219 5  -2139495.500 5  -1582580.86746  23186458.64846
  21404875.406 6   -731908.188 6   -550962.71547  21404871.55547
  22828136.492 5   -574880.672 5   -430762.49646  22828136.13746
  20006285.555 7   -924986.211 7   -707238.84449  20006284.40649
 20  5 16  1 42 58.0000000  0  7G04G08G09G11G16G26G27               -0.000419682
  21315442.266 6   -953622.313 6   -725999.60547  21315440.66447
  20524849.078 6  -1582509.848 6  -1207270.89549  20524848.90249
  22853610.430 5   -920371.684 5   -809145.60948  22853609.41448
  23185120.977 5  -2146538.320 5  -1588068.77746  23185118.28146
  21404416.445 6   -734319.117 6   -552841.36347  21404412.84847
  22827771.156 5   -576806.137 5   -432262.86346  22827770.14846
  20005724.961 7   -927930.035 7   -709532.73049  20005724.44949
 20  5 16  1 42 59.0000000  0  7G04G08G09G11G16G26G27               -0.000421997
  21314865.938 6   -956647.781 6   -728357.11347  21314865.09847
  20523882.039 7  -1587592.598 7  -1211231.47749  20523881.53149
  22852674.758 5   -925287.273 5   -812975.93847  22852673.88347
  23183780.539 5  -2153581.055 5  -1593556.62146  23183778.34846
  21403957.422 6   -736730.059 6   -554720.01647  21403953.97347
  22827403.953 5   -578731.668 5   -433763.26646  22827403.58246
  20005164.984 7   -930873.313 7   -711826.19149  20005164.13749
 20  5 16  1 43  0.0000000  0  7G04G08G09G11G16G26G27               -0.000424313
  21314290.219 6   -959672.734 6   -730714.22747  21314289.09447
  20522914.719 7  -1592674.879 7  -1215191.69949  20522914.95349
  22851739.055 5   -930202.348 5   -816805.85948  22851738.75848
  23182440.539 5  -2160623.793 5  -1599044.46546  23182438.27346
  21403498.930 6   -739141.004 6   -556598.67247  21403494.79347
  22827037.992 5   -580657.328 5   -435263.77346  22827036.65646
  20004605.133 7   -933816.063 7   -714119.25049  20004604.08649
 20  5 16  1 43  1.0000000  0  7G04G08G09G11G16G26G27               -0.000426628
  21313714.859 6   -962697.039 6   -733070.83247  21313713.67247
  20521947.375 6  -1597756.551 6  -1219151.43849  20521947.79749
  22850804.813 5   -935116.777 5   -820635.28147  22850803.17647
  23181100.281 5  -2167666.363 5  -1604532.17646  23181098.44146
  21403040.141 6   -741551.785 6   -558477.21147  21403036.20747
  22826670.734 4   -582582.875 4   -436764.19946  22826670.87546
  20004045.055 7   -936758.160 7   -716411.79349  20004044.27049
 20  5 16  1 43  2.0000000  0  7G04G08G09G11G16G26G27               -0.000428944
  21313139.148 6   -965720.750 6   -735426.97747  21313138.32847
  20520980.844 6  -1602837.637 6  -1223110.72349  20520980.77349
  22849869.320 5   -940030.645 5   -824464.26648  22849868.19948
  23179760.250 5  -2174708.801 5  -1610019.78546  23179757.86346
  21402581.328 6   -743962.508 6   -560355.69947  21402577.33247
  22826304.539 5   -584508.402 5   -438264.60546  22826303.98446
  20003485.398 7   -939699.672 7   -718703.88349  20003484.68449
 20  5 16  1 43  3.0000000  0  7G04G08G09G11G16G26G27               -0.000431259
  21312563.766 6   -968743.953 6   -737782.72747  21312563.20747
  20520013.766 7  -1607918.281 7  -1227069.67249  20520013.86749
  22848934.203 5   -944944.039 5   -828292.87947  22848932.77347
  23178420.367 5  -2181751.223 5  -1615507.37946  23178417.56346
  21402123.875 6   -746373.285 6   -562234.23847  21402118.78547
  22825939.328 5   -586434.082 5   -439765.14846  22825937.83646
  20002925.656 7   -942640.688 7   -720995.57449  20002924.72349
 20  5 16  1 43  4.0000000  0  7G04G08G09G11G16G26G27               -0.000433577
  21311988.602 6   -971766.664 6   -740138.08647  21311987.76247
  20519046.992 7  -1612998.477 7  -1231028.26649  20519047.20749
  22847999.203 5   -949857.008 5   -832121.16847  22847998.41447
  23177080.023 5  -2188793.684 5  -1620995.02046  23177077.77346
  21401664.445 6   -748784.125 6   -564112.80547  21401659.72347
  22825572.172 5   -588359.820 5   -441265.72346  22825571.38346
  20002366.094 7   -945581.230 7   -723286.91449  20002365.15249
 20  5 16  1 43  5.0000000  0  8G04G08G09G11G16G26G27G31            -0.000435892
  21311414.133 6   -974788.672 6   -742492.89847  21311413.02747
  20518080.656 7  -1618078.000 7  -1234986.34049  20518081.07849
  22847064.734 5   -954769.262 5   -835948.89847  22847063.85947
  23175739.570 5  -2195835.891 5  -1626482.44146  23175737.00846
  21401205.352 6   -751194.754 6   -565991.21947  21401201.23047
  22825205.180 4   -590285.465 4   -442766.23446  22825204.92246
  20001806.750 7   -948521.043 7   -725577.67649  20001805.58249
  23458855.45311                                
 20  5 16  1 43  6.0000000  0  8G04G08G09G11G16G26G27G31            -0.000438208
  21310838.813 6   -977810.141 6   -744847.28147  21310837.90247
  20517114.219 7  -1623157.008 7  -1238944.00849  20517114.23049
  22846130.242 5   -959680.988 5   -839776.22347  22846128.66847
  23174399.875 5  -2202878.059 5  -1631969.85246  23174397.04746
  21400747.078 6   -753605.383 6   -567869.62147  21400742.56647
  22824839.281 4   -592211.152 4   -444266.75846  22824838.90646
  20001246.930 7   -951460.313 7   -727868.01649  20001246.39149
  23458634.414 1                                
 20  5 16  1 43  7.0000000  0  8G04G08G09G11G16G26G27G31            -0.000440523
  21310264.531 6   -980831.020 6   -747201.20747  21310263.11747
  20516147.617 7  -1628235.512 7  -1242901.28949  20516147.91449
  22845195.688 5   -964592.234 5   -843603.16447  22845194.20347
  23173059.820 5  -2209920.152 5  -1637457.20346  23173057.09846
  21400287.836 6   -756016.000 6   -569748.03547  21400283.75847
  22824472.047 4   -594136.879 4   -445767.32446  22824472.28946
  20000688.281 7   -954399.023 7   -730157.91449  20000687.23449
  23458411.703 1     -5029.684 1                
 20  5 16  1 43  8.0000000  0  8G04G08G09G11G16G26G27G31            -0.000442841
  21309689.320 6   -983851.375 6   -749554.73447  21309688.29347
  20515181.523 7  -1633313.516 7  -1246858.17649  20515181.46149
  22844260.938 5   -969502.930 5   -847429.68447  22844259.41447
  23171719.875 5  -2216962.223 5  -1642944.52746  23171716.99646
  21399829.406 6   -758426.598 6   -571626.41846  21399824.97346
  22824104.844 4   -596062.680 4   -447267.95346  22824105.68846
  20000128.961 7   -957337.207 7   -732447.41049  20000128.05549
  23458190.469 1     -6194.090 1                
 20  5 16  1 43  9.0000000  0  8G04G08G09G11G16G26G27G31            -0.000445154
  21309115.180 6   -986871.227 6   -751907.86347  21309113.95747
  20514215.563 7  -1638391.035 7  -1250814.68049  20514215.52749
  22843326.344 5   -974413.160 5   -851255.83648  22843325.07048
  23170380.063 5  -2224004.215 5  -1648431.79346  23170376.66046
  21399370.977 6   -760837.230 6   -573504.82847  21399366.14547
  22823738.469 4   -597988.555 4   -448768.64846  22823739.25046
  19999569.930 7   -960274.887 7   -734736.51649  19999569.37549
  23457967.227 1     -7358.367 1                
 20  5 16  1 43 10.0000000  0  8G04G08G09G11G16G26G27G31            -0.000447472
  21308540.539 6   -989890.410 6   -754260.47747  21308539.06347
  20513248.852 7  -1643467.945 7  -1254770.71549  20513249.35549
  22842391.969 5   -979322.758 5   -855081.48847  22842390.88747
  23169039.797 5  -2231046.109 5  -1653918.96546  23169036.86746
  21398912.242 6   -763247.727 6   -575383.13747  21398907.43847
  22823372.055 4   -599914.375 4   -450269.29746  22823372.65646
  19999010.844 7   -963211.914 7   -737025.10249  19999010.09849
  23457747.328 1     -8522.266 1                
 20  5 16  1 43 11.0000000  0  8G04G08G09G11G16G26G27G31            -0.000449787
  21307965.977 6   -992909.055 6   -756612.66447  21307964.69947
  20512283.141 7  -1648544.355 7  -1258726.35549  20512283.44549
  22841458.141 5   -984231.801 5   -858906.71547  22841456.66447
  23167699.531 5  -2238087.883 5  -1659406.05546  23167696.68046
  21398453.281 6   -765658.203 6   -577261.43847  21398448.92647
  22823005.578 4   -601840.234 4   -451769.97346  22823006.27346
  19998452.156 7   -966148.375 7   -739313.25849  19998451.88749
  23457525.500 1     -9685.961 1                
 20  5 16  1 43 12.0000000  0  8G04G08G09G11G16G26G27G31            -0.000452103
  21307391.883 6   -995927.086 6   -758964.38347  21307390.22347
  20511317.258 7  -1653620.199 7  -1262681.55949  20511317.07849
  22840523.875 5   -989140.301 5   -862731.52048  22840522.68048
  23166359.625 5  -2245129.605 5  -1664893.11746  23166356.38346
  21397994.297 6   -768068.656 6   -579139.70747  21397990.17647
  22822639.633 4   -603766.109 4   -453270.64546  22822639.82046
  19997893.633 7   -969084.277 7   -741600.97349  19997892.94949
  23457303.883 1    -10849.391 1                
 20  5 16  1 43 13.0000000  0  8G04G08G09G11G16G26G27G31            -0.000454418
  21306817.773 6   -998944.605 6   -761315.69947  21306816.36747
  20510351.258 6  -1658695.559 6  -1266636.37949  20510351.87149
  22839589.484 5   -994048.254 5   -866555.90247  22839588.76247
  23165019.484 5  -2252171.273 5  -1670380.13746  23165016.68846
  21397536.094 6   -770479.063 6   -581017.94947  21397531.67247
  22822271.898 4   -605692.047 4   -454771.37146  22822273.29746
  19997335.219 7   -972019.637 7   -743888.26649  19997334.24249
  23457082.008 1    -12012.535 1                
 20  5 16  1 43 14.0000000  0  8G04G08G09G11G16G26G27G31            -0.000456736
  21306243.336 6  -1001961.637 6   -763666.63347  21306242.25047
  20509385.875 7  -1663770.473 7  -1270590.85949  20509385.79349
  22838655.086 5   -998955.844 5   -870380.00047  22838654.85947
  23163679.617 5  -2259212.945 5  -1675867.15646  23163676.62546
  21397077.039 6   -772889.543 6   -582896.24247  21397072.51647
  22821906.430 4   -607618.066 4   -456272.15246  22821906.61746
  19996776.656 7   -974954.539 7   -746175.19949  19996775.32449
  23456860.656 1    -13175.641 1                
 20  5 16  1 43 15.0000000  0  8G04G08G09G11G16G26G27G31            -0.000459051
  21305669.820 6  -1004978.059 6   -766017.09447  21305668.21147
  20508419.961 7  -1668844.809 7  -1274544.89149  20508420.15249
  22837721.453 5  -1003862.750 5   -874203.57047  22837720.73447
  23162340.094 5  -2266254.484 5  -1681354.05546  23162336.52346
  21396618.547 6   -775299.957 6   -584774.48847  21396613.82847
  22821539.461 4   -609544.078 4   -457772.96546  22821540.27346
  19996218.266 7   -977888.793 7   -748461.63349  19996217.03549
  23456638.344 1    -14338.395 1                
 20  5 16  1 43 16.0000000  0  8G04G08G09G11G16G26G27G31            -0.000461369
  21305095.500 6  -1007993.934 6   -768367.12147  21305094.07847
  20507454.609 7  -1673918.656 7  -1278498.54349  20507454.83249
  22836788.031 5  -1008769.199 5   -878026.78147  22836787.24647
  23160999.844 5  -2273295.992 5  -1686840.95746  23160996.83646
  21396159.891 6   -777710.355 6   -586652.71547  21396155.00047
  22821172.742 4   -611470.184 4   -459273.82446  22821173.73446
  19995659.531 7   -980822.535 7   -750747.66449  19995659.19949
  23456418.156 1    -15500.953 1                
 20  5 16  1 43 17.0000000  0  8G04G08G09G11G16G26G27G31            -0.000463684
  21304521.570 6  -1011009.230 6   -770716.70347  21304520.62947
  20506488.883 6  -1678991.961 6  -1282451.76249  20506489.21149
  22835854.539 5  -1013675.070 5   -881849.53147  22835853.47347
  23159659.688 5  -2280337.379 5  -1692327.74246  23159656.71146
  21395701.258 6   -780120.719 6   -588530.92647  21395696.93047
  22820806.563 4   -613396.277 4   -460774.65646  22820807.53146
  19995101.609 7   -983755.715 7   -753033.25849  19995100.77349
  23456197.10211                                
 20  5 16  1 43 18.0000000  0  8G04G08G09G11G16G26G27G31            -0.000466000
  21303947.859 6  -1014023.996 6   -773065.87147  21303946.81647
  20505523.633 7  -1684064.750 7  -1286404.59049  20505523.95749
  22834921.828 5  -1018580.469 5   -885671.93047  22834920.02047
  23158320.383 5  -2287378.758 5  -1697814.52746  23158316.70346
  21395242.375 6   -782531.094 6   -590409.14547  21395237.95347
  22820439.703 4   -615322.465 4   -462275.61746  22820440.49646
  19994543.617 7   -986688.332 7   -755318.41449  19994542.47349
  23455975.492 1    -17825.379 1                
 20  5 16  1 43 19.0000000  0  8G04G08G09G11G16G26G27G31            -0.000468317
  21303374.516 6  -1017038.289 6   -775414.67247  21303373.52747
  20504558.648 6  -1689137.129 6  -1290357.08649  20504559.09049
  22833987.148 5  -1023485.402 5   -889493.95747  22833986.96947
  23156980.109 5  -2294420.133 5  -1703301.31646  23156976.97346
  21394783.938 6   -784941.512 6   -592287.39147  21394779.05147
  22820073.594 4   -617248.746 4   -463776.62946  22820073.59046
  19993985.633 7   -989620.492 7   -757603.22349  19993985.14849
  23455754.461 1    -18987.340 1                
 20  5 16  1 43 20.0000000  0  8G04G08G09G11G16G26G27G31            -0.000470633
  21302800.523 6  -1020052.000 6   -777763.01247  21302800.00447
  20503593.344 6  -1694208.957 6  -1294309.16449  20503593.77749
  22833054.609 5  -1028389.770 5   -893315.53947  22833053.32447
  23155639.813 5  -2301461.418 5  -1708788.02046  23155637.27746
  21394325.047 6   -787351.863 6   -594165.58247  21394320.90647
  22819707.406 4   -619175.070 4   -465277.67246  22819707.17646
  19993427.891 7   -992552.082 7   -759887.57049  19993426.93849
  23455532.688 1    -20149.098 1                
 20  5 16  1 43 21.0000000  0  8G04G08G09G11G16G26G27G31            -0.000472950
  21302227.586 6  -1023065.086 6   -780110.87547  21302226.83247
  20502628.461 6  -1699280.195 6  -1298260.77349  20502628.87549
  22832121.555 5  -1033293.613 5   -897136.72747  22832120.03947
  23154300.445 5  -2308502.559 5  -1714274.62946  23154297.01646
  21393866.641 6   -789762.148 6   -596043.71947  21393862.00047
  22819340.500 4   -621101.340 4   -466778.65246  22819340.66846
  19992870.266 7   -995483.039 7   -762171.43849  19992869.11749
  23455310.766 1    -21310.430 1                
 20  5 16  1 43 22.0000000  0  8G04G08G09G11G16G26G27G31            -0.000475269
  21301654.211 6  -1026077.492 6   -782458.20347  21301653.27747
  20501663.758 6  -1704350.801 6  -1302211.90249  20501663.99649
  22831188.672 5  -1038196.703 5   -900957.31647  22831186.86747
  23152959.992 5  -2315543.551 5  -1719761.12546  23152956.83246
  21393407.789 6   -792172.273 6   -597921.73847  21393403.52747
  22818973.711 4   -623027.551 4   -468279.59846  22818973.62946
  19992312.602 7   -998413.336 7   -764454.78549  19992311.47349
  23455090.50811                                
 20  5 16  1 43 23.0000000  0  8G04G08G09G11G16G26G27G31            -0.000477583
  21301081.234 6  -1029089.281 6   -784805.04747  21301080.36747
  20500698.602 6  -1709420.824 6  -1306162.57449  20500699.22749
  22830255.813 5  -1043099.199 5   -904777.44147  22830253.58247
  23151620.594 5  -2322584.355 5  -1725247.46946  23151617.20346
  21392949.141 6   -794582.328 6   -599799.70747  21392944.88347
  22818606.797 4   -624953.711 4   -469780.49645  22818607.35945
  19991754.844 7  -1001343.000 7   -766737.64549  19991753.78149
  23454868.570 1                                
 20  5 16  1 43 24.0000000  0  8G04G08G09G11G16G26G27G31            -0.000479898
  21300508.141 6  -1032100.504 6   -787151.46147  21300507.32447
  20499734.008 6  -1714490.336 6  -1310112.84449  20499734.11749
  22829322.758 5  -1048001.246 5   -908597.20747  22829320.86747
  23150280.352 5  -2329625.129 5  -1730733.78546  23150277.46946
  21392490.586 6   -796992.332 6   -601677.63747  21392486.06347
  22818240.250 3   -626879.898 3   -471281.39846  22818240.99246
  19991197.367 7  -1004272.121 7   -769020.07449  19991196.68049
  23454649.742 1                                
 20  5 16  1 43 25.0000000  0  8G04G08G09G11G16G26G27G31            -0.000482216
  21299935.242 6  -1035111.309 6   -789497.53947  21299934.52047
  20498769.344 6  -1719559.461 6  -1314062.81349  20498770.02749
  22828390.461 5  -1052902.844 5   -912416.63747  22828388.07847
  23148940.727 5  -2336665.969 5  -1736220.14846  23148937.39146
  21392032.117 6   -799402.469 6   -603555.66047  21392027.48447
  22817873.352 4   -628806.270 4   -472782.47346  22817873.94546
  19990640.172 7  -1007200.813 7   -771302.17649  19990639.21549
  23454429.539 1                                
 20  5 16  1 43 26.0000000  0  8G04G08G09G11G16G26G27G31            -0.000484531
  21299362.375 6  -1038121.586 6   -791843.21147  21299361.48847
  20497805.289 7  -1724628.113 7  -1318012.41049  20497805.64549
  22827457.445 5  -1057803.961 5   -916235.69547  22827456.16047
  23147601.078 5  -2343706.719 5  -1741706.43846  23147597.91446
  21391572.828 6   -801812.609 6   -605433.69547  21391568.57447
  22817508.055 4   -630732.746 4   -474283.61746  22817507.47746
  19990083.164 7  -1010128.973 7   -773583.85549  19990082.23049
  23454209.297 1    -27113.547 1                
 20  5 16  1 43 27.0000000  0  8G04G08G09G11G16G26G27G31            -0.000486849
  21298789.531 6  -1041131.063 6   -794188.25447  21298788.83247
  20496840.422 7  -1729695.984 7  -1321961.40649  20496841.25449
  22826524.320 5  -1062704.242 5   -920054.09847  22826522.97347
  23146261.203 5  -2350747.230 5  -1747192.55546  23146258.32446
  21391114.523 6   -804222.465 6   -607311.50047  21391110.33647
  22817140.656 3   -632658.941 3   -475784.55545  22817140.71945
  19989525.984 7  -1013056.352 7   -775864.93049  19989525.28149
  23453988.289 1    -28273.305 1                
 20  5 16  1 43 28.0000000  0  8G04G08G09G11G16G26G27G31            -0.000489164
  21298217.039 6  -1044140.035 6   -796532.90647  21298216.29747
  20495876.383 7  -1734763.379 7  -1325910.02349  20495876.64149
  22825592.156 4  -1067604.121 4   -923872.18847  22825590.54747
  23144921.234 5  -2357787.652 5  -1752678.60246  23144918.40646
  21390655.945 6   -806632.332 6   -609189.31647  21390651.90247
  22816773.969 4   -634585.297 4   -477285.61345  22816774.05945
  19988968.750 7  -1015983.230 7   -778145.60949  19988967.96549
  23453767.930 1    -29432.879 1                
 20  5 16  1 43 29.0000000  0  8G04G08G09G11G16G26G27G31            -0.000491480
  21297644.500 6  -1047148.457 6   -798877.12547  21297643.77047
  20494912.242 7  -1739830.305 7  -1329858.28149  20494912.67249
  22824660.133 4  -1072503.430 4   -927689.83547  22824658.40647
  23143580.969 5  -2364828.055 5  -1758164.62546  23143578.56346
  21390198.141 6   -809042.234 6   -611067.16447  21390193.46547
  22816407.016 3   -636511.734 3   -478786.74245  22816407.01645
  19988412.469 7  -1018909.574 7   -780425.87549  19988411.24249
  23453548.055 1    -30592.262 1                
 20  5 16  1 43 30.0000000  0  8G04G08G09G11G16G26G27G31            -0.000493797
  21297072.109 6  -1050156.176 6   -801220.79747  21297071.78547
  20493947.875 7  -1744896.559 7  -1333806.00849  20493948.46549
  22823727.367 4  -1077402.156 4   -931507.02747  22823726.31347
  23142241.945 5  -2371868.215 5  -1763650.46546  23142238.98846
  21389738.984 6   -811451.945 6   -612944.85247  21389734.45347
  22816040.625 4   -638437.957 4   -480287.70746  22816040.48846
  19987855.414 7  -1021835.230 7   -782705.61349  19987854.72349
  23453327.352 1    -31751.207 1                
 20  5 16  1 43 31.0000000  0  8G04G08G09G11G16G26G27G31            -0.000496113
  21296500.094 6  -1053163.508 6   -803564.17647  21296499.46147
  20492984.148 7  -1749962.473 7  -1337753.46949  20492984.15249
  22822796.102 4  -1082300.359 4   -935323.81347  22822794.05947
  23140901.836 5  -2378908.496 5  -1769136.39846  23140899.07446
  21389280.453 6   -813861.801 6   -614822.66847  21389275.95747
  22815674.813 3   -640364.449 3   -481788.86745  22815674.52345
  19987298.609 7  -1024760.469 7   -784985.02049  19987297.92249
  23453106.836 1    -32910.191 1                
 20  5 16  1 43 32.0000000  0  8G04G08G09G11G16G26G27G31            -0.000498430
  21295928.164 6  -1056170.188 6   -805907.04347  21295927.18847
  20492020.359 7  -1755027.727 7  -1341700.41449  20492020.23449
  22821863.922 4  -1087198.082 4   -939140.22747  22821862.39147
  23139562.289 5  -2385948.578 5  -1774622.18046  23139559.26246
  21388821.703 6   -816271.516 6   -616700.37547  21388817.09447
  22815308.477 4   -642290.840 4   -483289.94145  22815307.72345
  19986742.258 7  -1027685.039 7   -787263.89849  19986741.43049
  23452886.297 1    -34068.695 1                
 20  5 16  1 43 33.0000000  0  8G04G08G09G11G16G26G27G31            -0.000500746
  21295355.680 6  -1059176.371 6   -808249.52347  21295354.80547
  20491056.516 7  -1760092.559 7  -1345647.03549  20491056.15249
  22820930.563 4  -1092095.301 4   -942956.23447  22820930.15247
  23138223.055 5  -2392988.676 5  -1780107.95746  23138219.59846
  21388363.609 6   -818681.285 6   -618578.12147  21388358.80547
  22814940.578 4   -644217.359 4   -484791.12146  22814940.79346
  19986185.820 7  -1030609.184 7   -789542.45349  19986184.77749
  23452665.445 1    -35227.230 1                
 20  5 16  1 43 33.9990000  0  8G04G08G09G11G16G26G27G31             0.000496939
  21294783.909 6  -1062179.141 6   -810589.34847  21294783.58947
  20490093.487 6  -1765151.918 6  -1349589.38749  20490093.47249
  22820001.284 4  -1096987.155 4   -946768.07347  22819999.53847
  23136884.323 5  -2400021.848 5  -1785588.34446  23136880.84746
  21387905.675 6   -821088.766 6   -620454.08247  21387900.71447
  22814574.972 4   -646142.164 4   -486290.96946  22814574.35846
  19985630.183 7  -1033529.945 7   -791818.36749  19985629.15949
  23452444.940 1    -36384.340 1                
 20  5 16  1 43 34.9990000  0  8G04G08G09G11G16G26G27G31             0.000494623
  21294212.644 6  -1065184.320 6   -812931.03947  21294211.38247
  20489130.167 7  -1770215.824 7  -1353535.28949  20489129.94049
  22819068.917 4  -1101883.438 4   -950583.35547  22819067.35547
  23135544.792 5  -2407061.941 5  -1791074.14146  23135541.60846
  21387447.105 6   -823498.629 6   -622331.89147  21387441.99947
  22814207.987 3   -648068.836 3   -487792.28546  22814207.93746
  19985073.823 7  -1036453.078 7   -794096.13749  19985072.82749
  23452225.550 1    -37542.406 1                
 20  5 16  1 43 35.9990000  0  8G04G08G09G11G16G26G27G31             0.000492306
  21293640.480 6  -1068188.852 6   -815272.23047  21293640.26147
  20488166.448 6  -1775279.105 6  -1357480.70749  20488166.53449
  22818137.823 4  -1106779.063 4   -954398.12547  22818135.90147
  23134205.401 5  -2414101.836 5  -1796559.77046  23134201.74146
  21386987.792 6   -825908.367 6   -624209.60247  21386983.48747
  22813841.855 4   -649995.543 4   -489293.63346  22813841.26946
  19984517.480 7  -1039375.559 7   -796373.39549  19984516.54649
  23452005.987 1    -38700.215 1                
 20  5 16  1 43 36.9990000  0  8G04G08G09G11G16G26G27G31             0.000489990
  21293069.089 6  -1071192.785 6   -817612.96147  21293068.14047
  20487203.237 7  -1780341.852 7  -1361425.70349  20487203.15149
  22817205.800 4  -1111674.133 4   -958212.46947  22817204.77247
  23132865.714 5  -2421141.625 5  -1802045.31346  23132861.87446
  21386529.323 6   -828318.020 6   -626087.25047  21386524.87847
  22813475.120 4   -651922.199 4   -490794.93846  22813474.49946
  19983961.870 7  -1042297.449 7   -798650.18449  19983960.64749
  23451784.940 1    -39857.734 1                
 20  5 16  1 43 37.9990000  0  8G04G08G09G11G16G26G27G31             0.000487673
  21292497.097 6  -1074196.227 6   -819953.30147  21292496.69047
  20486239.956 7  -1785404.145 7  -1365370.34849  20486239.73049
  22816275.355 4  -1116568.723 4   -962026.43447  22816273.63647
  23131525.964 5  -2428181.441 5  -1807530.87546  23131522.42946
  21386070.886 6   -830727.734 6   -627964.93847  21386066.48047
  22813108.206 4   -653848.945 4   -492296.29346  22813107.90946
  19983405.667 7  -1045218.836 7   -800926.59049  19983404.60849
  23451565.011 1    -41015.078 1                
 20  5 16  1 43 38.9990000  0  8G04G08G09G11G16G26G27G31             0.000485357
  21291926.183 6  -1077199.074 6   -822293.16847  21291925.26147
  20485276.347 7  -1790465.863 7  -1369314.53149  20485276.58149
  22815343.917 4  -1121462.703 4   -965839.92247  22815342.49947
  23130186.300 5  -2435221.152 5  -1813016.34046  23130182.74546
  21385612.425 6   -833137.395 6   -629842.59046  21385608.11646
  22812741.987 4   -655775.738 4   -493797.64146  22812741.61246
  19982849.980 7  -1048139.645 7   -803202.53149  19982848.90949
  23451345.792 1    -42172.180 1                
 20  5 16  1 43 39.9990000  0  8G04G08G09G11G16G26G27G31             0.000483040
  21291355.042 6  -1080201.352 6   -824632.60247  21291353.98347
  20484313.190 6  -1795527.020 6  -1373258.28949  20484313.28449
  22814412.690 4  -1126356.195 4   -969653.03147  22814411.34347
  23128847.019 5  -2442260.762 5  -1818501.75446  23128843.53846
  21385154.081 6   -835547.004 6   -631720.19547  21385149.58547
  22812374.534 4   -657702.496 4   -495299.00446  22812374.48046
  19982294.105 7  -1051059.891 7   -805478.04349  19982293.25349
  23451125.472 1    -43329.004 1                
 20  5 16  1 43 40.9990000  0  8G04G08G09G11G16G26G27G31             0.000480724
  21290783.808 6  -1083203.160 6   -826971.66847  21290782.71847
  20483350.065 7  -1800587.777 7  -1377201.73449  20483350.34349
  22813482.183 4  -1131249.262 4   -973465.81347  22813480.32747
  23127507.370 5  -2449300.352 5  -1823987.15646  23127503.50346
  21384695.526 6   -837956.664 6   -633597.85546  21384691.12846
  22812007.800 4   -659629.438 4   -496800.51245  22812007.60845
  19981738.769 7  -1053979.648 7   -807753.17649  19981737.53449
  23450904.995 1    -44485.688 1                
 20  5 16  1 43 41.9990000  0  8G04G08G09G11G16G26G27G31             0.000478407
  21290212.136 6  -1086204.438 6   -829310.33247  21290211.34747
  20482387.269 6  -1805648.035 6  -1381144.79749  20482387.63649
  22812550.495 4  -1136141.762 4   -977278.15647  22812549.47247
  23126167.722 5  -2456339.953 5  -1829472.56646  23126163.91746
  21384236.698 6   -840366.348 6   -635475.53946  21384232.50346
  22811641.909 4   -661556.383 4   -498302.04745  22811641.39445
  19981183.042 7  -1056898.895 7   -810027.92249  19981181.98749
  23450684.472 1    -45642.121 1                
 20  5 16  1 43 42.9990000  0  8G04G08G09G11G16G26G27G31             0.000476089
  21289641.183 6  -1089205.082 6   -831648.50847  21289640.68347
  20481424.433 7  -1810707.727 7  -1385087.42249  20481424.21849
  22811619.698 5  -1141033.672 5   -981090.03547  22811618.59347
  23124828.628 5  -2463379.406 5  -1834957.87946  23124824.62446
  21383778.245 6   -842775.926 6   -637353.15247  21383774.30847
  22811274.995 4   -663483.379 4   -499803.60545  22811274.63645
  19980627.987 7  -1059817.508 7   -812302.17649  19980626.58949
  23450464.573 1    -46798.324 1                
 20  5 16  1 43 43.9990000  0  8G04G08G09G11G16G26G27G31             0.000473772
  21289070.433 6  -1092204.941 6   -833986.06347  21289069.85547
  20480461.847 7  -1815766.672 7  -1389029.46149  20480461.84749
  22810688.339 5  -1145924.844 5   -984901.34047  22810687.95647
  23123489.120 5  -2470418.535 5  -1840442.92246  23123484.89046
  21383319.589 6   -845185.246 6   -639230.53947  21383315.72247
  22810907.558 4   -665410.113 4   -501305.00445  22810907.82345
  19980072.589 7  -1062735.375 7   -814575.84049  19980071.47649
  23450245.175 1    -47954.125 1                
 20  5 16  1 43 44.9990000  0  8G04G08G09G11G16G26G27G31             0.000471457
  21288499.526 6  -1095204.363 6   -836323.28547  21288498.80447
  20479498.980 7  -1820825.195 7  -1392971.16849  20479499.23349
  22809757.878 4  -1150815.602 4   -988712.32447  22809757.16347
  23122149.058 5  -2477457.734 5  -1845928.00446  23122145.49946
  21382861.214 6   -847594.699 6   -641108.03147  21382857.37447
  22810541.519 4   -667336.988 4   -502806.48445  22810541.06245
  19979517.433 7  -1065652.770 7   -816849.14149  19979516.12449
  23450025.901 2    -49109.699 2                
 20  5 16  1 43 45.9990000  0  8G04G08G09G11G16G26G27G31             0.000469139
  21287929.183 6  -1098203.121 6   -838659.98447  21287928.28047
  20478536.448 7  -1825883.121 7  -1396912.41849  20478536.14449
  22808827.464 5  -1155705.727 5   -992522.81347  22808826.76147
  23120809.956 5  -2484496.727 5  -1851412.91846  23120806.16746
  21382402.972 6   -850003.988 6   -642985.39547  21382398.74147
  22810175.440 4   -669263.898 4   -504307.96946  22810174.60546
  19978962.550 7  -1068569.531 7   -819121.94149  19978961.24549
  23449805.870 2    -50265.020 2                
 20  5 16  1 43 46.9990000  0  8G04G08G09G11G16G26G27G31             0.000466824
  21287358.253 6  -1101201.371 6   -840996.27747  21287357.87847
  20477574.651 7  -1830940.547 7  -1400853.27049  20477573.77649
  22807897.636 5  -1160595.270 5   -996332.84448  22807895.89448
  23119470.714 5  -2491535.691 5  -1856897.82446  23119466.62046
  21381944.198 6   -852413.277 6   -644862.75847  21381940.09347
  22809808.144 4   -671190.813 4   -505809.44946  22809807.82746
  19978407.440 7  -1071485.750 7   -821394.32449  19978406.42949
  23449586.019 1    -51420.133 1                
 20  5 16  1 43 47.9990000  0  8G04G08G09G11G16G26G27G31             0.000464506
  21286787.605 6  -1104199.258 6   -843332.29747  21286787.29247
  20476612.261 7  -1835997.676 7  -1404793.89149  20476611.15149
  22806966.534 5  -1165484.577 5  -1000142.72547  22806966.15547
  23118131.355 4  -2498574.773 4  -1862382.84446  23118126.81546
  21381486.019 6   -854822.809 6   -646740.32446  21381481.48046
  22809442.190 4   -673118.039 4   -507311.21946  22809441.21446
  19977852.026 7  -1074401.645 7   -823666.45349  19977851.25349
  23449373.792 1    -52575.176 1                
 20  5 16  1 43 48.9990000  0  8G04G08G09G11G16G26G27G31             0.000462189
  21286217.261 6  -1107196.598 6   -845667.91047  21286216.71447
  20475650.394 7  -1841054.242 7  -1408734.07049  20475649.34349
  22806036.011 5  -1170373.359 5  -1003952.16447  22806036.68347
  23116792.190 4  -2505613.895 4  -1867867.91446  23116787.74146
  21381027.581 6   -857232.262 6   -648617.82046  21381023.08546
  22809075.862 4   -675045.098 4   -508812.86346  22809075.31246
  19977297.855 7  -1077316.992 7   -825938.15249  19977296.67549
  23449159.276 1    -53729.969 1                
 20  5 16  1 43 49.9990000  0  8G04G08G09G11G16G26G27G31             0.000459873
  21285647.706 6  -1110193.316 6   -848003.00047  21285647.06247
  20474687.315 7  -1846110.262 7  -1412673.81349  20474687.35549
  22805106.644 5  -1175261.492 5  -1007761.07847  22805106.70647
  23115452.878 6  -2512652.754 6  -1873352.71546  23115448.26546
  21380569.019 6   -859641.648 6   -650495.25047  21380564.45247
  22808707.956 3   -676972.320 3   -510314.57046  22808708.12846
  19976743.409 7  -1080231.699 7   -828209.34449  19976741.89449
  23448932.120 2    -54884.543 2                
 20  5 16  1 43 50.9990000  0  8G04G08G09G11G16G26G27G31             0.000457556
  21285077.198 6  -1113189.453 6   -850337.64147  21285076.74547
  20473725.745 7  -1851165.742 7  -1416613.15249  20473725.55049
  22804176.347 5  -1180149.125 5  -1011569.60948  22804176.05848
  23114113.300 5  -2519691.602 5  -1878837.51647  23114108.56947
  21380110.573 6   -862051.012 6   -652372.67247  21380105.87447
  22808341.495 4   -678899.555 4   -511816.29746  22808341.73046
  19976188.597 7  -1083145.859 7   -830480.11749  19976187.19449
  23448708.230 2    -56038.875 2                
 20  5 16  1 43 51.9990000  0  8G04G08G09G11G16G26G27G31             0.000455238
  21284507.261 6  -1116185.141 6   -852671.92647  21284506.33147
  20472763.784 7  -1856220.777 7  -1420552.13349  20472763.40549
  22803246.292 5  -1185036.328 5  -1015377.81648  22803246.24948
  23112773.456 6  -2526730.430 6  -1884322.28946  23112768.98046
  21379651.386 6   -864460.441 6   -654250.15247  21379647.63647
  22807974.581 4   -680826.863 4   -513318.07445  22807975.30445
  19975634.261 7  -1086059.543 7   -832750.52049  19975632.89749
  23448487.456 2    -57193.039 2                
 20  5 16  1 43 52.9990000  0  8G04G08G09G11G16G26G27G31             0.000452923
  21283937.347 6  -1119180.164 6   -855005.71147  21283936.52247
  20471801.940 7  -1861275.246 7  -1424490.68449  20471801.16749
  22802316.542 5  -1189922.915 5  -1019185.55748  22802316.05048
  23111433.315 6  -2533769.148 6  -1889807.00846  23111429.72246
  21379193.183 6   -866869.770 6   -656127.55947  21379189.01947
  22807607.589 3   -682754.168 3   -514819.84846  22807607.87046
  19975079.987 7  -1088972.641 7   -835020.45749  19975078.54649
  23448267.675 2    -58346.953 2                
 20  5 16  1 43 53.9990000  0  8G04G08G09G11G16G26G27G31             0.000450605
  21283367.542 6  -1122174.648 6   -857339.07447  21283366.99547
  20470840.269 7  -1866329.148 7  -1428428.78949  20470839.48749
  22801386.105 5  -1194808.938 5  -1022992.84048  22801386.60848
  23110094.628 6  -2540807.766 6  -1895291.64546  23110090.29246
  21378734.112 6   -869279.055 6   -658004.92647  21378731.08547
  22807241.011 4   -684681.492 4   -516321.65646  22807241.01546
  19974525.690 7  -1091885.148 7   -837289.94949  19974524.38649
  23448049.042 2    -59500.555 2                
 20  5 16  1 43 54.9990000  0  8G04G08G09G11G16G26G27G31             0.000448288
  21282797.831 6  -1125168.465 6   -859671.92647  21282797.13647
  20469878.784 7  -1871382.410 7  -1432366.39149  20469878.30049
  22800456.855 5  -1199694.316 5  -1026799.62948  22800456.86648
  23108754.722 5  -2547846.207 5  -1900776.14546  23108750.73746
  21378276.214 6   -871688.203 6   -659882.18047  21378272.51547
  22806874.425 4   -686608.695 4   -517823.36346  22806874.39446
  19973971.464 7  -1094796.977 7   -839558.90649  19973970.01549
  23447829.269 2    -60653.871 2                
 20  5 16  1 43 55.9990000  0  8G04G08G09G11G16G26G27G31             0.000445971
  21282227.573 6  -1128161.754 6   -862004.35547  21282227.35847
  20468917.128 7  -1876435.211 7  -1436303.63749  20468916.68349
  22799527.550 5  -1204579.188 5  -1030606.02048  22799527.62848
  23107415.730 5  -2554884.609 5  -1906260.62946  23107411.14046
  21377817.456 6   -874097.402 6   -661759.48847  21377814.40547
  22806507.784 4   -688536.074 4   -519325.22746  22806507.33546
  19973417.636 7  -1097708.324 7   -841827.49249  19973416.00349
  23447610.105 3    -61806.984 3                
 20  5 16  1 43 56.9990000  0  8G04G08G09G11G16G26G27G31             0.000443653
  21281658.105 6  -1131154.551 6   -864336.41047  21281657.99147
  20467955.167 7  -1881487.512 7  -1440240.49649  20467954.78449
  22798597.425 5  -1209463.652 5  -1034412.09448  22798598.20248
  23106077.105 6  -2561922.988 6  -1911745.08646  23106071.85846
  21377359.331 6   -876506.586 6   -663636.76247  21377355.86247
  22806141.206 4   -690463.480 4   -520827.10946  22806141.10546
  19972863.831 7  -1100619.160 7   -844095.68049  19972862.45249
  23447391.011 2    -62959.883 2                
 20  5 16  1 43 57.9990000  0  8G04G08G09G11G16G26G27G31             0.000441338
  21281088.792 6  -1134146.723 6   -866667.97747  21281088.24947
  20466994.214 7  -1886539.289 7  -1444176.95349  20466993.60549
  22797668.175 5  -1214347.445 5  -1038217.63748  22797668.76548
  23104737.605 6  -2568961.250 6  -1917229.44946  23104732.87846
  21376900.737 6   -878915.734 6   -665514.01647  21376897.63247
  22805774.370 4   -692390.891 4   -522328.99246  22805774.12846
  19972309.776 7  -1103529.410 7   -846363.40649  19972308.55849
  23447171.948 2    -64112.555 2                
 20  5 16  1 43 58.9990000  0  8G04G08G09G11G16G26G27G31             0.000439020
  21280519.526 6  -1137138.461 6   -868999.19947  21280519.03447
  20466033.167 7  -1891590.637 7  -1448113.05949  20466032.72649
  22796739.112 5  -1219230.791 5  -1042022.83748  22796739.07748
  23103397.464 6  -2575999.535 6  -1922713.82846  23103393.60546
  21376442.355 6   -881324.941 6   -667391.32047  21376438.89447
  22805407.831 4   -694318.461 4   -523830.99246  22805407.35146
  19971756.183 7  -1106439.160 7   -848630.74649  19971755.24549
  23446953.261 3    -65265.090 3                
 20  5 16  1 43 59.9990000  0  8G04G08G09G11G16G26G27G31             0.000436703
  21279950.558 6  -1140129.570 6   -871329.93047  21279950.17947
  20465071.956 7  -1896641.414 7  -1452048.73849  20465071.15949
  22795809.847 5  -1224113.641 5  -1045827.65648  22795810.56248
  23102058.394 6  -2583037.636 6  -1928198.05246  23102054.08946
  21375982.917 5   -883734.043 5   -669268.53947  21375981.00747
  22805040.948 4   -696245.953 4   -525332.94146  22805040.48746
  19971202.706 7  -1109348.316 7   -850897.62149  19971201.80849
  23446733.730 3    -66417.281 3                
 20  5 16  1 44  0.9990000  0  8G04G08G09G11G16G26G27G31             0.000434385
  21279381.487 6  -1143120.078 6   -873660.19947  21279380.87047
  20464110.730 7  -1901691.621 7  -1455983.95749  20464110.29249
  22794880.698 5  -1228995.871 5  -1049631.99248  22794881.32348
  23100719.636 6  -2590075.695 6  -1933682.25046  23100715.22646
  21375525.222 6   -886143.090 6   -671145.71546  21375522.19046
  22804673.815 4   -698173.488 4   -526834.91846  22804673.73046
  19970648.839 7  -1112256.875 7   -853164.03149  19970647.94849
  23446514.409 3    -67569.219 3                
 20  5 16  1 44  1.9990000  0  8G04G08G09G11G16G26G27G31             0.000432068
  21278812.433 6  -1146110.094 6   -875990.08647  21278811.92547
  20463149.987 7  -1906741.375 7  -1459918.82849  20463149.50749
  22793952.300 5  -1233877.641 5  -1053435.97348  22793951.97648
  23099380.394 6  -2597113.742 6  -1939166.43446  23099375.36246
  21375066.753 6   -888552.203 6   -673022.94147  21375063.57347
  22804307.355 4   -700101.059 4   -528336.93446  22804307.12446
  19970096.019 7  -1115164.980 7   -855430.08649  19970094.46849
  23446295.440 3    -68721.023 3                
 20  5 16  1 44  2.9990000  0  8G04G08G09G11G16G26G27G31             0.000429750
  21278243.855 6  -1149099.668 6   -878319.62547  21278242.86247
  20462189.198 7  -1911790.723 7  -1463853.39149  20462188.36649
  22793023.261 5  -1238758.977 5  -1057239.60248  22793023.49148
  23098041.331 6  -2604151.813 6  -1944650.64846  23098036.02646
  21374608.456 6   -890961.379 6   -674900.22347  21374605.43347
  22803940.987 4   -702028.815 4   -529839.10046  22803939.85846
  19969542.605 7  -1118072.621 7   -857695.78149  19969541.09749
  23446075.261 2    -69872.660 2                
 20  5 16  1 44  3.9990000  0  8G04G08G09G11G16G26G27G31             0.000427433
  21277675.370 6  -1152088.672 6   -880648.72347  21277674.11647
  20461228.269 7  -1916839.551 7  -1467787.54749  20461227.75349
  22792093.847 5  -1243639.782 5  -1061042.82448  22792095.11648
  23096701.370 6  -2611189.816 6  -1950134.80546  23096696.80046
  21374150.534 6   -893370.563 6   -676777.51647  21374146.63647
  22803573.651 4   -703956.648 4   -531341.29746  22803573.31946
  19968988.886 7  -1120979.719 7   -859961.05149  19968987.71849
  23445857.019 3    -71024.129 3                
 20  5 16  1 44  4.9990000  0  8G04G08G09G11G16G26G27G31             0.000425116
  21277106.448 6  -1155077.117 6   -882977.38347  21277105.46447
  20460267.909 7  -1921887.852 7  -1471721.27349  20460267.28049
  22791164.581 5  -1248520.026 5  -1064845.60348  22791166.14448
  23095362.425 6  -2618227.695 6  -1955618.88346  23095357.78046
  21373691.792 6   -895779.668 6   -678654.74247  21373688.57747
  22803206.503 4   -705884.449 4   -532843.49246  22803206.13646
  19968436.269 7  -1123886.230 7   -862225.86349  19968434.90949
  23445637.690 2    -72175.305 2                
 20  5 16  1 44  5.9990000  0  8G04G08G09G11G16G26G27G31             0.000422798
  21276537.933 6  -1158064.953 6   -885305.56647  21276536.91347
  20459307.487 7  -1926935.578 7  -1475654.57049  20459306.74549
  22790235.855 5  -1253399.758 5  -1068647.98448  22790237.63248
  23094022.862 6  -2625265.512 6  -1961102.90246  23094018.11646
  21373233.003 6   -898188.727 6   -680531.94147  21373230.19047
  22802839.948 4   -707812.324 4   -534345.71946  22802839.39446
  19967882.909 7  -1126792.188 7   -864490.24249  19967882.06549
  23445418.097 2    -73326.254 2                
 20  5 16  1 44  6.9990000  0  8G04G08G09G11G16G26G27G31             0.000420481
  21275969.050 6  -1161052.273 6   -887633.35547  21275968.24947
  20458346.644 7  -1931982.789 7  -1479587.46949  20458345.98349
  22789307.909 5  -1258278.934 5  -1072449.93048  22789308.80448
  23092683.753 6  -2632303.230 6  -1966586.82446  23092679.34746
  21372775.105 6   -900597.746 6   -682409.10247  21372772.28447
  22802473.339 4   -709740.171 4   -535847.93546  22802472.73046
  19967330.120 7  -1129697.551 7   -866754.16449  19967329.03849
  23445199.175 2    -74476.961 2                
 20  5 16  1 44  7.9990000  0  8G04G08G09G11G16G26G27G31             0.000418163
  21275400.909 6  -1164039.059 6   -889960.70747  21275399.76147
  20457386.503 7  -1937029.555 7  -1483520.01249  20457385.32749
  22788379.448 5  -1263157.633 5  -1076251.51248  22788380.53848
  23091343.956 6  -2639340.934 6  -1972070.73846  23091339.97246
  21372316.698 6   -903006.824 6   -684286.30547  21372313.32347
  22802106.042 4   -711668.137 4   -537350.25446  22802106.49146
  19966777.230 7  -1132602.465 7   -869017.73849  19966776.42949
  23444979.237 2    -75627.508 2                
 20  5 16  1 44  8.9990000  0  8G04G08G09G11G16G26G27G31             0.000415846
  21274832.784 6  -1167025.340 6   -892287.68047  21274831.58947
  20456426.136 7  -1942075.813 7  -1487452.16049  20456425.18349
  22787451.417 5  -1268035.824 5  -1080052.69948  22787452.53048
  23090005.542 6  -2646378.602 6  -1977554.63747  23090000.93347
  21371858.565 6   -905415.926 6   -686163.52747  21371854.83947
  22801739.011 4   -713596.133 4   -538852.57846  22801739.61646
  19966224.690 7  -1135506.828 7   -871280.87549  19966223.84349
  23444760.409 2    -76777.852 2                
 20  5 16  1 44  9.9990000  0  8G04G08G09G11G16G26G27G31             0.000413528
  21274264.636 6  -1170011.035 6   -894614.19147  21274263.33947
  20455466.050 7  -1947121.586 7  -1491383.93049  20455464.83549
  22786523.065 5  -1272913.477 5  -1083853.46948  22786523.95248
  23088666.495 6  -2653416.207 6  -1983038.48846  23088661.39746
  21371400.026 6   -907824.988 6   -688040.71947  21371396.67947
  22801372.573 4   -715524.215 4   -540354.98046  22801372.56546
  19965671.987 7  -1138410.641 7   -873543.59049  19965671.21449
  23444541.245 2    -77927.984 2                
 20  5 16  1 44 10.9990000  0  8G04G08G09G11G16G26G27G31             0.000411211
  21273696.730 6  -1172996.387 6   -896940.44547  21273695.24547
  20454505.792 7  -1952166.961 7  -1495315.39549  20454504.61649
  22785595.214 5  -1277790.723 5  -1087653.91448  22785595.97648
  23087327.183 6  -2660453.859 6  -1988522.35946  23087322.28446
  21370941.401 6   -910234.172 6   -689918.00447  21370938.07747
  22801004.714 4   -717452.473 4   -541857.52746  22801005.54246
  19965119.808 7  -1141314.098 7   -875806.02349  19965118.46849
  23444322.573 2    -79078.027 2                
 20  5 16  1 44 11.9990000  0  8G04G08G09G11G16G26G27G31             0.000408894
  21273128.456 6  -1175981.102 6   -899266.19947  21273127.13247
  20453545.792 7  -1957211.781 7  -1499246.42249  20453544.94049
  22784666.651 5  -1282667.453 5  -1091453.95748  22784668.12048
  23085987.464 6  -2667491.441 6  -1994006.19146  23085983.12846
  21370482.511 6   -912643.316 6   -691795.26647  21370479.47247
  22800638.315 4   -719380.750 4   -543360.07846  22800638.86646
  19964566.722 7  -1144216.926 7   -878067.96549  19964566.20249
  23444104.667 2    -80227.824 2                
 20  5 16  1 44 12.9990000  0  8G04G08G09G11G16G26G27G31             0.000406576
  21272560.550 6  -1178965.355 6   -901591.59447  21272559.46447
  20452586.065 7  -1962256.148 7  -1503177.09449  20452585.00349
  22783738.698 5  -1287543.688 5  -1095253.62148  22783739.99148
  23084648.378 6  -2674529.031 6  -1999490.03146  23084643.91346
  21370023.909 6   -915052.504 6   -693672.55547  21370021.21047
  22800271.073 4   -721309.129 4   -544862.71546  22800271.62446
  19964014.714 7  -1147119.301 7   -880329.55949  19964013.73749
  23443886.456 2    -81377.434 2                
 20  5 16  1 44 13.9990000  0  8G04G08G09G11G16G26G27G31             0.000404257
  21271992.808 6  -1181949.195 6   -903916.66847  21271991.46847
  20451626.089 7  -1967300.172 7  -1507107.50049  20451625.23349
  22782811.089 5  -1292419.516 5  -1099052.96948  22782812.65548
  23083309.050 6  -2681566.664 6  -2004973.90246  23083304.59746
  21369565.956 6   -917461.824 6   -695549.94547  21369562.10547
  22799904.480 4   -723237.691 4   -546365.50846  22799904.55046
  19963462.370 7  -1150021.281 7   -882590.84049  19963461.50349
  23443667.464 1    -82526.996 1                
 20  5 16  1 44 14.9990000  0  8G04G08G09G11G16G26G27G31             0.000401939
  21271424.980 6  -1184932.410 6   -906241.25447  21271423.73347
  20450666.136 7  -1972343.598 7  -1511037.44549  20450665.35149
  22781883.394 5  -1297294.832 5  -1102851.90648  22781884.97648
  23081970.128 6  -2688604.160 6  -2010457.66847  23081965.91747
  21369107.355 6   -919871.027 6   -697427.25047  21369104.18747
  22799537.206 4   -725166.219 4   -547868.25846  22799537.40946
  19962910.464 7  -1152922.613 7   -884851.61749  19962909.65149
  23443448.323 2    -83676.230 2                
 20  5 16  1 44 15.9990000  0  8G04G08G09G11G16G26G27G31             0.000399622
  21270857.503 6  -1187915.051 6   -908565.39147  21270856.00747
  20449706.675 7  -1977386.457 7  -1514966.94149  20449705.93349
  22780956.073 5  -1302169.539 5  -1106650.37948  22780957.44848
  23080630.487 6  -2695641.570 6  -2015941.35547  23080626.56547
  21368648.776 6   -922280.207 6   -699304.54347  21368645.85847
  22799170.159 4   -727094.789 4   -549371.03946  22799170.51146
  19962358.292 7  -1155823.398 7   -887111.96549  19962357.88249
  23443229.292 1    -84825.250 1                
 20  5 16  1 44 16.9990000  0  8G04G08G09G11G16G26G27G31             0.000397305
  21270290.237 6  -1190897.129 6   -910889.08647  21270288.60547
  20448746.964 7  -1982428.813 7  -1518896.05549  20448746.13649
  22780027.894 4  -1307043.707 4  -1110448.42248  22780030.03448
  23079292.011 6  -2702678.887 6  -2021424.97747  23079287.63647
  21368190.136 6   -924689.363 6   -701181.80547  21368187.06947
  22798802.925 4   -729023.355 4   -550873.82046  22798803.81946
  19961806.675 7  -1158723.602 7   -889371.87149  19961805.51149
  23443010.331 2    -85974.043 2                
 20  5 16  1 44 17.9990000  0  8G04G08G09G11G16G26G27G31             0.000394985
  21269722.394 6  -1193878.641 6   -913212.34047  21269721.25347
  20447787.698 7  -1987470.645 7  -1522824.74649  20447786.74949
  22779101.151 5  -1311917.340 5  -1114246.05948  22779102.74148
  23077952.394 6  -2709716.141 6  -2026908.54347  23077947.79647
  21367731.823 6   -927098.488 6   -703059.04347  21367728.58547
  22798435.886 4   -730951.953 4   -552376.62546  22798436.64746
  19961254.683 7  -1161623.270 7   -891631.34849  19961253.76549
  23442791.558 1    -87122.563 1                
 20  5 16  1 44 18.9990000  0  8G04G08G09G11G16G26G27G31             0.000392668
  21269155.386 6  -1196859.648 6   -915535.19947  21269154.17947
  20446828.472 7  -1992512.000 7  -1526753.08249  20446827.30449
  22778173.394 5  -1316790.480 5  -1118043.31648  22778175.16748
  23076613.550 6  -2716753.363 6  -2032392.10546  23076609.41346
  21367273.636 6   -929507.664 6   -704936.32047  21367269.86247
  22798068.776 4   -732880.695 4   -553879.54346  22798069.71446
  19960702.878 7  -1164522.434 7   -893890.44149  19960701.89749
  23442572.940 1    -88270.918 1                
 20  5 16  1 44 19.9990000  0  8G04G08G09G11G16G26G27G31             0.000390350
  21268588.503 6  -1199840.195 6   -917857.70347  21268586.86647
  20445868.855 7  -1997552.945 7  -1530681.09049  20445867.69849
  22777246.425 4  -1321663.191 4  -1121840.23048  22777247.76948
  23075274.698 6  -2723790.617 6  -2037875.67647  23075270.37047
  21366815.323 6   -931916.879 6   -706813.63747  21366811.65147
  22797702.269 4   -734809.504 4   -555382.49646  22797702.57346
  19960151.440 7  -1167421.145 7   -896149.16849  19960150.76949
  23442354.706 1    -89419.086 1                
 20  5 16  1 44 20.9990000  0  8G04G08G09G11G16G26G27G31             0.000388033
  21268020.870 6  -1202820.242 6   -920179.80947  21268019.83547
  20444909.706 7  -2002593.406 7  -1534608.71549  20444908.76149
  22776319.394 4  -1326535.406 4  -1125636.75648  22776320.40548
  23073935.011 6  -2730827.840 6  -2043359.22347  23073930.71047
  21366356.464 6   -934326.109 6   -708690.96547  21366353.20647
  22797335.120 4   -736738.438 4   -556885.56646  22797335.38646
  19959600.058 7  -1170319.367 7   -898407.52749  19959598.91749
  23442136.222 1    -90567.227 1                
 20  5 16  1 44 21.9990000  0  8G04G08G09G11G16G26G27G31             0.000385714
  21267454.128 6  -1205799.617 6   -922501.40647  21267452.80047
  20443950.745 7  -2007633.227 7  -1538535.85249  20443949.57749
  22775391.675 4  -1331407.008 4  -1129432.80947  22775393.23747
  23072596.480 6  -2737864.859 6  -2048842.61347  23072591.83147
  21365898.448 6   -936735.246 6   -710568.21147  21365894.75347
  22796968.026 4   -738667.293 4   -558388.57446  22796968.56246
  19959048.565 7  -1173216.906 7   -900665.34449  19959047.51549
  23441917.886 1    -91714.914 1                
 20  5 16  1 44 22.9990000  0  8G04G08G09G11G16G26G27G31             0.000383396
  21266887.581 6  -1208778.379 6   -924822.52347  21266885.92147
  20442992.097 7  -2012672.457 7  -1542462.52349  20442990.96849
  22774465.136 4  -1336277.996 4  -1133228.38347  22774466.94047
  23071256.495 6  -2744901.770 6  -2054325.91847  23071252.56547
  21365439.831 6   -939144.270 6   -712445.36747  21365436.83147
  22796601.347 4   -740596.105 4   -559891.53946  22796601.26146
  19958497.198 7  -1176113.820 7   -902922.68449  19958496.52249
  23441700.128 1    -92862.273 1                
 20  5 16  1 44 23.9990000  0  8G04G08G09G11G16G26G27G31             0.000381077
  21266320.355 6  -1211756.648 6   -927143.25447  21266319.31547
  20442032.792 7  -2017711.293 7  -1546388.89549  20442031.82349
  22773538.409 4  -1341148.566 4  -1137023.62248  22773539.56948
  23069918.034 6  -2751938.648 6  -2059809.19947  23069913.55847
  21364981.175 6   -941553.371 6   -714322.60247  21364978.32347
  22796233.519 4   -742525.051 4   -561394.59846  22796234.03846
  19957945.956 7  -1179010.301 7   -905179.68449  19957945.18349
  23441480.776 1    -94009.559 1                
 20  5 16  1 44 24.9990000  0  8G04G08G09G11G16G26G27G31             0.000378759
  21265754.300 6  -1214734.328 6   -929463.52747  21265752.55447
  20441074.190 7  -2022749.512 7  -1550314.77749  20441072.71849
  22772611.737 4  -1346018.469 4  -1140818.35948  22772613.28048
  23068579.034 6  -2758975.410 6  -2065292.38347  23068574.30047
  21364523.112 6   -943962.391 6   -716199.75447  21364519.92147
  22795866.597 4   -744453.957 4   -562897.64546  22795867.21046
  19957395.105 7  -1181906.141 7   -907436.18849  19957393.92549
  23441262.425 1    -95156.566 1                
 20  5 16  1 44 25.9990000  0  8G04G08G09G11G16G26G27G31             0.000376442
  21265187.480 6  -1217711.535 6   -931783.42247  21265186.29247
  20440115.339 7  -2027787.359 7  -1554240.37149  20440114.40549
  22771684.940 4  -1350887.969 4  -1144612.77348  22771686.27248
  23067239.542 6  -2766012.195 6  -2070775.59847  23067235.18347
  21364064.901 6   -946371.480 6   -718076.96547  21364061.24547
  22795499.722 4   -746383.012 4   -564400.82846  22795499.84346
  19956844.097 7  -1184801.559 7   -909692.35249  19956842.76949
  23441044.612 1    -96303.402 1                
 20  5 16  1 44 26.9990000  0  8G04G08G09G11G16G26G27G31             0.000374123
  21264620.925 6  -1220688.309 6   -934102.99247  21264619.33547
  20439156.855 7  -2032824.789 7  -1558165.64549  20439155.77249
  22770758.542 4  -1355757.016 4  -1148406.82448  22770759.78848
  23065900.480 6  -2773049.023 6  -2076258.84447  23065896.31547
  21363606.050 6   -948780.656 6   -719954.24647  21363602.84747
  22795132.753 4   -748312.168 4   -565904.05546  22795132.86246
  19956293.105 7  -1187696.504 7   -911948.16049  19956292.30449
  23440825.698 1    -97450.148 1                
 20  5 16  1 44 27.9990000  0  8G04G08G09G11G16G26G27G31             0.000371805
  21264054.597 6  -1223664.574 6   -936422.16047  21264053.36247
  20438198.190 7  -2037861.738 7  -1562090.53549  20438197.14749
  22769831.698 4  -1360625.660 4  -1152200.58647  22769833.08947
  23064561.964 6  -2780085.809 6  -2081742.04747  23064557.39447
  21363147.417 6   -951189.855 6   -721831.54747  21363144.64447
  22794765.894 4   -750241.520 4   -567407.44946  22794765.51146
  19955742.128 7  -1190590.965 7   -914203.58249  19955741.06949
  23440608.487 1    -98596.688 1                
 20  5 16  1 44 28.9990000  0  8G04G08G09G11G16G26G27G31             0.000369486
  21263488.597 6  -1226640.242 6   -938740.85547  21263486.92147
  20437239.995 6  -2042898.117 6  -1566014.98849  20437238.53049
  22768905.761 5  -1365493.684 5  -1155993.85247  22768906.69447
  23063222.784 6  -2787122.512 6  -2087225.18447  23063218.11247
  21362689.417 6   -953599.000 6   -723708.80547  21362685.62847
  22794398.565 4   -752170.793 4   -568910.77746  22794398.66346
  19955191.394 7  -1193484.855 7   -916458.56349  19955190.69049
  23440389.800 1    -99742.965 1                
 20  5 16  1 44 29.9990000  0  8G04G08G09G11G16G26G27G31             0.000367168
  21262922.730 6  -1229615.336 6   -941059.10247  21262920.64447
  20436281.636 7  -2047933.938 7  -1569938.99649  20436280.49549
  22767979.659 5  -1370361.125 5  -1159786.66447  22767980.40147
  23061883.909 6  -2794159.113 6  -2092708.23447  23061879.13247
  21362230.940 6   -956008.109 6   -725586.03147  21362227.89447
  22794032.042 4   -754100.125 4   -570414.14846  22794031.64746
  19954641.151 7  -1196378.148 7   -918713.07049  19954640.24549
  23440171.230 1   -100889.105 1                
 20  5 16  1 44 30.9990000  0  8G04G08G09G11G16G26G27G31             0.000364849
  21262356.190 6  -1232589.895 6   -943376.94147  21262354.50347
  20435323.355 7  -2052969.281 7  -1573862.64549  20435322.01549
  22767053.315 4  -1375228.098 4  -1163579.10948  22767054.31548
  23060544.683 6  -2801195.641 6  -2098191.24247  23060540.74147
  21361772.636 6   -958417.176 6   -727463.23047  21361769.48347
  22793664.136 4   -756029.512 4   -571917.56646  22793664.48346
  19954090.292 7  -1199270.918 7   -920967.18049  19954089.56249
  23439953.886 1   -102034.859 1                
 20  5 16  1 44 31.9990000  0  8G04G08G09G11G16G26G27G31             0.000362532
  21261790.722 6  -1235563.918 6   -945694.36747  21261788.46447
  20434365.503 6  -2058004.125 6  -1577785.89849  20434363.97249
  22766127.198 4  -1380094.543 4  -1167371.13747  22766128.08547
  23059205.292 6  -2808232.105 6  -2103674.20746  23059200.78846
  21361313.964 6   -960826.262 6   -729340.44147  21361311.38647
  22793297.925 4   -757958.906 4   -573420.98846  22793297.26546
  19953540.425 7  -1202163.152 7   -923220.86749  19953539.25349
  23439735.800 1   -103180.527 1                
 20  5 16  1 44 32.9990000  0  8G04G08G09G11G16G26G27G31             0.000360212
  21261224.605 6  -1238537.387 6   -948011.35947  21261222.52647
  20433407.487 7  -2063038.445 7  -1581708.74249  20433406.34349
  22765201.011 5  -1384960.453 5  -1171162.75447  22765202.00747
  23057866.394 6  -2815268.512 6  -2109157.10947  23057861.99947
  21360855.698 6   -963235.352 6   -731217.66046  21360852.62046
  22792930.300 4   -759888.379 4   -574924.48046  22792930.20646
  19952989.878 7  -1205054.852 7   -925474.14149  19952988.97649
  23439517.698 1   -104325.859 1                
 20  5 16  1 44 33.9990000  0  8G04G08G09G11G16G26G27G31             0.000357893
  21260658.636 6  -1241510.328 6   -950327.93447  21260657.08947
  20432449.417 7  -2068072.270 7  -1585631.19949  20432447.65949
  22764276.815 5  -1389825.846 5  -1174953.97047  22764276.31547
  23056527.534 6  -2822304.879 6  -2114640.00047  23056523.64047
  21360397.456 6   -965644.402 6   -733094.83647  21360394.42147
  22792562.855 4   -761817.867 4   -576428.00046  22792563.37846
  19952439.495 7  -1207946.020 7   -927727.00449  19952439.08549
  23439299.565 1   -105471.074 1                
 20  5 16  1 44 34.9990000  0  8G04G08G09G11G16G26G27G31             0.000355576
  21260093.261 6  -1244482.785 6   -952644.13347  21260091.28847
  20431491.667 6  -2073105.637 6  -1589553.30549  20431490.03449
  22763350.714 5  -1394690.797 5  -1178744.84047  22763350.64447
  23055188.331 6  -2829341.203 6  -2120122.84847  23055184.37047
  21359938.933 6   -968053.535 6   -734972.08247  21359935.81547
  22792196.128 4   -763747.475 4   -577931.58446  22792196.03846
  19951889.565 7  -1210836.703 7   -929979.48049  19951888.89449
  23439082.261 1   -106616.133 1                
 20  5 16  1 44 35.9990000  0  8G04G08G09G11G16G26G27G31             0.000353256
  21259527.753 6  -1247454.855 6   -954960.03147  21259525.67947
  20430533.636 7  -2078138.668 7  -1593475.14849  20430532.27249
  22762424.487 5  -1399555.367 5  -1182535.41847  22762424.27247
  23053849.792 6  -2836377.641 6  -2125605.78547  23053845.70247
  21359480.230 6   -970462.813 6   -736849.43447  21359477.18347
  22791828.480 4   -765677.359 4   -579435.37946  22791828.72246
  19951339.284 7  -1213727.031 7   -932231.68849  19951338.82749
  23438863.933 1   -107761.074 1                
 20  5 16  1 44 36.9990000  0  8G04G08G09G11G16G26G27G31             0.000350937
  21258962.308 6  -1250426.293 6   -957275.44147  21258960.30447
  20429576.120 7  -2083171.094 7  -1597396.52049  20429574.46449
  22761498.980 5  -1404419.387 5  -1186325.56347  22761498.60547
  23052510.784 6  -2843413.926 6  -2131088.60947  23052506.40147
  21359021.644 6   -972871.984 6   -738726.71547  21359018.58547
  22791461.878 4   -767607.145 4   -580939.10546  22791461.44846
  19950789.855 7  -1216616.727 7   -934483.39549  19950788.65949
  23438645.417 1   -108905.820 1                
 20  5 16  1 44 37.9990000  0  8G04G08G09G11G16G26G27G31             0.000348619
  21258397.097 6  -1253397.102 6   -959590.35547  21258395.21847
  20428618.808 7  -2088202.926 7  -1601317.42649  20428617.40149
  22760573.144 5  -1409282.711 5  -1190115.15647  22760573.28047
  23051171.784 6  -2850450.039 6  -2136571.29347  23051167.74947
  21358563.222 6   -975281.043 6   -740603.90647  21358560.66747
  22791095.050 4   -769536.906 4   -582442.79746  22791094.95646
  19950239.980 7  -1219505.766 7   -936734.59849  19950239.10149
  23438427.956 1   -110050.141 1                
 20  5 16  1 44 38.9990000  0  8G04G08G09G11G16G26G27G31             0.000346300
  21257831.433 6  -1256367.320 6   -961904.80947  21257830.08147
  20427661.276 6  -2093234.215 6  -1605237.90649  20427659.64049
  22759647.948 5  -1414145.516 5  -1193904.35247  22759648.04647
  23049832.855 6  -2857486.078 6  -2142053.91447  23049828.83547
  21358104.698 6   -977690.059 6   -742481.06647  21358102.01547
  22790727.487 4   -771466.660 4   -583946.51246  22790727.61646
  19949690.331 7  -1222394.266 7   -938985.37949  19949689.58549
  23438209.175 1   -111194.297 1                
 20  5 16  1 44 39.9990000  0  8G04G08G09G11G16G26G27G31             0.000343981
  21257266.620 6  -1259337.129 6   -964218.94547  21257264.82347
  20426703.956 7  -2098265.125 7  -1609158.09849  20426701.83149
  22758722.800 5  -1419007.938 5  -1197693.25447  22758722.87447
  23048494.198 6  -2864522.152 6  -2147536.57447  23048489.87447
  21357646.675 6   -980099.188 6   -744358.31347  21357643.63647
  22790360.440 5   -773396.587 5   -585450.36946  22790360.18746
  19949140.722 7  -1225282.320 7   -941235.80549  19949139.89049
  23437991.308 1   -112338.285 1                
 20  5 16  1 44 40.9990000  0  8G04G08G09G11G16G26G27G31             0.000341661
  21256701.175 6  -1262306.383 6   -966532.65247  21256699.73047
  20425746.847 7  -2103295.527 7  -1613077.89149  20425744.89449
  22757797.870 5  -1423869.789 5  -1201481.70347  22757797.30047
  23047154.956 6  -2871558.156 6  -2153019.16847  23047151.11247
  21357188.144 6   -982508.266 6   -746235.51247  21357185.56547
  22789992.198 5   -775326.633 5   -586954.28546  22789993.00346
  19948591.190 7  -1228169.848 7   -943485.83249  19948590.00349
  23437773.542 1   -113481.980 1                
 20  5 16  1 44 41.9990000  0  8G04G08G09G11G16G26G27G31             0.000339344
  21256136.698 6  -1265275.078 6   -968845.91847  21256134.79647
  20424789.550 7  -2108325.363 7  -1616997.24649  20424787.56949
  22756873.112 5  -1428731.063 5  -1205269.70747  22756871.95647
  23045816.558 6  -2878594.055 6  -2158501.68047  23045812.29247
  21356729.894 6   -984917.320 6   -748112.69547  21356727.04647
  22789625.565 5   -777256.602 5   -588458.14146  22789626.36646
  19948042.081 7  -1231056.813 7   -945735.41449  19948040.73749
  23437555.261 1   -114625.547 1                
 20  5 16  1 44 42.9990000  0  8G04G08G09G11G16G26G27G31             0.000337025
  21255571.628 6  -1268243.094 6   -971158.66447  21255570.11247
  20423832.253 7  -2113354.566 7  -1620916.10549  20423830.77649
  22755946.987 5  -1433591.727 5  -1209057.23747  22755947.08947
  23044477.581 6  -2885629.793 6  -2163984.07447  23044473.55447
  21356271.190 6   -987326.250 6   -749989.78147  21356268.67147
  22789258.448 5   -779186.543 5   -589961.98846  22789258.80046
  19947492.769 7  -1233943.094 7   -947984.46549  19947491.39749
  23437338.034 1   -115768.738 1                
 20  5 16  1 44 43.9990000  0  8G04G08G09G11G16G26G27G31             0.000334705
  21255007.003 6  -1271210.566 6   -973470.98447  21255005.08947
  20422875.355 7  -2118383.277 7  -1624834.58249  20422873.85549
  22755023.214 5  -1438451.910 5  -1212844.39847  22755022.18747
  23043138.581 6  -2892665.465 6  -2169466.41447  23043134.55447
  21355813.050 6   -989735.160 6   -751866.85947  21355810.12447
  22788891.120 5   -781116.527 5   -591465.87946  22788891.81246
  19946943.526 7  -1236828.852 7   -950233.10949  19946942.59349
  23437120.659 1   -116911.742 1                
 20  5 16  1 44 44.9990000  0  8G04G08G09G11G16G26G27G31             0.000332388
  21254442.792 6  -1274177.453 6   -975782.84047  21254440.94447
  20421918.394 7  -2123411.453 7  -1628752.64549  20421916.94049
  22754098.323 5  -1443311.523 5  -1216631.11347  22754097.55847
  23041799.362 6  -2899701.023 6  -2174948.66847  23041795.48747
  21355354.448 6   -992144.031 6   -753743.91047  21355351.64047
  22788523.331 5   -783046.512 5   -592969.77346  22788524.27646
  19946394.448 7  -1239714.031 7   -952481.30149  19946393.61249
  23436902.464 1   -118054.438 1                
 20  5 16  1 44 45.9990000  0  8G04G08G09G11G16G26G27G31             0.000330069
  21253878.315 6  -1277143.719 6   -978094.22347  21253875.87847
  20420962.081 6  -2128439.004 6  -1632670.21149  20420960.32349
  22753173.737 5  -1448170.480 5  -1220417.31347  22753172.70247
  23040460.730 6  -2906736.430 6  -2180430.80547  23040456.68347
  21354896.534 6   -994552.797 6   -755620.86746  21354893.26146
  22788156.550 4   -784976.457 4   -594473.62546  22788157.02246
  19945845.542 7  -1242598.586 7   -954729.00849  19945844.64449
  23436684.894 1   -119196.891 1                
 20  5 16  1 44 46.9990000  0  8G04G08G09G11G16G26G27G31             0.000327749
  21253313.433 6  -1280109.438 6   -980405.17247  21253311.69047
  20420005.081 6  -2133466.063 6  -1636587.40249  20420003.15949
  22752248.980 5  -1453028.914 5  -1224203.10247  22752247.66747
  23039122.628 6  -2913771.754 6  -2185912.86747  23039118.51547
  21354438.026 6   -996961.547 6   -757497.82047  21354435.12847
  22787788.995 5   -786906.457 5   -595977.50846  22787790.37446
  19945296.714 7  -1245482.602 7   -956976.28949  19945295.64749
  23436467.784 1   -120339.137 1                
 20  5 16  1 44 47.9990000  0  8G04G08G09G11G16G26G27G31             0.000325428
  21252749.175 6  -1283074.637 6   -982715.71947  21252747.15947
  20419048.831 6  -2138492.625 6  -1640504.20349  20419047.28849
  22751324.698 5  -1457886.871 5  -1227988.52747  22751323.33147
  23037783.612 6  -2920807.039 6  -2191394.91047  23037779.26147
  21353979.573 6   -999370.320 6   -759374.79347  21353976.87047
  22787421.815 5   -788836.543 5   -597481.46546  22787422.75346
  19944747.878 7  -1248366.098 7   -959223.16849  19944746.96449
  23436250.57311                                
 20  5 16  1 44 48.9990000  0  8G04G08G09G11G16G26G27G31             0.000323109
  21252185.065 6  -1286039.285 6   -985025.83247  21252182.89447
  20418092.042 6  -2143518.688 6  -1644420.60949  20418090.42949
  22750400.315 5  -1462744.305 5  -1231773.54347  22750398.88247
  23036444.417 6  -2927842.258 6  -2196876.88747  23036440.26147
  21353520.792 6  -1001779.090 6   -761251.75447  21353518.37847
  22787054.651 5   -790766.629 5   -598985.43446  22787055.72646
  19944199.487 7  -1251249.070 7   -961469.64149  19944198.69049
  23436033.16711                                
 20  5 16  1 44 49.9990000  0  8G04G08G09G11G16G26G27G31             0.000320789
  21251621.151 6  -1289003.355 6   -987335.50047  21251619.19047
  20417135.519 6  -2148544.215 6  -1648336.60549  20417133.99549
  22749476.081 5  -1467601.184 5  -1235558.12547  22749474.57747
  23035105.730 6  -2934877.391 6  -2202358.81347  23035101.99947
  21353062.534 6  -1004187.809 6   -763128.66847  21353060.50347
  22786687.355 5   -792696.754 5   -600489.43046  22786688.33546
  19943650.808 7  -1254131.469 7   -963715.66849  19943649.92149
  23435816.417 1   -123764.539 1                
 20  5 16  1 44 50.9990000  0  8G04G08G09G11G16G26G27G31             0.000318474
  21251056.956 6  -1291966.977 6   -989644.81347  21251055.38247
  20416179.620 6  -2153569.313 6  -1652252.26649  20416178.06549
  22748551.503 5  -1472457.598 5  -1239342.34047  22748549.98047
  23033767.245 6  -2941912.520 6  -2207840.73447  23033763.09347
  21352603.870 6  -1006596.609 6   -765005.66447  21352602.06547
  22786318.753 4   -794627.020 4   -601993.54346  22786321.05846
  19943102.542 7  -1257013.414 7   -965961.34449  19943101.24949
  23435600.480 1   -124905.859 1                
 20  5 16  1 44 51.9990000  0  8G04G08G09G11G16G26G27G31             0.000316154
  21250492.987 6  -1294930.098 6   -991953.73447  21250491.28047
  20415223.276 6  -2158593.957 6  -1656167.57049  20415221.74549
  22747628.089 5  -1477313.555 5  -1243126.20347  22747625.28047
  23032429.058 6  -2948947.668 6  -2213322.66847  23032424.74147
  21352146.003 6  -1009005.426 6   -766882.66047  21352143.43747
  22785952.394 5   -796557.398 5   -603497.73846  22785953.80046
  19942554.190 7  -1259894.867 7   -968206.62949  19942553.22249
  23435382.50311                                
 20  5 16  1 44 52.9990000  0  8G04G08G09G11G16G26G27G31             0.000313833
  21249929.761 6  -1297892.656 6   -994262.22747  21249927.68747
  20414267.394 6  -2163618.059 6  -1660082.45749  20414265.38249
  22746704.784 5  -1482168.961 5  -1246909.64147  22746701.40547
  23031089.714 6  -2955982.707 6  -2218804.51247  23031085.88247
  21351687.612 6  -1011414.234 6   -768759.64847  21351685.24947
  22785585.105 5   -798487.797 5   -605001.94946  22785586.30846
  19942005.980 7  -1262775.762 7   -970451.48049  19942004.84349
  23435166.19011                                
 20  5 16  1 44 53.9990000  0  8G04G08G09G11G16G26G27G31             0.000311514
  21249365.683 6  -1300854.711 6   -996570.32047  21249363.99147
  20413311.097 6  -2168641.711 6  -1663996.99649  20413309.57349
  22745780.253 5  -1487023.914 5  -1250692.70747  22745777.25347
  23029750.855 6  -2963017.688 6  -2224286.31647  23029747.78847
  21351228.815 6  -1013823.043 6   -770636.63747  21351226.42547
  22785217.206 4   -800418.250 4   -606506.19546  22785219.22646
  19941457.245 7  -1265656.152 7   -972695.94149  19941456.75749
  23434949.19811                                
 20  5 16  1 44 54.9990000  0  8G04G08G09G11G16G26G27G31             0.000309195
  21248802.300 6  -1303816.273 6   -998878.02747  21248800.56247
  20412355.362 6  -2173664.887 6  -1667911.15249  20412353.70249
  22744856.519 5  -1491878.355 5  -1254475.38747  22744853.67947
  23028412.573 6  -2970052.703 6  -2229768.14547  23028408.60847
  21350770.581 6  -1016231.922 6   -772513.69947  21350768.17947
  22784850.042 5   -802348.805 5   -608010.52346  22784851.83546
  19940909.823 7  -1268536.063 7   -974940.02749  19940908.96849
  23434733.050 1                                
 20  5 16  1 44 55.9990000  0  8G04G08G09G11G16G26G27G31             0.000306875
  21248239.081 6  -1306777.391 6  -1001185.40247  21248236.94047
  20411399.894 6  -2178687.691 6  -1671825.02349  20411398.08949
  22743932.511 5  -1496732.391 5  -1258257.76247  22743929.41747
  23027073.456 6  -2977087.727 6  -2235249.98447  23027069.39047
  21350312.050 6  -1018640.883 6   -774390.81647  21350309.93347
  22784482.659 5   -804279.543 5   -609514.99246  22784484.62046
  19940361.620 7  -1271415.527 7   -977183.76249  19940360.73749
  23434517.214 1   -130610.238 1                
 20  5 16  1 44 56.9990000  0  8G04G08G09G11G16G26G27G31             0.000304558
  21247675.565 6  -1309737.980 6  -1003492.35947  21247673.20247
  20410444.050 6  -2183709.992 6  -1675738.51249  20410442.11249
  22743008.933 5  -1501585.941 5  -1262039.75847  22743006.12847
  23025734.855 6  -2984122.711 6  -2240731.78947  23025731.44847
  21349854.042 6  -1021049.852 6   -776267.93447  21349851.09747
  22784116.105 5   -806210.336 5   -611019.51646  22784117.23746
  19939813.792 7  -1274294.508 7   -979427.12549  19939812.70649
  23434300.198 1   -131750.551 1                
 20  5 16  1 44 57.9990000  0  8G04G08G09G11G16G26G27G31             0.000302237
  21247112.323 6  -1312698.160 6  -1005798.98847  21247110.26547
  20409488.503 6  -2188731.867 6  -1679651.66049  20409487.18349
  22742086.065 5  -1506439.070 5  -1265821.42247  22742082.25747
  23024395.948 6  -2991157.738 6  -2246213.62947  23024392.08547
  21349395.378 6  -1023458.918 6   -778145.12947  21349392.81247
  22783747.620 5   -808141.285 5   -612524.15646  22783749.78846
  19939265.925 7  -1277173.039 7   -981670.13749  19939265.04649
  23434083.36211                                
 20  5 16  1 44 58.9990000  0  8G04G08G09G11G16G26G27G31             0.000299917
  21246549.347 6  -1315657.660 6  -1008105.09047  21246547.36247
  20408532.855 6  -2193753.148 6  -1683564.34449  20408531.08549
  22741162.980 5  -1511291.551 5  -1269602.58247  22741158.42947
  23023057.425 6  -2998192.563 6  -2251695.31347  23023053.75347
  21348937.097 6  -1025867.848 6   -780022.21547  21348934.43347
  22783380.370 5   -810072.168 5   -614028.73446  22783382.27646
  19938718.230 7  -1280050.895 7   -983912.62149  19938717.41349
  23433867.370 1                                
 20  5 16  1 44 59.9990000  0  8G04G08G09G11G16G26G27G31             0.000297598
  21245985.581 6  -1318616.684 6  -1010410.82447  21245983.86647
  20407577.386 6  -2198773.957 6  -1687476.66049  20407575.78449
  22740238.769 5  -1516143.586 5  -1273383.38347  22740234.77247
  23021718.722 6  -3005227.414 6  -2257177.00847  23021715.02247
  21348478.394 6  -1028276.852 6   -781899.35247  21348476.03047
  22783012.815 4   -812003.129 4   -615533.38346  22783014.73046
  19938170.839 7  -1282928.301 7   -986154.75849  19938169.74149
  23433651.75311                                
 20  5 16  1 45  0.9990000  0  8G04G08G09G11G16G26G27G31             0.000295279
  21245423.050 6  -1321575.281 6  -1012716.22347  21245420.80447
  20406622.042 6  -2203794.367 6  -1691388.67249  20406620.32349
  22739315.776 5  -1520995.191 5  -1277163.84847  22739311.36647
  23020380.050 6  -3012262.297 6  -2262658.73847  23020376.24547
  21348020.245 6  -1030685.961 6   -783776.59047  21348017.46447
  22782645.401 4   -813934.301 4   -617038.20346  22782647.40146
  19937623.128 7  -1285805.301 7   -988396.57849  19937622.49949
  23433434.425 1   -136310.234 1                
 20  5 16  1 45  1.9990000  0  8G04G08G09G11G16G26G27G31             0.000292961
  21244860.151 6  -1324533.477 6  -1015021.31647  21244857.66747
  20405666.948 6  -2208814.398 6  -1695300.37549  20405665.03849
  22738392.808 5  -1525846.449 5  -1280944.05147  22738388.00347
  23019041.339 6  -3019297.250 6  -2268140.52347  23019037.40947
  21347561.558 6  -1033095.191 6   -785653.90647  21347558.85547
  22782278.198 4   -815865.641 4   -618543.13746  22782280.07346
  19937075.870 7  -1288681.875 7   -990638.06349  19937074.99549
  23433216.433 1   -137449.738 1                
 20  5 16  1 45  2.9990000  0  8G04G08G09G11G16G26G27G31             0.000290640
  21244297.167 6  -1327491.086 6  -1017325.94947  21244295.29247
  20404711.565 7  -2213833.910 7  -1699211.68849  20404709.49549
  22737469.940 5  -1530697.105 5  -1284723.79747  22737465.03847
  23017702.839 6  -3026332.117 6  -2273622.24647  23017698.73347
  21347103.151 6  -1035504.383 6   -787531.19147  21347100.73747
  22781910.222 4   -817797.023 4   -620048.10946  22781912.71846
  19936528.745 7  -1291557.879 7   -992879.10249  19936527.81249
  23432999.144 1   -138589.016 1                
 20  5 16  1 45  3.9990000  0  8G04G08G09G11G16G26G27G31             0.000288321
  21243734.206 6  -1330448.270 6  -1019630.25047  21243732.16747
  20403756.659 6  -2218853.000 6  -1703122.66849  20403754.99949
  22736546.831 5  -1535547.328 5  -1288503.19947  22736541.80847
  23016364.058 6  -3033367.012 6  -2279103.96947  23016360.12847
  21346645.019 6  -1037913.656 6   -789408.55947  21346642.17947
  22781542.425 4   -819728.484 4   -621553.13746  22781545.40146
  19935981.620 7  -1294433.457 7   -995119.81349  19935980.54649
  23432784.159 1   -139728.262 1                
 20  5 16  1 45  4.9990000  0  8G04G08G09G11G16G26G27G31             0.000285999
  21243171.847 6  -1333405.047 6  -1021934.24247  21243169.78047
  20402801.355 6  -2223871.750 6  -1707033.38349  20402799.99549
  22735624.065 5  -1540397.223 5  -1292282.33647  22735618.70247
  23015025.456 6  -3040401.980 6  -2284585.76247  23015021.20247
  21346186.550 6  -1040323.078 6   -791286.03547  21346183.56247
  22781174.690 4   -821660.215 4   -623058.37146  22781177.80446
  19935434.698 7  -1297308.645 7   -997360.21949  19935433.35549
  23432567.71411                                
 20  5 16  1 45  5.9990000  0  8G04G08G09G11G16G26G27G31             0.000283678
  21242609.159 6  -1336361.355 6  -1024237.85947  21242607.08947
  20401846.417 6  -2228890.031 6  -1710943.73049  20401845.07749
  22734700.831 5  -1545246.625 5  -1296061.10247  22734695.92147
  23013686.901 6  -3047436.922 6  -2290067.53947  23013683.03047
  21345727.847 6  -1042732.563 6   -793163.55947  21345725.06247
  22780807.011 4   -823592.004 4   -624563.67646  22780810.31246
  19934887.714 7  -1300183.383 7   -999600.28149  19934886.42549
  23432350.831 1                                
 20  5 16  1 45  6.9990000  0  8G04G08G09G11G16G26G27G31             0.000281359
  21242047.026 6  -1339317.191 6  -1026541.10547  21242044.70647
  20400891.550 6  -2233907.895 6  -1714853.75449  20400889.88249
  22733778.417 5  -1550095.586 5  -1299839.50847  22733772.93747
  23012347.675 6  -3054471.914 6  -2295549.34447  23012343.85147
  21345269.605 6  -1045142.094 6   -795041.10947  21345266.45647
  22780439.394 4   -825523.973 4   -626069.12146  22780442.34346
  19934340.456 7  -1303057.625 7  -1001839.94149  19934339.37049
  23432134.526 1   -143145.289 1                
 20  5 16  1 45  7.9990000  0  8G04G08G09G11G16G26G27G31             0.000279037
  21241484.472 6  -1342272.531 6  -1028843.97347  21241482.55847
  20399936.847 6  -2238925.313 6  -1718763.42649  20399935.36649
  22732855.886 5  -1554944.098 5  -1303617.57847  22732850.46847
  23011009.480 6  -3061506.852 6  -2301031.11347  23011005.61647
  21344810.870 6  -1047551.676 6   -796918.69947  21344807.92547
  22780071.534 4   -827455.984 4   -627574.58646  22780074.62846
  19933793.495 7  -1305931.402 7  -1004079.25049  19933792.40949
  23431918.08111                                
 20  5 16  1 45  8.9990000  0  7G04G08G09G11G16G26G27                0.000276718
  21240921.933 6  -1345227.465 6  -1031146.52047  21240919.95247
  20398982.151 6  -2243942.336 6  -1722672.79749  20398980.78049
  22731933.362 5  -1559792.184 5  -1307395.30547  22731927.83147
  23009670.722 6  -3068541.867 6  -2306512.94947  23009666.90147
  21344352.417 6  -1049961.402 6   -798796.40247  21344349.42947
  22779704.378 4   -829388.188 4   -629080.20746  22779706.76146
  19933246.956 7  -1308804.758 7  -1006318.22749  19933246.18749
 20  5 16  1 45  9.9990000  0  7G04G08G09G11G16G26G27                0.000274397
  21240359.503 6  -1348181.867 6  -1033448.64847  21240357.96847
  20398027.362 6  -2248958.848 6  -1726581.76249  20398025.97249
  22731010.706 5  -1564639.777 5  -1311172.64847  22731005.64047
  23008331.355 6  -3075576.828 6  -2311994.73447  23008328.38647
  21343893.690 6  -1052371.094 6   -800674.09847  21343890.59347
  22779336.753 4   -831320.473 4   -630585.87546  22779339.03446
  19932700.128 7  -1311677.594 7  -1008556.80149  19932699.14049
 20  5 16  1 45 10.9990000  0  7G04G08G09G11G16G26G27                0.000272078
  21239797.776 6  -1351135.797 6  -1035750.41847  21239795.82347
  20397073.175 6  -2253974.918 6  -1730490.39149  20397071.29249
  22730088.128 5  -1569486.914 5  -1314949.64147  22730083.18347
  23006993.198 6  -3082611.797 6  -2317476.52747  23006989.54247
  21343435.706 6  -1054780.859 6   -802551.83647  21343431.95247
  22778969.409 4   -833252.855 4   -632091.64146  22778972.17146
  19932153.690 7  -1314549.980 7  -1010795.02049  19932152.62049
 20  5 16  1 45 11.9990000  0  7G04G08G09G11G16G26G27                0.000269756
  21239235.683 6  -1354089.168 6  -1038051.74247  21239233.76947
  20396118.503 6  -2258990.477 6  -1734398.61749  20396117.10549
  22729165.409 5  -1574333.500 5  -1318726.20747  22729160.49147
  23005654.401 6  -3089646.672 6  -2322958.24647  23005650.60547
  21342976.690 6  -1057190.586 6   -804429.54747  21342973.40947
  22778600.855 4   -835185.285 4   -633597.43846  22778604.18746
  19931606.831 7  -1317421.797 7  -1013032.80549  19931605.93749
 20  5 16  1 45 12.9990000  0  7G04G08G09G11G16G26G27                0.000267435
  21238673.800 6  -1357042.102 6  -1040352.73047  21238672.35547
  20395164.120 6  -2264005.652 6  -1738306.54349  20395163.05449
  22728243.894 5  -1579179.672 5  -1322502.44947  22728238.79647
  23004315.401 6  -3096681.578 6  -2328440.00047  23004311.96447
  21342517.870 6  -1059600.406 6   -806307.31647  21342514.92947
  22778233.503 4   -837117.855 4   -635103.33246  22778236.06946
  19931060.308 7  -1320293.188 7  -1015270.24649  19931059.68349
 20  5 16  1 45 13.9990000  0  7G04G08G09G11G16G26G27                0.000265116
  21238112.183 6  -1359994.563 6  -1042653.35247  21238109.85547
  20394209.831 6  -2269020.363 6  -1742214.11349  20394208.71849
  22727321.495 5  -1584025.418 5  -1326278.35247  22727316.26947
  23002976.847 6  -3103716.500 6  -2333921.75447  23002973.56547
  21342059.995 6  -1062010.273 6   -808185.14147  21342056.25347
  22777864.839 4   -839050.518 4   -636609.30346  22777868.87846
  19930514.042 7  -1323164.113 7  -1017507.33249  19930513.34349
 20  5 16  1 45 14.9990000  0  7G04G08G09G11G16G26G27                0.000262794
  21237550.401 6  -1362946.551 6  -1044953.60247  21237547.92547
  20393255.565 6  -2274034.652 6  -1746121.35549  20393254.81549
  22726399.651 5  -1588870.691 5  -1330053.90247  22726394.68747
  23001638.026 6  -3110751.398 6  -2339403.49647  23001634.51147
  21341601.105 6  -1064420.227 6   -810063.02347  21341597.65947
  22777497.972 4   -840983.332 4   -638115.39546  22777500.90546
  19929967.894 7  -1326034.570 7  -1019744.05149  19929966.90149
 20  5 16  1 45 15.9990000  0  7G04G08G09G11G16G26G27                0.000260473
  21236988.792 6  -1365898.109 6  -1047253.52347  21236986.44447
  20392301.784 6  -2279048.535 6  -1750028.27749  20392300.64049
  22725477.214 5  -1593715.547 5  -1333829.11347  22725472.92547
  23000299.800 6  -3117786.359 6  -2344885.27347  23000295.50747
  21341142.628 6  -1066830.273 6   -811940.98847  21341139.27247
  22777131.292 4   -842916.285 4   -639621.59046  22777132.92946
  19929421.909 7  -1328904.594 7  -1021980.43449  19929421.09749
 20  5 16  1 45 16.9990000  0  7G04G08G09G11G16G26G27                0.000258152
  21236426.815 6  -1368849.289 6  -1049553.14847  21236425.16347
  20391347.472 6  -2284062.027 6  -1753934.89549  20391346.36249
  22724555.019 5  -1598560.023 5  -1337604.03147  22724551.41347
  22998960.995 6  -3124821.402 6  -2350367.13747  22998957.14447
  21340683.440 6  -1069240.469 6   -813819.06347  21340680.41747
  22776762.190 4   -844849.480 4   -641127.99646  22776765.23346
  19928875.683 7  -1331774.250 7  -1024216.53149  19928874.83149
 20  5 16  1 45 17.9990000  0  7G04G08G09G11G16G26G27                0.000255831
  21235865.831 6  -1371800.047 6  -1051852.44547  21235863.46847
  20390393.597 6  -2289075.152 6  -1757841.23049  20390392.21449
  22723633.081 5  -1603404.109 5  -1341378.64847  22723629.49547
  22997621.823 6  -3131856.492 6  -2355849.01647  22997618.21047
  21340225.269 6  -1071650.773 6   -815697.20747  21340221.68747
  22776394.503 4   -846782.820 4   -642634.50046  22776397.33946
  19928329.855 7  -1334643.480 7  -1026452.29749  19928328.90949
 20  5 16  1 45 18.9990000  0  7G04G08G09G11G16G26G27                0.000253510
  21235304.245 6  -1374750.273 6  -1054151.31647  21235301.91747
  20389439.714 6  -2294087.801 6  -1761747.18849  20389438.28849
  22722711.933 5  -1608247.668 5  -1345152.85547  22722707.63247
  22996283.495 6  -3138891.535 6  -2361330.86347  22996279.81947
  21339766.355 6  -1074061.066 6   -817575.36347  21339763.42147
  22776027.269 4   -848716.211 4   -644141.04346  22776029.35546
  19927783.870 7  -1337512.184 7  -1028687.64849  19927782.98349
 20  5 16  1 45 19.9990000  0  7G04G08G09G11G16G26G27                0.000251190
  21234742.792 6  -1377700.027 6  -1056449.82447  21234740.87847
  20388485.753 6  -2299100.000 6  -1765652.80149  20388484.74149
  22721789.706 5  -1613090.832 5  -1348926.75447  22721786.62047
  22994944.487 6  -3145926.574 6  -2366812.71147  22994940.81947
  21339307.292 6  -1076471.461 6   -819453.59847  21339304.36647
  22775659.183 4   -850649.773 4   -645647.71146  22775661.60846
  19927238.034 7  -1340380.445 7  -1030922.65649  19927237.65149
 20  5 16  1 45 20.9990000  0  7G04G08G09G11G16G26G27                0.000248867
  21234181.487 6  -1380649.543 6  -1058748.15247  21234179.79647
  20387532.175 6  -2304111.992 6  -1769558.24649  20387531.02649
  22720868.362 5  -1617933.707 5  -1352700.42647  22720864.96847
  22993605.605 6  -3152961.820 6  -2372294.71947  22993602.16747
  21338848.940 6  -1078882.086 6   -821332.00447  21338845.64747
  22775290.925 4   -852583.625 4   -647154.60946  22775293.97646
  19926692.175 7  -1343248.465 7  -1033157.48049  19926691.56549
 20  5 16  1 45 21.9990000  0  7G04G08G09G11G16G26G27                0.000246546
  21233620.230 6  -1383598.582 6  -1061046.10547  21233618.15947
  20386578.300 6  -2309123.582 6  -1773463.38349  20386576.95249
  22719947.089 5  -1622776.160 5  -1356473.76647  22719943.94447
  22992266.870 6  -3159997.094 6  -2377776.74247  22992263.29247
  21338390.065 6  -1081292.813 6   -823210.49647  21338387.09347
  22774923.386 5   -854517.645 5   -648661.63746  22774925.62446
  19926146.440 7  -1346116.023 7  -1035391.93849  19926145.98749
 20  5 16  1 45 22.9990000  0  7G04G08G09G11G16G26G27                0.000244225
  21233059.151 6  -1386547.324 6  -1063343.82847  21233056.92147
  20385624.722 6  -2314134.883 6  -1777368.29349  20385623.84349
  22719026.261 5  -1627618.305 5  -1360246.87547  22719022.57747
  22990928.253 6  -3167032.535 6  -2383258.90247  22990924.19047
  21337931.300 6  -1083703.762 6   -825089.15647  21337927.80447
  22774555.089 5   -856451.898 5   -650168.84446  22774557.39046
  19925600.667 7  -1348983.266 7  -1037626.16049  19925599.94849
 20  5 16  1 45 23.9990000  0  7G04G08G09G11G16G26G27                0.000241903
  21232497.815 6  -1389495.508 6  -1065641.11747  21232495.85147
  20384671.323 6  -2319145.660 6  -1781272.79349  20384670.52649
  22718104.206 5  -1632459.926 5  -1364019.57047  22718101.66347
  22989589.362 6  -3174067.883 6  -2388740.98847  22989585.73047
  21337472.862 6  -1086114.699 6   -826967.80947  21337468.85147
  22774187.167 5   -858386.195 5   -651676.07046  22774189.41746
  19925055.472 7  -1351849.992 7  -1039859.96549  19925054.75749
 20  5 16  1 45 24.9990000  0  7G04G08G09G11G16G26G27                0.000239582
  21231936.847 6  -1392443.199 6  -1067938.02047  21231934.90547
  20383718.331 6  -2324155.926 6  -1785176.89149  20383716.72249
  22717182.815 4  -1637301.039 4  -1367791.87547  22717181.18347
  22988250.636 6  -3181103.211 6  -2394223.05947  22988247.33547
  21337014.183 6  -1088525.656 6   -828846.47747  21337010.18747
  22773819.823 5   -860320.598 5   -653183.38746  22773821.32746
  19924509.823 7  -1354716.188 7  -1042093.36749  19924509.05849
 20  5 16  1 45 25.9990000  0  7G04G08G09G11G16G26G27                0.000237259
  21231376.151 6  -1395390.414 6  -1070234.55547  21231374.73047
  20382764.480 6  -2329165.777 6  -1789080.67649  20382763.48049
  22716261.839 4  -1642141.762 4  -1371563.86747  22716259.55047
  22986911.972 6  -3188138.547 6  -2399705.14847  22986907.93747
  21336555.214 6  -1090936.688 6   -830725.20347  21336551.43347
  22773451.409 5   -862255.125 5   -654690.79746  22773453.00746
  19923964.589 7  -1357581.957 7  -1044326.43449  19923963.76949
 20  5 16  1 45 26.9990000  0  7G04G08G09G11G16G26G27                0.000234938
  21230815.698 6  -1398337.254 6  -1072530.78947  21230813.50747
  20381811.323 6  -2334175.297 6  -1792984.19949  20381810.12449
  22715340.526 4  -1646982.043 4  -1375335.52047  22715338.97647
  22985573.089 6  -3195173.969 6  -2405187.29747  22985569.49547
  21336096.573 6  -1093347.828 6   -832604.00847  21336092.46047
  22773083.159 5   -864189.820 5   -656198.35946  22773084.88646
  19923419.722 7  -1360447.316 7  -1046559.18049  19923418.74949
 20  5 16  1 45 27.9990000  0  7G04G08G09G11G16G26G27                0.000232616
  21230255.065 6  -1401283.750 6  -1074826.76647  21230253.21847
  20380858.284 6  -2339184.504 6  -1796887.47349  20380857.06549
  22714419.331 4  -1651822.057 4  -1379106.96847  22714417.90147
  22984234.198 6  -3202209.535 6  -2410669.55547  22984230.31547
  21335637.878 6  -1095759.184 6   -834482.98847  21335633.57747
  22772714.753 5   -866124.879 5   -657706.21546  22772716.44846
  19922874.151 7  -1363312.363 7  -1048791.68049  19922873.10849
 20  5 16  1 45 28.9990000  0  7G04G08G09G11G16G26G27                0.000230293
  21229694.339 6  -1404229.777 6  -1077122.36747  21229691.83147
  20379904.776 6  -2344193.293 6  -1800790.43049  20379904.01949
  22713499.042 4  -1656661.625 4  -1382878.05947  22713497.08147
  22982895.620 6  -3209245.109 6  -2416151.81347  22982891.94047
  21335178.526 6  -1098170.645 6   -836362.04747  21335174.85547
  22772347.058 5   -868059.957 5   -659214.07046  22772348.31946
  19922329.159 7  -1366176.949 7  -1051023.83249  19922328.00349
 20  5 16  1 45 29.9990000  0  7G04G08G09G11G16G26G27                0.000227970
  21229134.339 6  -1407175.285 6  -1079417.56647  21229131.71047
  20378951.909 6  -2349201.590 6  -1804692.99249  20378950.81549
  22712577.722 4  -1661500.668 4  -1386648.74647  22712577.02647
  22981557.097 6  -3216280.605 6  -2421634.00847  22981552.79247
  21334719.745 6  -1100582.066 6   -838241.07047  21334715.80447
  22771977.667 5   -869995.109 5   -660721.98446  22771979.96046
  19921784.144 7  -1369041.020 7  -1053255.57049  19921783.23349
 20  5 16  1 45 30.9990000  0  7G04G08G09G11G16G26G27                0.000225649
  21228573.386 6  -1410120.332 6  -1081712.41047  21228571.18347
  20377999.081 6  -2354209.453 6  -1808595.23049  20377997.80449
  22711657.292 4  -1666339.273 4  -1390419.09847  22711656.24947
  22980218.276 6  -3223316.102 6  -2427116.21947  22980213.92547
  21334260.659 6  -1102993.559 6   -840120.16047  21334256.85847
  22771609.901 5   -871930.383 5   -662229.98846  22771611.58946
  19921239.089 7  -1371904.613 7  -1055486.93849  19921238.12049
 20  5 16  1 45 31.9990000  0  7G04G08G09G11G16G26G27                0.000223326
  21228013.284 6  -1413064.813 6  -1084006.80947  21228011.09747
  20377046.026 6  -2359216.762 6  -1812497.02349  20377044.67149
  22710736.511 4  -1671177.320 4  -1394189.00047  22710735.99147
  22978879.151 6  -3230351.539 6  -2432598.37347  22978875.21047
  21333801.565 6  -1105405.023 6   -841999.22347  21333797.67547
  22771241.511 5   -873865.715 5   -663738.03546  22771243.15546
  19920694.636 7  -1374767.664 7  -1057717.89549  19920693.58949
 20  5 16  1 45 32.9990000  0  7G04G08G09G11G16G26G27                0.000221004
  21227452.886 6  -1416008.844 6  -1086300.87147  21227450.74547
  20376093.659 6  -2364223.633 6  -1816398.48449  20376092.14449
  22709815.401 4  -1676014.926 4  -1397958.55547  22709815.70647
  22977540.573 6  -3237386.957 6  -2438080.51247  22977536.60847
  21333342.698 6  -1107816.602 6   -843878.37147  21333338.55447
  22770872.831 5   -875801.172 5   -665246.18846  22770874.70246
  19920149.323 7  -1377630.277 7  -1059948.50449  19920148.62049
 20  5 16  1 45 33.9990000  0  7G04G08G09G11G16G26G27                0.000218681
  21226892.605 6  -1418952.387 6  -1088594.53947  21226890.74147
  20375140.261 6  -2369230.055 6  -1820299.59049  20375139.63249
  22708894.901 3  -1680852.074 3  -1401727.75047  22708894.98047
  22976201.542 6  -3244422.367 6  -2443562.65247  22976197.89447
  21332883.776 6  -1110228.211 6   -845757.55946  21332879.50346
  22770505.292 5   -877736.766 5   -666754.44946  22770506.20646
  19919604.917 7  -1380492.395 7  -1062178.72749  19919603.98349
 20  5 16  1 45 34.9990000  0  7G04G08G09G11G16G26G27                0.000216358
  21226332.972 6  -1421895.383 6  -1090887.78547  21226330.71847
  20374188.042 6  -2374235.930 6  -1824200.28149  20374186.91349
  22707975.206 3  -1685688.684 3  -1405496.53947  22707974.65147
  22974863.222 6  -3251457.723 6  -2449044.74247  22974859.01947
  21332425.198 6  -1112639.781 6   -847636.69946  21332420.38246
  22770137.112 5   -879672.309 5   -668262.67246  22770138.27246
  19919060.425 7  -1383353.977 7  -1064408.53549  19919059.47249
 20  5 16  1 45 35.9990000  0  7G04G08G09G11G16G26G27                0.000214037
  21225772.511 6  -1424838.039 6  -1093180.76647  21225770.32747
  20373235.597 6  -2379241.527 6  -1828100.74649  20373234.46449
  22707054.987 4  -1690524.996 4  -1409265.10547  22707053.98047
  22973523.909 6  -3258493.203 6  -2454526.94147  22973520.50747
  21331966.253 6  -1115051.547 6   -849515.99646  21331961.31246
  22769768.261 5   -881608.215 5   -669771.16446  22769769.71846
  19918516.034 7  -1386215.254 7  -1066638.10249  19918514.96449
 20  5 16  1 45 36.9990000  0  7G04G08G09G11G16G26G27                0.000211714
  21225213.370 6  -1427780.273 6  -1095473.41447  21225210.76947
  20372282.909 6  -2384246.750 6  -1832000.91849  20372282.12849
  22706134.948 4  -1695360.906 4  -1413033.36347  22706134.28447
  22972185.480 6  -3265528.715 6  -2460009.15647  22972181.14747
  21331508.347 6  -1117463.414 6   -851395.38747  21331502.73347
  22769400.253 5   -883544.234 5   -671279.75846  22769401.08946
  19917971.433 7  -1389076.070 7  -1068867.30949  19917970.45249
 20  5 16  1 45 37.9990000  0  7G04G08G09G11G16G26G27                0.000209391
  21224653.300 6  -1430722.078 6  -1097765.73047  21224650.97647
  20371330.511 6  -2389251.543 6  -1835900.76249  20371329.78849
  22705214.558 3  -1700196.367 3  -1416801.25847  22705214.69047
  22970846.503 6  -3272564.277 6  -2465491.41847  22970842.33547
  21331047.839 6  -1119875.406 6   -853274.85546  21331043.42546
  22769031.230 5   -885480.359 5   -672788.41446  22769032.85146
  19917427.456 7  -1391936.477 7  -1071096.19549  19917426.51549
 20  5 16  1 45 38.9990000  0  7G04G08G09G11G16G26G27                0.000207067
  21224093.605 6  -1433663.336 6  -1100057.61347  21224091.42947
  20370378.089 6  -2394255.863 6  -1839800.23049  20370377.12449
  22704294.409 4  -1705031.281 4  -1420568.72347  22704294.54647
  22969507.628 6  -3279599.773 6  -2470973.62947  22969503.74147
  21330589.714 6  -1122287.340 6   -855154.28147  21330584.36647
  22768662.901 4   -887416.605 4   -674297.16046  22768664.61646
  19916882.948 7  -1394796.359 7  -1073324.67249  19916882.35849
 20  5 16  1 45 39.9990000  0  7G04G08G09G11G16G26G27                0.000204744
  21223533.823 6  -1436604.109 6  -1102349.13347  21223531.54247
  20369426.011 6  -2399259.672 6  -1843699.30149  20369425.20649
  22703374.855 3  -1709865.797 3  -1424335.86747  22703374.82747
  22968168.847 6  -3286635.227 6  -2476455.79347  22968164.70247
  21330130.175 6  -1124699.355 6   -857033.77347  21330125.58947
  22768294.362 5   -889352.953 5   -675806.00046  22768295.95646
  19916338.519 7  -1397655.730 7  -1075552.75449  19916337.73749
 20  5 16  1 45 40.9990000  0  7G04G08G09G11G16G26G27                0.000202421
  21222974.519 6  -1439544.293 6  -1104640.18047  21222971.90947
  20368474.222 6  -2404262.957 6  -1847597.96949  20368473.12049
  22702454.776 4  -1714699.676 4  -1428102.52747  22702455.19047
  22966830.206 6  -3293670.566 6  -2481937.87947  22966826.00747
  21329671.956 6  -1127111.301 6   -858913.19947  21329666.00747
  22767925.761 4   -891289.199 4   -677314.75446  22767927.20646
  19915794.714 7  -1400514.535 7  -1077780.39549  19915793.96049
 20  5 16  1 45 41.9990000  0  7G04G08G09G11G16G26G27                0.000200098
  21222415.198 6  -1442484.070 6  -1106930.91447  21222412.92947
  20367522.065 6  -2409265.867 6  -1851496.33649  20367521.23749
  22701534.667 3  -1719533.191 3  -1431868.89847  22701535.69047
  22965491.105 6  -3300706.004 6  -2487420.02747  22965487.24147
  21329212.698 6  -1129523.379 6   -860792.74646  21329207.23046
  22767557.128 4   -893225.766 4   -678823.77046  22767558.40146
  19915250.862 7  -1403372.961 7  -1080007.74249  19915249.96849
 20  5 16  1 45 42.9990000  0  8G04G08G09G11G16G26G27G31             0.000197775
  21221855.659 6  -1445423.426 6  -1109221.32447  21221853.60547
  20366570.331 6  -2414268.367 6  -1855394.39149  20366569.02649
  22700614.456 3  -1724366.301 3  -1435634.95347  22700615.85847
  22964152.042 6  -3307741.438 6  -2492902.18447  22964148.60547
  21328753.480 6  -1131935.543 6   -862672.35547  21328748.46447
  22767188.456 4   -895162.395 4   -680332.84446  22767189.75746
  19914707.136 7  -1406230.949 7  -1082234.74249  19914706.29649
  23424358.08912     -3526.04312                
 20  5 16  1 45 43.9990000  0  8G04G08G09G11G16G26G27G31             0.000195454
  21221296.065 6  -1448362.344 6  -1111511.39547  21221293.58947
  20365618.300 6  -2419270.496 6  -1859292.15649  20365616.84749
  22699695.847 3  -1729199.004 3  -1439400.70347  22699696.11647
  22962813.714 6  -3314776.926 6  -2498384.37947  22962809.88647
  21328294.175 6  -1134347.809 6   -864552.04747  21328289.03047
  22766820.495 4   -897099.207 4   -681842.04346  22766821.77646
  19914163.206 7  -1409088.508 7  -1084461.41849  19914162.57749
  23424142.136 2     -4660.004 2                
 20  5 16  1 45 44.9990000  0  8G04G08G09G11G16G26G27G31             0.000193130
  21220737.081 6  -1451300.820 6  -1113801.11747  21220735.20647
  20364666.495 6  -2424272.184 6  -1863189.57449  20364665.14449
  22698776.284 3  -1734031.234 3  -1443166.07047  22698777.08947
  22961475.198 6  -3321812.434 6  -2503866.59447  22961471.03447
  21327834.925 6  -1136760.160 6   -866431.80546  21327829.63246
  22766450.808 4   -899036.168 4   -683351.36346  22766452.98346
  19913619.347 7  -1411945.629 7  -1086687.74249  19913618.51149
  23423925.870 2     -5793.902 2                
 20  5 16  1 45 45.9990000  0  8G04G08G09G11G16G26G27G31             0.000190821
  21220177.644 6  -1454238.887 6  -1116090.51247  21220175.59347
  20363715.065 6  -2429273.492 6  -1867086.69549  20363713.63649
  22697856.198 3  -1738863.086 3  -1446931.14147  22697857.39747
  22960136.308 6  -3328847.988 6  -2509348.84447  22960132.24547
  21327375.831 6  -1139172.648 6   -868311.67247  21327371.07747
  22766083.261 5   -900973.289 5   -684860.80546  22766084.29246
  19913075.823 7  -1414802.363 7  -1088913.76649  19913075.16349
  23423709.183 2     -6927.648 2                
 20  5 16  1 45 46.9990000  0  8G04G08G09G11G16G26G27G31             0.000188498
  21219618.581 6  -1457176.527 6  -1118379.57847  21219616.64447
  20362763.495 6  -2434274.398 6  -1870983.50849  20362761.92949
  22696936.933 3  -1743694.578 3  -1450695.93847  22696938.38247
  22958797.370 6  -3335883.617 6  -2514831.14847  22958793.35547
  21326917.472 6  -1141585.246 6   -870191.61346  21326912.01946
  22765714.144 4   -902910.605 4   -686370.41046  22765715.52246
  19912532.651 7  -1417658.668 7  -1091139.45749  19912531.69449
  23423494.308 2     -8061.359 2                
 20  5 16  1 45 47.9990000  0  8G04G08G09G11G16G26G27G31             0.000186172
  21219059.784 6  -1460113.766 6  -1120668.33247  21219057.89747
  20361811.792 6  -2439274.938 6  -1874880.03549  20361810.43349
  22696017.605 3  -1748525.645 3  -1454460.39847  22696018.65547
  22957458.206 6  -3342919.293 6  -2520313.49647  22957453.96047
  21326457.909 6  -1143997.953 6   -872071.64847  21326452.74947
  22765345.370 5   -904848.098 5   -687880.13346  22765346.17546
  19911989.167 7  -1420514.582 7  -1093364.84849  19911987.87849
  23423278.144 2     -9194.926 2                
 20  5 16  1 45 48.9990000  0  8G04G08G09G11G16G26G27G31             0.000183849
  21218500.878 6  -1463050.512 6  -1122956.70747  21218498.94447
  20360860.034 6  -2444275.023 6  -1878776.20749  20360858.89049
  22695097.878 3  -1753356.188 3  -1458224.45747  22695099.35547
  22956119.651 6  -3349954.961 6  -2525795.83647  22956115.48747
  21325998.956 6  -1146410.715 6   -873951.72346  21325993.44046
  22764976.987 4   -906785.711 4   -689389.96546  22764977.86646
  19911445.511 7  -1423370.004 7  -1095589.85549  19911444.99549
  23423063.253 2    -10328.387 2                
 20  5 16  1 45 49.9990000  0  8G04G08G09G11G16G26G27G31             0.000181526
  21217942.214 6  -1465986.719 6  -1125244.66447  21217940.19047
  20359908.925 6  -2449274.605 6  -1882671.98449  20359907.67949
  22694178.878 3  -1758186.270 3  -1461988.16047  22694180.67547
  22954780.831 6  -3356990.543 6  -2531278.10547  22954776.53847
  21325539.745 6  -1148823.457 6   -875831.78547  21325534.13647
  22764608.222 4   -908723.328 4   -690899.79346  22764609.28446
  19910902.261 7  -1426224.895 7  -1097814.44149  19910901.44849
  23422847.175 2    -11461.602 2                
 20  5 16  1 45 50.9990000  0  8G04G08G09G11G16G26G27G31             0.000179201
  21217383.714 6  -1468922.500 6  -1127532.28547  21217381.82347
  20358957.605 6  -2454273.766 6  -1886567.43849  20358956.64749
  22693259.925 4  -1763015.977 4  -1465751.56647  22693261.41347
  22953441.862 6  -3364026.156 6  -2536760.39547  22953437.75747
  21325080.683 6  -1151236.301 6   -877711.92246  21325075.04646
  22764238.761 5   -910661.121 5   -692409.76646  22764240.03446
  19910359.308 7  -1429079.371 7  -1100038.71549  19910358.45249
  23422630.237 2    -12594.727 2                
 20  5 16  1 45 51.9990000  0  8G04G08G09G11G16G26G27G31             0.000176878
  21216824.823 6  -1471857.902 6  -1129819.62147  21216823.16347
  20358006.347 6  -2459272.609 6  -1890462.64149  20358005.09749
  22692340.651 4  -1767845.262 4  -1469514.64547  22692342.76947
  22952103.644 6  -3371061.891 6  -2542242.78947  22952099.10147
  21324621.855 6  -1153649.328 6   -879592.19547  21324616.35147
  22763869.933 4   -912599.156 4   -693919.92646  22763871.40146
  19909815.894 7  -1431933.480 7  -1102262.69549  19909814.91349
  23422414.948 2    -13727.781 2                
 20  5 16  1 45 52.9990000  0  8G04G08G09G11G16G26G27G31             0.000174553
  21216266.214 6  -1474792.816 6  -1132106.56647  21216264.52247
  20357055.284 6  -2464270.953 6  -1894357.45749  20357054.15549
  22691421.909 4  -1772674.094 4  -1473277.36747  22691424.05047
  22950764.331 6  -3378097.559 6  -2547725.12947  22950759.71847
  21324162.503 6  -1156062.352 6   -881472.46947  21324156.80447
  22763501.940 5   -914537.254 5   -695430.12546  22763502.46846
  19909272.956 7  -1434787.086 7  -1104486.28549  19909271.94849
  23422198.776 2    -14860.668 2                
 20  5 16  1 45 53.9990000  0  8G04G08G09G11G16G26G27G31             0.000172230
  21215708.159 6  -1477727.223 6  -1134393.12147  21215706.13247
  20356104.019 6  -2469268.855 6  -1898251.92249  20356103.31549
  22690503.597 4  -1777502.414 4  -1477039.68447  22690504.92947
  22949425.362 6  -3385133.207 6  -2553207.45347  22949421.25747
  21323703.034 6  -1158475.422 6   -883352.78147  21323697.83947
  22763133.026 5   -916475.430 5   -696940.37546  22763133.78846
  19908730.417 7  -1437640.195 7  -1106709.48849  19908729.37449
  23421982.331 2    -15993.418 2                
 20  5 16  1 45 54.9990000  0  8G04G08G09G11G16G26G27G31             0.000169905
  21215149.448 6  -1480661.293 6  -1136679.41047  21215147.56547
  20355153.214 6  -2474266.453 6  -1902146.15649  20355151.75749
  22689584.675 4  -1782330.418 4  -1480801.76247  22689586.14047
  22948086.792 6  -3392169.023 6  -2558689.90647  22948082.16347
  21323244.198 6  -1160888.695 6   -885233.25447  21323238.56247
  22762764.136 5   -918413.867 5   -698450.83646  22762764.83946
  19908187.011 7  -1440492.988 7  -1108932.44149  19908186.42149
  23421766.776 2    -17126.121 2                
 20  5 16  1 45 55.9990000  0  8G04G08G09G11G16G26G27G31             0.000167580
  21214590.792 6  -1483594.957 6  -1138965.37547  21214589.18347
  20354201.987 6  -2479263.680 6  -1906040.09849  20354201.09749
  22688665.300 4  -1787158.000 4  -1484563.50847  22688667.61647
  22946747.878 6  -3399204.840 6  -2564172.36347  22946743.77647
  21322784.581 6  -1163302.074 6   -887113.81347  21322778.79647
  22762395.128 5   -920352.488 5   -699961.45346  22762396.07346
  19907644.019 7  -1443345.363 7  -1111155.07049  19907643.83549
  23421551.409 2    -18258.750 2                
 20  5 16  1 45 56.9990000  0  8G04G08G09G11G16G26G27G31             0.000165255
  21214033.401 6  -1486528.074 6  -1141250.91847  21214031.49947
  20353251.456 6  -2484260.391 6  -1909933.63749  20353250.49549
  22687747.261 4  -1791985.066 4  -1488324.85547  22687748.98047
  22945408.706 6  -3406240.578 6  -2569654.75047  22945404.35547
  21322325.003 6  -1165715.426 6   -888994.35247  21322320.01947
  22762026.081 5   -922291.078 5   -701472.03946  22762027.15946
  19907101.706 7  -1446197.215 7  -1113377.29749  19907100.64749
  23421336.206 2    -19391.121 2                
 20  5 16  1 45 57.9990000  0  8G04G08G09G11G16G26G27G31             0.000162931
  21213474.956 6  -1489460.805 6  -1143536.16447  21213473.10547
  20352300.519 6  -2489256.750 6  -1913826.91049  20352299.51549
  22686828.487 4  -1796811.801 4  -1492085.94947  22686830.78047
  22944070.245 6  -3413276.441 6  -2575137.23847  22944065.98047
  21321865.636 6  -1168128.953 6   -890875.02747  21321860.60547
  22761657.151 5   -924229.984 5   -702982.89146  22761657.92146
  19906558.792 7  -1449048.699 7  -1115599.23849  19906558.77249
  23421119.925 2    -20523.543 2                
 20  5 16  1 45 58.9990000  0  8G04G08G09G11G16G26G27G31             0.000160604
  21212916.995 6  -1492393.141 6  -1145821.09447  21212915.14047
  20351350.026 6  -2494252.746 6  -1917719.89549  20351348.46849
  22685909.823 4  -1801638.133 4  -1495846.72247  22685912.22247
  22942731.136 6  -3420312.363 6  -2580619.77047  22942726.64047
  21321406.440 6  -1170542.621 6   -892755.81347  21321401.48047
  22761288.362 5   -926169.035 5   -704493.83646  22761289.10546
  19906016.386 7  -1451899.785 7  -1117820.86349  19906015.76549
  23420903.362 2    -21655.777 2                
 20  5 16  1 45 59.9990000  0  8G04G08G09G11G16G26G27G31             0.000158279
  21212359.237 6  -1495324.996 6  -1148105.66047  21212357.53447
  20350399.081 6  -2499248.258 6  -1921612.50449  20350398.31249
  22684991.331 4  -1806464.000 4  -1499607.13347  22684994.03847
  22941392.448 6  -3427348.223 6  -2586102.25447  22941388.08147
  21320947.081 6  -1172956.297 6   -894636.58647  21320942.15947
  22760919.355 5   -928108.176 5   -706004.86746  22760920.29646
  19905474.042 7  -1454750.363 7  -1120042.09049  19905473.17949
  23420687.675 2    -22787.902 2                
 20  5 16  1 46  0.9990000  0  8G04G08G09G11G16G26G27G31             0.000155954
  21211801.550 6  -1498256.391 6  -1150389.86347  21211799.78047
  20349448.737 6  -2504243.367 6  -1925504.79349  20349447.55049
  22684072.878 4  -1811289.410 4  -1503367.18447  22684075.74947
  22940053.253 6  -3434384.145 6  -2591584.79747  22940049.10547
  21320487.870 6  -1175370.066 6   -896517.43847  21320482.76947
  22760549.683 5   -930047.453 5   -707515.99646  22760551.06946
  19904931.433 7  -1457600.523 7  -1122262.99649  19904931.16749
  23420471.480 2    -23919.887 2                
 20  5 16  1 46  1.9990000  0  8G04G08G09G11G16G26G27G31             0.000153631
  21211243.839 6  -1501187.277 6  -1152673.67647  21211241.90947
  20348498.222 6  -2509237.984 6  -1929396.69949  20348497.42549
  22683154.839 4  -1816114.344 4  -1507126.85947  22683157.21047
  22938714.448 6  -3441420.004 6  -2597067.28547  22938709.99147
  21320028.597 6  -1177783.867 6   -898398.31347  21320023.82747
  22760181.206 5   -931986.836 5   -709027.19546  22760182.22646
  19904389.605 7  -1460450.180 7  -1124483.50049  19904388.96849
  23420255.776 2    -25051.707 2                
 20  5 16  1 46  2.9990000  0  8G04G08G09G11G16G26G27G31             0.000151304
  21210686.058 6  -1504117.691 6  -1154957.11747  21210683.81247
  20347548.151 6  -2514232.180 6  -1933288.28149  20347546.87049
  22682237.487 4  -1820938.781 4  -1510886.16047  22682239.19047
  22937375.831 6  -3448455.867 6  -2602549.77347  22937371.42147
  21319569.565 6  -1180197.715 6   -900279.23847  21319564.38647
  22759812.464 5   -933926.277 5   -710538.44546  22759813.15946
  19903847.401 7  -1463299.379 7  -1126703.65649  19903846.59749
  23420041.081 2    -26183.418 2                
 20  5 16  1 46  3.9990000  0  8G04G08G09G11G16G26G27G31             0.000148979
  21210128.487 6  -1507047.590 6  -1157240.14847  21210126.72647
  20346597.409 6  -2519225.859 6  -1937179.46149  20346596.69849
  22681319.065 3  -1825762.750 3  -1514645.09847  22681321.41747
  22936037.175 6  -3455491.652 6  -2608032.20347  22936032.57747
  21319109.964 6  -1182611.563 6   -902160.16847  21319104.98047
  22759443.472 5   -935865.844 5   -712049.78946  22759443.81946
  19903305.230 7  -1466148.035 7  -1128923.39549  19903304.67949
  23419824.761 2    -27314.879 2                
 20  5 16  1 46  4.9990000  0  8G04G08G09G11G16G26G27G31             0.000146654
  21209571.089 6  -1509977.117 6  -1159522.90647  21209568.94447
  20345647.495 6  -2524219.207 6  -1941070.37949  20345646.42549
  22680401.503 3  -1830586.379 3  -1518403.77347  22680403.59747
  22934698.042 6  -3462527.555 6  -2613514.72747  22934694.03447
  21318650.628 6  -1185025.574 6   -904041.20747  21318645.38647
  22759073.855 5   -937805.621 5   -713561.31346  22759074.50746
  19902763.612 7  -1468996.355 7  -1131142.86349  19902762.33149
  23419609.073 2    -28446.262 2                
 20  5 16  1 46  5.9990000  0  8G04G08G09G11G16G26G27G31             0.000144327
  21209013.698 6  -1512906.273 6  -1161805.37147  21209011.75347
  20344697.144 6  -2529212.238 6  -1944961.05949  20344696.27249
  22679483.964 3  -1835409.629 3  -1522162.14547  22679485.76147
  22933359.026 6  -3469563.566 6  -2618997.32847  22933354.64447
  21318191.355 6  -1187439.754 6   -905922.39547  21318186.14747
  22758704.456 5   -939745.574 5   -715072.96546  22758705.06946
  19902221.409 7  -1471844.313 7  -1133362.04749  19902220.50749
  23419393.065 1    -29577.676 1                
 20  5 16  1 46  6.9990000  0  8G04G08G09G11G16G26G27G31             0.000142002
  21208456.378 6  -1515834.738 6  -1164087.29347  21208454.66347
  20343747.214 6  -2534204.586 6  -1948851.19549  20343746.59349
  22678566.480 3  -1840232.191 3  -1525919.98047  22678568.05047
  22932020.440 6  -3476599.332 6  -2624479.74247  22932015.14447
  21317731.917 6  -1189853.773 6   -907803.45747  21317727.03047
  22758335.753 5   -941685.453 5   -716584.55546  22758336.12446
  19901679.284 7  -1474691.547 7  -1135580.67649  19901678.82749
  23419177.175 1    -30708.645 1                
 20  5 16  1 46  7.9990000  0  8G04G08G09G11G16G26G27G31             0.000139677
  21207899.269 6  -1518762.938 6  -1166369.00447  21207897.03847
  20342797.503 6  -2539196.707 6  -1952741.16049  20342796.23049
  22677647.940 3  -1845054.496 3  -1529677.62147  22677650.70247
  22930681.339 6  -3483635.316 6  -2629962.32847  22930676.60547
  21317272.495 6  -1192268.027 6   -909684.69147  21317267.79247
  22757966.940 5   -943625.637 5   -718096.37946  22757966.99946
  19901137.909 7  -1477538.570 7  -1137799.13349  19901137.37449
  23418960.237 1    -31839.684 1                
 20  5 16  1 46  8.9990000  0  8G04G08G09G11G16G26G27G31             0.000137352
  21207341.878 6  -1521690.758 6  -1168650.43047  21207339.95647
  20341847.362 6  -2544188.477 6  -1956630.84849  20341846.39049
  22676730.042 3  -1849876.473 3  -1533435.00447  22676733.06547
  22929342.612 6  -3490671.352 6  -2635444.94547  22929338.09347
  21316813.058 6  -1194682.445 6   -911566.05547  21316808.14447
  22757597.597 5   -945566.035 5   -719608.39146  22757597.65546
  19900595.847 7  -1480385.199 7  -1140017.28149  19900595.41749
  23418744.550 1    -32970.699 1                
 20  5 16  1 46  9.9990000  0  8G04G08G09G11G16G26G27G31             0.000135025
  21206784.948 6  -1524618.133 6  -1170931.49247  21206782.78847
  20340897.909 6  -2549179.840 6  -1960520.21549  20340897.01949
  22675813.019 3  -1854697.988 3  -1537192.02747  22675815.59347
  22928003.565 6  -3497707.441 6  -2640927.62147  22927999.01147
  21316353.659 6  -1197096.945 6   -913447.47747  21316348.69447
  22757228.464 5   -947506.570 5   -721120.50446  22757228.19446
  19900054.230 7  -1483231.383 7  -1142235.09049  19900053.82349
  23418529.870 1    -34101.645 1                
 20  5 16  1 46 10.9990000  0  8G04G08G09G11G16G26G27G31             0.000132698
  21206227.847 6  -1527544.965 6  -1173212.14847  21206226.04647
  20339947.769 6  -2554170.680 6  -1964409.19149  20339946.98749
  22674895.753 3  -1859518.996 3  -1540948.65247  22674898.67547
  22926664.901 6  -3504743.453 6  -2646410.22347  22926660.12847
  21315893.745 6  -1199511.453 6   -915328.91447  21315889.27647
  22756859.198 5   -949447.184 5   -722632.68046  22756859.32746
  19899512.839 7  -1486077.059 7  -1144452.50449  19899512.36649
  23418314.761 1    -35232.309 1                
 20  5 16  1 46 11.9990000  0  8G04G08G09G11G16G26G27G31             0.000130373
  21205671.222 6  -1530471.340 6  -1175492.43847  21205668.94447
  20338998.050 6  -2559161.066 6  -1968297.79749  20338997.33149
  22673978.612 3  -1864339.500 3  -1544704.88347  22673981.31947
  22925325.886 6  -3511779.430 6  -2651892.79747  22925321.44047
  21315434.558 6  -1201925.969 6   -917210.36747  21315430.17147
  22756489.487 5   -951387.875 5   -724144.91446  22756490.07346
  19898971.659 7  -1488922.250 7  -1146669.53549  19898971.06549
  23418099.300 1    -36362.801 1                
 20  5 16  1 46 12.9990000  0  8G04G08G09G11G16G26G27G31             0.000128046
  21205114.683 6  -1533397.281 6  -1177772.39147  21205112.41747
  20338048.776 6  -2564151.063 6  -1972186.10949  20338047.58949
  22673061.386 4  -1869159.672 4  -1548460.86347  22673064.24147
  22923986.956 6  -3518815.492 6  -2657375.44147  22923982.67547
  21314974.847 6  -1204340.645 6   -919091.92247  21314970.60147
  22756121.105 5   -953328.758 5   -725657.27346  22756121.01546
  19898430.206 7  -1491767.039 7  -1148886.25849  19898429.51149
  23417884.081 1    -37493.285 1                
 20  5 16  1 46 13.9990000  0  8G04G08G09G11G16G26G27G31             0.000125719
  21204557.940 6  -1536322.695 6  -1180051.93047  21204556.07347
  20337099.011 6  -2569140.570 6  -1976074.03149  20337098.30049
  22672144.112 3  -1873979.273 3  -1552216.39147  22672146.97247
  22922647.933 6  -3525851.480 6  -2662858.03147  22922643.42947
  21314514.995 6  -1206755.313 6   -920973.48447  21314511.20647
  22755751.667 5   -955269.723 5   -727169.71546  22755751.35546
  19897888.784 6  -1494611.320 6  -1151102.57449  19897888.70249
  23417669.315 1    -38623.523 1                
 20  5 16  1 46 14.9990000  0  8G04G08G09G11G16G26G27G31             0.000123394
  21204001.480 6  -1539247.699 6  -1182331.15247  21203999.24947
  20336149.753 6  -2574129.668 6  -1979961.64849  20336148.97649
  22671226.511 4  -1878798.527 4  -1555971.65647  22671230.46047
  22921308.847 6  -3532887.469 6  -2668340.61747  22921305.07747
  21314055.519 6  -1209170.078 6   -922855.11747  21314051.60547
  22755382.464 5   -957210.773 5   -728682.21946  22755381.88646
  19897347.667 7  -1497455.172 7  -1153318.56349  19897347.30049
  23417454.737 1    -39753.621 1                
 20  5 16  1 46 15.9990000  0  8G04G08G09G11G16G26G27G31             0.000121067
  21203444.300 6  -1542172.277 6  -1184610.05147  21203442.82747
  20335200.534 6  -2579118.363 6  -1983848.93849  20335200.09349
  22670309.597 3  -1883617.344 3  -1559726.57047  22670313.26947
  22919970.565 6  -3539923.535 6  -2673823.26647  22919966.09747
  21313596.230 6  -1211584.953 6   -924736.84047  21313592.06547
  22755013.167 5   -959152.020 5   -730194.88346  22755012.53446
  19896806.487 7  -1500298.590 7  -1155534.21149  19896806.37449
  23417237.519 1    -40883.691 1                
 20  5 16  1 46 16.9990000  0  8G04G08G09G11G16G26G27G31             0.000118740
  21202888.151 6  -1545096.418 6  -1186888.60547  21202886.44847
  20334251.417 6  -2584106.676 6  -1987735.93849  20334250.43349
  22669392.753 3  -1888435.695 3  -1563481.12147  22669396.32347
  22918631.480 6  -3546959.668 6  -2679305.96547  22918627.40147
  21313136.019 6  -1213999.941 6   -926618.65247  21313132.96047
  22754643.464 5   -961093.461 5   -731707.69146  22754642.96846
  19896265.605 7  -1503141.605 7  -1157749.55549  19896265.56549
  23417023.683 1    -42013.613 1                
 20  5 16  1 46 17.9990000  0  8G04G08G09G11G16G26G27G31             0.000116413
  21202331.636 6  -1548020.090 6  -1189166.79347  21202330.07747
  20333302.386 6  -2589094.543 6  -1991622.58649  20333301.51949
  22668476.190 3  -1893253.645 3  -1567235.35947  22668479.34347
  22917292.370 6  -3553995.742 6  -2684788.61347  22917288.28447
  21312676.612 6  -1216414.996 6   -928500.51646  21312673.01946
  22754273.503 5   -963035.004 5   -733220.58246  22754274.08946
  19895724.784 7  -1505984.152 7  -1159964.52349  19895724.48049
  23416809.542 1    -43143.379 1                
 20  5 16  1 46 18.9990000  0  8G04G08G09G11G16G26G27G31             0.000114088
  21201775.409 6  -1550943.344 6  -1191444.66447  21201774.28847
  20332352.940 6  -2594082.023 6  -1995508.93849  20332352.51949
  22667559.144 3  -1898071.160 3  -1570989.26647  22667562.59747
  22915953.183 6  -3561031.895 6  -2690271.32447  22915948.95247
  21312217.362 6  -1218830.141 6   -930382.44947  21312213.62447
  22753904.206 5   -964976.684 5   -734733.58646  22753904.27246
  19895183.956 7  -1508826.305 7  -1162179.19149  19895183.50749
  23416594.425 1    -44273.102 1                
 20  5 16  1 46 19.9990000  0  8G04G08G09G11G16G26G27G31             0.000111761
  21201219.456 6  -1553866.238 6  -1193722.23847  21201217.60147
  20331404.269 6  -2599069.145 6  -1999395.00449  20331403.26149
  22666643.120 3  -1902888.309 3  -1574742.89147  22666646.23747
  22914614.737 6  -3568068.102 6  -2695754.08647  22914610.32347
  21311757.433 6  -1221245.480 6   -932264.52046  21311753.74546
  22753534.995 5   -966918.605 5   -736246.77746  22753534.76146
  19894643.198 7  -1511668.047 7  -1164393.53149  19894642.86249
  23416379.073 1    -45402.754 1                
 20  5 16  1 46 20.9990000  0  8G04G08G09G11G16G26G27G31             0.000109434
  21200663.565 6  -1556788.672 6  -1195999.46147  21200661.31547
  20330455.089 6  -2604055.879 6  -2003280.77749  20330454.74549
  22665726.706 3  -1907705.063 3  -1578496.21147  22665729.70247
  22913275.503 6  -3575104.391 6  -2701236.91447  22913271.41747
  21311298.206 6  -1223660.891 6   -934146.66447  21311294.35147
  22753164.917 5   -968860.688 5   -737760.09446  22753165.39446
  19894102.253 7  -1514509.398 7  -1166607.57449  19894101.91749
  23416165.542 1    -46532.254 1                
 20  5 16  1 46 21.9990000  0  8G04G08G09G11G16G26G27G31             0.000107107
  21200107.675 6  -1559710.723 6  -1198276.38347  21200106.01947
  20329506.276 6  -2609042.215 6  -2007166.23049  20329505.40149
  22664809.714 3  -1912521.422 3  -1582249.21947  22664813.54647
  22911936.784 6  -3582140.719 6  -2706719.76247  22911932.19847
  21310838.730 6  -1226076.434 6   -936028.90647  21310834.79247
  22752796.105 5   -970802.934 5   -739273.53546  22752795.80046
  19893561.980 7  -1517350.359 7  -1168821.31349  19893561.37449
  23415950.370 1    -47661.797 1                
 20  5 16  1 46 22.9990000  0  8G04G08G09G11G16G26G27G31             0.000104778
  21199551.253 6  -1562632.430 6  -1200553.03547  21199550.05447
  20328557.323 6  -2614028.270 6  -2011051.46549  20328557.04249
  22663893.542 3  -1917337.453 3  -1586001.96947  22663896.72647
  22910597.472 6  -3589177.160 6  -2712202.70747  22910593.26547
  21310378.769 6  -1228492.180 6   -937911.30946  21310374.88246
  22752426.026 5   -972745.418 5   -740787.16846  22752425.96846
  19893021.386 7  -1520190.961 7  -1171034.77049  19893021.05849
  23415733.651 1    -48791.125 1                
 20  5 16  1 46 23.9990000  0  8G04G08G09G11G16G26G27G31             0.000102451
  21198995.433 6  -1565553.625 6  -1202829.29747  21198993.79247
  20327608.526 6  -2619013.820 6  -2014936.31349  20327607.84349
  22662977.323 3  -1922152.973 3  -1589754.30947  22662980.23047
  22909258.425 6  -3596213.551 6  -2717685.59847  22909254.66347
  21309919.284 6  -1230907.910 6   -939793.69547  21309915.26947
  22752056.034 5   -974687.980 5   -742300.85946  22752056.43746
  19892480.917 7  -1523031.070 7  -1173247.84049  19892480.61249
  23415518.737 1    -49920.398 1                
 20  5 16  1 46 24.9990000  0  8G04G08G09G11G16G26G27G31             0.000100124
  21198439.737 6  -1568474.285 6  -1205105.12947  21198438.11247
  20326660.409 6  -2623998.871 6  -2018820.76249  20326659.38249
  22662060.909 3  -1926967.965 3  -1593506.25047  22662064.03447
  22907919.698 6  -3603249.887 6  -2723168.46147  22907915.16747
  21309459.831 6  -1233323.688 6   -941676.11347  21309455.97647
  22751686.355 5   -976630.613 5   -743814.58246  22751686.78046
  19891940.526 7  -1525870.660 7  -1175460.50849  19891939.92149
  23415303.409 1    -51049.445 1                
 20  5 16  1 46 25.9990000  0  8G04G08G09G11G16G26G27G31             0.000097797
  21197884.026 6  -1571394.492 6  -1207380.61347  21197881.89447
  20325711.862 6  -2628983.496 6  -2022704.89549  20325711.12449
  22661144.284 3  -1931782.551 3  -1597257.87547  22661147.81247
  22906580.331 6  -3610286.234 6  -2728651.32847  22906576.42147
  21309000.081 5  -1235739.488 5   -943558.55547  21308996.12447
  22751316.745 5   -978573.363 5   -745328.42646  22751317.58146
  19891400.480 7  -1528709.793 7  -1177672.81649  19891400.09349
  23415088.683 1    -52178.359 1                
 20  5 16  1 46 26.9990000  0  8G04G08G09G11G16G26G27G31             0.000095459
  21197328.394 6  -1574314.234 6  -1209655.74247  21197327.15547
  20324763.308 6  -2633967.699 6  -2026588.68849  20324762.42149
  22660228.855 3  -1936596.652 3  -1601009.11747  22660232.35147
  22905241.503 6  -3617322.535 6  -2734134.16447  22905237.49547
  21308540.784 6  -1238155.375 6   -945441.06647  21308536.31247
  22750946.792 5   -980516.207 5   -746842.34046  22750947.45246
  19890860.019 7  -1531548.465 7  -1179884.77349  19890859.92549
  23414873.61211                                
 20  5 16  1 46 27.9990000  0  8G04G08G09G11G16G26G27G31             0.000093134
  21196772.917 6  -1577233.734 6  -1211930.68047  21196770.98047
  20323815.073 6  -2638951.672 6  -2030472.30549  20323813.82749
  22659312.612 3  -1941410.551 3  -1604760.21147  22659315.79247
  22903902.339 6  -3624359.121 6  -2739617.21947  22903898.52247
  21308080.620 6  -1240571.598 6   -947323.83647  21308076.86647
  22750576.909 5   -982459.434 5   -748356.54746  22750577.86246
  19890320.120 7  -1534386.918 7  -1182096.55549  19890319.71449
  23414657.901 1                                
 20  5 16  1 46 28.9990000  0  8G04G08G09G11G16G26G27G31             0.000090805
  21196217.417 6  -1580152.863 6  -1214205.33647  21196215.27647
  20322866.589 6  -2643935.285 6  -2034355.64149  20322865.85849
  22658396.855 3  -1946224.043 3  -1608510.98447  22658399.72647
  22902563.433 6  -3631395.750 6  -2745100.30947  22902559.92947
  21307620.417 5  -1242987.938 5   -949206.70347  21307616.82747
  22750206.901 5   -984402.879 5   -749870.93046  22750207.76946
  19889779.894 7  -1537224.977 7  -1184308.03149  19889779.52249
  23414442.565 1                                
 20  5 16  1 46 29.9990000  0  8G04G08G09G11G16G26G27G31             0.000088478
  21195662.058 6  -1583071.434 6  -1216479.54347  21195660.31947
  20321918.276 6  -2648918.398 6  -2038238.58649  20321917.48349
  22657481.050 3  -1951037.008 3  -1612261.34847  22657484.05847
  22901224.605 6  -3638432.305 6  -2750583.33247  22901220.67947
  21307160.581 6  -1245404.246 6   -951089.54347  21307157.18747
  22749837.019 5   -986346.336 5   -751385.30946  22749838.37046
  19889240.026 7  -1540062.531 7  -1186519.10949  19889239.33949
  23414228.72211                                
 20  5 16  1 46 30.9990000  0  8G04G08G09G11G16G26G27G31             0.000086149
  21195106.917 6  -1585989.516 6  -1218753.37147  21195105.15547
  20320970.362 6  -2653901.012 6  -2042121.14549  20320969.26949
  22656565.378 4  -1955849.531 4  -1616011.36747  22656568.71447
  22899885.519 6  -3645468.801 6  -2756066.31647  22899881.18347
  21306700.925 5  -1247820.594 5   -952972.40247  21306697.14447
  22749466.909 5   -988289.875 5   -752899.75846  22749468.24546
  19888700.245 7  -1542899.566 7  -1188729.78949  19888699.64049
  23414012.714 1    -57821.785 1                
 20  5 16  1 46 31.9990000  0  8G04G08G09G11G16G26G27G31             0.000083822
  21194551.370 6  -1588907.113 6  -1221026.82847  21194550.20647
  20320022.300 6  -2658883.215 6  -2046003.38349  20320021.30449
  22655650.065 4  -1960661.531 4  -1619760.96947  22655652.64047
  22898546.183 6  -3652505.324 6  -2761549.30947  22898542.74147
  21306241.073 5  -1250237.008 5   -954855.32047  21306237.65147
  22749097.175 5   -990233.512 5   -754414.29346  22749098.35546
  19888160.550 7  -1545736.164 7  -1190940.12149  19888159.77249
  23413797.12011                                
 20  5 16  1 46 32.9990000  0  8G04G08G09G11G16G26G27G31             0.000081495
  21193996.394 6  -1591824.375 6  -1223300.02347  21193995.01947
  20319074.175 6  -2663865.078 6  -2049885.35249  20319073.23749
  22654734.480 4  -1965473.242 4  -1623510.35947  22654736.68747
  22897207.378 6  -3659541.938 6  -2767032.38347  22897203.69047
  21305781.042 5  -1252653.570 5   -956738.35246  21305777.63646
  22748726.690 5   -992177.434 5   -755929.03146  22748728.21446
  19887620.714 7  -1548572.387 7  -1193150.16849  19887619.96449
  23413582.776 1                                
 20  5 16  1 46 33.9990000  0  7G04G08G09G11G16G26G27                0.000079166
  21193441.308 6  -1594741.340 6  -1225572.98447  21193439.14047
  20318126.323 6  -2668846.672 6  -2053767.11349  20318125.26949
  22653819.253 4  -1970284.648 4  -1627259.50847  22653821.11247
  22895868.230 6  -3666578.727 6  -2772515.60247  22895864.86647
  21305321.128 5  -1255070.391 5   -958621.59446  21305317.53846
  22748357.261 5   -994121.598 5   -757443.97746  22748358.48046
  19887080.933 7  -1551408.324 7  -1195359.98849  19887080.58549
 20  5 16  1 46 34.9990000  0  7G04G08G09G11G16G26G27                0.000076838
  21192886.487 6  -1597657.789 6  -1227845.54747  21192884.51547
  20317178.222 7  -2673827.781 7  -2057648.49649  20317177.28049
  22652904.730 4  -1975095.578 4  -1631008.28547  22652905.76147
  22894528.933 6  -3673615.453 6  -2777998.77047  22894525.50747
  21304861.894 6  -1257487.238 6   -960504.84446  21304858.06546
  22747987.112 5   -996065.867 5   -758958.98446  22747987.76546
  19886541.386 7  -1554243.773 7  -1197569.43049  19886540.88649
 20  5 16  1 46 35.9990000  0  7G04G08G09G11G16G26G27                0.000074509
  21192331.308 6  -1600574.023 6  -1230117.93047  21192329.56947
  20316230.519 6  -2678808.715 6  -2061529.74249  20316229.84349
  22651989.815 4  -1979906.289 4  -1634756.89147  22651990.36647
  22893190.269 6  -3680652.449 6  -2783482.14147  22893186.67547
  21304401.112 6  -1259904.414 6   -962388.36747  21304398.15547
  22747617.448 5   -998010.496 5   -760474.28146  22747617.84346
  19886001.815 7  -1557079.023 7  -1199778.71549  19886001.38249
 20  5 16  1 46 36.9990000  0  7G04G08G09G11G16G26G27                0.000072180
  21191776.519 6  -1603489.719 6  -1232389.89847  21191774.82347
  20315282.667 6  -2683789.121 6  -2065410.57849  20315281.79649
  22651073.894 4  -1984716.465 4  -1638505.07847  22651075.14447
  22891851.097 6  -3687689.355 6  -2788965.43847  22891847.43347
  21303941.565 6  -1262321.531 6   -964271.84047  21303938.13247
  22747246.433 5   -999955.164 5   -761989.60546  22747247.85146
  19885462.433 7  -1559913.719 7  -1201987.57449  19885461.77249
 20  5 16  1 46 37.9990000  0  7G04G08G09G11G16G26G27                0.000069853
  21191221.808 6  -1606404.773 6  -1234661.37147  21191220.03847
  20314335.058 7  -2688768.930 7  -2069290.94549  20314334.23749
  22650158.667 4  -1989526.039 4  -1642252.80148  22650159.71048
  22890511.690 6  -3694726.074 6  -2794448.59047  22890508.34747
  21303481.495 6  -1264738.574 6   -966155.25847  21303478.36247
  22746877.081 5  -1001899.793 5   -763504.92646  22746878.02246
  19884923.183 7  -1562747.785 7  -1204195.93449  19884922.16349
 20  5 16  1 46 38.9990000  0  7G04G08G09G11G16G26G27                0.000067524
  21190667.206 6  -1609319.371 6  -1236932.48847  21190665.58147
  20313387.542 6  -2693748.316 6  -2073170.99649  20313386.68749
  22649243.620 4  -1994335.102 4  -1646000.11747  22649244.65947
  22889173.003 6  -3701762.770 6  -2799931.72747  22889169.31947
  21303022.042 6  -1267155.664 6   -968038.69947  21303018.33547
  22746506.948 5  -1003844.500 5   -765020.27746  22746507.70646
  19884383.847 7  -1565581.383 7  -1206403.93849  19884383.43349
 20  5 16  1 46 39.9990000  0  7G04G08G09G11G16G26G27                0.000065195
  21190112.847 6  -1612233.512 6  -1239203.24647  21190110.99147
  20312440.331 7  -2698727.297 7  -2077050.71549  20312438.91349
  22648329.394 4  -1999143.777 4  -1649747.13747  22648329.79647
  22887834.026 6  -3708799.512 6  -2805414.89547  22887830.53847
  21302561.675 6  -1269572.836 6   -969922.21547  21302558.04647
  22746137.214 5  -1005789.395 5   -766535.81646  22746137.40146
  19883844.800 7  -1568414.574 7  -1208611.61349  19883844.21049
 20  5 16  1 46 40.9990000  0  7G04G08G09G11G16G26G27                0.000062866
  21189558.019 6  -1615147.242 6  -1241473.68847  21189556.66747
  20311492.776 7  -2703705.859 7  -2080930.11349  20311492.05049
  22647414.362 4  -2003952.027 4  -1653493.82048  22647414.33948
  22886494.925 6  -3715836.266 6  -2810898.08247  22886491.24547
  21302101.370 6  -1271990.117 6   -971805.81347  21302098.17147
  22745766.800 5  -1007734.445 5   -768051.43846  22745767.05446
  19883305.745 7  -1571247.336 7  -1210818.95749  19883305.02649
 20  5 16  1 46 41.9990000  0  7G04G08G09G11G16G26G27                0.000060537
  21189003.972 6  -1618060.461 6  -1243743.73447  21189001.99547
  20310545.253 6  -2708683.949 6  -2084809.14849  20310544.32349
  22646499.386 5  -2008759.863 5  -1657240.18448  22646499.55048
  22885155.855 6  -3722873.020 6  -2816381.27047  22885152.28047
  21301641.761 6  -1274407.438 6   -973689.43847  21301638.43347
  22745397.339 5  -1009679.594 5   -769567.12546  22745396.61246
  19882766.495 7  -1574079.609 7  -1213025.92649  19882766.00349
 20  5 16  1 46 42.9990000  0  7G04G08G09G11G16G26G27                0.000058208
  21188449.362 6  -1620973.363 6  -1246013.52347  21188447.87047
  20309598.315 7  -2713661.750 7  -2088687.95349  20309597.36249
  22645584.831 5  -2013567.281 5  -1660986.22348  22645584.64048
  22883816.503 6  -3729909.902 6  -2821864.55147  22883813.30447
  21301181.878 6  -1276824.977 6   -975573.23046  21301178.57346
  22745027.261 5  -1011624.973 5   -771083.00446  22745026.24546
  19882227.745 7  -1576911.566 7  -1215232.64849  19882227.30049
 20  5 16  1 46 43.9990000  0  7G04G08G09G11G16G26G27                0.000055880
  21187895.073 6  -1623885.883 6  -1248283.02047  21187893.51547
  20308650.761 6  -2718639.180 6  -2092566.47349  20308650.16749
  22644670.667 5  -2018374.402 5  -1664732.03148  22644669.96048
  22882477.159 6  -3736946.832 6  -2827347.87547  22882474.00747
  21300721.605 6  -1279242.645 6   -977457.12547  21300718.44047
  22744656.855 5  -1013570.566 5   -772599.05546  22744656.67546
  19881688.948 7  -1579743.148 7  -1217439.07049  19881688.41349
 20  5 16  1 46 44.9990000  0  7G04G08G09G11G16G26G27                0.000053551
  21187341.167 6  -1626797.949 6  -1250552.16847  21187339.50347
  20307703.706 7  -2723616.199 7  -2096444.66449  20307702.98349
  22643755.409 5  -2023181.043 5  -1668477.46148  22643755.42548
  22881137.909 6  -3743983.777 6  -2832831.20747  22881134.87047
  21300261.308 6  -1281660.398 6   -979341.09847  21300258.65147
  22744286.464 5  -1015516.289 5   -774115.20746  22744286.10146
  19881150.183 7  -1582574.273 7  -1219645.14549  19881149.80849
 20  5 16  1 46 45.9990000  0  7G04G08G09G11G16G26G27                0.000051222
  21186787.425 6  -1629709.707 6  -1252821.06647  21186785.56947
  20306756.769 6  -2728592.930 6  -2100322.63349  20306756.18349
  22642840.917 5  -2027987.379 5  -1672222.65648  22642840.49548
  22879799.347 6  -3751020.867 6  -2838314.64847  22879796.07347
  21299801.198 6  -1284078.379 6   -981225.24647  21299798.15147
  22743916.511 5  -1017462.273 5   -775631.55146  22743915.65146
  19880611.347 7  -1585405.113 7  -1221850.99249  19880611.07349
 20  5 16  1 46 46.9990000  0  7G04G08G09G11G16G26G27                0.000048891
  21186232.948 6  -1632621.105 6  -1255089.69147  21186231.30847
  20305809.855 6  -2733569.309 6  -2104200.32849  20305809.44049
  22641926.534 5  -2032793.355 5  -1675967.56648  22641926.04248
  22878460.542 6  -3758058.051 6  -2843798.16847  22878457.04247
  21299340.901 6  -1286496.496 6   -983109.49247  21299338.81247
  22743546.065 5  -1019408.508 5   -777148.10546  22743545.34346
  19880072.815 7  -1588235.563 7  -1224056.53949  19880072.49149
 20  5 16  1 46 47.9990000  0  7G04G08G09G11G16G26G27                0.000046562
  21185679.105 6  -1635532.094 6  -1257358.00047  21185677.62447
  20304862.808 6  -2738545.336 6  -2108077.75449  20304862.60549
  22641011.987 5  -2037598.984 5  -1679712.21148  22641011.73748
  22877120.737 6  -3765095.340 6  -2849281.77047  22877117.63647
  21298880.878 6  -1288914.777 6   -984993.87147  21298877.91347
  22743175.964 5  -1021354.918 5   -778664.79346  22743174.70246
  19879534.237 7  -1591065.664 7  -1226261.81349  19879533.78849
 20  5 16  1 46 48.9990000  0  7G04G08G09G11G16G26G27                0.000044231
  21185125.261 6  -1638442.617 6  -1259625.93447  21185123.37047
  20303915.917 6  -2743520.902 6  -2111954.82049  20303915.51549
  22640097.089 5  -2042404.164 5  -1683456.51247  22640097.35547
  22875781.636 6  -3772132.594 6  -2854765.34847  22875778.58547
  21298420.456 6  -1291333.090 6   -986878.26647  21298417.74947
  22742805.183 5  -1023301.418 5   -780181.55546  22742804.18746
  19878995.855 7  -1593895.293 7  -1228466.71549  19878995.28849
 20  5 16  1 46 49.9990000  0  7G04G08G09G11G16G26G27                0.000041903
  21184571.644 6  -1641352.688 6  -1261893.52347  21184569.80047
  20302969.222 6  -2748496.027 6  -2115831.54349  20302968.53049
  22639182.542 4  -2047208.816 4  -1687200.39548  22639182.62448
  22874442.800 6  -3779169.844 6  -2860248.92247  22874439.39747
  21297960.448 6  -1293751.480 6   -988762.73447  21297957.49547
  22742435.097 5  -1025248.078 5   -781698.43846  22742434.18746
  19878457.034 7  -1596724.449 7  -1230671.25449  19878456.59749
 20  5 16  1 46 50.9990000  0  7G04G08G09G11G16G26G27                0.000039574
  21184017.636 6  -1644262.418 6  -1264160.84847  21184016.11247
  20302022.597 6  -2753470.813 6  -2119707.99249  20302022.17149
  22638268.651 5  -2052013.215 5  -1690944.07848  22638268.28848
  22873102.792 6  -3786207.207 6  -2865732.57847  22873100.33147
  21297500.245 6  -1296170.059 6   -990647.33647  21297497.76147
  22742064.065 5  -1027194.969 5   -783215.49646  22742063.30446
  19877918.823 7  -1599553.309 7  -1232875.56349  19877918.45649
 20  5 16  1 46 51.9990000  0  7G04G08G09G11G16G26G27                0.000037243
  21183464.425 6  -1647171.715 6  -1266427.83647  21183462.51547
  20301076.065 6  -2758445.234 6  -2123584.16849  20301075.83549
  22637354.276 4  -2056817.180 4  -1694687.42248  22637354.36248
  22871764.440 6  -3793244.621 6  -2871216.27347  22871761.17147
  21297039.886 6  -1298588.758 6   -992532.03147  21297036.83147
  22741693.370 5  -1029142.027 5   -784732.68446  22741692.99546
  19877380.659 7  -1602381.746 7  -1235079.53549  19877380.36649
 20  5 16  1 46 52.9990000  0  7G04G08G09G11G16G26G27                0.000034912
  21182910.964 6  -1650080.516 6  -1268694.43447  21182909.27247
  20300129.308 6  -2763419.184 6  -2127459.96949  20300128.92549
  22636440.284 4  -2061620.645 4  -1698430.38748  22636440.03848
  22870425.628 6  -3800281.984 6  -2876699.93447  22870421.91747
  21296579.464 6  -1301007.457 6   -994416.73047  21296577.12447
  22741322.917 5  -1031089.188 5   -786249.94146  22741322.46446
  19876842.784 6  -1605209.676 6  -1237283.12149  19876842.55449
