     2.10           OBSERVATION DATA    GPS(GPS)            RINEX VERSION / TYPE
cnvtToRINEX 2.50.0  convertToRINEX OPR  30-May-18 13:33 UTC PGM / RUN BY / DATE 
----------------------------------------------------------- COMMENT             
GI24                                                        MARKER NAME         
GI24                                                        MARKER NUMBER       
GNSS Observer       Trimble                                 OBSERVER / AGENCY   
0440102809          5700                2.32                REC # / TYPE / VERS 
                    TRM39105.00                             ANT # / TYPE        
 -2965928.7357  5005127.2099  2605674.5753                  APPROX POSITION XYZ 
        0.1030        0.0000        0.0000                  ANTENNA: DELTA H/E/N
     1     1     0                                          WAVELENGTH FACT L1/2
     4    C1    L1    L2    P2                              # / TYPES OF OBSERV 
  2018     5    30     0    17   55.0000000     GPS         TIME OF FIRST OBS   
  2018     5    30     1    35   45.0000000     GPS         TIME OF LAST OBS    
     0                                                      RCV CLOCK OFFS APPL 
    17                                                      LEAP SECONDS        
    12                                                      # OF SATELLITES     
   G03   764   757   587   587                              PRN / # OF OBS      
   G08   431   429   428   428                              PRN / # OF OBS      
   G14   935   935   935   935                              PRN / # OF OBS      
   G16   935   935   935   935                              PRN / # OF OBS      
   G21   436   435   357   357                              PRN / # OF OBS      
   G22   784   776   617   617                              PRN / # OF OBS      
   G23   789   778   700   700                              PRN / # OF OBS      
   G26   935   935   935   935                              PRN / # OF OBS      
   G27   935   935   935   935                              PRN / # OF OBS      
   G29   268   254   198   198                              PRN / # OF OBS      
   G31   935   935   935   935                              PRN / # OF OBS      
   G32   742   738   742   742                              PRN / # OF OBS      
CARRIER PHASE MEASUREMENTS: PHASE SHIFTS REMOVED            COMMENT             
                                                            END OF HEADER       
 18  5 30  0 17 55.0000000  0  8G14G16G22G26G27G29G31G32            -0.000495266
  20394919.09416    -75428.60216    -46258.64858  20394916.44558
  20575764.07816   -152171.36716    -89907.03957  20575760.09857
  23442398.81316    -86920.23816    -60264.07057  23442394.79757
  20448554.46117    -80542.34417    -53095.76658  20448554.63758
  22943098.93016   -216423.84416    -89291.43057  22943098.04357
  23327836.19516    -29391.44516    -16275.19557  23327833.35557
  21439477.64117   -106726.62917    -71127.56658  21439474.31358
  22236661.14116    -11836.00816     -8062.99257  22236661.78957
 18  5 30  0 17 59.9990000  0  8G14G16G22G26G27G29G31G32             0.000494383
  20392894.128 6    -86069.918 6    -54550.59048  20392891.42548
  20571800.355 6   -173000.945 6   -106137.88347  20571796.42947
  23440239.886 6    -98268.090 6    -69106.57047  23440235.40547
  20446222.034 7    -92799.789 7    -62647.02748  20446221.74948
  22936521.573 6   -250988.246 6   -116224.71547  22936520.02247
  23326927.440 6    -34168.406 6    -19997.50447  23326924.08147
  21436839.675 7   -120591.246 7    -81931.16848  21436836.11248
  22236348.605 6    -13477.637 6     -9342.19947  22236349.21847
 18  5 30  0 18  4.9990000  0  8G14G16G22G26G27G29G31G32             0.000484016
  20390867.511 6    -96719.723 6    -62849.14148  20390864.74148
  20567834.667 6   -193843.000 6   -122378.44147  20567830.00347
  23438077.495 6   -109630.461 6    -77960.36747  23438073.34347
  20443886.737 7   -105071.828 7    -72209.65648  20443886.84348
  22929939.597 6   -285577.270 6   -143177.19547  22929938.10147
  23326016.073 6    -38955.008 6    -23727.34447  23326013.43747
  21434197.440 7   -134476.840 7    -92751.12148  21434193.83948
  22236034.128 6    -15131.223 6    -10630.71547  22236034.62847
 18  5 30  0 18  9.9990000  0  8G14G16G22G26G27G29G31G32             0.000473639
  20388840.050 6   -107374.531 6    -71151.59448  20388837.45648
  20563866.769 6   -214692.094 6   -138624.49247  20563862.76147
  23435913.011 6   -121003.832 6    -86822.75047  23435909.22647
  20441548.761 7   -117354.715 7    -81780.73848  20441549.09748
  22923354.440 6   -320182.633 6   -170142.42247  22923353.16347
  23325103.870 6    -43749.051 6    -27462.95747  23325101.10147
  21431552.175 7   -148379.297 7   -103584.21148  21431548.15148
  22235718.206 6    -16795.129 6    -11927.28547  22235718.30047
 18  5 30  0 18 14.9990000  0  8G14G16G22G26G27G29G31G32             0.000463247
  20386811.901 6   -118032.961 6    -79456.86748  20386808.78848
  20559898.417 6   -235546.816 6   -154874.94547  20559894.69047
  23433747.073 6   -132386.793 6    -95692.58247  23433742.76547
  20439210.120 7   -129647.031 7    -91359.16848  20439209.93748
  22916766.136 5   -354802.930 5   -197119.27747  22916764.98747
  23324190.058 6    -48549.137 6    -31203.30947  23324187.60147
  21428903.480 7   -162297.238 7   -114429.36748  21428900.45248
  22235399.394 6    -18467.957 6    -13230.79347  22235399.49947
 18  5 30  0 18 19.9990000  0  9G03G14G16G22G26G27G29G31G32          0.000452845
  23588222.08912    -86954.39112                
  20384783.269 6   -128693.395 6    -87763.69548  20384780.59748
  20555929.487 6   -256405.402 6   -171128.38747  20555924.98347
  23431579.534 6   -143777.629 6   -104568.55947  23431575.17147
  20436869.519 7   -141947.121 7   -100943.65248  20436869.40148
  22910175.019 5   -389436.508 5   -224106.46147  22910174.64747
  23323276.112 6    -53353.473 6    -34946.96147  23323273.56947
  21426252.526 7   -176228.941 7   -125285.25048  21426249.28848
  22235079.456 6    -20148.016 6    -14539.94147  22235079.81947
 18  5 30  0 18 24.9990000  0  9G03G14G16G22G26G27G29G31G32          0.000442434
  23585304.956 2   -102284.688 2                
  20382754.339 6   -139355.242 6    -96071.63348  20382751.79648
  20551959.511 6   -277267.477 6   -187384.54747  20551955.17947
  23429410.886 6   -155175.871 6   -113450.31347  23429406.35547
  20434527.308 7   -154254.484 7   -110533.80948  20434527.97648
  22903582.214 6   -424082.816 6   -251103.58647  22903581.54647
  23322360.933 6    -58161.688 6    -38693.62547  23322358.05447
  21423598.745 7   -190173.988 7   -136151.52348  21423594.95248
  22234759.284 6    -21834.867 6    -15854.37547  22234758.29247
 18  5 30  0 18 29.9990000  0  9G03G14G16G22G26G27G29G31G32          0.000432014
  23582386.534 2   -117617.152 2                
  20380725.300 7   -150017.211 7   -104379.67648  20380722.72648
  20547988.847 6   -298131.688 6   -203642.38747  20547985.07747
  23427240.878 6   -166580.215 6   -122336.84047  23427236.43347
  20432184.206 7   -166567.859 7   -120128.65248  20432184.52248
  22896987.511 6   -458740.531 6   -278109.60247  22896986.40547
  23321445.081 5    -62972.492 5    -42442.30947  23321442.96447
  21420943.003 7   -204131.020 7   -147027.14148  21420939.26948
  22234436.909 6    -23527.176 6    -17173.07047  22234436.59747
 18  5 30  0 18 34.9990000  0  9G03G14G16G22G26G27G29G31G32          0.000421585
  23579470.081 2   -132952.266 2                
  20378696.730 7   -160679.820 7   -112688.20748  20378693.10148
  20544018.331 6   -318998.531 6   -219902.27047  20544014.36647
  23425068.753 6   -177991.176 6   -131228.50047  23425064.41347
  20429839.714 7   -178887.730 7   -129728.54748  20429840.32348
  22890389.339 6   -493410.160 6   -305124.88347  22890389.41747
  23320529.659 6    -67786.387 6    -46193.40247  23320527.17547
  21418284.495 7   -218100.535 7   -157912.48448  21418281.09348
  22234113.659 6    -25225.473 6    -18496.41047  22234113.24147
 18  5 30  0 18 39.9990000  0  9G03G14G16G22G26G27G29G31G32          0.000411146
  23576549.472 1   -148289.105 1                
  20376667.651 7   -171342.059 7   -120996.45348  20376664.12448
  20540047.198 6   -339867.020 6   -236163.43847  20540043.09747
  23422897.159 6   -189407.773 6   -140124.55547  23422891.84747
  20427494.558 7   -191213.063 7   -139332.70349  20427494.86249
  22883790.128 5   -528090.633 5   -332148.63347  22883789.71047
  23319612.651 6    -72602.313 6    -49946.07847  23319610.39447
  21415623.800 7   -232081.516 7   -168806.76248  21415620.64748
  22233789.683 6    -26928.738 6    -19823.64847  22233788.70247
 18  5 30  0 18 44.9990000  0  9G03G14G16G22G26G27G29G31G32          0.000400700
  23573631.776 1   -163627.031 1                
  20374638.487 6   -182003.363 6   -129303.96948  20374635.22648
  20536075.612 6   -360736.633 6   -252425.48047  20536071.75347
  23420722.753 6   -200829.457 6   -149024.57447  23420718.31547
  20425147.808 7   -203543.375 7   -148940.73049  20425148.48349
  22877189.230 4   -562781.522 4   -359180.49047  22877188.34347
  23318696.183 6    -77419.789 6    -53699.96547  23318693.54647
  21412961.323 7   -246073.406 7   -179709.54748  21412957.93748
  22233464.339 6    -28636.445 6    -21154.32847  22233464.06547
 18  5 30  0 18 49.9990000  0  9G03G14G16G22G26G27G29G31G32          0.000390245
  23570712.784 1   -178965.910 1                
  20372610.558 6   -192663.594 6   -137610.66048  20372607.11648
  20532103.737 6   -381607.109 6   -268688.19547  20532100.12447
  23418549.065 6   -212256.039 6   -157928.40647  23418544.16747
  20422801.034 7   -215878.445 7   -158552.48048  20422801.73048
  22870585.206 5   -597482.383 5   -386220.10947  22870584.68747
  23317779.378 6    -82238.605 6    -57454.89847  23317776.65947
  21410296.597 7   -260076.023 7   -190620.68048  21410293.39048
  22233139.261 6    -30348.367 6    -22488.30947  22233138.43347
 18  5 30  0 18 54.9990000  0  9G03G14G16G22G26G27G29G31G32          0.000379782
  23567792.792 2   -194305.387 2                
  20370582.230 7   -203322.375 7   -145916.20348  20370578.21448
  20528132.792 6   -402478.180 6   -284951.36747  20528128.47247
  23416373.542 6   -223687.234 6   -166835.85947  23416368.76147
  20420453.034 7   -228217.973 7   -168167.69149  20420453.31249
  22863979.933 5   -632193.078 5   -413267.41447  22863979.30047
  23316861.839 6    -87058.406 6    -61210.62147  23316860.14047
  21407629.956 7   -274088.988 7   -201539.87948  21407626.59348
  22232812.276 6    -32064.266 6    -23825.37547  22232811.53047
 18  5 30  0 18 59.9990000  0  9G03G14G16G22G26G27G29G31G32          0.000369308
  23564872.597 1   -209644.910 1                
  20368553.792 7   -213979.148 7   -154220.19548  20368550.48748
  20524160.808 6   -423349.270 6   -301214.55547  20524157.02247
  23414197.089 6   -235122.473 6   -175746.43447  23414192.89447
  20418103.745 7   -240561.387 7   -177785.94549  20418104.25749
  22857373.409 5   -666912.980 5   -440321.87947  22857372.11247
  23315944.433 5    -91878.723 5    -64966.71547  23315942.72247
  21404961.433 7   -288111.781 7   -212466.74248  21404958.40948
  22232485.331 6    -33783.543 6    -25165.07447  22232484.64447
 18  5 30  0 19  4.9990000  0  9G03G14G16G22G26G27G29G31G32          0.000358829
  23561953.401 1   -224983.980 1                
  20366526.573 7   -224633.438 7   -162522.24248  20366522.95648
  20520189.503 6   -444219.770 6   -317477.29747  20520185.44447
  23412020.230 6   -246561.230 6   -184659.76247  23412015.81247
  20415754.386 7   -252908.199 7   -187406.84449  20415754.57749
  22850764.472 5   -701641.512 5   -467383.06647  22850763.71447
  23315027.339 6    -96698.992 6    -68722.78147  23315025.82347
  21402291.355 7   -302143.879 7   -223400.85248  21402287.81248
  22232157.323 6    -35505.664 6    -26507.00047  22232156.69047
 18  5 30  0 19  9.9990000  0  9G03G14G16G22G26G27G29G31G32          0.000348343
  23559037.105 1   -240322.590 1                
  20364499.565 7   -235285.199 7   -170822.31648  20364496.12448
  20516217.823 6   -465089.801 6   -333739.65647  20516213.83947
  23409842.940 6   -258003.512 6   -193575.82447  23409839.03447
  20413404.362 7   -265258.367 7   -197030.35549  20413405.03449
  22844154.151 5   -736378.680 5   -494450.99647  22844153.19447
  23314110.315 6   -101519.227 6    -72478.81347  23314108.36647
  21399619.276 7   -316185.230 7   -234342.16448  21399615.85548
  22231829.214 6    -37230.676 6    -27851.16847  22231828.74547
 18  5 30  0 19 14.9990000  0  9G03G14G16G22G26G27G29G31G32          0.000337851
  23556117.925 1   -255660.051 1                
  20362473.081 6   -245933.777 6   -179119.91448  20362469.59748
  20512247.401 6   -485958.660 6   -350001.09847  20512242.69847
  23407665.237 6   -269448.660 6   -202494.11747  23407660.74547
  20411053.862 7   -277611.273 7   -206655.99249  20411054.32749
  22837542.683 6   -771123.813 6   -521525.12547  22837541.51947
  23313193.378 6   -106338.785 6    -76234.32047  23313191.51547
  21396945.737 7   -330235.219 7   -245290.21548  21396942.05048
  22231500.597 6    -38957.891 6    -29197.05147  22231499.92547
 18  5 30  0 19 19.9990000  0  9G03G14G16G22G26G27G29G31G32          0.000327349
  23553200.362 1   -270996.063 1                
  20360447.433 6   -256578.820 6   -187414.75848  20360443.72248
  20508276.222 6   -506825.965 6   -366261.33647  20508271.53847
  23405486.300 5   -280896.363 5   -211414.39846  23405482.89446
  20408702.597 7   -289966.559 7   -216283.48849  20408702.81249
  22830928.823 5   -805876.535 5   -548605.16847  22830928.24547
  23312275.620 6   -111157.293 6    -79989.03547  23312274.42147
  21394270.362 7   -344293.453 7   -256244.69548  21394266.87848
  22231171.862 6    -40686.969 6    -30544.40247  22231171.22247
 18  5 30  0 19 24.9990000  0  9G03G14G16G22G26G27G29G31G32          0.000316841
  23550283.112 1   -286330.484 1                
  20358422.808 7   -267220.195 7   -195706.73448  20358419.12048
  20504305.206 6   -527691.676 6   -382520.32847  20504300.78047
  23403307.815 5   -292346.453 5   -220336.54746  23403303.56946
  20406351.042 7   -302324.113 7   -225912.75449  20406351.43349
  22824314.331 5   -840636.672 5   -575691.00447  22824313.65547
  23311359.401 6   -115974.684 6    -83742.84447  23311358.18347
  21391593.815 7   -358359.828 7   -267205.50048  21391590.17948
  22230842.339 6    -42417.809 6    -31893.11347  22230841.97247
 18  5 30  0 19 29.9990000  0  8G14G16G22G26G27G29G31G32             0.000306330
  20356398.605 7   -277857.711 7   -203995.73448  20356394.96848
  20500335.401 6   -548555.539 6   -398777.85947  20500330.31247
  23401128.589 4   -303798.750 4   -229260.46146  23401124.37446
  20403998.831 7   -314683.766 7   -235543.65649  20403999.42949
  22817698.151 5   -875404.055 5   -602782.46947  22817697.83547
  23310443.097 6   -120790.684 6    -87495.55547  23310441.17147
  21388915.362 7   -372434.133 7   -278172.47348  21388911.96848
  22230512.870 6    -44150.230 6    -33243.04347  22230512.67547
 18  5 30  0 19 34.9990000  0  8G14G16G22G26G27G29G31G32             0.000295809
  20354374.698 6   -288491.320 6   -212281.66048  20354371.37048
  20496365.003 6   -569417.457 6   -415033.93047  20496360.61647
  23398949.183 5   -315253.199 5   -238185.98046  23398945.38246
  20401646.667 7   -327045.391 7   -245176.09849  20401646.94849
  22811081.097 6   -910178.570 6   -629879.49247  22811080.67147
  23309526.792 6   -125605.254 6    -91247.19947  23309525.11647
  21386235.714 7   -386516.234 7   -289145.55948  21386232.19848
  22230183.183 6    -45884.102 6    -34594.14147  22230182.42147
 18  5 30  0 19 39.9990000  0  8G14G16G22G26G27G29G31G32             0.000285282
  20352351.933 6   -299120.129 6   -220563.84448  20352348.81548
  20492396.144 6   -590276.582 6   -431287.80547  20492391.55047
  23396768.675 5   -326708.922 5   -247112.52046  23396765.00746
  20399293.995 7   -339408.141 7   -254809.39849  20399293.98349
  22804462.315 5   -944959.316 5   -656981.35947  22804462.19447
  23308610.456 6   -130417.555 6    -94997.05547  23308609.49547
  21383554.737 7   -400605.309 7   -300124.06648  21383551.00748
  22229853.370 6    -47618.598 6    -35945.70347  22229852.58147
 18  5 30  0 19 44.9990000  0  8G14G16G22G26G27G29G31G32             0.000274750
  20350330.347 7   -309743.711 7   -228841.96948  20350327.42148
  20488427.315 6   -611132.590 6   -447539.24248  20488423.06248
  23394588.550 5   -338165.605 5   -256039.79746  23394584.00746
  20396941.417 7   -351771.664 7   -264443.32049  20396941.20249
  22797842.136 5   -979745.941 5   -684087.82047  22797842.85147
  23307695.761 6   -135227.164 6    -98744.79347  23307693.92147
  21380872.636 7   -414700.961 7   -311107.68848  21380869.04248
  22229522.839 6    -49353.359 6    -37297.47748  22229522.54248
 18  5 30  0 19 49.9990000  0  8G14G16G22G26G27G29G31G32             0.000264212
  20348310.112 6   -320361.863 6   -237115.86748  20348306.72648
  20484459.198 6   -631985.145 6   -463787.96948  20484454.92948
  23392408.706 5   -349622.969 5   -264967.62146  23392403.76946
  20394588.776 7   -364135.688 7   -274077.62149  20394588.39749
  22791222.026 5  -1014538.117 5   -711198.60247  22791222.65547
  23306781.112 6   -140033.957 6   -102490.36347  23306779.46847
  21378189.144 7   -428802.910 7   -322096.21948  21378185.72648
  22229192.511 6    -51088.125 6    -38649.25848  22229192.67148
 18  5 30  0 19 54.9990000  0  8G14G16G22G26G27G29G31G32             0.000253668
  20346290.222 6   -330975.484 6   -245386.21948  20346287.22248
  20480491.230 6   -652835.254 6   -480034.81648  20480487.54648
  23390227.511 5   -361081.973 5   -273896.72746  23390223.07346
  20392235.573 7   -376501.203 7   -283713.09049  20392235.46049
  22784600.394 5  -1049336.820 5   -738314.47747  22784599.90947
  23305866.440 6   -144838.766 6   -106234.37547  23305864.85547
  21375503.933 7   -442912.109 7   -333090.40248  21375500.51548
  22228862.636 6    -52823.879 6    -40001.80548  22228862.27648
 18  5 30  0 19 59.9990000  0  9G03G14G16G22G26G27G29G31G32          0.000243116
  23529870.65113                                
  20344271.495 6   -341583.398 6   -253652.13348  20344268.47248
  20476524.722 6   -673681.672 6   -496278.78948  20476520.88248
  23388046.792 5   -372541.418 5   -282826.17646  23388042.41746
  20389882.300 7   -388867.008 7   -293348.78549  20389882.07349
  22777976.776 5  -1084140.879 5   -765434.50847  22777977.85147
  23304953.230 6   -149640.426 6   -109975.95347  23304951.40147
  21372818.019 7   -457027.410 7   -344089.35248  21372814.22248
  22228532.440 6    -54559.391 6    -41354.16048  22228531.91748
 18  5 30  0 20  4.9990000  0  9G03G14G16G22G26G27G29G31G32          0.000232561
  23526956.073 1    -29394.480 1                
  20342253.886 6   -352186.059 6   -261913.94548  20342250.83148
  20472558.190 6   -694524.836 6   -512520.23448  20472554.21048
  23385866.284 5   -384001.691 5   -291756.27046  23385861.64446
  20387529.440 7   -401233.512 7   -302985.02349  20387529.04649
  22771352.847 5  -1118950.598 5   -792558.97347  22771353.67947
  23304039.612 6   -154439.418 6   -113715.43447  23304038.42947
  21370130.737 7   -471149.172 7   -355093.32048  21370127.12448
  22228202.073 6    -56295.094 6    -42706.67247  22228201.64747
 18  5 30  0 20  9.9990000  0  9G03G14G16G22G26G27G29G31G32          0.000222000
  23524041.386 1    -44703.199 1                
  20340237.206 6   -362782.918 6   -270171.24648  20340234.46448
  20468592.237 6   -715364.254 6   -528758.73848  20468588.40148
  23383685.831 5   -395462.352 5   -300686.66846  23383681.02646
  20385175.730 7   -413600.195 7   -312621.41049  20385175.47649
  22764728.136 5  -1153765.500 5   -819687.48047  22764728.39047
  23303127.323 6   -159235.184 6   -117452.40647  23303126.12847
  21367442.315 7   -485276.871 7   -366101.93048  21367438.79648
  22227871.862 6    -58030.516 6    -44058.96148  22227871.39748
 18  5 30  0 20 14.9990000  0  9G03G14G16G22G26G27G29G31G32          0.000211432
  23521127.581 1    -60008.344 1                
  20338221.667 6   -373374.113 6   -278424.12948  20338218.76948
  20464627.331 6   -736200.008 6   -544994.39548  20464623.37848
  23381504.089 5   -406923.477 5   -309617.40246  23381499.49946
  20382822.550 7   -425967.199 7   -322258.03549  20382822.28049
  22758101.542 5  -1188585.707 5   -846820.10247  22758101.78047
  23302215.550 6   -164027.832 6   -121186.95347  23302214.19047
  21364752.722 7   -499410.629 7   -377115.24648  21364749.05848
  22227541.651 6    -59765.707 6    -45411.06348  22227541.33948
 18  5 30  0 20 19.9990000  0  9G03G14G16G22G26G27G29G31G32          0.000200859
  23518217.956 1    -75309.281 1                
  20336207.276 6   -383959.051 6   -286672.14548  20336204.26548
  20460663.519 6   -757031.473 6   -561226.70748  20460659.63648
  23379323.409 5   -418384.531 5   -318548.11346  23379318.91346
  20380469.190 7   -438333.914 7   -331894.44548  20380468.90548
  22751475.151 5  -1223410.504 5   -873956.31347  22751475.07747
  23301304.026 6   -168816.848 6   -124918.65647  23301302.71047
  21362061.940 7   -513549.855 7   -388132.82048  21362058.24548
  22227211.526 6    -61500.145 6    -46762.58248  22227211.05048
 18  5 30  0 20 24.9990000  0  9G03G14G16G22G26G27G29G31G32          0.000190283
  23515307.534 1    -90605.637 1                
  20334194.480 6   -394537.141 6   -294914.80948  20334191.84348
  20456700.151 6   -777858.172 6   -577455.30148  20456695.94848
  23377142.472 5   -429844.891 5   -327478.26646  23377138.47646
  20378116.183 7   -450699.816 7   -341530.22349  20378115.94849
  22744846.355 5  -1258239.406 5   -901095.73047  22744847.53447
  23300393.011 6   -173601.676 6   -128647.12547  23300392.12447
  21359370.597 7   -527693.996 7   -399154.24248  21359366.73048
  22226881.964 6    -63233.258 6    -48113.07448  22226881.44048
 18  5 30  0 20 29.9990000  0  9G03G14G16G22G26G27G29G31G32          0.000179701
  23512396.190 1   -105897.777 1                
  20332183.300 6   -405108.934 6   -303152.56648  20332179.48348
  20452737.784 6   -798680.559 6   -593680.55148  20452733.81248
  23374962.214 5   -441305.125 5   -336408.34046  23374957.58146
  20375763.089 7   -463065.449 7   -351165.78949  20375762.74549
  22738218.855 5  -1293072.926 5   -928238.77047  22738219.01947
  23299483.315 6   -178382.789 6   -132372.64847  23299482.10847
  21356677.636 7   -541843.570 7   -410179.89548  21356674.16348
  22226552.183 6    -64965.586 6    -49462.95348  22226551.69848
 18  5 30  0 20 34.9990000  0  9G03G14G16G22G26G27G29G31G32          0.000169115
  23509486.940 1   -121185.660 1                
  20330172.542 6   -415674.352 6   -311385.37548  20330169.19848
  20448776.276 6   -819498.621 6   -609902.41048  20448772.32748
  23372781.198 5   -452765.191 5   -345338.28546  23372776.58146
  20373409.980 7   -475430.730 7   -360801.08249  20373409.84749
  22731589.073 5  -1327910.941 5   -955385.28147  22731589.09347
  23298574.792 6   -183160.168 6   -136095.28947  23298573.05847
  21353984.386 7   -555998.430 7   -421209.64848  21353980.75748
  22226223.073 6    -66697.090 6    -50812.19948  22226222.40948
 18  5 30  0 20 39.9990000  0  9G03G14G16G22G26G27G29G31G32          0.000158522
  23506579.628 1   -136469.352 1                
  20328163.136 6   -426233.395 6   -319613.20348  20328159.98348
  20444815.425 6   -840312.395 6   -626120.94548  20444811.19448
  23370599.940 5   -464225.078 5   -354268.05546  23370595.84346
  20371057.144 7   -487795.688 7   -370436.11349  20371057.35849
  22724958.409 5  -1362753.477 5   -982535.31647  22724958.76147
  23297666.378 6   -187933.836 6   -139815.04747  23297664.42147
  21351289.386 7   -570158.625 7   -432243.57448  21351286.01948
  22225893.284 6    -68427.707 6    -52160.73448  22225893.21448
 18  5 30  0 20 44.9990000  0  9G03G14G16G22G26G27G29G31G32          0.000147926
  23503671.886 1   -151747.949 1                
  20326155.136 6   -436785.258 6   -327835.44548  20326151.87048
  20440855.909 6   -861121.020 6   -642335.46548  20440852.08548
  23368419.534 5   -475683.973 5   -363197.07846  23368415.07346
  20368704.230 7   -500159.500 7   -380070.25049  20368703.82349
  22718327.362 5  -1397599.684 5  -1009688.22747  22718327.89447
  23296758.253 6   -192702.953 6   -143531.26647  23296756.68347
  21348593.933 7   -584323.313 7   -443281.00048  21348590.82348
  22225564.105 6    -70156.711 6    -53508.02348  22225564.15148
 18  5 30  0 20 49.9990000  0  9G03G14G16G22G26G27G29G31G32          0.000137323
  23500765.276 1   -167022.113 1                
  20324148.128 6   -447330.566 6   -336052.57048  20324145.45248
  20436896.503 6   -881925.125 6   -658546.44548  20436892.73748
  23366239.683 5   -487142.574 5   -372125.87146  23366234.63646
  20366351.472 7   -512522.773 7   -389703.97349  20366351.39749
  22711695.284 5  -1432450.109 5  -1036844.41847  22711696.17547
  23295851.636 6   -197468.164 6   -147244.42246  23295849.93746
  21345897.159 7   -598493.125 7   -454322.41448  21345894.14448
  22225235.230 6    -71884.711 6    -54854.54348  22225235.50348
 18  5 30  0 20 54.9990000  0  9G03G14G16G22G26G27G29G31G32          0.000126719
  23497859.862 1   -182291.773 1                
  20322143.112 6   -457869.102 6   -344264.42248  20322139.62048
  20432938.870 6   -902724.543 6   -674753.78948  20432934.51948
  23364058.776 5   -498600.645 5   -381054.25046  23364053.98346
  20363999.034 7   -524885.395 7   -399337.17649  20363998.79649
  22705062.917 5  -1467304.668 5  -1064003.81647  22705063.55447
  23294945.769 6   -202229.293 6   -150954.40246  23294943.44446
  21343200.128 7   -612667.918 7   -465367.71148  21343196.85148
  22224906.276 6    -73611.500 6    -56200.10948  22224906.96048
 18  5 30  0 20 59.9990000  0  9G03G14G16G22G26G27G29G31G32          0.000116108
  23494954.112 1   -197555.621 1                
  20320139.159 6   -468399.738 6   -352470.12148  20320136.00348
  20428982.347 6   -923518.129 6   -690956.58248  20428977.62448
  23361878.933 4   -510057.070 4   -389981.34446  23361873.65146
  20361646.753 7   -537246.148 7   -408968.93849  20361646.40949
  22698430.440 5  -1502162.074 5  -1091165.45347  22698430.26547
  23294041.050 6   -206985.199 6   -154660.30946  23294038.94046
  21340501.753 7   -626846.484 7   -476415.93848  21340498.97248
  22224577.894 6    -75335.969 6    -57543.86348  22224578.90948
 18  5 30  0 21  4.9990000  0  9G03G14G16G22G26G27G29G31G32          0.000105492
  23492049.597 1   -212814.371 1                
  20318136.581 6   -478923.008 6   -360670.07848  20318132.92948
  20425026.167 6   -944306.379 6   -707155.21948  20425021.94048
  23359699.050 5   -521512.430 5   -398907.60946  23359694.19446
  20359294.901 7   -549605.590 7   -418599.67649  20359294.87449
  22691795.573 5  -1537022.926 5  -1118329.74647  22691796.26547
  23293136.925 6   -211736.375 6   -158362.52347  23293134.56547
  21337803.214 7   -641029.348 7   -487467.52348  21337800.04248
  22224250.753 6    -77058.633 6    -58886.21948  22224250.49148
 18  5 30  0 21  9.9990000  0  9G03G14G16G22G26G27G29G31G32          0.000094873
  23489148.065 1   -228067.504 1                
  20316135.870 6   -489438.535 6   -368864.00448  20316132.00748
  20421071.120 6   -965088.945 6   -723349.42648  20421067.06548
  23357519.097 4   -532966.227 4   -407832.63346  23357514.54646
  20356943.253 7   -561963.355 7   -428229.09849  20356943.10549
  22685161.870 5  -1571886.813 5  -1145496.42647  22685162.26947
  23292233.542 6   -216482.496 6   -162060.79747  23292231.48347
  21335103.347 7   -655216.152 7   -498522.17648  21335100.28448
  22223922.917 6    -78779.098 6    -60226.84448  22223923.62048
 18  5 30  0 21 14.9990000  0  9G03G14G16G22G26G27G29G31G32          0.000084249
  23486244.878 1   -243315.816 1                
  20314135.933 6   -499947.176 6   -377052.56348  20314132.39048
  20417117.745 7   -985866.648 7   -739539.85248  20417113.35548
  23355339.503 4   -544419.418 4   -416757.22346  23355334.82746
  20354591.894 7   -574320.309 7   -437857.89549  20354591.97649
  22678526.987 5  -1606754.535 5  -1172666.09847  22678526.91747
  23291331.401 6   -221224.383 6   -165755.77746  23291329.24546
  21332402.761 7   -669407.707 7   -509580.53548  21332399.73348
  22223595.839 6    -80498.273 6    -61566.47748  22223596.21048
 18  5 30  0 21 19.9990000  0  9G03G14G16G22G26G27G29G31G32          0.000073622
  23483346.730 1   -258558.484 1                
  20312137.628 6   -510447.871 6   -385234.92648  20312134.23348
  20413165.042 6  -1006638.496 6   -755725.69548  20413160.62048
  23353159.847 4   -555870.949 4   -425680.48046  23353156.71846
  20352240.769 7   -586675.414 7   -447485.24249  20352240.57749
  22671891.839 5  -1641625.059 5  -1199837.93047  22671890.99147
  23290430.003 6   -225961.035 6   -169446.68847  23290428.06547
  21329701.651 7   -683603.012 7   -520641.80548  21329698.28048
  22223269.472 6    -82215.113 6    -62904.28948  22223269.12048
 18  5 30  0 21 24.9990000  0  9G03G14G16G22G26G27G29G31G32          0.000062988
  23480447.636 1   -273795.883 1                
  20310141.003 6   -520941.180 6   -393411.52048  20310137.55048
  20409213.362 7  -1027404.957 7   -771907.35948  20409209.06948
  23350980.972 4   -567321.348 4   -434602.85946  23350977.41346
  20349889.503 7   -599029.195 7   -457111.56349  20349889.48749
  22665255.042 6  -1676498.891 6  -1227012.36347  22665255.17947
  23289528.839 6   -230692.961 6   -173133.91847  23289527.44447
  21326999.511 7   -697802.551 7   -531706.37948  21326996.45648
  22222942.698 6    -83930.117 6    -64240.67248  22222942.93748
 18  5 30  0 21 29.9990000  0  9G03G14G16G22G26G27G29G31G32          0.000052353
  23477548.769 1   -289027.195 1                
  20308145.394 6   -531426.160 6   -401581.64848  20308142.06548
  20405262.495 7  -1048165.250 7   -788084.19948  20405258.78448
  23348803.855 4   -578769.781 4   -443523.72746  23348799.52246
  20347539.206 7   -611380.789 7   -466736.19549  20347539.14749
  22658617.987 5  -1711375.160 5  -1254188.67647  22658618.40947
  23288629.839 6   -235419.375 6   -176816.84446  23288628.13246
  21324296.480 7   -712005.488 7   -542773.60948  21324293.85848
  22222616.550 6    -85642.488 6    -65574.98848  22222617.23048
 18  5 30  0 21 34.9990000  0  9G03G14G16G22G26G27G29G31G32          0.000041714
  23474653.784 1   -304252.105 1                
  20306152.323 6   -541902.676 6   -409745.16048  20306148.02648
  20401313.370 7  -1068919.113 7   -804256.05948  20401309.68348
  23346624.847 4   -590215.988 4   -452442.87146  23346621.32746
  20345189.487 7   -623730.023 7   -476358.96949  20345189.16349
  22651981.339 5  -1746253.625 5  -1281366.73447  22651981.23047
  23287731.956 6   -240139.953 6   -180495.22346  23287729.24546
  21321593.620 7   -726211.555 7   -553843.26648  21321590.41748
  22222291.769 6    -87351.961 6    -66907.05148  22222292.12448
 18  5 30  0 21 39.9990000  0  9G03G14G16G22G26G27G29G31G32          0.000031069
  23471756.901 1   -319471.828 1                
  20304159.722 7   -552371.539 7   -417902.72748  20304156.05448
  20397364.972 7  -1089667.395 7   -820423.54348  20397361.23348
  23344446.792 5   -601660.867 5   -461360.98446  23344443.31946
  20342839.542 7   -636077.719 7   -485980.55949  20342839.32749
  22645343.667 5  -1781135.141 5  -1308547.14147  22645343.11247
  23286834.159 6   -244855.676 6   -184169.82446  23286831.92546
  21318889.433 7   -740421.637 7   -564916.07048  21318886.88248
  22221966.128 6    -89059.445 6    -68237.56648  22221967.09748
 18  5 30  0 21 44.9990000  0  9G03G14G16G22G26G27G29G31G32          0.000020420
  23468863.323 1   -334685.477 1                
  20302169.558 7   -562832.297 7   -426053.96548  20302165.57748
  20393418.003 7  -1110409.625 7   -836586.32448  20393413.99548
  23342269.769 4   -613103.914 4   -470277.64846  23342265.65146
  20340490.136 7   -648423.449 7   -495600.60549  20340490.45249
  22638705.097 5  -1816019.215 5  -1335729.55547  22638705.11647
  23285938.339 6   -249566.035 6   -187840.23846  23285935.59346
  21316184.917 7   -754635.223 7   -575991.59048  21316182.26148
  22221642.042 6    -90764.445 6    -69566.14848  22221643.07748
 18  5 30  0 21 49.9990000  0  8G14G16G22G26G27G29G31G32             0.000009769
  20300180.620 6   -573285.008 6   -434198.94148  20300176.64748
  20389471.839 6  -1131145.844 6   -852744.41448  20389468.17948
  23340092.394 5   -624545.270 5   -479192.98846  23340088.14046
  20338141.230 7   -660767.223 7   -505219.13748  20338141.42948
  22632066.487 5  -1850905.844 5  -1362913.95747  22632066.42147
  23285043.362 6   -254271.047 6   -191506.49246  23285040.23046
  21313478.995 7   -768852.352 7   -587069.87948  21313476.64448
  22221318.284 6    -92467.012 6    -70892.83248  22221318.99548
 18  5 30  0 21 54.9990000  0  9G03G14G16G22G26G27G29G31G32         -0.000000887
  23463073.25311   -365096.11311                
  20298193.276 6   -583729.492 6   -442337.50048  20298188.91348
  20385526.620 6  -1151875.895 6   -868897.70348  20385523.44448
  23337915.831 4   -635984.738 4   -488106.88346  23337911.52646
  20335792.847 7   -673108.918 7   -514836.03948  20335793.08548
  22625427.065 5  -1885794.883 5  -1390100.22747  22625427.24147
  23284149.011 6   -258970.633 6   -195168.50846  23284145.99146
  21310772.972 7   -783072.891 7   -598150.81348  21310770.58548
  22220994.815 6    -94167.004 6    -72217.50048  22220995.23748
 18  5 30  0 21 59.9990000  0  8G14G16G22G26G27G29G31G32            -0.000011547
  20296206.659 6   -594166.566 6   -450470.29348  20296202.74148
  20381583.105 6  -1172600.648 6   -885046.85248  20381579.34348
  23335738.878 4   -647423.191 4   -497019.95346  23335735.14446
  20333444.542 7   -685449.375 7   -524451.98848  20333444.49148
  22618787.870 5  -1920687.207 5  -1417289.06647  22618787.56247
  23283255.565 6   -263665.551 6   -198826.90246  23283252.59346
  21308066.409 7   -797297.676 7   -609235.06648  21308063.97648
  22220670.940 6    -95865.309 6    -73540.84848  22220672.57348
 18  5 30  0 22  4.9990000  0  8G14G16G22G26G27G29G31G32            -0.000022209
  20294222.612 6   -604594.160 6   -458595.68848  20294218.55848
  20377640.823 6  -1193317.988 6   -901190.25848  20377637.37448
  23333562.417 4   -658858.504 4   -505930.60946  23333558.33146
  20331096.659 7   -697786.512 7   -534065.34049  20331097.02249
  22612147.761 5  -1955580.574 5  -1444478.74247  22612147.80047
  23282362.776 6   -268353.773 6   -202480.05146  23282360.65146
  21305359.456 7   -811524.559 7   -620320.94548  21305356.56248
  22220349.081 6    -97559.758 6    -74861.22348  22220350.12448
 18  5 30  0 22  9.9990000  0  8G14G16G22G26G27G29G31G32            -0.000032877
  20292239.855 7   -615013.738 7   -466714.84448  20292236.21448
  20373699.222 6  -1214029.395 6   -917329.01248  20373696.22648
  23331387.394 4   -670292.172 4   -514839.97746  23331382.70646
  20328749.370 7   -710121.789 7   -543677.25049  20328749.60849
  22605507.362 5  -1990476.535 5  -1471670.40247  22605507.33547
  23281471.761 6   -273036.684 6   -206129.07846  23281468.84346
  21302651.253 7   -825755.066 7   -631409.65248  21302648.36248
  22220026.964 6    -99251.914 6    -76179.78148  22220028.17948
 18  5 30  0 22 14.9990000  0  8G14G16G22G26G27G29G31G32            -0.000043547
  20290259.472 6   -625423.258 6   -474826.15648  20290255.34348
  20369759.815 6  -1234732.840 6   -933461.55148  20369756.65148
  23329212.190 4   -681722.133 4   -523746.42246  23329207.29246
  20326402.737 7   -722453.188 7   -553286.11748  20326402.60148
  22598866.956 5  -2025372.992 5  -1498862.44547  22598866.68347
  23280582.370 6   -277712.406 6   -209772.50846  23280579.15946
  21299942.769 7   -839987.059 7   -642499.52348  21299940.10848
  22219706.245 6   -100939.656 6    -77494.90648  22219706.96448
 18  5 30  0 22 19.9990000  0  8G14G16G22G26G27G29G31G32            -0.000054220
  20288280.222 6   -635821.230 6   -482928.48448  20288276.58548
  20365821.519 6  -1255426.785 6   -949586.71948  20365818.11248
  23327038.081 4   -693146.941 4   -532648.88746  23327033.42546
  20324057.753 7   -734779.176 7   -562890.79349  20324057.02249
  22592226.112 5  -2060268.422 5  -1526053.68447  22592226.83547
  23279694.456 6   -282379.328 6   -213409.09846  23279690.62046
  21297234.690 7   -854219.016 7   -653589.35548  21297231.82348
  22219385.644 6   -102621.563 6    -78805.47748  22219386.51948
 18  5 30  0 22 24.9990000  0  8G14G16G22G26G27G29G31G32            -0.000064896
  20286302.987 6   -646211.512 6   -491024.81348  20286299.81948
  20361884.753 6  -1276115.125 6   -965707.50048  20361881.24148
  23324863.956 4   -704570.418 4   -541550.30946  23324858.90146
  20321712.339 7   -747103.668 7   -572494.29348  20321711.91348
  22585585.237 5  -2095166.660 5  -1553247.10547  22585585.73047
  23278807.042 5   -287041.398 5   -217041.90246  23278803.81546
  21294525.847 7   -868454.898 7   -664682.25848  21294523.01148
  22219066.362 6   -104301.449 6    -80114.48848  22219067.27648
 18  5 30  0 22 29.9990000  0  8G14G16G22G26G27G29G31G32            -0.000075577
  20284327.065 6   -656595.613 6   -499116.32448  20284323.70648
  20357948.511 6  -1296799.332 6   -981825.07448  20357945.44048
  23322690.503 4   -715994.160 4   -550451.96146  23322685.91746
  20319367.050 7   -759428.129 7   -582097.76649  20319366.55049
  22578943.417 5  -2130069.266 5  -1580443.93447  22578943.75347
  23277921.011 5   -291700.102 5   -220672.06346  23277917.30846
  21291815.573 7   -882696.242 7   -675779.41448  21291812.68748
  22218746.839 6   -105980.848 6    -81423.11748  22218747.36648
 18  5 30  0 22 34.9990000  0  8G14G16G22G26G27G29G31G32            -0.000086264
  20282352.159 6   -666973.621 6   -507203.07848  20282348.82348
  20354013.644 6  -1317479.527 6   -997939.51248  20354009.78448
  23320516.901 4   -727418.137 4   -559353.77346  23320512.14046
  20317021.745 7   -771752.695 7   -591701.33249  20317021.44049
  22572301.128 5  -2164975.883 5  -1607643.90646  22572300.74146
  23277034.323 5   -296355.504 5   -224299.64546  23277031.21446
  21289104.534 7   -896943.086 7   -686880.85248  21289101.52648
  22218427.355 6   -107659.848 6    -82731.43048  22218428.23048
 18  5 30  0 22 39.9990000  0  9G14G16G22G23G26G27G29G31G32         -0.000096952
  20280378.183 6   -677345.020 6   -515284.69948  20280375.33948
  20350079.097 7  -1338155.152 7  -1014050.38748  20350075.72648
  23318342.605 4   -738841.895 4   -568255.41046  23318338.56546
  24232313.72211   -536343.84811                
  20314676.534 7   -784076.789 7   -601304.52049  20314675.90149
  22565657.940 5  -2199886.465 5  -1634846.56647  22565658.55047
  23276149.112 5   -301007.121 5   -227924.28146  23276146.22246
  21286392.815 7   -911194.895 7   -697986.15648  21286389.22648
  22218107.667 6   -109337.918 6    -84039.02748  22218107.86248
 18  5 30  0 22 44.9990000  0  9G14G16G22G23G26G27G29G31G32         -0.000107647
  20278406.042 6   -687708.867 6   -523360.42248  20278402.92148
  20346145.597 6  -1358825.352 6  -1030157.03548  20346141.97248
  23316169.347 3   -750264.516 3   -577156.16846  23316164.56246
  24225847.151 2   -570324.918 2                
  20312331.495 7   -796399.590 7   -610906.69949  20312331.14449
  22559014.464 5  -2234800.188 5  -1662052.15647  22559013.70647
  23275264.683 5   -305654.066 5   -231545.27046  23275261.60846
  21283679.987 7   -925450.754 7   -709094.62548  21283676.78448
  22217789.370 6   -111014.211 6    -85345.23448  22217789.54648
 18  5 30  0 22 49.9990000  0  9G14G16G22G23G26G27G29G31G32         -0.000118347
  20276435.730 6   -698064.152 6   -531429.48048  20276432.86248
  20342213.730 6  -1379489.105 6  -1046258.66448  20342209.61648
  23313994.987 4   -761685.082 4   -586055.31346  23313991.51146
  24219380.542 2   -604309.227 2                
  20309986.878 7   -808720.051 7   -620507.05949  20309986.53049
  22552369.894 5  -2269715.777 5  -1689259.03947  22552368.72247
  23274381.862 5   -310295.355 5   -235161.90646  23274378.46046
  21280966.565 7   -939709.605 7   -720205.41448  21280963.12448
  22217470.620 6   -112687.680 6    -86649.24248  22217471.28448
 18  5 30  0 22 54.9990000  0  9G14G16G22G23G26G27G29G31G32         -0.000129051
  20274466.542 6   -708412.340 6   -539493.00448  20274463.31948
  20338282.511 6  -1400147.848 6  -1062356.37948  20338278.35548
  23311822.964 3   -773104.992 3   -594953.98046  23311818.66346
  24212911.831 2   -638298.301 2                
  20307642.511 7   -821039.617 7   -630106.71949  20307642.48049
  22545724.948 5  -2304634.766 5  -1716468.63747  22545724.24147
  23273499.183 5   -314932.363 5   -238775.14546  23273496.00746
  21278252.198 7   -953972.898 7   -731319.67648  21278249.05848
  22217152.237 6   -114359.789 6    -87952.19548  22217153.01948
 18  5 30  0 22 59.9990000  0  9G14G16G22G23G26G27G29G31G32         -0.000139759
  20272498.831 6   -718753.473 6   -547551.02348  20272495.90548
  20334352.058 7  -1420801.602 7  -1078450.20748  20334348.13248
  23309649.440 4   -784524.277 4   -603852.09046  23309645.76546
  24206442.800 2   -672292.137 2                
  20305298.542 7   -833358.363 7   -639705.75049  20305298.30849
  22539079.417 5  -2339557.160 5  -1743680.87547  22539078.40147
  23272616.855 4   -319565.191 4   -242385.14546  23272614.56246
  21275536.964 7   -968240.703 7   -742437.44548  21275534.03848
  22216834.589 6   -116030.609 6    -89254.14148  22216835.24548
 18  5 30  0 23  4.9990000  0  9G14G16G22G23G26G27G29G31G32         -0.000150471
  20270532.480 6   -729085.652 6   -555602.08248  20270529.58148
  20330422.784 6  -1441448.504 6  -1094538.70748  20330419.33948
  23307476.730 4   -795941.074 4   -612748.34846  23307473.56946
  24199973.948 2   -706288.785 2                
  20302954.698 7   -845674.383 7   -649302.64848  20302954.36248
  22532433.948 5  -2374480.969 5  -1770894.23047  22532432.84747
  23271736.042 5   -324191.930 5   -245990.37546  23271733.86246
  21272821.651 7   -982511.090 7   -753557.23048  21272818.47648
  22216517.667 6   -117698.238 6    -90553.60548  22216517.86248
 18  5 30  0 23  9.9990000  0  9G14G16G22G23G26G27G29G31G32         -0.000161186
  20268567.667 6   -739409.449 6   -563646.60948  20268565.02248
  20326495.230 6  -1462089.133 6  -1110622.31348  20326491.07748
  23305304.995 4   -807355.906 4   -621643.01646  23305300.81246
  24193504.331 2   -740288.656 2                
  20300611.526 7   -857988.266 7   -658897.88749  20300611.20649
  22525787.761 5  -2409406.777 5  -1798109.13347  22525786.21447
  23270856.940 5   -328813.172 5   -249591.35246  23270854.30046
  21270105.644 7   -996784.668 7   -764679.50448  21270102.20248
  22216200.940 6   -119363.207 6    -91851.00048  22216200.76148
 18  5 30  0 23 14.9990000  0  9G14G16G22G23G26G27G29G31G32         -0.000171907
  20266604.847 6   -749725.703 6   -571685.25848  20266601.53848
  20322568.628 6  -1482724.297 6  -1126701.67248  20322564.55448
  23303133.050 4   -818769.664 4   -630536.85946  23303129.14746
  24187033.284 2   -774292.820 2                
  20298268.401 7   -870300.836 7   -668492.11349  20298268.30449
  22519141.151 5  -2444335.387 5  -1825326.25047  22519140.11247
  23269978.292 5   -333429.746 5   -253188.69946  23269976.17946
  21267388.558 7  -1011062.191 7   -775804.85548  21267384.98348
  22215884.347 6   -121026.441 6    -93147.05148  22215884.04248
 18  5 30  0 23 19.9990000  0  9G14G16G22G23G26G27G29G31G32         -0.000182632
  20264642.323 6   -760036.844 6   -579719.91848  20264639.46848
  20318642.565 6  -1503356.461 6  -1142778.67648  20318638.25748
  23300961.230 4   -830184.820 4   -639431.79346  23300956.81546
  24180560.808 2   -808303.531 2                
  20295925.331 7   -882614.543 7   -678087.20749  20295925.24949
  22512493.206 5  -2479269.262 5  -1852547.44147  22512492.18747
  23269099.995 4   -338044.090 4   -256784.27346  23269097.86646
  21264670.440 7  -1025346.156 7   -786935.21548  21264667.13648
  22215567.933 6   -122690.320 6    -94443.59048  22215567.38248
 18  5 30  0 23 24.9990000  0  9G14G16G22G23G26G27G29G31G32         -0.000193367
  20262681.456 6   -770345.520 6   -587752.66448  20262678.16348
  20314716.144 6  -1523988.254 6  -1158855.40648  20314711.76548
  23298787.769 4   -841603.992 4   -648329.85946  23298783.41746
  24174086.542 2   -842323.500 2                
  20293581.222 7   -894932.039 7   -687685.26249  20293581.67149
  22505843.245 5  -2514211.012 5  -1879774.74247  22505843.04647
  23268222.214 5   -342658.859 5   -260380.20346  23268219.86646
  21261950.292 7  -1039639.152 7   -798072.61748  21261947.33148
  22215250.730 6   -124357.527 6    -95742.73048  22215250.33548
 18  5 30  0 23 29.9990000  0  9G14G16G22G23G26G27G29G31G32         -0.000204103
  20260720.706 6   -780644.875 6   -595778.13748  20260717.93748
  20310791.284 7  -1544612.871 7  -1174926.53148  20310787.21848
  23296616.222 4   -853020.371 4   -657225.72346  23296611.21446
  24167612.253 2   -876345.957 2                
  20291238.034 7   -907246.516 7   -697280.96149  20291237.73049
  22499194.276 5  -2549153.785 5  -1907002.86747  22499193.71447
  23267344.886 4   -347267.324 4   -263971.23046  23267342.58946
  21259229.987 7  -1053934.406 7   -809211.77748  21259226.96448
  22214934.112 6   -126021.270 6    -97039.16848  22214933.44448
 18  5 30  0 23 34.9990000  0  9G14G16G22G23G26G27G29G31G32         -0.000214842
  20258763.206 6   -790931.969 6   -603794.05548  20258760.16748
  20306868.628 6  -1565227.301 6  -1190989.72348  20306864.73348
  23294443.940 4   -864430.965 4   -666117.10946  23294439.60146
  24161138.300 1   -910367.922 1                
  20288895.706 7   -919555.004 7   -706871.99649  20288895.38649
  22492545.534 5  -2584094.598 5  -1934229.46147  22492544.46447
  23266470.292 5   -351866.375 5   -267554.89545  23266467.38245
  21256509.972 7  -1068228.863 7   -820350.31348  21256506.43348
  22214618.862 6   -127678.516 6    -98330.54348  22214617.88648
 18  5 30  0 23 39.9990000  0  9G14G16G22G23G26G27G29G31G32         -0.000225580
  20256807.714 6   -801206.250 6   -611800.00048  20256804.78448
  20302947.925 6  -1585831.004 6  -1207044.55948  20302943.99548
  23292274.519 4   -875835.320 4   -675003.62146  23292269.23346
  24154664.526 1   -944388.629 1                
  20286554.987 7   -931856.941 7   -716457.93049  20286554.74549
  22485896.823 5  -2619032.852 5  -1961454.07047  22485895.89747
  23265597.362 5   -356455.512 5   -271130.87946  23265594.51546
  21253790.425 7  -1082522.020 7   -831487.84048  21253786.48748
  22214304.464 6   -129328.777 6    -99616.47348  22214303.97648
 18  5 30  0 23 44.9990000  0  9G14G16G22G23G26G27G29G31G32         -0.000236320
  20254854.886 6   -811467.797 6   -619796.01248  20254852.52248
  20299028.995 7  -1606424.066 7  -1223091.10548  20299025.14048
  23290105.651 4   -887233.449 4   -683885.27046  23290099.87446
  24148190.269 1   -978408.289 1                
  20284215.065 7   -944152.418 7   -726038.82449  20284214.65149
  22479248.745 5  -2653968.652 5  -1988676.74647  22479248.01547
  23264725.519 5   -361034.883 5   -274699.21946  23264722.29246
  21251070.894 7  -1096813.906 7   -842624.38348  21251066.90948
  22213992.011 6   -130972.098 6   -100897.00048  22213991.28048
 18  5 30  0 23 49.9990000  0  9G14G16G22G23G26G27G29G31G32         -0.000247061
  20252904.792 6   -821717.813 6   -627783.05148  20252901.85148
  20295112.628 6  -1627007.766 6  -1239130.35248  20295108.17548
  23287937.034 4   -898626.598 4   -692763.07046  23287932.18346
  24141717.065 1  -1012428.156 1                
  20281876.440 7   -956442.684 7   -735615.64849  20281875.73349
  22472600.948 5  -2688903.207 5  -2015898.46547  22472599.73347
  23263856.026 5   -365605.660 5   -278260.87946  23263852.40946
  21248351.011 7  -1111105.781 7   -853760.91048  21248347.15148
  22213680.581 6   -132609.770 6   -102173.11348  22213679.44448
 18  5 30  0 23 54.9990000  0  9G14G16G22G23G26G27G29G31G32         -0.000257809
  20250956.370 6   -831957.273 6   -635761.85548  20250953.48348
  20291196.894 6  -1647582.961 6  -1255162.98448  20291192.66348
  23285770.230 4   -910015.684 4   -701637.68846  23285764.58946
  24135244.12811                                
  20279538.761 7   -968728.668 7   -745189.15249  20279538.26949
  22465953.284 5  -2723837.387 5  -2043119.90247  22465951.78047
  23262988.511 5   -370168.773 5   -281816.54346  23262983.80446
  21245631.339 7  -1125398.559 7   -864898.14148  21245627.56948
  22213369.730 6   -134242.672 6   -103445.51648  22213368.54648
 18  5 30  0 23 59.9990000  0  9G14G16G22G23G26G27G29G31G32         -0.000268555
  20249010.144 6   -842185.887 6   -643732.19948  20249006.90148
  20287283.378 6  -1668149.484 6  -1271188.84848  20287279.23048
  23283603.003 4   -921400.496 4   -710508.94146  23283598.25346
  24128769.15111                                
  20277201.503 7   -981010.125 7   -754759.11749  20277200.93749
  22459305.214 6  -2758770.949 6  -2070340.86747  22459304.45247
  23262120.800 5   -374723.996 5   -285366.09445  23262116.83145
  21242911.690 7  -1139691.961 7   -876035.85548  21242908.03048
  22213060.253 6   -135870.590 6   -104714.03948  22213058.79248
 18  5 30  0 24  4.9990000  0  9G14G16G22G23G26G27G29G31G32         -0.000279303
  20247065.573 6   -852404.199 6   -651694.53148  20247062.52248
  20283371.042 6  -1688707.797 6  -1287208.31348  20283367.56248
  23281436.667 3   -932781.586 3   -719377.38746  23281432.74146
  24122295.60511                                
  20274865.065 7   -993287.559 7   -764325.94949  20274864.53049
  22452658.034 5  -2793704.438 5  -2097561.75847  22452656.94447
  23261255.753 5   -379271.906 5   -288909.92246  23261251.18346
  21240191.300 7  -1153986.496 7   -887174.46948  21240187.67548
  22212751.151 6   -137494.020 6   -105979.07048  22212749.84348
 18  5 30  0 24  9.9990000  0  9G14G16G22G23G26G27G29G31G32         -0.000290054
  20245123.284 6   -862611.988 6   -659648.66048  20245120.20248
  20279460.761 6  -1709257.664 6  -1303221.19548  20279456.55848
  23279272.745 4   -944158.637 4   -728242.62145  23279268.44045
  24115822.42511                                
  20272529.355 7  -1005560.766 7   -773889.48849  20272529.06249
  22446010.628 6  -2828637.531 6  -2124782.33647  22446009.34747
  23260391.792 5   -383812.203 5   -292447.81646  23260386.99146
  21237470.847 7  -1168281.957 7   -898313.79348  21237467.28848
  22212442.995 6   -139112.773 6   -107240.44948  22212442.03048
 18  5 30  0 24 14.9990000  0  9G14G16G22G23G26G27G29G31G32         -0.000300808
  20243182.698 6   -872810.477 6   -667595.53548  20243179.52248
  20275551.526 6  -1729800.336 6  -1319228.46948  20275547.70248
  23277108.034 3   -955533.016 3   -737105.72345  23277103.78445
  24109350.01911                                
  20270194.659 7  -1017831.004 7   -783450.71549  20270194.08949
  22439363.198 6  -2863571.473 6  -2152003.57447  22439362.12447
  23259529.105 5   -388346.219 5   -295980.81346  23259523.83946
  21234750.472 7  -1182579.594 7   -909454.81648  21234746.56948
  22212135.073 6   -140728.078 6   -108499.14848  22212134.51948
 18  5 30  0 24 19.9990000  0  8G14G16G22G26G27G29G31G32            -0.000311565
  20241243.495 6   -882998.551 6   -675534.29348  20241240.39448
  20271643.800 6  -1750334.703 6  -1335229.27748  20271639.81548
  23274944.136 3   -966903.512 3   -745965.94545  23274940.20645
  20267860.558 7  -1030097.141 7   -793008.74649  20267860.09349
  22432715.456 6  -2898505.164 6  -2179224.62947  22432714.55047
  23258667.526 5   -392872.691 5   -299507.96946  23258663.10146
  21232029.761 7  -1196878.242 7   -920596.62148  21232025.86248
  22211828.909 6   -142338.824 6   -109754.28548  22211828.29248
 18  5 30  0 24 24.9990000  0  8G14G16G22G26G27G29G31G32            -0.000322325
  20239306.644 6   -893177.332 6   -683465.82448  20239303.92548
  20267737.940 6  -1770861.898 6  -1351224.50448  20267733.73348
  23272780.636 3   -978271.313 3   -754823.94145  23272777.18345
  20265526.855 7  -1042360.289 7   -802564.45749  20265526.61249
  22426066.940 6  -2933439.633 6  -2206446.28547  22426066.60547
  23257807.659 5   -397392.883 5   -303030.21146  23257802.47646
  21229308.136 7  -1211179.051 7   -931740.10548  21229304.81248
  22211523.565 6   -143946.137 6   -111006.75448  22211522.21848
 18  5 30  0 24 29.9990000  0  8G14G16G22G26G27G29G31G32            -0.000333086
  20237371.831 6   -903345.926 6   -691389.39548  20237368.90548
  20263833.120 7  -1791380.996 7  -1367213.40648  20263828.96848
  23270618.495 3   -989635.441 3   -763679.11345  23270614.41345
  20263193.956 7  -1054619.598 7   -812117.16049  20263193.53449
  22419419.503 6  -2968374.105 6  -2233667.93447  22419418.79647
  23256949.151 5   -401905.934 5   -306546.87946  23256944.08146
  21226586.675 7  -1225481.117 7   -942884.57848  21226582.96048
  22211218.003 6   -145549.176 6   -112255.87948  22211217.43348
 18  5 30  0 24 34.9990000  0  8G14G16G22G26G27G29G31G32            -0.000343851
  20235438.581 6   -913504.402 6   -699305.09448  20235435.89748
  20259930.159 7  -1811892.113 7  -1383196.09048  20259925.89748
  23268457.558 3  -1000996.129 3   -772531.58645  23268453.06945
  20260861.980 7  -1066875.141 7   -821666.92649  20260861.21849
  22412772.230 6  -3003308.504 6  -2260889.54347  22412770.75747
  23256091.519 5   -406411.848 5   -310057.99246  23256086.58546
  21223864.565 7  -1239784.469 7   -954030.05148  21223861.29248
  22210914.112 6   -147147.941 6   -113501.68448  22210913.06948
 18  5 30  0 24 39.9990000  0  8G14G16G22G26G27G29G31G32            -0.000354618
  20233507.792 6   -923653.094 6   -707213.16848  20233504.86248
  20256028.409 6  -1832395.559 6  -1399172.80148  20256024.20648
  23266294.972 3  -1012353.570 3   -781381.59045  23266291.71845
  20258530.550 7  -1079127.250 7   -831214.02349  20258530.09349
  22406124.198 6  -3038243.227 6  -2288111.38747  22406123.14447
  23255234.995 5   -410911.039 5   -313563.85246  23255230.12846
  21221142.690 7  -1254089.500 7   -965176.83248  21221139.32348
  22210610.128 6   -148742.859 6   -114744.49648  22210610.20648
 18  5 30  0 24 44.9990000  0  8G14G16G22G26G27G29G31G32            -0.000365389
  20231578.331 6   -933791.246 6   -715113.03948  20231575.65948
  20252128.394 7  -1852890.594 7  -1415142.95748  20252123.82748
  23264135.659 3  -1023707.105 3   -790228.43845  23264131.11645
  20256199.706 7  -1091375.168 7   -840757.85949  20256199.55049
  22399476.292 6  -3073177.441 6  -2315332.85547  22399476.02247
  23254380.081 5   -415402.746 5   -317063.90646  23254374.99546
  21218420.214 7  -1268395.367 7   -976324.27048  21218416.91348
  22210306.948 6   -150333.117 6   -115983.66448  22210307.40548
 18  5 30  0 24 49.9990000  0  8G14G16G22G26G27G29G31G32            -0.000376162
  20229650.901 6   -943919.680 6   -723005.32848  20229648.40948
  20248229.722 7  -1873378.023 7  -1431107.20348  20248225.70648
  23261975.261 4  -1035057.566 4   -799073.01245  23261971.51145
  20253869.745 7  -1103619.738 7   -850299.09849  20253869.39049
  22392827.651 6  -3108112.016 6  -2342554.59847  22392827.82347
  23253526.940 5   -419887.754 5   -320558.70746  23253521.93746
  21215697.675 7  -1282702.949 7   -987473.04348  21215693.93748
  22210004.519 6   -151919.609 6   -117219.88747  22210005.06247
 18  5 30  0 24 54.9990000  0  8G14G16G22G26G27G29G31G32            -0.000386938
  20227725.331 6   -954038.016 6   -730889.73848  20227723.06248
  20244332.659 6  -1893857.465 6  -1447065.19148  20244328.53848
  23259816.003 3  -1046404.504 3   -807914.74245  23259811.79245
  20251540.183 7  -1115860.551 7   -859837.38349  20251539.98749
  22386180.675 6  -3143046.500 6  -2369776.26647  22386180.27247
  23252674.901 5   -424365.723 5   -324048.05946  23252670.35146
  21212974.589 7  -1297011.777 7   -998622.77748  21212971.03848
  22209704.269 6   -153501.887 6   -118452.84847  22209704.21847
 18  5 30  0 24 59.9990000  0  8G14G16G22G26G27G29G31G32            -0.000397717
  20225801.917 6   -964145.539 6   -738765.74648  20225799.47248
  20240437.323 7  -1914328.254 7  -1463016.46148  20240432.93348
  23257657.511 3  -1057747.277 3   -816753.26245  23257652.72245
  20249211.776 7  -1128096.922 7   -869372.21949  20249211.44449
  22379532.714 5  -3177980.195 5  -2396997.33647  22379532.66747
  23251824.151 5   -428835.887 5   -327531.28546  23251819.48346
  21210251.597 7  -1311321.199 7  -1009772.97748  21210248.13248
  22209403.784 6   -155079.281 6   -119681.98447  22209404.52647
 18  5 30  0 25  4.9990000  0  9G03G14G16G22G26G27G29G31G32         -0.000408497
  23354038.35511                                
  20223880.245 6   -974243.117 6   -746633.98448  20223877.88248
  20236543.003 7  -1934791.215 7  -1478961.62548  20236538.99948
  23255499.573 2  -1069086.711 2   -825589.17645  23255494.76945
  20246883.792 7  -1140329.766 7   -878904.29749  20246883.55449
  22372885.464 6  -3212913.926 6  -2424218.41447  22372885.84347
  23250974.683 5   -433299.223 5   -331009.22746  23250970.20246
  21207528.151 7  -1325632.066 7  -1020924.30148  21207524.30448
  22209104.378 6   -156652.617 6   -120907.98448  22209104.62048
 18  5 30  0 25  9.9990000  0  9G03G14G16G22G26G27G29G31G32         -0.000419281
  23351196.347 2    -73675.691 2                
  20221960.839 6   -984329.738 6   -754493.69948  20221958.71848
  20232650.815 7  -1955245.324 7  -1494899.88748  20232646.55848
  23253342.690 3  -1080421.875 3   -834421.73045  23253338.33145
  20244557.136 7  -1152557.980 7   -888432.78549  20244557.01949
  22366236.761 5  -3247846.660 5  -2451438.74647  22366237.65947
  23250126.573 5   -437754.633 5   -334480.97746  23250122.62046
  21204804.862 7  -1339943.359 7  -1032075.95348  21204801.07348
  22208806.050 6   -158220.957 6   -122130.07848  22208806.75748
 18  5 30  0 25 14.9990000  0  9G03G14G16G22G26G27G29G31G32         -0.000430067
  23348356.46411    -88601.91811                
  20220043.628 6   -994406.117 6   -762345.42648  20220041.33148
  20228760.464 7  -1975691.285 7  -1510831.79748  20228756.01148
  23251185.839 4  -1091753.449 4   -843251.57845  23251181.66745
  20242230.933 7  -1164782.336 7   -897958.25449  20242230.17949
  22359589.980 6  -3282779.105 6  -2478658.83247  22359590.27647
  23249280.425 5   -442202.848 5   -337947.10246  23249276.41746
  21202081.300 7  -1354255.754 7  -1043228.48048  21202077.54648
  22208507.956 6   -159784.992 6   -123348.80148  22208509.14048
 18  5 30  0 25 19.9990000  0  9G03G14G16G22G26G27G29G31G32         -0.000440853
  23345516.43311   -103520.44911                
  20218128.042 6  -1004472.516 6   -770189.37148  20218125.34748
  20224870.940 7  -1996129.473 7  -1526757.67248  20224866.87448
  23249030.659 4  -1103081.766 4   -852078.82045  23249026.00345
  20239905.190 7  -1177003.180 7   -907480.99649  20239904.82349
  22352943.558 6  -3317711.563 6  -2505878.94147  22352942.28447
  23248434.776 5   -446644.227 5   -341407.91446  23248431.83146
  21199357.214 7  -1368569.602 7  -1054382.11748  21199353.53848
  22208211.315 6   -161345.051 6   -124564.46148  22208212.01948
 18  5 30  0 25 24.9990000  0  9G03G14G16G22G26G27G29G31G32         -0.000451645
  23342680.425 3   -118431.219 3                
  20216214.542 6  -1014528.594 6   -778025.28148  20216211.62848
  20220983.183 7  -2016559.457 7  -1542677.14148  20220979.33548
  23246875.847 3  -1114406.496 3   -860903.27745  23246871.30445
  20237580.526 7  -1189220.086 7   -917000.66449  20237579.72649
  22346295.284 5  -3352643.633 5  -2533098.74647  22346295.69447
  23247590.933 5   -451078.340 5   -344863.06646  23247588.14446
  21196633.565 7  -1382884.461 7  -1065536.55948  21196630.11248
  22207915.128 6   -162900.734 6   -125776.68448  22207916.06948
 18  5 30  0 25 29.9990000  0  9G03G14G16G22G26G27G29G31G32         -0.000462437
  23339844.644 3   -133333.914 3                
  20214302.831 6  -1024574.273 6   -785853.08648  20214299.56548
  20217097.026 7  -2036981.133 7  -1558590.14548  20217092.69048
  23244721.237 3  -1125727.445 3   -869724.82845  23244716.69045
  20235256.401 7  -1201432.965 7   -926517.19149  20235255.93749
  22339647.690 5  -3387575.164 5  -2560318.14147  22339648.04647
  23246749.167 5   -455505.117 5   -348312.55146  23246745.85146
  21193909.151 7  -1397200.199 7  -1076691.68848  21193905.90948
  22207620.159 6   -164451.949 6   -126985.42248  22207621.19048
 18  5 30  0 25 34.9990000  0  9G03G14G16G22G26G27G29G31G32         -0.000473234
  23337010.362 4   -148229.324 4                
  20212392.808 6  -1034610.191 6   -793673.29348  20212389.74548
  20213212.253 7  -2057395.238 7  -1574497.23448  20213208.35848
  23242567.894 3  -1137045.367 3   -878543.95745  23242563.58945
  20232932.870 7  -1213642.547 7   -936031.15249  20232932.67549
  22333000.425 5  -3422506.879 5  -2587537.65247  22333000.48747
  23245907.745 5   -459925.313 5   -351756.81646  23245905.39746
  21191184.620 7  -1411517.590 7  -1087848.09848  21191181.30848
  22207325.651 6   -165999.410 6   -128191.25447  22207326.51547
 18  5 30  0 25 39.9990000  0  9G03G14G16G22G26G27G29G31G32         -0.000484032
  23334177.300 4   -163115.859 4                
  20210485.589 6  -1044634.813 6   -801484.69948  20210482.27648
  20209329.550 7  -2077800.219 7  -1590397.22348  20209325.35848
  23240415.315 3  -1148358.672 3   -887359.59845  23240410.25345
  20230610.542 7  -1225847.246 7   -945541.31349  20230610.05049
  22326353.472 5  -3457437.141 5  -2614756.03147  22326353.79247
  23245068.792 5   -464337.273 5   -355194.73846  23245066.33546
  21188460.401 7  -1425835.000 7  -1099004.52348  21188456.66348
  22207031.722 6   -167541.566 6   -129392.94147  22207032.81247
 18  5 30  0 25 44.9990000  0  9G03G14G16G22G26G27G29G31G32         -0.000494831
  23331345.503 5   -177993.961 5                
  20208579.347 6  -1054648.609 6   -809287.66048  20208576.64048
  20205447.995 7  -2098196.484 7  -1606290.41048  20205444.26548
  23238263.425 3  -1159667.902 3   -896171.91045  23238258.53045
  20228288.745 7  -1238047.520 7   -955048.02049  20228288.74949
  22319706.026 5  -3492366.406 5  -2641973.66847  22319706.93347
  23244230.464 5   -468741.508 5   -358626.61346  23244227.92946
  21185735.612 7  -1440152.922 7  -1110161.35248  21185732.20248
  22206740.214 6   -169078.855 6   -130590.84048  22206740.74948
 18  5 30  0 25 49.9980000  0  9G03G14G16G22G26G27G29G31G32          0.000494370
  23328517.139 4   -192861.094 4                
  20206676.756 6  -1064649.961 6   -817080.93048  20206673.47948
  20201569.381 7  -2118580.340 7  -1622173.93448  20201564.85448
  23236112.006 2  -1170971.184 2   -904979.66045  23236107.43645
  20225968.670 7  -1250241.379 7   -964549.73849  20225968.39749
  22313061.061 5  -3527288.102 5  -2669185.35947  22313062.19347
  23243394.357 5   -473137.563 5   -362052.11346  23243391.79546
  21183010.670 7  -1454468.898 7  -1121316.66048  21183007.69748
  22206447.990 6   -170611.426 6   -131785.05548  22206448.97548
 18  5 30  0 25 54.9980000  0  9G03G14G16G22G26G27G29G31G32          0.000483564
  23325688.381 4   -207723.281 4    -11121.35555  23325687.56455
  20204774.717 6  -1074643.012 6   -824867.72748  20204771.82248
  20197690.857 7  -2138960.070 7  -1638054.26248  20197686.85448
  23233962.412 2  -1182273.059 2   -913786.35945  23233956.79145
  20223648.100 7  -1262433.742 7   -974050.27749  20223647.97149
  22306414.811 5  -3562216.250 5  -2696402.09047  22306415.68947
  23242559.068 5   -477527.285 5   -365472.69546  23242556.60746
  21180286.193 7  -1468788.719 7  -1132474.96948  21180282.76048
  22206157.256 6   -172139.934 6   -132976.10948  22206158.29948
 18  5 30  0 25 59.9980000  0  9G03G14G16G22G26G27G29G31G32          0.000472757
  23322862.834 5   -222577.496 5    -22695.96545  23322861.13145
  20202875.256 6  -1084625.531 6   -832646.31648  20202872.36548
  20193814.389 7  -2159331.488 7  -1653928.07848  20193810.33848
  23231811.772 2  -1193571.129 2   -922590.05145  23231806.73245
  20221328.990 7  -1274622.102 7   -983547.70349  20221328.57649
  22299767.857 5  -3597143.746 5  -2723618.30547  22299768.92047
  23241724.982 5   -481909.660 5   -368887.52346  23241722.88546
  21177561.303 7  -1483109.355 7  -1143633.90648  21177557.70948
  22205867.522 6   -173663.977 6   -134163.68448  22205868.30748
 18  5 30  0 26  4.9980000  0  9G03G14G16G22G26G27G29G31G32          0.000461950
  23320036.928 5   -237423.031 5    -34264.10945  23320036.30345
  20200978.045 6  -1094596.965 6   -840416.27048  20200975.17448
  20189939.639 6  -2179693.973 6  -1669794.94148  20189935.66248
  23229661.693 2  -1204864.852 2   -931390.37945  23229657.43245
  20219010.240 7  -1286805.816 7   -993041.50449  20219010.08849
  22293122.076 5  -3632069.949 5  -2750833.52347  22293122.56147
  23240892.443 5   -486284.105 5   -372296.23846  23240890.74846
  21174835.998 7  -1497430.246 7  -1154793.04348  21174832.47548
  22205578.412 6   -175182.961 6   -135347.31348  22205578.87748
 18  5 30  0 26  9.9980000  0  9G03G14G16G22G26G27G29G31G32          0.000451138
  23317213.537 5   -252260.617 5    -45825.74645  23317212.60745
  20199082.326 6  -1104557.969 6   -848178.09848  20199079.02948
  20186065.990 7  -2200048.184 7  -1685655.37148  20186062.77248
  23227512.787 2  -1216154.977 2   -940187.83645  23227509.25645
  20216692.654 8  -1298985.559 8  -1002532.21149  20216692.51049
  22286476.193 6  -3666995.375 6  -2778048.12947  22286476.68247
  23240060.897 5   -490651.285 5   -375699.21946  23240059.72146
  21172110.764 7  -1511752.004 7  -1165952.85548  21172107.05748
  22205290.139 6   -176697.551 6   -136527.53548  22205290.86148
 18  5 30  0 26 14.9980000  0  9G03G14G16G22G26G27G29G31G32          0.000440325
  23314391.865 5   -267090.852 5    -57381.71545  23314390.67045
  20197188.693 6  -1114509.215 6   -855932.32048  20197185.61148
  20182194.537 7  -2220394.715 7  -1701509.81348  20182190.79148
  23225366.264 1  -1227441.984 1   -948982.95345  23225361.12345
  20214375.568 7  -1311161.992 7  -1012020.34449  20214375.40449
  22279830.006 5  -3701920.914 5  -2805262.82447  22279830.58047
  23239231.881 5   -495011.852 5   -379097.08246  23239229.79146
  21169385.287 7  -1526075.320 7  -1177113.88348  21169381.61548
  22205002.811 6   -178208.395 6   -137704.83648  22205003.35748
 18  5 30  0 26 19.9980000  0  9G03G14G16G22G26G27G29G31G32          0.000429508
  23311571.178 5   -281912.680 5    -68931.22345  23311570.68645
  20195297.068 6  -1124449.520 6   -863678.01248  20195294.26048
  20178324.342 7  -2240732.508 7  -1717357.45348  20178320.59648
  23223218.248 1  -1238724.938 1   -957774.85545  23223214.33445
  20212059.443 7  -1323334.016 7  -1021505.04749  20212059.14749
  22273183.803 5  -3736845.281 5  -2832476.60947  22273184.61147
  23238402.990 5   -499364.742 5   -382488.95346  23238401.88946
  21166659.365 7  -1540398.984 7  -1188275.18848  21166656.32248
  22204716.482 6   -179714.391 6   -138878.34448  22204716.70548
 18  5 30  0 26 24.9980000  0  9G03G14G16G22G26G27G29G31G32          0.000418690
  23308751.975 5   -296725.617 5    -80473.70345  23308751.96345
  20193407.545 6  -1134378.477 6   -871414.85948  20193404.83848
  20174455.779 7  -2261061.121 7  -1733197.93048  20174452.15448
  23221071.967 2  -1250003.281 2   -966563.19945  23221067.95945
  20209744.154 7  -1335501.148 7  -1030985.92649  20209743.43949
  22266538.373 5  -3771767.992 5  -2859689.12147  22266538.60047
  23237576.607 5   -503709.469 5   -385874.46146  23237575.14746
  21163933.772 7  -1554722.582 7  -1199436.43448  21163930.44748
  22204431.139 6   -181215.059 6   -140047.71548  22204431.05348
 18  5 30  0 26 29.9980000  0  9G03G14G16G22G26G27G29G31G32          0.000407867
  23305934.561 4   -311530.492 4    -92010.05945  23305934.91645
  20191520.272 6  -1144296.926 6   -879143.51648  20191517.35448
  20170589.162 7  -2281381.344 7  -1749031.86748  20170585.56448
  23218925.68611                   -975348.67655  23218923.03355
  20207429.537 7  -1347664.262 7  -1040463.67649  20207429.30349
  22259892.615 6  -3806689.930 6  -2886901.00847  22259892.89747
  23236751.186 5   -508046.828 5   -389254.24246  23236749.30746
  21161207.967 7  -1569046.922 7  -1210598.25448  21161204.58448
  22204145.850 6   -182711.285 6   -141213.62548  22204146.14348
 18  5 30  0 26 34.9980000  0  9G03G14G16G22G26G27G29G31G32          0.000397047
  23303119.186 4   -326327.270 4   -103540.00845  23303118.96345
  20189634.881 6  -1154204.781 6   -886863.93048  20189632.59648
  20166724.006 7  -2301693.188 7  -1764859.28548  20166720.22948
  23216780.826 1  -1272548.766 1   -984131.14845  23216777.58445
  20205115.982 8  -1359823.273 8  -1049938.24249  20205115.30749
  22253247.412 5  -3841610.977 5  -2914112.20747  22253247.65447
  23235926.936 5   -512376.813 5   -392628.25046  23235925.77246
  21158481.998 7  -1583371.961 7  -1221760.63348  21158478.19748
  22203862.303 6   -184203.012 6   -142376.02048  22203862.38148
 18  5 30  0 26 39.9980000  0  9G03G14G16G22G26G27G29G31G32          0.000386221
  23300304.654 4   -341115.652 4   -115063.48045  23300304.83445
  20187751.506 6  -1164101.824 6   -894575.91448  20187749.05348
  20162860.373 7  -2321996.320 7  -1780679.90248  20162856.55348
  23214637.55311  -1283815.64511   -992910.46955  23214634.36955
  20202803.147 7  -1371977.938 7  -1059409.40649  20202802.32649
  22246602.936 5  -3876530.785 5  -2941322.45347  22246602.90447
  23235105.178 5   -516699.168 5   -395996.34446  23235103.13546
  21155755.826 7  -1597697.344 7  -1232923.27048  21155752.00248
  22203579.537 6   -185689.930 6   -143534.66448  22203578.82248
 18  5 30  0 26 44.9980000  0  9G03G14G16G22G26G27G29G31G32          0.000375395
  23297491.834 4   -355895.336 4   -126580.07445  23297492.63545
  20185870.412 6  -1173987.727 6   -902279.20348  20185867.95948
  20158998.912 7  -2342290.414 7  -1796493.48448  20158994.95548
  23212494.311 1  -1295078.035 1  -1001686.43045  23212491.19345
  20200491.037 7  -1384127.879 7  -1068876.89849  20200490.33449
  22239958.256 6  -3911449.102 6  -2968531.52347  22239957.81447
  23234283.881 5   -521013.551 5   -399358.19546  23234282.80346
  21153030.201 7  -1612022.797 7  -1244085.96948  21153026.08048
  22203297.436 6   -187171.711 6   -144689.31648  22203297.35048
 18  5 30  0 26 49.9980000  0  9G03G14G16G22G26G27G29G31G32          0.000364565
  23294681.022 4   -370666.328 4   -138090.03145  23294681.22945
  20183991.318 6  -1183862.473 6   -909973.82048  20183988.76048
  20155138.381 7  -2362575.547 7  -1812300.08248  20155134.57248
  23210350.95911                  -1010459.00855  23210349.25255
  20198179.701 7  -1396273.211 7  -1078340.79749  20198179.14749
  22233313.467 6  -3946365.887 6  -2995739.39847  22233313.76447
  23233464.475 5   -525319.988 5   -402713.84846  23233463.69746
  21150303.967 7  -1626348.402 7  -1255248.78548  21150300.14348
  22203016.615 6   -188648.465 6   -145840.05148  22203016.36548
 18  5 30  0 26 54.9980000  0  9G03G14G16G22G26G27G29G31G32          0.000353735
  23291871.967 3   -385428.871 3                
  20182113.982 6  -1193726.219 6   -917659.85548  20182111.76848
  20151279.873 7  -2382851.824 7  -1828099.77748  20151276.21348
  23208210.068 1                  -1019228.28545  23208207.49445
  20195869.264 7  -1408414.031 7  -1087801.18049  20195868.74849
  22226669.561 6  -3981281.273 6  -3022946.19947  22226669.12747
  23232646.006 4   -529618.605 4   -406063.46146  23232645.77946
  21147577.912 7  -1640674.188 7  -1266411.73448  21147574.19748
  22202736.936 6   -190120.297 6   -146986.95747  22202736.11147
 18  5 30  0 26 59.9980000  0  9G03G14G16G22G26G27G29G31G32          0.000342901
  23289064.303 4   -400183.621 4                
  20180239.404 6  -1203579.645 6   -925337.85948  20180236.40048
  20147423.186 7  -2403119.961 7  -1843893.13348  20147419.37748
  23206068.56811                  -1027994.91855  23206066.79155
  20193559.662 7  -1420551.074 7  -1097258.61749  20193559.06149
  22220025.092 6  -4016195.957 6  -3050152.44947  22220025.05747
  23231829.279 4   -533910.180 4   -409407.57046  23231829.17446
  21144851.295 7  -1655000.918 7  -1277575.42248  21144847.42448
  22202457.365 7   -191587.926 7   -148130.55948  22202456.94348
 18  5 30  0 27  4.9980000  0  9G03G14G16G22G26G27G29G31G32          0.000332067
  23286258.740 4   -414929.992 4                
  20178366.498 6  -1213422.203 6   -933007.39148  20178363.54948
  20143567.826 7  -2423379.426 7  -1859679.72748  20143564.31148
  23203929.061 1  -1340087.016 1  -1036758.33645  23203926.92845
  20191250.834 7  -1432683.801 7  -1106712.69149  20191250.57249
  22213381.647 6  -4051109.410 6  -3077357.72747  22213381.17447
  23231014.217 4   -538194.133 4   -412745.73846  23231013.79946
  21142124.795 7  -1669328.016 7  -1288739.39848  21142121.22948
  22202179.068 6   -193050.813 6   -149270.48448  22202178.77248
 18  5 30  0 27  9.9980000  0  9G03G14G16G22G26G27G29G31G32          0.000321230
  23283453.334 4   -429667.598 4                
  20176495.686 6  -1223253.426 6   -940668.09448  20176492.65448
  20139714.662 7  -2443629.719 7  -1875459.18848  20139710.63548
  23201789.81111  -1351329.06311  -1045518.45755  23201787.32655
  20188943.092 8  -1444811.711 8  -1116163.00849  20188942.20549
  22206738.498 6  -4086021.090 6  -3104561.61747  22206737.75247
  23230200.647 5   -542470.012 5   -416077.60246  23230200.39746
  21139398.732 7  -1683655.012 7  -1299903.29748  21139395.01448
  22201901.568 6   -194508.473 6   -150406.33247  22201901.17847
 18  5 30  0 27 14.9980000  0  9G03G14G16G22G26G27G29G31G32          0.000310392
  23280650.592 3   -444395.125 3                
  20174626.451 6  -1233072.133 6   -948319.03548  20174623.95148
  20135863.053 7  -2463869.633 7  -1891230.54748  20135859.30348
  23199651.49011  -1362565.35511  -1054274.00055  23199649.70955
  20186636.170 7  -1456933.637 7  -1125608.66849  20186635.60049
  22200095.428 6  -4120929.770 6  -3131763.18447  22200095.02247
  23229388.764 5   -546736.594 5   -419402.19946  23229388.01846
  21136672.404 7  -1697980.688 7  -1311066.18048  21136668.55748
  22201625.459 6   -195959.746 6   -151537.21147  22201624.93947
 18  5 30  0 27 19.9980000  0  9G03G14G16G22G26G27G29G31G32          0.000299551
  23277849.607 3   -459114.973 3                
  20172760.451 6  -1242880.637 6   -955962.02748  20172757.94748
  20132012.936 7  -2484101.477 7  -1906995.61748  20132009.16248
  23197514.639 1  -1373798.258 1  -1063026.88745  23197512.05345
  20184329.857 7  -1469051.863 7  -1135051.44549  20184329.50649
  22193452.717 6  -4155837.766 6  -3158964.21947  22193452.07247
  23228578.420 5   -550996.195 5   -422721.37946  23228577.53746
  21133946.311 7  -1712307.340 7  -1322229.80148  21133942.51448
  22201349.670 6   -197406.879 6   -152664.85247  22201349.43647
 18  5 30  0 27 24.9980000  0  9G03G14G16G22G26G27G29G31G32          0.000288708
  23275049.350 2   -473826.215 2                
  20170896.279 6  -1252678.035 6   -963596.35948  20170893.29548
  20128164.576 7  -2504324.391 7  -1922753.73048  20128160.76848
  23195378.482 1  -1385026.918 1  -1071776.55145  23195375.15045
  20182025.334 7  -1481165.551 7  -1144490.68049  20182024.22949
  22186809.975 6  -4190744.152 6  -3186164.00047  22186809.71347
  23227769.662 5   -555248.066 5   -426034.49646  23227768.29146
  21131220.123 7  -1726634.109 7  -1333393.51248  21131216.33048
  22201075.592 6   -198849.063 6   -153788.65247  22201075.49447
 18  5 30  0 27 29.9980000  0  9G03G14G16G22G26G27G29G31G32          0.000277864
  23272252.889 2   -488528.957 2                
  20169034.178 6  -1262464.344 6   -971222.06648  20169030.57248
  20124318.162 7  -2524538.383 7  -1938504.89848  20124314.52248
  23193240.865 1  -1396251.480 1  -1080522.92245  23193239.67045
  20179720.647 7  -1493274.711 7  -1153926.39549  20179720.13149
  22180167.647 6  -4225648.977 6  -3213362.55947  22180167.18647
  23226962.092 5   -559492.082 5   -429341.52746  23226960.54946
  21128493.647 7  -1740960.930 7  -1344557.28948  21128489.92848
  22200802.170 6   -200286.313 6   -154908.60947  22200801.92047
 18  5 30  0 27 34.9980000  0  9G03G14G16G22G26G27G29G31G32          0.000267017
  23269456.998 2   -503221.195 2                
  20167174.006 6  -1272237.676 6   -978837.64848  20167171.06848
  20120473.584 7  -2544741.570 7  -1954247.64548  20120469.56148
  23191106.72511                  -1089264.57855  23191104.50255
  20177417.631 7  -1505377.438 7  -1163357.09449  20177417.39349
  22173526.811 6  -4260550.281 6  -3240558.39547  22173525.26047
  23226155.568 5   -563726.438 5   -432641.03946  23226154.85046
  21125767.217 7  -1755285.988 7  -1355719.67248  21125763.54548
  22200529.670 6   -201716.758 6   -156023.25047  22200529.75647
 18  5 30  0 27 39.9980000  0  9G03G14G16G22G26G27G29G31G32          0.000256176
  23266663.639 2   -517895.777 2                
  20165318.576 6  -1281990.762 6   -986437.46148  20165315.58848
  20116632.209 7  -2564926.703 7  -1969976.31348  20116628.28748
  23188972.52911  -1418675.02711  -1097995.87555  23188972.18655
  20175117.248 8  -1517466.492 8  -1172777.14149  20175116.47149
  22166886.381 6  -4295440.820 6  -3267745.82447  22166885.62347
  23225353.459 5   -567943.871 5   -435927.34046  23225352.41646
  21123043.428 7  -1769601.977 7  -1366874.98448  21123039.58448
  22200260.482 6   -203133.070 6   -157126.87947  22200260.31147
 18  5 30  0 27 44.9980000  0  9G03G14G16G22G26G27G29G31G32          0.000245333
  23263872.764 2   -532561.527 2                
  20163464.756 6  -1291732.414 6   -994028.35548  20163461.45548
  20112793.045 7  -2585102.570 7  -1985697.77048  20112788.80348
  23186842.264 1  -1429875.633 1  -1106723.55545  23186840.47545
  20172817.881 8  -1529550.699 8  -1182193.39849  20172817.59649
  22160247.373 5  -4330329.367 5  -3294931.69147  22160246.54547
  23224552.545 5   -572153.164 5   -439207.29346  23224551.37346
  21120319.350 7  -1783917.746 7  -1378030.13348  21120315.53348
  22199991.732 6   -204544.129 6   -158226.41848  22199991.48648
 18  5 30  0 27 49.9980000  0  9G03G14G16G22G26G27G29G31G32          0.000234488
  23261083.975 2   -547221.219 2                
  20161612.217 6  -1301465.594 6  -1001612.66048  20161608.97548
  20108954.975 7  -2605272.180 7  -2001414.34448  20108950.67448
  23184713.561 1  -1441074.668 1  -1115450.14145  23184709.57645
  20170518.607 7  -1541633.012 7  -1191608.19149  20170517.63149
  22153608.568 6  -4365218.879 6  -3322118.32047  22153607.87747
  23223752.834 5   -576357.281 5   -442483.23446  23223750.93946
  21117594.545 7  -1798236.203 7  -1389187.37548  21117590.53348
  22199723.787 6   -205952.906 6   -159324.16847  22199723.31447
 18  5 30  0 27 54.9980000  0  9G03G14G16G22G26G27G29G31G32          0.000223635
  23258295.420 2   -561878.492 2                
  20159761.170 6  -1311193.699 6  -1009193.01648  20159758.00648
  20105117.076 7  -2625438.883 7  -2017128.65648  20105113.12348
  23182581.092 1  -1452275.496 1  -1124178.00445  23182577.85445
  20168219.193 7  -1553716.848 7  -1201024.17649  20168218.23649
  22146967.857 6  -4400112.754 6  -3349308.35547  22146967.25247
  23222952.568 5   -580559.641 5   -445757.80146  23222950.81846
  21114868.772 7  -1812560.723 7  -1400349.32448  21114864.67448
  22199455.357 6   -207362.777 6   -160422.78147  22199454.53347
 18  5 30  0 27 59.9980000  0  9G03G14G16G22G26G27G29G31G32          0.000212774
  23255505.811 1   -576535.133 1                
  20157910.147 6  -1320918.684 6  -1016770.91848  20157907.29148
  20101279.686 7  -2645604.621 7  -2032842.23448  20101275.45148
  23180448.170 1  -1463480.121 1  -1132908.92245  23180445.72945
  20165918.834 7  -1565804.098 7  -1210442.81349  20165918.13949
  22140326.592 6  -4435012.828 6  -3376503.22347  22140326.50647
  23222152.506 5   -584762.199 5   -449032.55946  23222151.06446
  21112141.107 7  -1826893.246 7  -1411517.53148  21112137.45548
  22199186.264 6   -208775.688 6   -161523.78147  22199186.19347
 18  5 30  0 28  4.9980000  0  9G03G14G16G22G26G27G29G31G32          0.000201908
  23252717.420 1   -591192.375 1                
  20156060.584 6  -1330641.676 6  -1024347.28148  20156057.69348
  20097442.225 7  -2665770.578 7  -2048555.96948  20097438.31848
  23178315.225 2  -1474689.750 2  -1141643.71945  23178312.90045
  20163617.873 7  -1577895.953 7  -1219865.03149  20163617.54549
  22133683.943 6  -4469920.301 6  -3403703.83247  22133683.98647
  23221352.381 5   -588966.105 5   -452308.28946  23221350.84646
  21109411.373 7  -1841234.953 7  -1422692.86748  21109407.97148
  22198916.592 6   -210192.789 6   -162628.02047  22198916.21347
 18  5 30  0 28  9.9980000  0  9G03G14G16G22G26G27G29G31G32          0.000191031
  23249926.936 1   -605852.453 1                
  20154209.826 6  -1340364.910 6  -1031923.83648  20154207.37348
  20093604.701 7  -2685938.945 7  -2064271.58648  20093600.85448
  23176181.865 2  -1485906.500 2  -1150384.07445  23176177.67445
  20161315.412 7  -1589994.652 7  -1229292.59449  20161315.08849
  22127039.904 5  -4504837.375 5  -3430911.95347  22127039.49047
  23220551.232 4   -593173.543 4   -455586.84046  23220549.70946
  21106680.818 6  -1855588.012 6  -1433877.07848  21106677.08048
  22198645.678 6   -211616.324 6   -163737.28147  22198645.35447
 18  5 30  0 28 14.9980000  0  9G03G14G16G22G26G27G29G31G32          0.000180153
  23247139.600 1   -620502.754 1                
  20152361.936 6  -1350075.961 6  -1039490.87548  20152359.08448
  20089768.647 7  -2706097.324 7  -2079979.41448  20089764.63148
  23174047.576 2  -1497118.035 2  -1159120.32845  23174043.92845
  20159014.334 7  -1602087.773 7  -1238715.81349  20159014.04549
  22120395.834 6  -4539751.582 6  -3458117.82047  22120395.50647
  23219752.482 4   -597372.102 4   -458858.42646  23219751.08046
  21103949.240 7  -1869939.996 7  -1445060.44148  21103945.98248
  22198375.990 6   -213033.891 6   -164841.89147  22198375.61547
 18  5 30  0 28 19.9980000  0  9G03G14G16G22G26G27G29G31G32          0.000169277
  23244353.279 1   -635139.648 1                
  20150517.389 6  -1359771.039 6  -1047045.49248  20150514.44348
  20085934.951 7  -2726241.887 7  -2095676.47748  20085931.30348
  23171915.639 2  -1508320.449 2  -1167849.52345  23171911.99045
  20156714.670 7  -1614171.461 7  -1248131.68048  20156714.69348
  22113753.334 6  -4574659.059 6  -3485318.44147  22113753.14347
  23218955.100 5   -601558.004 5   -462120.16046  23218954.63546
  21101219.326 7  -1884287.055 7  -1456239.98048  21101215.85448
  22198108.584 6   -214441.613 6   -165938.84447  22198107.85447
 18  5 30  0 28 24.9980000  0 10G03G14G16G22G23G26G27G29G31G32       0.000158403
  23241569.88111                                
  20148675.381 6  -1369449.473 6  -1054587.12548  20148672.85048
  20082104.404 7  -2746371.957 7  -2111362.24248  20082100.91248
  23169786.811 3  -1519513.309 3  -1176571.27345  23169782.41245
  23785376.29511                                
  20154417.318 7  -1626245.145 7  -1257539.74248  20154416.67448
  22107112.561 5  -4609559.238 5  -3512513.37947  22107111.66247
  23218161.350 4   -605730.672 4   -465371.59046  23218160.43946
  21098490.303 7  -1898628.617 7  -1467415.21548  21098486.06148
  22197842.154 6   -215838.926 6   -167027.69147  22197841.66647
 18  5 30  0 28 29.9980000  0  9G14G16G22G23G26G27G29G31G32          0.000147532
  20146836.279 6  -1379113.168 6  -1062117.28548  20146833.95148
  20078276.045 7  -2766489.473 7  -2127038.22748  20078272.49048
  23167658.522 4  -1530698.355 4  -1185286.85945  23167653.29945
  23778894.131 2   -548698.832 2                
  20152121.490 7  -1638310.723 7  -1266941.48848  20152120.82648
  22100471.553 5  -4644453.977 5  -3539704.07847  22100471.03347
  23217369.514 4   -609892.008 4   -468614.19946  23217368.53346
  21095761.990 7  -1912966.496 7  -1478587.59848  21095757.80348
  22197578.537 6   -217227.754 6   -168109.88747  22197577.92447
 18  5 30  0 28 34.9980000  0  9G14G16G22G23G26G27G29G31G32          0.000136658
  20145000.615 6  -1388762.676 6  -1069636.39148  20144997.66248
  20074450.084 7  -2786595.016 7  -2142704.89148  20074446.62748
  23165530.990 4  -1541876.262 4  -1193996.94145  23165526.58845
  23772413.029 2   -582758.449 2                
  20149826.522 7  -1650368.742 7  -1276337.35248  20149826.08848
  22093832.092 6  -4679343.816 6  -3566890.97347  22093831.51047
  23216579.529 3   -614042.547 3   -471848.37946  23216579.13946
  21093034.123 7  -1927301.340 7  -1489757.62148  21093029.92048
  22197314.897 6   -218608.629 6   -169185.91447  22197315.40047
 18  5 30  0 28 39.9980000  0  9G14G16G22G23G26G27G29G31G32          0.000125782
  20143166.717 6  -1398398.293 6  -1077144.66048  20143163.60448
  20070626.107 7  -2806688.828 7  -2158362.41048  20070623.21348
  23163405.084 4  -1553047.250 4  -1202701.60946  23163400.96746
  23765931.834 2   -616814.969 2                
  20147533.498 7  -1662419.531 7  -1285727.58648  20147532.95948
  22087194.084 6  -4714229.008 6  -3594074.24647  22087192.93647
  23215791.943 4   -618182.591 4   -475074.42746  23215791.34246
  21090306.740 7  -1941633.414 7  -1500925.48448  21090302.64348
  22197053.889 6   -219981.902 6   -170256.00047  22197053.99047
 18  5 30  0 28 44.9980000  0  9G14G16G22G23G26G27G29G31G32          0.000114906
  20141335.545 6  -1408021.582 6  -1084643.33648  20141333.11548
  20066804.748 7  -2826772.520 7  -2174012.03548  20066800.86548
  23161280.967 4  -1564212.898 4  -1211402.12146  23161275.55346
  23759451.561 1   -650870.098 1                
  20145240.795 7  -1674464.617 7  -1295113.37948  20145240.74848
  22080555.928 5  -4749111.152 5  -3621255.12147  22080554.84247
  23215006.482 5   -622313.758 5   -478293.49646  23215004.99046
  21087579.350 7  -1955964.207 7  -1512092.33648  21087575.22948
  22196793.600 6   -221349.070 6   -171321.36347  22196793.83447
 18  5 30  0 28 49.9980000  0  9G14G16G22G23G26G27G29G31G32          0.000104031
  20139506.873 6  -1417632.113 6  -1092132.07048  20139503.54948
  20062984.951 7  -2846845.645 7  -2189653.42648  20062981.22948
  23159157.303 4  -1575372.770 4  -1220098.15646  23159152.55746
  23752971.936 1   -684923.148 1                
  20142950.686 7  -1686503.602 7  -1304494.40648  20142950.01448
  22073919.209 6  -4783989.691 6  -3648433.21947  22073918.18247
  23214221.795 4   -626435.523 4   -481505.27346  23214220.55746
  21084852.865 7  -1970293.309 7  -1523257.87948  21084849.01448
  22196534.264 6   -222709.723 6   -172381.60947  22196535.25247
 18  5 30  0 28 54.9980000  0 10G03G14G16G22G23G26G27G29G31G32       0.000093153
  23224921.74812    -38342.96112                
  20137680.131 6  -1427230.512 6  -1099611.35248  20137677.25248
  20059166.904 7  -2866908.820 7  -2205287.07848  20059163.28348
  23157034.811 4  -1586527.531 4  -1228790.17646  23157029.31446
  23746492.162 2   -718974.813 2                
  20140660.686 7  -1698537.090 7  -1313871.14848  20140660.16648
  22067282.217 6  -4818865.320 6  -3675609.04347  22067281.60747
  23213438.764 4   -630548.605 4   -484710.27746  23213437.70546
  21082126.365 7  -1984621.328 7  -1534422.57848  21082122.43948
  22196276.748 6   -224064.484 6   -173437.27747  22196277.79547
 18  5 30  0 28 59.9980000  0 10G03G14G16G22G23G26G27G29G31G32       0.000082273
  23222152.990 1    -52891.504 1                
  20135856.217 6  -1436816.355 6  -1107080.84848  20135853.28748
  20055351.139 7  -2886961.680 7  -2220912.68848  20055347.28748
  23154912.764 4  -1597676.805 4  -1237477.90646  23154908.47146
  23740011.748 2   -753024.801 2                
  20138371.428 7  -1710564.695 7  -1323243.31648  20138371.43248
  22060646.201 5  -4853737.586 5  -3702782.23447  22060645.15047
  23212658.326 4   -634652.535 4   -487908.16446  23212657.26446
  21079400.412 7  -1998947.902 7  -1545586.15248  21079396.14748
  22196020.131 6   -225413.035 6   -174488.10247  22196020.90847
 18  5 30  0 29  4.9980000  0 10G03G14G16G22G23G26G27G29G31G32       0.000071392
  23219385.795 3    -67431.648 3                
  20134034.123 6  -1446391.148 6  -1114541.72748  20134031.19748
  20051536.662 7  -2907005.629 7  -2236531.34848  20051533.08448
  23152791.686 4  -1608821.988 4  -1246162.46546  23152786.93646
  23733532.693 2   -787074.332 2                
  20136083.529 7  -1722587.879 7  -1332612.03148  20136083.01848
  22054010.842 5  -4888607.918 5  -3729953.92647  22054010.01847
  23211879.115 4   -638748.824 4   -491100.05546  23211877.54146
  21076673.779 7  -2013274.414 7  -1556749.65248  21076669.95948
  22195764.490 6   -226756.695 6   -175535.12547  22195765.20947
 18  5 30  0 29  9.9980000  0 10G03G14G16G22G23G26G27G29G31G32       0.000060511
  23216620.248 1    -81961.727 1                
  20132214.818 6  -1455953.344 6  -1121992.80148  20132211.58448
  20047724.490 7  -2927039.160 7  -2252141.89148  20047720.70948
  23150672.022 4  -1619961.578 4  -1254842.66846  23150667.36146
  23727053.350 3   -821121.941 3                
  20133796.647 7  -1734605.109 7  -1341976.10248  20133796.41248
  22047376.240 5  -4923474.773 5  -3757122.89547  22047375.48647
  23211101.568 4   -642835.926 4   -494284.82446  23211099.49046
  21073948.154 7  -2027599.367 7  -1567911.96148  21073943.77948
  22195510.373 6   -228094.059 6   -176577.24647  22195511.22547
 18  5 30  0 29 14.9980000  0 10G03G14G16G22G23G26G27G29G31G32       0.000049627
  23213856.873 2    -96482.871 2                
  20130397.295 6  -1465503.965 6  -1129434.84448  20130394.45148
  20043913.990 7  -2947063.355 7  -2267745.16848  20043910.35748
  23148552.482 5  -1631096.609 5  -1263519.32446  23148548.29546
  23720574.154 2   -855168.746 2                
  20131510.990 7  -1746617.449 7  -1351336.37148  20131510.61148
  22040741.123 5  -4958339.223 5  -3784289.98447  22040740.36147
  23210325.131 4   -646914.871 4   -497463.19946  23210323.47946
  21071221.990 7  -2041923.805 7  -1579073.86348  21071217.87348
  22195256.639 6   -229426.168 6   -177615.25847  22195257.30347
 18  5 30  0 29 19.9980000  0 10G03G14G16G22G23G26G27G29G31G32       0.000038742
  23211096.139 3   -110994.789 3                
  20128581.592 6  -1475042.652 6  -1136867.59448  20128579.06148
  20040105.717 7  -2967077.785 7  -2283340.82448  20040101.26848
  23146435.131 5  -1642226.832 5  -1272192.21146  23146430.42846
  23714095.482 2   -889214.328 2                
  20129225.865 7  -1758624.531 7  -1360692.54348  20129225.85048
  22034107.100 5  -4993200.855 5  -3811454.89147  22034106.59247
  23209550.748 4   -650985.348 4   -500635.02746  23209548.70146
  21068496.084 7  -2056247.340 7  -1590235.07048  21068492.01448
  22195004.279 6   -230752.594 6   -178648.86347  22195005.06147
 18  5 30  0 29 24.9980000  0 10G03G14G16G22G23G26G27G29G31G32       0.000027857
  23208336.037 2   -125497.590 2                
  20126768.967 6  -1484569.660 6  -1144291.24248  20126766.19748
  20036298.576 7  -2987082.766 7  -2298929.12548  20036294.83448
  23144317.803 4  -1653352.406 4  -1280861.50046  23144313.10046
  23707617.686 2   -923258.844 2                
  20126941.920 7  -1770626.594 7  -1370044.79348  20126941.36948
  22027474.139 5  -5028059.867 5  -3838617.77047  22027473.46747
  23208776.725 4   -655047.594 4   -503800.41846  23208775.63546
  21065770.764 7  -2070570.188 7  -1601395.73448  21065766.42048
  22194752.615 6   -232073.641 6   -179678.27047  22194753.71747
 18  5 30  0 29 29.9980000  0 10G03G14G16G22G23G26G27G29G31G32       0.000016970
  23205577.678 2   -139991.094 2                
  20124958.170 6  -1494084.715 6  -1151705.57448  20124955.77248
  20032494.014 7  -3007077.965 7  -2314509.80948  20032490.08848
  23142201.514 4  -1664473.121 4  -1289527.01246  23142196.96746
  23701138.482 2   -957302.152 2                
  20124659.006 7  -1782623.406 7  -1379392.96148  20124658.43648
  22020841.701 6  -5062915.969 6  -3865778.34447  22020840.26047
  23208005.592 4   -659101.336 4   -506959.18046  23208004.65046
  21063045.498 7  -2084892.113 7  -1612555.66848  21063041.15048
  22194502.740 6   -233389.047 6   -180703.27347  22194503.38147
 18  5 30  0 29 34.9980000  0 10G03G14G16G22G23G26G27G29G31G32       0.000006081
  23202821.467 3   -154475.305 3                
  20123149.881 6  -1503587.867 6  -1159110.63348  20123147.40848
  20028690.365 7  -3027063.449 7  -2330082.91448  20028686.61948
  23140085.451 4  -1675588.992 4  -1298188.72746  23140081.29546
  23694660.818 3   -991344.160 3                
  20122377.162 7  -1794614.969 7  -1388737.04348  20122377.18648
  22014208.592 6  -5097769.230 6  -3892936.72747  22014208.25247
  23207236.045 4   -663146.523 4   -510111.28146  23207234.91246
  21060320.412 7  -2099213.141 7  -1623714.92648  21060315.79948
  22194253.100 6   -234698.840 6   -181723.91047  22194254.38947
 18  5 30  0 29 39.9980000  0 10G03G14G16G22G23G26G27G29G31G32      -0.000004810
  23200066.029 3   -168951.047 3                
  20121343.709 6  -1513079.922 6  -1166507.04748  20121340.87348
  20024889.600 7  -3047040.043 7  -2345649.08248  20024885.22548
  23137971.693 4  -1686700.813 4  -1306847.30546  23137966.91646
  23688182.787 2  -1025385.668 2                
  20120095.990 7  -1806602.145 7  -1398077.69948  20120096.04548
  22007576.709 6  -5132620.434 6  -3920093.50847  22007576.24447
  23206467.647 3   -667184.109 3   -513257.44546  23206466.70546
  21057595.186 7  -2113534.047 7  -1634874.09448  21057590.78748
  22194005.006 6   -236003.871 6   -182740.82447  22194005.74447
 18  5 30  0 29 44.9980000  0 10G03G14G16G22G23G26G27G29G31G32      -0.000015703
  23197314.365 4   -183418.316 4                
  20119539.592 6  -1522560.781 6  -1173894.73048  20119537.07248
  20021089.693 7  -3067007.668 7  -2361208.27348  20021085.53348
  23135857.490 4  -1697808.617 4  -1315502.75446  23135853.43946
  23681705.561 2  -1059426.602 2                
  20117815.873 7  -1818584.824 7  -1407414.85548  20117815.80748
  22000945.162 6  -5167469.484 6  -3947248.60547  22000944.69347
  23205699.850 4   -671214.008 4   -516397.63346  23205699.79946
  21054870.154 7  -2127854.766 7  -1646033.09048  21054865.83048
  22193757.272 6   -237304.047 6   -183753.96547  22193758.23647
 18  5 30  0 29 49.9980000  0 10G03G14G16G22G23G26G27G29G31G32      -0.000026598
  23194562.420 4   -197876.063 4                
  20117737.881 6  -1532029.504 6  -1181272.95748  20117734.92848
  20017291.428 7  -3086965.359 7  -2376759.71948  20017287.47148
  23133744.881 4  -1708911.324 4  -1324154.20746  23133740.72146
  23675227.287 2  -1093465.996 2                
  20115536.647 7  -1830562.082 7  -1416747.78948  20115536.67848
  21994314.850 6  -5202315.367 6  -3974401.23447  21994313.68247
  23204935.279 3   -675235.277 3   -519531.08245  23204935.01045
  21052145.389 7  -2142174.246 7  -1657191.13748  21052140.94748
  22193510.889 6   -238598.359 6   -184762.54347  22193511.61547
 18  5 30  0 29 54.9980000  0 10G03G14G16G22G23G26G27G29G31G32      -0.000037493
  23191813.178 5   -212325.020 5                
  20115938.272 6  -1541486.766 6  -1188642.26248  20115935.38948
  20013495.506 7  -3106913.828 7  -2392303.98448  20013491.60448
  23131633.131 4  -1720009.684 4  -1332802.26246  23131628.86146
  23668750.584 2  -1127504.465 2                
  20113258.561 7  -1842534.598 7  -1426077.02748  20113258.18948
  21987683.998 6  -5237158.801 6  -4001551.94547  21987683.49447
  23204171.154 3   -679248.570 3   -522658.32445  23204171.42045
  21049420.545 7  -2156493.281 7  -1668348.82048  21049415.93648
  22193265.459 6   -239887.707 6   -185767.24247  22193266.47547
 18  5 30  0 29 59.9980000  0 10G03G14G16G22G23G26G27G29G31G32      -0.000048389
  23189065.522 5   -226765.594 5                
  20114140.420 6  -1550932.977 6  -1196002.94948  20114137.59648
  20009701.084 7  -3126853.426 7  -2407841.33648  20009697.15048
  23129521.568 4  -1731104.098 4  -1341447.26646  23129517.38946
  23662273.123 2  -1161542.469 2                
  20110980.967 7  -1854502.750 7  -1435402.85948  20110980.36548
  21981053.623 6  -5272000.082 6  -4028700.99647  21981053.24447
  23203408.967 3   -683254.332 3   -525779.71545  23203409.07645
  21046695.865 7  -2170812.180 7  -1679506.41048  21046691.24848
  22193020.670 6   -241172.215 6   -186768.16047  22193021.94747
 18  5 30  0 30  4.9980000  0 10G03G14G16G22G23G26G27G29G31G32      -0.000059288
  23186318.686 4   -241196.754 4                
  20112345.225 6  -1560367.211 6  -1203354.32048  20112342.47948
  20005908.607 7  -3146783.250 7  -2423371.07448  20005904.65848
  23127411.607 4  -1742193.570 4  -1350088.40646  23127407.67846
  23655794.912 2  -1195579.000 2                
  20108704.857 7  -1866465.645 7  -1444724.60248  20108704.39748
  21974424.131 6  -5306838.363 6  -4055847.69547  21974423.13947
  23202648.459 2   -687251.555 2   -528894.43445  23202648.06445
  21043971.045 7  -2185130.047 7  -1690663.17648  21043966.74848
  22192778.373 6   -242451.082 6   -187764.69547  22192778.31847
 18  5 30  0 30  9.9980000  0 10G03G14G16G22G23G26G27G29G31G32      -0.000070189
  23183573.662 4   -255619.379 4                
  20110552.295 6  -1569790.160 6  -1210696.88348  20110549.23248
  20002118.092 7  -3166703.973 7  -2438893.71548  20002114.13548
  23125302.084 4  -1753278.914 4  -1358726.34846  23125297.99046
  23649318.076 1  -1229614.859 1     -1041.44156  23649317.98256
  20106429.256 7  -1878423.984 7  -1454042.78948  20106428.84648
  21967795.061 6  -5341674.266 6  -4082992.55547  21967794.30747
  23201889.295 3   -691241.074 3   -532003.13345  23201888.79145
  21041246.475 7  -2199447.582 7  -1701819.70748  21041242.04148
  22192535.420 5   -243725.059 5   -188757.42247  22192536.21747
 18  5 30  0 30 14.9980000  0 10G03G14G16G22G23G26G27G29G31G32      -0.000081091
  23180830.834 3   -270032.500 3                
  20108761.443 6  -1579200.941 6  -1218029.95748  20108758.39348
  19998329.217 7  -3186614.734 7  -2454408.59848  19998325.49448
  23123193.998 5  -1764359.203 5  -1367360.34046  23123189.86546
  23642840.357 1  -1263648.973 1    -27561.45345  23642840.58045
  20104154.889 7  -1890376.855 7  -1463356.72348  20104154.25648
  21961166.764 5  -5376506.879 5  -4110134.84447  21961165.29547
  23201131.397 2   -695221.922 2   -535105.13745  23201131.43945
  21038522.490 7  -2213763.875 7  -1712975.25848  21038517.90848
  22192294.092 6   -244993.176 6   -189745.57047  22192295.12747
 18  5 30  0 30 19.9980000  0 10G03G14G16G22G23G26G27G29G31G32      -0.000091995
  23178089.787 2   -284437.203 2                
  20106972.514 6  -1588600.602 6  -1225354.37148  20106969.76848
  19994542.100 7  -3206516.586 7  -2469916.53948  19994538.06148
  23121086.334 5  -1775435.504 5  -1375991.24246  23121082.06446
  23636365.107 1  -1297682.527 1    -54081.11745  23636364.15445
  20101881.014 7  -1902325.359 7  -1472667.25048  20101880.73248
  21954538.443 5  -5411337.270 5  -4137275.40247  21954537.52947
  23200375.100 2   -699195.258 2   -538201.16845  23200375.21745
  21035798.209 7  -2228079.961 7  -1724130.65648  21035793.51448
  22192054.732 6   -246256.570 6   -190730.05547  22192054.45947
 18  5 30  0 30 24.9980000  0 10G03G14G16G22G23G26G27G29G31G32      -0.000102900
  23175350.709 3   -298831.695 3                
  20105186.982 6  -1597987.441 6  -1232668.80148  20105183.56848
  19990757.068 7  -3226407.797 7  -2485416.18448  19990753.27548
  23118980.037 5  -1786506.148 5  -1384617.71146  23118975.15446
  23629889.303 1  -1331713.734 1    -80599.01645  23629888.59245
  20099608.506 7  -1914267.746 7  -1481973.01248  20099607.70148
  21947911.834 6  -5446163.711 6  -4164412.88347  21947910.75647
  23199620.873 2   -703159.184 2   -541290.03145  23199621.43645
  21033074.092 7  -2242394.145 7  -1735284.56648  21033069.70548
  22191815.951 6   -247513.484 6   -191709.46147  22191815.37747
 18  5 30  0 30 29.9980000  0 10G03G14G16G22G23G26G27G29G31G32      -0.000113806
  23172613.795 4   -313217.309 4                
  20103402.436 6  -1607362.613 6  -1239974.13348  20103399.50648
  19986973.404 7  -3246289.590 7  -2500908.48848  19986969.72548
  23116874.482 5  -1797572.215 5  -1393240.66846  23116869.70146
  23623413.725 1  -1365743.754 1                
  20097336.631 7  -1926205.250 7  -1491274.95748  20097336.19748
  21941285.326 6  -5480987.332 6  -4191548.18047  21941283.91247
  23198868.147 1   -707115.047 1   -544372.52745  23198868.68245
  21030350.350 7  -2256707.613 7  -1746437.93848  21030345.74448
  22191576.920 6   -248765.141 6   -192684.81347  22191577.73647
 18  5 30  0 30 34.9980000  0 10G03G14G16G22G23G26G27G29G31G32      -0.000124712
  23169877.389 4   -327593.875 4                
  20101620.975 7  -1616726.102 7  -1247270.35248  20101617.89348
  19983192.029 7  -3266161.934 7  -2516393.43048  19983187.74848
  23114769.107 5  -1808633.828 5  -1401860.11746  23114764.45546
  23616939.193 1  -1399772.582 1                
  20095066.107 7  -1938137.816 7  -1500573.06648  20095065.50248
  21934659.240 6  -5515808.125 6  -4218681.26647  21934658.26047
  23198116.678 1   -711062.805 1   -547448.68445  23198116.81445
  21027626.420 7  -2271020.328 7  -1757590.70348  21027622.06848
  22191340.561 6   -250011.504 6   -193656.01247  22191340.16647
 18  5 30  0 30 39.9980000  0 10G03G14G16G22G23G26G27G29G31G32      -0.000135622
  23167143.561 4   -341962.063 4                
  20099841.022 6  -1626078.488 6  -1254557.93848  20099838.29548
  19979411.779 7  -3286025.387 7  -2531871.45348  19979407.76048
  23112665.732 5  -1819691.438 5  -1410476.43846  23112660.59646
  23610462.326 1  -1433800.836 1                
  20092796.272 7  -1950066.055 7  -1509867.80548  20092795.48248
  21928033.068 6  -5550626.680 6  -4245812.59047  21928032.31447
  23197368.350 1   -715002.977 1   -550518.93845  23197367.08445
  21024903.225 7  -2285332.879 7  -1768743.34048  21024898.54948
  22191103.459 6   -251253.211 6   -194623.58247  22191103.90847
 18  5 30  0 30 44.9980000  0 10G03G14G16G22G23G26G27G29G31G32      -0.000146532
  23164411.240 4   -356321.574 4                
  20098063.279 6  -1635419.551 6  -1261836.68448  20098060.19348
  19975634.006 7  -3305879.754 7  -2547342.39148  19975629.81448
  23110562.092 5  -1830744.949 5  -1419089.54746  23110557.28746
  23603986.998 1  -1467828.160 1                
  20090527.272 7  -1961989.727 7  -1519158.98448  20090526.63148
  21921407.279 6  -5585442.637 6  -4272941.90647  21921406.71747
  23196619.397 1   -718935.477 1   -553583.19545  23196619.01845
  21022179.459 7  -2299645.000 7  -1779895.64548  21022174.77948
  22190868.209 6   -252489.980 6   -195587.30947  22190868.61947
 18  5 30  0 30 49.9980000  0 10G03G14G16G22G23G26G27G29G31G32      -0.000157444
  23161680.451 4   -370671.500 4                
  20096287.967 6  -1644748.262 6  -1269105.81348  20096284.79548
  19971857.615 7  -3325723.973 7  -2562805.41448  19971853.78748
  23108459.139 5  -1841793.301 5  -1427698.66046  23108454.62346
  23597513.420 1  -1501853.520 1                
  20088259.498 7  -1973907.805 7  -1528445.80148  20088258.84248
  21914783.068 5  -5620255.086 5  -4300068.47347  21914782.35747
  23195873.326 3   -722859.195 3   -556640.70745  23195872.07645
  21019456.318 7  -2313955.641 7  -1791046.79748  21019451.48648
  22190633.654 6   -253720.793 6   -196546.41047  22190634.21747
 18  5 30  0 30 54.9980000  0 10G03G14G16G22G23G26G27G29G31G32      -0.000168358
  23158951.264 4   -385012.109 4                
  20094514.865 6  -1654064.945 6  -1276365.56348  20094511.94348
  19968082.959 7  -3345558.379 7  -2578260.80148  19968079.39348
  23106357.490 5  -1852836.789 5  -1436304.03146  23106353.65846
  23591037.834 1  -1535877.270 1                
  20085992.498 7  -1985820.605 7  -1537728.50848  20085991.56848
  21908158.912 5  -5655064.219 5  -4327192.47747  21908158.01047
  23195128.428 3   -726774.391 3   -559691.50445  23195126.63545
  21016733.631 7  -2328265.070 7  -1802197.00448  21016728.61148
  22190400.959 6   -254945.996 6   -197501.11347  22190401.27247
 18  5 30  0 30 59.9980000  0 10G03G14G16G22G23G26G27G29G31G32      -0.000179272
  23156223.529 4   -399343.754 4                
  20092744.201 6  -1663369.934 6  -1283616.20748  20092740.99048
  19964310.412 6  -3365383.324 6  -2593708.81348  19964306.43948
  23104256.647 5  -1863875.852 5  -1444905.89546  23104252.80746
  23584563.600 1  -1569899.691 1                
  20083726.248 7  -1997728.520 7  -1547007.40248  20083725.27248
  21901535.451 5  -5689870.418 5  -4354314.19147  21901534.91647
  23194384.147 3   -730681.492 3   -562735.99245  23194382.99045
  21014010.732 7  -2342573.711 7  -1813346.58648  21014006.05748
  22190168.459 6   -256165.949 6   -198451.72747  22190169.27547
 18  5 30  0 31  4.9980000  0 10G03G14G16G22G23G26G27G29G31G32      -0.000190187
  23153498.576 4   -413666.777 4                
  20090976.279 6  -1672663.641 6  -1290858.05148  20090972.44748
  19960539.732 6  -3385199.211 6  -2609149.76648  19960535.93948
  23102156.779 5  -1874910.781 5  -1453504.53146  23102152.49046
  23578089.514 1  -1603921.207 1                
  20081461.350 7  -2009631.914 7  -1556282.77748  20081460.17848
  21894912.592 5  -5724674.059 5  -4381433.91047  21894911.56847
  23193642.193 3   -734580.953 3   -565774.53145  23193640.68645
  21011287.748 7  -2356881.914 7  -1824495.84048  21011283.33448
  22189937.139 6   -257381.051 6   -199398.57847  22189937.83047
 18  5 30  0 31  9.9980000  0 10G03G14G16G22G23G26G27G29G31G32      -0.000201107
  23150773.209 2   -427980.879 2                
  20089209.373 6  -1681945.664 6  -1298090.80948  20089206.50648
  19956770.818 6  -3405005.625 6  -2624583.33248  19956766.68248
  23100057.967 5  -1885941.281 5  -1462099.71946  23100053.29146
  23571615.740 1  -1637941.387 1                
  20079196.990 7  -2021530.434 7  -1565554.34848  20079196.13548
  21888291.014 6  -5759474.727 6  -4408551.31347  21888289.24447
  23192900.842 3   -738472.363 3   -568806.78945  23192900.52545
  21008565.240 7  -2371189.316 7  -1835644.46948  21008560.59648
  22189707.303 6   -258590.875 6   -200341.32047  22189707.36547
 18  5 30  0 31 14.9980000  0 10G03G14G16G22G23G26G27G29G31G32      -0.000212025
  23148052.201 3   -442286.289 3                
  20087445.748 6  -1691216.281 6  -1305314.66848  20087442.62348
  19953003.232 7  -3424802.840 7  -2640009.74248  19952999.35048
  23097960.467 5  -1896967.543 5  -1470691.61746  23097955.66246
  23565142.623 1  -1671960.543 1                
  20076933.701 7  -2033424.301 7  -1574822.31348  20076932.78348
  21881668.084 5  -5794272.664 5  -4435666.59847  21881667.21747
  23192163.451 4   -742355.918 4   -571832.98445  23192161.97945
  21005842.795 7  -2385496.117 7  -1846792.61748  21005838.08848
  22189478.006 6   -259795.730 6   -201280.18447  22189478.17847
 18  5 30  0 31 19.9980000  0 10G03G14G16G22G23G26G27G29G31G32      -0.000222946
  23145331.264 4   -456582.316 4                
  20085683.756 6  -1700474.789 6  -1312529.09448  20085680.87348
  19949237.826 7  -3444590.176 7  -2655428.43448  19949233.85048
  23095862.154 5  -1907988.957 5  -1479279.73046  23095858.01846
  23558668.147 1  -1705977.730 1                
  20074671.936 7  -2045312.867 7  -1584086.12548  20074671.05748
  21875047.467 5  -5829067.172 5  -4462779.18847  21875045.86947
  23191426.115 3   -746230.973 3   -574852.53945  23191424.24045
  21003120.506 7  -2399801.637 7  -1857939.78948  21003116.03748
  22189249.584 6   -260994.918 6   -202214.64847  22189249.81447
 18  5 30  0 31 24.9980000  0 10G03G14G16G22G23G26G27G29G31G32      -0.000233868
  23142612.772 5   -470869.462 5                
  20083923.857 6  -1709721.691 6  -1319734.48448  20083920.34248
  19945474.795 6  -3464368.121 6  -2670839.83248  19945470.47948
  23093765.803 5  -1919006.016 5  -1487864.47346  23093761.68246
  23552195.975 1  -1739993.684 1                
  20072410.498 7  -2057196.625 7  -1593346.20748  20072409.26848
  21868426.803 5  -5863858.734 5  -4489889.50047  21868425.93247
  23190690.232 4   -750098.004 4   -577865.78545  23190688.40445
  21000398.397 7  -2414106.402 7  -1869086.35548  21000393.90448
  22189022.678 6   -262188.980 6   -203145.09847  22189022.62347
 18  5 30  0 31 29.9980000  0 10G03G14G16G22G23G26G27G29G31G32      -0.000244793
  23139896.107 4   -485147.723 4                
  20082166.436 6  -1718956.934 6  -1326930.77348  20082164.00648
  19941712.975 6  -3484136.652 6  -2686243.88748  19941708.21348
  23091669.826 5  -1930018.621 5  -1496445.73046  23091666.14346
  23545723.482 1  -1774008.336 1                
  20070149.545 7  -2069075.527 7  -1602602.49248  20070149.08048
  21861807.076 5  -5898647.254 5  -4516997.43847  21861805.66247
  23189956.068 4   -753957.059 4   -580872.87145  23189953.77545
  20997676.631 7  -2428410.281 7  -1880232.25048  20997672.21348
  22188795.959 6   -263377.836 6   -204071.49647  22188796.04147
 18  5 30  0 31 34.9980000  0 10G03G14G16G22G23G26G27G29G31G32      -0.000255718
  23137180.607 4   -499417.391 4                
  20080411.459 6  -1728180.836 6  -1334118.23048  20080407.90848
  19937952.904 7  -3503896.039 7  -2701640.80948  19937948.39748
  23089575.076 5  -1941027.137 5  -1505023.80946  23089571.41246
  23539251.756 2  -1808021.840 2                
  20067890.162 7  -2080949.906 7  -1611855.25048  20067889.07648
  21855187.576 6  -5933433.039 6  -4544103.23847  21855186.43947
  23189223.186 4   -757808.379 4   -583873.92646  23189220.95946
  20994954.779 7  -2442713.672 7  -1891377.75048  20994950.55348
  22188570.959 6   -264561.820 6   -204994.08647  22188570.75247
 18  5 30  0 31 39.9980000  0 10G03G14G16G22G23G26G27G29G31G32      -0.000266644
  23134467.076 5   -513677.855 5                
  20078658.404 6  -1737392.863 6  -1341296.43448  20078655.05748
  19934194.545 6  -3523645.809 6  -2717030.23448  19934189.89748
  23087480.857 5  -1952031.016 5  -1513598.24246  23087477.51446
  23532779.811 1  -1842033.691 1                
  20065631.193 7  -2092819.199 7  -1621104.05148  20065630.59648
  21848568.053 5  -5968215.547 5  -4571206.48847  21848567.64347
  23188493.037 5   -761651.461 5   -586868.53545  23188489.48245
  20992233.107 7  -2457015.973 7  -1902522.40248  20992229.12348
  22188346.615 6   -265740.379 6   -205912.45347  22188346.27247
 18  5 30  0 31 44.9980000  0 10G03G14G16G22G23G26G27G29G31G32      -0.000277573
  23131754.553 5   -527929.016 5                
  20076907.897 6  -1746592.754 6  -1348465.18848  20076904.04948
  19930438.178 6  -3543385.645 6  -2732411.93448  19930433.61948
  23085388.053 5  -1963030.008 5  -1522168.87146  23085384.49046
  23526307.764 2  -1876043.719 2                
  20063373.850 7  -2104683.184 7  -1630348.72348  20063373.11548
  21841949.764 5  -6002994.539 5  -4598306.98847  21841949.80347
  23187762.232 4   -765486.082 4   -589856.56346  23187760.08846
  20989511.889 7  -2471316.949 7  -1913666.03548  20989507.78748
  22188123.326 6   -266913.313 6   -206826.45347  22188123.08847
 18  5 30  0 31 49.9980000  0 10G03G14G16G22G23G26G27G29G31G32      -0.000288500
  23129043.967 4   -542171.168 4                
  20075158.600 6  -1755780.930 6  -1355624.81648  20075155.43648
  19926683.584 6  -3563116.027 6  -2747786.24648  19926678.95148
  23083295.990 5  -1974024.570 5  -1530736.09046  23083291.67846
  23519835.568 2  -1910052.211 2                
  20061117.131 7  -2116542.273 7  -1639589.57448  20061116.31848
  21835332.459 6  -6037770.313 6  -4625404.99647  21835331.90447
  23187034.279 4   -769312.598 4   -592838.24646  23187031.49846
  20986790.756 7  -2485616.988 7  -1924808.92648  20986786.56148
  22187901.647 6   -268081.008 6   -207736.36347  22187900.77547
 18  5 30  0 31 54.9980000  0 10G03G14G16G22G23G26G27G29G31G32      -0.000299431
  23126336.522 3   -556404.117 3                
  20073412.732 6  -1764957.141 6  -1362775.10248  20073409.58448
  19922930.951 6  -3582836.648 6  -2763152.96948  19922926.29948
  23081204.100 5  -1985014.406 5  -1539299.61346  23081200.07646
  23513365.670 2  -1944058.984 2                
  20058861.350 7  -2128396.188 7  -1648826.39548  20058861.01848
  21828715.498 5  -6072542.645 5  -4652500.32447  21828715.22147
  23186307.717 5   -773130.801 5   -595813.50846  23186305.27246
  20984069.850 7  -2499915.801 7  -1935950.87148  20984065.48648
  22187680.639 6   -269243.156 6   -208641.95747  22187679.64347
 18  5 30  0 31 59.9980000  0 10G03G14G16G22G23G26G27G29G31G32      -0.000310362
  23123629.350 3   -570627.488 3   -158395.88755  23123627.27255
  20071668.897 6  -1774120.945 6  -1369915.73848  20071665.32648
  19919180.162 7  -3602547.152 7  -2778511.80548  19919175.25248
  23079114.201 5  -1995999.156 5  -1547859.16446  23079110.17046
  23506893.170 2  -1978063.543 2                
  20056606.686 7  -2140244.586 7  -1658058.90648  20056606.21748
  21822099.123 5  -6107311.137 5  -4679592.65247  21822098.69747
  23185582.537 4   -776940.320 4   -598781.94946  23185580.27246
  20981348.764 7  -2514213.031 7  -1947091.56348  20981345.06848
  22187460.350 6   -270399.465 6   -209543.00447  22187460.17847
 18  5 30  0 32  4.9980000  0 10G03G14G16G22G23G26G27G29G31G32      -0.000321297
  23120924.779 4   -584842.172 4   -169472.26645  23120922.69345
  20069927.022 6  -1783273.359 6  -1377047.48448  20069923.95948
  19915430.873 6  -3622248.492 6  -2793863.48848  19915426.15848
  23077024.170 4  -2006979.785 4  -1556415.48846  23077020.45546
  23500423.162 2  -2012066.855 2   -109220.08255  23500417.27955
  20054352.717 7  -2152088.395 7  -1667287.84448  20054352.00248
  21815482.990 5  -6142076.734 5  -4706682.73047  21815482.76847
  23184859.740 5   -780742.059 5   -601744.35246  23184856.84246
  20978628.318 7  -2528509.617 7  -1958231.76248  20978624.44348
  22187240.904 6   -271550.895 6   -210440.22747  22187241.11947
 18  5 30  0 32  9.9980000  0 10G03G14G16G22G23G26G27G29G31G32      -0.000332230
  23118221.936 4   -599047.430 4   -180541.29745  23118219.87345
  20068187.912 6  -1792413.500 6  -1384169.68048  20068184.41248
  19911683.357 7  -3641939.766 7  -2809207.34048  19911679.50648
  23074935.568 4  -2017955.375 4  -1564967.91446  23074931.50646
  23493952.732 2  -2046068.098 2   -135714.52345  23493947.12345
  20052100.287 7  -2163926.781 7  -1676512.56648  20052099.26048
  21808869.350 5  -6176838.512 5  -4733769.83647  21808867.98247
  23184138.068 5   -784535.227 5   -604700.04346  23184135.13146
  20975908.193 7  -2542804.676 7  -1969370.77348  20975904.31848
  22187023.193 6   -272696.543 6   -211332.94547  22187023.11147
 18  5 30  0 32 14.9980000  0 10G03G14G16G22G23G26G27G29G31G32      -0.000343166
  23115520.248 4   -613244.066 4   -191603.53945  23115518.53745
  20066450.584 6  -1801542.266 6  -1391283.00448  20066447.22148
  19907938.545 6  -3661621.906 6  -2824544.06648  19907934.11948
  23072848.217 5  -2028926.945 5  -1573517.18446  23072843.68246
  23487482.826 2  -2080068.078 2   -162208.03545  23487477.38945
  20049847.959 7  -2175760.652 7  -1685733.77048  20049847.61148
  21802254.154 5  -6211597.430 5  -4760854.70347  21802253.48647
  23183418.092 5   -788320.762 5   -607649.84446  23183414.88946
  20973187.748 7  -2557099.102 7  -1980509.28948  20973184.31848
  22186806.053 6   -273837.340 6   -212221.89547  22186805.77247
 18  5 30  0 32 19.9980000  0 10G03G14G16G22G23G26G27G29G31G32      -0.000354103
  23112821.045 4   -627431.773 4   -202658.95345  23112819.24045
  20064715.920 6  -1810659.313 6  -1398387.20748  20064712.23648
  19904194.482 6  -3681294.551 6  -2839873.40248  19904190.54948
  23070761.357 5  -2039894.094 5  -1582063.02746  23070756.68646
  23481011.373 1  -2114066.508 1   -188700.27345  23481007.53345
  20047596.951 7  -2187589.664 7  -1694951.18048  20047596.55748
  21795639.936 5  -6246353.086 5  -4787937.03947  21795640.08447
  23182699.506 5   -792098.313 5   -610593.36346  23182696.41246
  20970467.701 7  -2571392.586 7  -1991647.07848  20970464.27948
  22186590.147 6   -274972.984 6   -213106.83647  22186590.09247
 18  5 30  0 32 24.9980000  0 10G03G14G16G22G23G26G27G29G31G32      -0.000365042
  23110122.451 4   -641610.145 4   -213706.99245  23110121.32645
  20062983.279 6  -1819764.246 6  -1405481.95348  20062979.92848
  19900453.014 6  -3700957.305 6  -2855195.03148  19900448.85448
  23068674.889 5  -2050856.469 5  -1590605.15246  23068670.48246
  23474542.522 1  -2148062.824 1   -215190.87145  23474538.82245
  20045346.904 7  -2199413.379 7  -1704164.47348  20045346.60048
  21789027.131 5  -6281105.008 5  -4815016.45347  21789026.80347
  23181982.006 5   -795867.352 5   -613530.29746  23181978.70946
  20967748.381 7  -2585684.617 7  -2002783.73048  20967744.65048
  22186375.201 6   -276102.969 6   -213987.36347  22186374.56447
 18  5 30  0 32 29.9980000  0 10G03G14G16G22G23G26G27G29G31G32      -0.000375980
  23107425.693 3   -655779.602 3   -224748.19145  23107425.10445
  20061252.490 6  -1828857.516 6  -1412567.63748  20061249.76448
  19896713.615 7  -3720610.656 7  -2870509.33248  19896708.82248
  23066590.272 5  -2061814.512 5  -1599143.89146  23066585.63546
  23468073.592 1  -2182057.637 1   -241680.35245  23468070.24845
  20043097.701 7  -2211232.316 7  -1713374.03148  20043097.51848
  21782414.475 5  -6315853.691 5  -4842093.33247  21782414.39347
  23181266.092 5   -799628.488 5   -616461.05146  23181263.18246
  20965028.701 7  -2599975.699 7  -2013919.63748  20965025.08048
  22186160.732 6   -277227.863 6   -214863.91447  22186160.56447
 18  5 30  0 32 34.9980000  0 10G03G14G16G22G23G26G27G29G31G32      -0.000386923
  23104731.381 3   -669940.227 3   -235782.39845  23104730.07245
  20059524.803 6  -1837939.090 6  -1419644.19148  20059521.54148
  19892974.990 7  -3740254.574 7  -2885816.28148  19892971.15848
  23064506.022 5  -2072768.230 5  -1607679.25846  23064501.62346
  23461604.115 1  -2216050.918 1   -268168.71145  23461601.70945
  20040849.475 7  -2223046.398 7  -1722579.80948  20040849.35448
  21775802.326 5  -6350599.086 5  -4869167.67247  21775802.43947
  23180551.912 5   -803381.613 5   -619385.58646  23180549.26446
  20962309.201 7  -2614265.820 7  -2025054.80148  20962305.73248
  22185947.920 6   -278347.594 6   -215736.44947  22185948.39747
 18  5 30  0 32 39.9980000  0 10G03G14G16G22G23G26G27G29G31G32      -0.000397865
  23102038.420 3   -684091.336 3   -246809.24245  23102037.93245
  20057798.615 6  -1847008.449 6  -1426711.22348  20057795.83448
  19889238.951 6  -3759888.508 6  -2901115.44548  19889234.61548
  23062422.732 5  -2083716.984 5  -1616210.75846  23062418.17046
  23455137.13911  -2250041.93011                
  20038602.748 7  -2234855.145 7  -1731781.43448  20038601.78748
  21769191.014 5  -6385340.621 5  -4896239.00047  21769191.83447
  23179839.389 5   -807126.277 5   -622303.48446  23179837.01846
  20959590.318 7  -2628554.402 7  -2036188.76248  20959586.96348
  22185736.115 6   -279461.641 6   -216604.56347  22185736.02547
 18  5 30  0 32 44.9980000  0 10G03G14G16G22G23G26G27G29G31G32      -0.000408808
  23099347.193 2   -698233.414 2   -257829.10945  23099346.61945
  20056075.287 6  -1856065.922 6  -1433768.99248  20056072.14348
  19885504.732 7  -3779512.777 7  -2916407.08248  19885500.29948
  23060339.537 5  -2094661.277 5  -1624738.77346  23060335.56446
  23448668.647 1  -2284031.262 1                
  20036356.154 7  -2246658.902 7  -1740979.16048  20036355.74848
  21762581.342 5  -6420078.652 5  -4923307.59047  21762581.45147
  23179128.568 5   -810862.824 5   -625215.08646  23179125.87746
  20956871.873 7  -2642841.816 7  -2047321.80948  20956868.03748
  22185524.990 6   -280570.363 6   -217468.52347  22185525.09647
 18  5 30  0 32 49.9980000  0 10G03G14G16G22G23G26G27G29G31G32      -0.000419752
  23096657.264 2   -712366.277 2   -268841.81645  23096657.44745
  20054354.342 6  -1865111.301 6  -1440817.34048  20054351.25248
  19881771.857 6  -3799127.223 6  -2931691.06648  19881767.83448
  23058258.014 5  -2105600.816 5  -1633263.12946  23058254.10046
  23442199.26411  -2318018.40211                
  20034110.889 7  -2258457.426 7  -1750172.82048  20034110.34648
  21755971.193 5  -6454812.887 5  -4950373.24647  21755971.90047
  23178419.904 5   -814591.016 5   -628120.16846  23178416.57646
  20954152.967 7  -2657127.852 7  -2058453.78548  20954149.43248
  22185314.670 6   -281673.570 6   -218328.19547  22185315.36147
 18  5 30  0 32 54.9980000  0 10G03G14G16G22G23G26G27G29G31G32      -0.000430698
  23093970.162 3   -726489.906 3   -279847.16845  23093970.58045
  20052635.014 6  -1874144.641 6  -1447856.31348  20052631.95548
  19878040.998 6  -3818731.898 6  -2946967.43448  19878036.66648
  23056177.459 5  -2116535.703 5  -1641783.78146  23056173.01046
  23435732.30311                                
  20031867.256 7  -2270250.840 7  -1759362.50048  20031866.58848
  21749362.357 5  -6489543.449 5  -4977436.01647  21749362.90847
  23177711.412 5   -818310.930 5   -631018.80546  23177708.95146
  20951434.897 7  -2671412.563 7  -2069584.73448  20951431.17848
  22185105.725 6   -282771.344 6   -219183.60947  22185106.08847
 18  5 30  0 32 59.9980000  0 10G03G14G16G22G23G26G27G29G31G32      -0.000441647
  23091283.670 1   -740604.484 1   -290845.49645  23091285.25245
  20050918.381 6  -1883166.086 6  -1454886.02348  20050915.93648
  19874312.373 6  -3838326.918 6  -2962236.27048  19874308.42448
  23054097.311 5  -2127466.082 5  -1650300.97346  23054093.38146
  23429265.631 1  -2385986.867 1                
  20029623.865 7  -2282039.238 7  -1768548.26248  20029622.88148
  21742754.201 5  -6524270.426 5  -5004496.00447  21742754.83047
  23177004.842 5   -822022.691 5   -633911.12146  23177002.67446
  20948716.928 7  -2685696.051 7  -2080714.73048  20948713.08848
  22184898.240 6   -283863.801 6   -220034.87947  22184898.09247
 18  5 30  0 33  4.9980000  0 10G03G14G16G22G23G26G27G29G31G32      -0.000452595
  23088598.982 1   -754710.664 1   -301837.30145  23088601.05745
  20049203.779 6  -1892176.387 6  -1461907.03148  20049200.93648
  19870585.100 6  -3857913.063 6  -2977498.19548  19870580.89748
  23052017.982 5  -2138392.688 5  -1658815.21946  23052013.79946
  23422800.50611                                
  20027381.459 7  -2293823.383 7  -1777730.70748  20027380.69748
  21736146.350 5  -6558994.527 5  -5031553.74247  21736146.72147
  23176300.436 5   -825727.145 5   -636797.69946  23176298.01446
  20945998.865 7  -2699979.016 7  -2091844.32048  20945994.77548
  22184691.334 6   -284951.680 6   -220882.59447  22184691.36947
 18  5 30  0 33  9.9980000  0  9G03G14G16G22G26G27G29G31G32         -0.000463545
  23085917.381 1   -768807.551 1   -312821.94545  23085918.99045
  20047491.436 6  -1901174.500 6  -1468918.55948  20047488.49448
  19866859.842 6  -3877489.246 6  -2992752.36348  19866855.68248
  23049938.967 5  -2149314.469 5  -1667325.70346  23049935.19746
  20025139.756 7  -2305602.238 7  -1786909.03948  20025139.52948
  21729539.467 5  -6593714.695 5  -5058608.41847  21729540.31847
  23175597.303 5   -829423.191 5   -639677.76246  23175594.99846
  20943281.373 7  -2714260.328 7  -2102972.62548  20943277.21348
  22184485.701 6   -286033.961 6   -221725.94547  22184485.69747
 18  5 30  0 33 14.9980000  0  9G03G14G16G22G26G27G29G31G32         -0.000474497
  23083235.982 1   -782895.586 1   -323799.52345  23083237.67045
  20045781.607 6  -1910160.945 6  -1475920.98048  20045778.54948
  19863136.404 6  -3897056.023 6  -3007999.19548  19863132.45148
  23047862.014 5  -2160231.965 5  -1675832.86746  23047857.82646
  20022899.162 7  -2317376.332 7  -1796083.65248  20022898.80748
  21722933.232 5  -6628431.441 5  -5085660.43047  21722933.95547
  23174894.076 5   -833111.309 5   -642551.62946  23174892.69346
  20940563.772 7  -2728540.664 7  -2114100.16448  20940559.83048
  22184280.420 6   -287111.168 6   -222565.34847  22184280.67047
 18  5 30  0 33 19.9980000  0  9G03G14G16G22G26G27G29G31G32         -0.000485449
  23080556.404 1   -796974.496 1   -334770.16845  23080558.97945
  20044073.561 6  -1919135.484 6  -1482914.13748  20044070.88148
  19859414.772 6  -3916613.141 6  -3023238.50848  19859410.67848
  23045785.709 5  -2171144.953 5  -1684336.50046  23045781.56446
  20020660.076 7  -2329145.383 7  -1805254.34448  20020659.39348
  21716327.115 5  -6663144.500 5  -5112709.56647  21716327.83047
  23174195.006 5   -836791.281 5   -645419.14146  23174192.67046
  20937846.514 7  -2742819.742 7  -2125226.71948  20937842.96748
  22184076.381 6   -288183.051 6   -223400.59047  22184077.02547
 18  5 30  0 33 24.9980000  0  9G03G14G16G22G26G27G29G31G32         -0.000496403
  23077880.365 1   -811044.160 1   -345733.49245  23077881.90845
  20042367.951 6  -1928097.922 6  -1489897.85248  20042365.81448
  19855694.850 6  -3936160.363 6  -3038470.10548  19855691.33048
  23043709.701 5  -2182053.180 5  -1692836.41846  23043706.05346
  20018421.576 7  -2340909.234 7  -1814420.98448  20018420.87348
  21709721.912 5  -6697853.598 5  -5139755.61747  21709722.53347
  23173495.826 5   -840462.945 5   -648280.19546  23173493.24046
  20935129.545 7  -2757097.336 7  -2136352.12948  20935125.85048
  22183873.373 6   -289249.398 6   -224231.52047  22183874.04547
 18  5 30  0 33 29.9970000  0  9G03G14G16G22G26G27G29G31G32          0.000492645
  23075205.142 2   -825101.949 2   -356687.65645  23075206.21645
  20040665.345 6  -1937046.637 6  -1496870.87948  20040662.77448
  19851977.915 6  -3955694.043 6  -3053691.15248  19851973.91148
  23041635.517 5  -2192954.734 5  -1701331.14846  23041631.50946
  20016184.431 7  -2352665.738 7  -1823581.90648  20016183.41948
  21703119.853 5  -6732552.074 5  -5166793.37147  21703119.82547
  23172799.274 5   -844125.723 5   -651134.31346  23172796.91946
  20932413.595 7  -2771370.809 7  -2147474.32048  20932409.65748
  22183671.353 6   -290310.262 6   -225058.19147  22183672.57147
 18  5 30  0 33 34.9970000  0  9G03G14G16G22G26G27G29G31G32          0.000481688
  23072531.017 2   -839153.480 2   -367636.95745  23072532.36045
  20038964.532 6  -1945985.273 6  -1503836.04748  20038961.81048
  19848261.689 6  -3975221.957 6  -3068907.70748  19848257.99348
  23039561.165 5  -2203854.016 5  -1709824.10246  23039557.24746
  20013947.290 7  -2364419.645 7  -1832740.78548  20013946.70848
  21696516.103 5  -6767253.785 5  -5193833.67247  21696515.93147
  23172103.110 5   -847781.117 5   -653982.67646  23172101.07146
  20929696.946 7  -2785645.984 7  -2158597.85548  20929693.04048
  22183470.149 6   -291366.059 6   -225880.90647  22183470.99347
 18  5 30  0 33 39.9970000  0  9G03G14G16G22G26G27G29G31G32          0.000470730
  23069858.142 1   -853196.555 1                
  20037265.681 6  -1954912.516 6  -1510792.34448  20037262.99748
  19844547.314 6  -3994740.742 6  -3084117.14848  19844544.06048
  23037487.626 5  -2214749.344 5  -1718313.96146  23037483.59946
  20011711.681 7  -2376169.078 7  -1841896.18848  20011711.06048
  21689913.126 5  -6801952.266 5  -5220871.44547  21689912.78247
  23171409.189 5   -851428.961 5   -656825.18046  23171406.82946
  20926980.235 7  -2799920.336 7  -2169720.74248  20926976.68948
  22183270.462 6   -292417.113 6   -226699.91847  22183271.04447
 18  5 30  0 33 44.9970000  0  9G03G14G16G22G26G27G29G31G32          0.000459772
  23067188.665 2   -867229.695 2                
  20035569.462 6  -1963827.066 6  -1517738.75048  20035566.77848
  19840834.892 6  -4014249.074 6  -3099318.44948  19840831.79848
  23035415.915 5  -2225639.395 5  -1726799.69146  23035410.76346
  20009477.056 7  -2387912.742 7  -1851047.10948  20009476.78248
  21683310.970 5  -6836646.141 5  -5247905.62947  21683310.91147
  23170716.524 4   -855067.938 4   -659660.72346  23170714.39646
  20924264.274 7  -2814192.582 7  -2180841.97348  20924261.16948
  22183071.189 6   -293462.086 6   -227514.21147  22183071.79847
 18  5 30  0 33 49.9970000  0  9G03G14G16G22G26G27G29G31G32          0.000448812
  23064519.993 2   -881253.531 2                
  20033875.384 6  -1972729.387 6  -1524675.62548  20033872.87248
  19837124.704 6  -4033747.449 6  -3114511.99648  19837120.99748
  23033344.001 5  -2236524.664 5  -1735281.72746  23033339.45446
  20007243.251 7  -2399651.098 7  -1860193.88348  20007242.88848
  21676710.243 6  -6871335.918 6  -5274936.62947  21676709.91547
  23170026.142 4   -858698.465 4   -662489.74246  23170023.67746
  20921548.470 7  -2828463.102 7  -2191961.87148  20921545.56448
  22182873.806 6   -294501.453 6   -228324.09847  22182874.63447
 18  5 30  0 33 54.9970000  0  9G03G14G16G22G26G27G29G31G32          0.000437851
  23061852.923 1   -895267.953 1                
  20032183.407 6  -1981619.414 6  -1531602.92248  20032181.40748
  19833416.024 6  -4053235.770 6  -3129697.70348  19833412.33348
  23031273.189 5  -2247405.070 5  -1743759.96546  23031268.99746
  20005010.517 7  -2411384.098 7  -1869336.48448  20005010.06048
  21670109.837 5  -6906021.488 5  -5301964.34047  21670109.37647
  23169336.196 3   -862320.559 3   -665312.12946  23169334.19646
  20918833.376 6  -2842731.902 6  -2203080.41448  20918830.64648
  22182677.032 6   -295535.184 6   -229129.61747  22182677.43547
 18  5 30  0 33 59.9970000  0  9G03G14G16G22G26G27G29G31G32          0.000426888
  23059187.501 2   -909273.574 2                
  20030494.095 6  -1990497.785 6  -1538521.13748  20030491.34148
  19829709.923 6  -4072714.703 6  -3144876.09048  19829705.56448
  23029203.579 5  -2258281.328 5  -1752234.96946  23029199.27446
  20002778.915 7  -2423112.406 7  -1878475.43448  20002778.64248
  21663509.759 5  -6940703.508 5  -5328989.30547  21663509.30647
  23168648.064 3   -865934.879 3   -668128.50845  23168646.78245
  20916118.423 7  -2856999.641 7  -2214198.13748  20916115.50948
  22182481.478 6   -296563.918 6   -229931.25047  22182481.58747
 18  5 30  0 34  4.9970000  0  9G03G14G16G22G26G27G29G31G32          0.000415924
  23056523.064 2   -923270.324 2                
  20028806.517 6  -1999364.379 6  -1545430.18048  20028804.07948
  19826004.610 6  -4092184.168 6  -3160047.09848  19826001.20048
  23027134.735 5  -2269153.250 5  -1760706.57846  23027130.17746
  20000547.485 7  -2434835.930 7  -1887610.64848  20000547.44648
  21656911.298 5  -6975381.816 5  -5356011.35547  21656910.36447
  23167961.595 3   -869541.313 3   -670938.70345  23167960.78245
  20913403.603 7  -2871266.199 7  -2225314.93448  20913400.38048
  22182286.751 6   -297587.563 6   -230728.89547  22182286.60347
 18  5 30  0 34  9.9970000  0  9G03G14G16G22G26G27G29G31G32          0.000404961
  23053863.142 4   -937258.066 4   -379443.14155  23053861.00155
  20027121.798 6  -2008219.078 6  -1552329.94148  20027119.25948
  19822301.657 6  -4111643.930 6  -3175210.55948  19822297.82948
  23025066.470 5  -2280020.730 5  -1769174.74646  23025062.09546
  19998317.712 7  -2446554.465 7  -1896741.96548  19998317.07548
  21650312.556 5  -7010056.238 5  -5383030.37947  21650311.64247
  23167276.712 2   -873139.633 2   -673742.63345  23167275.45445
  20910689.142 7  -2885531.383 7  -2236430.66048  20910685.61048
  22182093.290 6   -298605.969 6   -231522.47347  22182093.24347
 18  5 30  0 34 14.9970000  0  9G03G14G16G22G26G27G29G31G32          0.000393995
  23051202.610 4   -951236.168 4   -390335.14545  23051201.39645
  20025439.314 6  -2017061.270 6  -1559219.98048  20025436.79848
  19818600.165 6  -4131093.496 6  -3190366.05148  19818596.74748
  23023000.110 5  -2290883.184 5  -1777639.01646  23022995.03246
  19996088.509 7  -2458267.480 7  -1905869.00048  19996088.61448
  21643715.657 6  -7044726.211 6  -5410045.93847  21643713.96247
  23166593.110 1   -876729.324 1   -676539.75445  23166592.39245
  20907975.376 7  -2899794.586 7  -2247544.84448  20907971.48148
  22181900.142 6   -299618.531 6   -232311.49647  22181900.39247
 18  5 30  0 34 19.9970000  0  9G03G14G16G22G26G27G29G31G32          0.000383028
  23048545.071 5   -965205.164 5   -401220.09046  23048542.90346
  20023758.962 6  -2025891.453 6  -1566100.64548  20023756.27448
  19814901.478 6  -4150533.289 6  -3205513.95348  19814897.44648
  23020933.407 5  -2301741.094 5  -1786099.74245  23020928.48145
  19993860.720 7  -2469975.422 7  -1914992.07848  19993861.04848
  21637118.610 6  -7079392.172 6  -5437058.35247  21637117.13047
  23165910.853 1   -880310.871 1   -679330.59045  23165911.06045
  20905261.134 7  -2914056.309 7  -2258657.87148  20905257.87248
  22181708.704 6   -300625.766 6   -233096.36347  22181708.73947
 18  5 30  0 34 24.9970000  0  9G03G14G16G22G26G27G29G31G32          0.000372059
  23045888.259 5   -979165.809 5   -412098.48446  23045885.89946
  20022080.774 6  -2034710.418 6  -1572972.57048  20022077.99348
  19811203.540 6  -4169964.109 6  -3220654.84448  19811199.55648
  23018868.517 5  -2312595.266 5  -1794557.47745  23018863.02145
  19991633.728 7  -2481679.109 7  -1924111.83648  19991633.62248
  21630521.962 6  -7114054.852 6  -5464068.23447  21630521.07147
  23165229.15711   -883885.03111                
  20902547.423 7  -2928317.305 7  -2269770.33648  20902543.66148
  22181517.603 6   -301628.441 6   -233877.67247  22181517.88847
 18  5 30  0 34 29.9970000  0  9G03G14G16G22G26G27G29G31G32          0.000361088
  23043233.126 5   -993116.781 5   -422969.37546  23043231.47046
  20020404.571 6  -2043516.793 6  -1579834.68448  20020401.89248
  19807507.860 6  -4189384.602 6  -3235787.69548  19807503.96648
  23016803.509 5  -2323444.340 5  -1803011.34845  23016798.37245
  19989407.493 7  -2493377.164 7  -1933227.20748  19989407.44648
  21623926.696 5  -7148712.852 5  -5491074.47347  21623925.84147
  23164550.55611                                
  20899833.985 7  -2942576.246 7  -2280881.20748  20899830.25148
  22181327.610 6   -302625.199 6   -234654.39147  22181328.31747
 18  5 30  0 34 34.9970000  0  9G03G14G16G22G26G27G29G31G32          0.000350117
  23040580.251 5  -1007058.731 5   -433833.25746  23040579.06446
  20018731.493 6  -2052311.313 6  -1586687.55948  20018728.48548
  19803814.470 6  -4208795.488 6  -3250913.07048  19803810.84548
  23014740.048 5  -2334289.090 5  -1811461.78545  23014734.64645
  19987181.985 7  -2505070.320 7  -1942338.75848  19987182.68548
  21617332.517 6  -7183366.996 6  -5518077.66047  21617330.90347
  23163871.79011                                
  20897120.837 7  -2956833.809 7  -2291991.00048  20897117.58348
  22181139.212 6   -303616.754 6   -235427.03147  22181139.93947
 18  5 30  0 34 39.9970000  0  9G03G14G16G22G26G27G29G31G32          0.000339146
  23037928.337 5  -1020991.559 5   -444690.00446  23037927.67746
  20017060.189 6  -2061093.789 6  -1593531.04348  20017056.91948
  19800122.415 6  -4228196.629 6  -3266030.84048  19800118.17348
  23012676.954 5  -2345129.215 5  -1819908.66845  23012671.47445
  19984958.399 7  -2516758.379 7  -1951446.34448  19984957.94248
  21610738.946 6  -7218016.980 6  -5545077.64847  21610737.18947
  23163197.595 1   -894557.434 1                
  20894407.431 7  -2971089.813 7  -2303099.57848  20894404.57948
  22180952.196 6   -304603.000 6   -236195.55147  22180951.69647
 18  5 30  0 34 44.9970000  0  8G03G14G16G22G26G27G31G32             0.000328173
  23035279.196 5  -1034916.141 5   -455540.34446  23035278.00946
  20015391.134 6  -2069865.066 6  -1600365.81348  20015387.56448
  19796432.462 6  -4247588.832 6  -3281141.64548  19796428.54048
  23010614.220 5  -2355965.754 5  -1828352.70745  23010609.22845
  19982734.821 7  -2528442.262 7  -1960550.66048  19982734.74748
  21604145.649 6  -7252663.676 6  -5572075.07447  21604144.13047
  20891695.282 7  -2985345.160 7  -2314207.64548  20891691.28248
  22180765.032 6   -305584.766 6   -236960.56647  22180764.74747
 18  5 30  0 34 49.9970000  0  8G03G14G16G22G26G27G31G32             0.000317198
  23032630.821 4  -1048831.766 4   -466383.68846  23032629.47446
  20013724.212 6  -2078624.484 6  -1607191.33648  20013720.62648
  19792744.454 6  -4266971.457 6  -3296244.99248  19792740.29848
  23008553.282 5  -2366797.934 5  -1836793.37146  23008547.31446
  19980512.345 7  -2540121.266 7  -1969651.19548  19980512.33348
  21597553.618 6  -7287306.430 6  -5599069.40647  21597551.75547
  20888983.110 7  -2999599.090 7  -2325314.60248  20888979.39948
  22180579.032 6   -306561.359 6   -237721.57047  22180578.88447
 18  5 30  0 34 54.9970000  0  8G03G14G16G22G26G27G31G32             0.000306221
  23029984.032 4  -1062738.922 4   -477220.45746  23029983.59946
  20012059.134 6  -2087372.500 6  -1614007.96948  20012055.89248
  19789057.259 7  -4286344.965 7  -3311341.24248  19789053.32148
  23006493.235 5  -2377626.242 5  -1845231.02745  23006486.61045
  19978290.931 7  -2551795.895 7  -1978748.31648  19978290.85648
  21590962.064 6  -7321945.664 6  -5626061.02047  21590960.54047
  20886270.790 7  -3013852.102 7  -2336420.85248  20886267.36048
  22180394.735 6   -307533.313 6   -238478.95747  22180394.19647
 18  5 30  0 34 59.9970000  0  8G03G14G16G22G26G27G31G32             0.000295244
  23027339.478 4  -1076636.031 4   -488049.34845  23027338.98545
  20010397.071 6  -2096107.578 6  -1620814.53148  20010393.83348
  19785373.126 7  -4305707.766 7  -3326429.13748  19785368.48948
  23004433.259 5  -2388449.109 5  -1853664.43045  23004427.37245
  19976070.360 7  -2563464.527 7  -1987840.75448  19976070.23548
  21584371.040 6  -7356579.766 6  -5653048.62547  21584369.84547
  20883559.056 7  -3028102.613 7  -2347525.14548  20883556.14648
  22180210.743 6   -308499.012 6   -239231.45347  22180210.55247
 18  5 30  0 35  4.9970000  0  8G03G14G16G22G26G27G31G32             0.000284267
  23024696.665 4  -1090524.238 4   -498871.32446  23024695.99346
  20008737.673 6  -2104830.758 6  -1627611.82448  20008733.88848
  19781690.103 7  -4325060.957 7  -3341509.53548  19781685.73948
  23002374.181 5  -2399267.645 5  -1862094.46945  23002368.17745
  19973850.735 7  -2575128.277 7  -1996929.39848  19973850.61448
  21577781.368 6  -7391209.828 6  -5680033.07847  21577780.18947
  20880847.907 7  -3042351.648 7  -2358628.30148  20880844.23948
  22180028.189 6   -309459.539 6   -239979.93447  22180027.32947
 18  5 30  0 35  9.9970000  0  8G03G14G16G22G26G27G31G32             0.000273289
  23022055.642 4  -1104402.930 4   -509685.89545  23022054.92745
  20007079.493 6  -2113541.578 6  -1634399.47747  20007076.48147
  19778008.993 7  -4344404.016 7  -3356582.05548  19778004.69648
  23000317.087 5  -2410081.359 5  -1870520.74246  23000311.06046
  19971632.454 7  -2586786.672 7  -2006013.86748  19971632.50948
  21571192.634 6  -7425835.352 6  -5707014.01247  21571191.66947
  20878136.399 7  -3056598.750 7  -2369729.94148  20878133.51748
  22179846.829 6   -310414.441 6   -240724.02047  22179845.92347
 18  5 30  0 35 14.9970000  0  8G03G14G16G22G26G27G31G32             0.000262310
  23019417.087 4  -1118272.762 4   -520493.51246  23019416.45446
  20005424.251 6  -2122240.602 6  -1641177.94148  20005420.98948
  19774330.501 7  -4363737.520 7  -3371647.12148  19774326.20848
  22998260.071 5  -2420890.785 5  -1878943.66046  22998254.14946
  19969414.556 7  -2598440.219 7  -2015094.54748  19969414.86048
  21564603.790 5  -7460456.773 5  -5733991.72747  21564603.00147
  20875425.548 7  -3070844.441 7  -2380830.48848  20875422.38048
  22179665.931 6   -311364.238 6   -241464.14547  22179665.20847
 18  5 30  0 35 19.9970000  0  8G03G14G16G22G26G27G31G32             0.000251328
  23016778.610 5  -1132133.332 5   -531293.99246  23016778.84946
  20003770.939 6  -2130927.453 6  -1647946.93048  20003767.60348
  19770653.532 7  -4383061.160 7  -3386704.49648  19770648.58348
  22996203.806 5  -2431695.551 5  -1887362.96546  22996198.04846
  19967198.181 7  -2610088.605 7  -2024171.21948  19967198.08348
  21558016.392 5  -7495073.809 5  -5760966.03947  21558015.95047
  20872715.079 7  -3085088.402 7  -2391929.68848  20872712.20048
  22179486.657 7   -312308.633 7   -242200.05147  22179485.45447
 18  5 30  0 35 24.9970000  0  8G03G14G16G22G26G27G31G32             0.000240347
  23014142.790 3  -1145984.316 3   -542086.93446  23014143.47846
  20002120.689 6  -2139601.758 6  -1654706.13348  20002117.27848
  19766977.743 7  -4402374.484 7  -3401753.84448  19766973.56748
  22994149.165 5  -2442495.344 5  -1895778.39846  22994143.68146
  19964982.509 7  -2621731.453 7  -2033243.55948  19964982.22048
  21551429.282 5  -7529686.043 5  -5787936.60547  21551429.60647
  20870004.767 7  -3099330.238 7  -2403027.23048  20870001.83348
  22179307.407 6   -313247.211 6   -242931.41048  22179306.90748
 18  5 30  0 35 29.9970000  0  8G03G14G16G22G26G27G31G32             0.000229364
  23011509.149 4  -1159826.219 4   -552872.86746  23011509.31746
  20000471.884 6  -2148264.125 6  -1661456.03948  20000468.68148
  19763303.735 7  -4421678.156 7  -3416795.67248  19763300.19648
  22992094.478 5  -2453290.699 5  -1904190.37946  22992089.60646
  19962767.712 7  -2633369.352 7  -2042312.05548  19962767.70848
  21544843.540 5  -7564294.055 5  -5814903.87947  21544843.77447
  20867294.751 7  -3113570.563 7  -2414123.59048  20867291.84548
  22179130.485 6   -314180.574 6   -243658.72748  22179129.57148
 18  5 30  0 35 34.9970000  0  8G03G14G16G22G26G27G31G32             0.000218380
  23008875.868 3  -1173659.699 3   -563652.15646  23008876.89646
  19998825.439 6  -2156915.082 6  -1668197.03548  19998822.91948
  19759632.759 7  -4440972.672 7  -3431830.35948  19759628.58748
  22990041.493 5  -2464082.289 5  -1912599.45746  22990035.65746
  19960554.079 7  -2645002.883 7  -2051377.14848  19960554.07948
  21538258.485 5  -7598898.398 5  -5841868.29747  21538258.13847
  20864585.462 7  -3127809.855 7  -2425219.14548  20864581.86848
  22178953.509 6   -315109.324 6   -244382.45348  22178953.71248
 18  5 30  0 35 39.9970000  0  9G03G14G16G22G23G26G27G31G32          0.000207396
  23006245.001 3  -1187484.547 3   -574424.79346  23006246.25146
  19997181.970 6  -2165554.414 6  -1674928.99648  19997178.86048
  19755963.196 7  -4460257.863 7  -3446857.77348  19755958.91148
  22987988.954 5  -2474869.840 5  -1921005.33246  22987982.94246
  23222544.02411   -142284.14811                
  19958341.189 7  -2656631.832 7  -2060438.67248  19958341.22448
  21531674.376 5  -7633498.809 5  -5868829.65647  21531674.08747
  20861875.970 7  -3142047.938 7  -2436313.75848  20861872.61448
  22178777.829 7   -316033.211 7   -245102.38348  22178777.70048
 18  5 30  0 35 44.9970000  0  9G03G14G16G22G23G26G27G31G32          0.000196409
  23003616.470 2  -1201299.746 2   -585189.83645  23003617.61845
  19995539.868 6  -2174181.137 6  -1681651.12548  19995537.04448
  19752295.259 7  -4479532.707 7  -3461877.14548  19752291.25148
  22985936.649 5  -2485652.402 5  -1929407.34445  22985931.23545
  23216091.032 1   -176193.387 1                
  19956129.282 7  -2668255.180 7  -2069495.82848  19956129.39648
  21525091.173 5  -7668094.250 5  -5895787.14147  21525090.95847
  20859166.931 7  -3156283.750 7  -2447406.59448  20859163.43948
  22178603.071 7   -316951.266 7   -245817.76248  22178603.30248
 18  5 30  0 35 49.9970000  0  9G03G14G16G22G23G26G27G31G32          0.000185423
  23000989.439 2  -1215105.402 2   -595947.53145  23000989.90745
  19993900.884 6  -2182795.367 6  -1688363.52047  19993897.97047
  19748628.946 7  -4498797.355 7  -3476888.55948  19748625.04848
  22983885.649 5  -2496430.172 5  -1937805.60545  22983880.32545
  23209638.821 1   -210099.598 1                
  19953918.282 7  -2679873.133 7  -2078548.77748  19953918.73948
  21518509.314 5  -7702684.922 5  -5922740.91047  21518508.57947
  20856458.329 7  -3170517.477 7  -2458497.82048  20856455.02448
  22178429.071 6   -317863.633 6   -246528.71148  22178429.40348
 18  5 30  0 35 54.9970000  0  9G03G14G16G22G23G26G27G31G32          0.000174435
  22998364.767 2  -1228901.824 2   -606697.98445  22998364.40745
  19992263.946 6  -2191397.355 6  -1695066.36748  19992261.43548
  19744964.814 7  -4518052.004 7  -3491892.18048  19744960.91148
  22981835.103 5  -2507203.328 5  -1946200.28545  22981829.82145
  23203188.782 1   -244002.973 1                
  19951708.884 7  -2691485.828 7  -2087597.62548  19951709.08348
  21511928.173 5  -7737270.938 5  -5949691.06347  21511926.84147
  20853750.126 7  -3184749.297 7  -2469587.55548  20853746.73548
  22178256.470 6   -318770.547 6   -247235.41848  22178257.30648
 18  5 30  0 35 59.9970000  0  9G03G14G16G22G23G26G27G31G32          0.000163445
  22995740.540 1  -1242689.543 1   -617441.66845  22995741.52845
  19990629.392 6  -2199987.688 6  -1701760.13748  19990626.62248
  19741302.946 7  -4537297.258 7  -3506888.48448  19741298.89648
  22979786.501 5  -2517972.332 5  -1954591.71546  22979780.12246
  23196738.251 1   -277904.125 1                
  19949499.978 7  -2703093.895 7  -2096642.87548  19949499.75548
  21505346.665 5  -7771852.934 5  -5976638.07447  21505346.44647
  20851042.040 7  -3198979.824 7  -2480676.28548  20851038.40748
  22178084.720 6   -319672.555 6   -247938.30148  22178085.37248
 18  5 30  0 36  4.9970000  0  9G03G14G16G22G23G26G27G31G32          0.000152454
  22993117.814 1  -1256468.699 1   -628178.68445  22993118.79845
  19988996.821 6  -2208566.512 6  -1708444.93848  19988993.90748
  19737642.181 7  -4556533.324 7  -3521877.62948  19737637.91948
  22977737.517 5  -2528737.520 5  -1962980.18445  22977731.80245
  23190288.618 1   -311803.203 1                
  19947292.009 7  -2714697.555 7  -2105684.69948  19947291.91948
  21498766.939 5  -7806431.051 5  -6003582.06347  21498766.84947
  20848333.884 7  -3213209.223 7  -2491764.12948  20848330.91148
  22177913.954 6   -320569.902 6   -248637.54347  22177914.98547
 18  5 30  0 36  9.9970000  0  9G03G14G16G22G23G26G27G31G32          0.000141462
  22990496.274 1  -1270238.867 1   -638908.72745  22990498.75945
  19987366.814 6  -2217133.379 6  -1715120.42248  19987363.32148
  19733983.978 7  -4575759.711 7  -3536859.22748  19733979.31748
  22975690.556 5  -2539498.348 5  -1971365.23845  22975684.45445
  23183837.282 1   -345699.684 1                
  19945084.524 7  -2726296.324 7  -2114722.71148  19945084.87648
  21492187.298 5  -7841004.797 5  -6030522.64547  21492187.35647
  20845626.189 7  -3227436.996 7  -2502850.71548  20845623.10348
  22177744.181 6   -321462.109 6   -249332.80548  22177745.15348
 18  5 30  0 36 14.9970000  0  9G03G14G16G22G23G26G27G31G32          0.000130468
  22987876.196 1  -1284000.074 1   -649631.71545  22987879.25145
  19985739.110 6  -2225688.309 6  -1721786.61348  19985735.72448
  19730327.032 7  -4594976.438 7  -3551833.30148  19730322.82548
  22973642.837 5  -2550254.820 5  -1979746.91045  22973637.22045
  23177387.439 1   -379593.574 1                
  19942877.853 7  -2737890.168 7  -2123756.86748  19942877.98548
  21485609.009 5  -7875574.113 5  -6057459.78147  21485608.86447
  20842919.337 7  -3241663.105 7  -2513936.00048  20842916.27848
  22177575.189 6   -322349.176 6   -250024.03947  22177576.47847
 18  5 30  0 36 19.9970000  0  9G03G14G16G22G23G26G27G31G32          0.000119474
  22985261.470 1  -1297752.199 1   -660347.70345  22985262.70445
  19984113.501 6  -2234231.133 6  -1728443.35948  19984110.57148
  19726671.923 7  -4614183.328 7  -3566799.71148  19726667.43548
  22971597.532 5  -2561006.863 5  -1988125.16446  22971590.86046
  23170937.45411   -413484.64111                
  19940672.774 7  -2749478.980 7  -2132787.11348  19940672.77448
  21479031.892 5  -7910138.910 5  -6084393.38747  21479031.45847
  20840213.032 6  -3255887.422 6  -2525019.87948  20840209.54448
  22177407.306 6   -323230.918 6   -250711.13347  22177408.50147
 18  5 30  0 36 24.9970000  0  9G03G14G16G22G23G26G27G31G32          0.000108479
  22982647.587 1  -1311495.523 1   -671056.78545  22982647.43945
  19982490.196 6  -2242762.133 6  -1735090.91048  19982486.57148
  19723018.845 7  -4633380.652 7  -3581758.66848  19723014.40748
  22969552.267 5  -2571754.715 5  -1996500.07846  22969545.47046
  23164488.376 1   -447373.277 1                
  19938468.314 7  -2761063.012 7  -2141813.64148  19938468.65348
  21472455.564 6  -7944699.375 6  -6111323.62147  21472454.93547
  20837506.431 7  -3270110.242 7  -2536102.58248  20837502.97048
  22177240.212 6   -324107.699 6   -251394.37147  22177241.50547
 18  5 30  0 36 29.9970000  0  9G03G14G16G22G23G26G27G31G32          0.000097483
  22980035.064 1  -1325229.859 1   -681758.88345  22980033.38845
  19980868.564 6  -2251281.113 6  -1741729.09048  19980865.96248
  19719367.540 7  -4652568.234 7  -3596710.04748  19719363.23548
  22967507.845 5  -2582498.172 5  -2004871.59446  22967500.91546
  23158040.728 1   -481259.059 1                
  19936265.032 7  -2772642.078 7  -2150836.30148  19936264.57148
  21465879.524 6  -7979255.359 6  -6138250.37147  21465878.58347
  20834800.103 7  -3284331.242 7  -2547183.88348  20834797.02448
  22177073.923 6   -324979.277 6   -252073.53547  22177075.16947
 18  5 30  0 36 34.9970000  0  9G03G14G16G22G23G26G27G31G32          0.000086485
  22977421.196 1  -1338955.063 1   -692453.78545  22977421.93145
  19979249.759 7  -2259788.004 7  -1748357.83248  19979246.75148
  19715717.985 7  -4671746.023 7  -3611653.76648  19715713.77448
  22965463.696 5  -2593237.219 5  -2013239.72346  22965457.25146
  23151591.345 1   -515142.125 1                
  19934063.157 7  -2784216.133 7  -2159855.05148  19934062.30248
  21459304.884 6  -8013806.703 6  -6165173.48447  21459304.03247
  20832094.524 7  -3298550.379 7  -2558263.73448  20832090.85348
  22176908.970 6   -325845.586 6   -252748.59447  22176910.25147
 18  5 30  0 36 39.9970000  0  8G03G14G16G22G26G27G31G32             0.000075483
  22974811.134 1  -1352671.570 1   -703142.08645  22974811.94645
  19977633.345 6  -2268283.262 6  -1754977.52748  19977631.10348
  19712070.212 7  -4690914.484 7  -3626590.23448  19712065.81448
  22963421.314 5  -2603972.313 5  -2021604.75846  22963414.77446
  19931861.243 7  -2795785.629 7  -2168870.22348  19931860.75948
  21452730.798 6  -8048353.898 6  -6192093.37947  21452729.77847
  20829389.196 7  -3312768.215 7  -2569342.55548  20829385.24748
  22176745.298 6   -326707.105 6   -253419.93047  22176746.58747
 18  5 30  0 36 44.9970000  0  8G03G14G16G22G26G27G31G32             0.000064484
  22972202.44611  -1366376.84411                
  19976019.298 7  -2276766.289 7  -1761587.66848  19976016.28648
  19708424.712 7  -4710073.035 7  -3641518.96148  19708420.06048
  22961379.321 5  -2614702.855 5  -2029966.20746  22961372.87246
  19929660.462 7  -2807349.980 7  -2177881.42648  19929660.32948
  21446157.321 5  -8082896.289 5  -6219009.52347  21446156.79047
  20826683.595 7  -3326984.027 7  -2580419.82448  20826679.97448
  22176582.298 6   -327563.258 6   -254087.08247  22176583.89247
 18  5 30  0 36 49.9970000  0  8G03G14G16G22G26G27G31G32             0.000053482
  22969597.353 3  -1380075.672 3   -712110.49256  22969596.34556
  19974407.540 7  -2285237.660 7  -1768188.76648  19974404.39248
  19704780.571 7  -4729222.184 7  -3656440.38748  19704776.42748
  22959338.189 5  -2625429.453 5  -2038324.59446  22959331.60646
  19927460.587 7  -2818909.777 7  -2186889.05148  19927460.29848
  21439584.774 6  -8117434.480 6  -6245922.40247  21439584.61047
  20823978.759 7  -3341198.418 7  -2591495.98448  20823975.09148
  22176420.204 6   -328414.629 6   -254750.48047  22176421.63047
 18  5 30  0 36 54.9970000  0  8G03G14G16G22G26G27G31G32             0.000042480
  22966992.478 3  -1393765.051 3   -722777.49246  22966991.91946
  19972797.837 7  -2293696.668 7  -1774780.19148  19972793.85648
  19701138.454 7  -4748361.258 7  -3671353.94548  19701134.41548
  22957298.134 5  -2636151.270 5  -2046679.28546  22957291.86846
  19925262.079 7  -2830464.242 7  -2195892.53548  19925261.72448
  21433013.759 6  -8151967.684 6  -6272831.37547  21433012.92347
  20821274.376 7  -3355410.738 7  -2602570.52048  20821270.70848
  22176258.665 6   -329260.449 6   -255409.59047  22176261.25147
 18  5 30  0 36 59.9970000  0  8G03G14G16G22G26G27G31G32             0.000031477
  22964388.876 3  -1407445.801 3   -733437.85546  22964388.78246
  19971190.431 7  -2302144.047 7  -1781362.58648  19971187.04448
  19697498.353 7  -4767490.996 7  -3686260.25448  19697494.53248
  22955259.126 6  -2646869.164 6  -2055030.91046  22955251.79446
  19923064.126 7  -2842014.172 7  -2204892.48048  19923064.05648
  21426443.087 6  -8186496.621 6  -6299737.04348  21426442.83348
  20818569.735 7  -3369621.688 7  -2613644.00848  20818565.98948
  22176099.118 6   -330101.484 6   -256064.95347  22176100.81447
 18  5 30  0 37  4.9970000  0  8G03G14G16G22G26G27G31G32             0.000020473
  22961786.993 3  -1421117.496 3   -744091.12546  22961787.16546
  19969585.235 7  -2310579.383 7  -1787935.57048  19969581.81448
  19693859.712 7  -4786610.977 7  -3701158.93448  19693855.74748
  22953219.657 6  -2657582.707 6  -2063379.12546  22953213.21646
  19920867.087 7  -2853559.160 7  -2213888.58648  19920867.16548
  21419873.392 6  -8221020.918 6  -6326639.09847  21419872.42347
  20815866.181 7  -3383830.883 7  -2624716.09448  20815862.38848
  22175940.040 6   -330937.379 6   -256716.32447  22175941.34147
 18  5 30  0 37  9.9970000  0  8G03G14G16G22G26G27G31G32             0.000009468
  22959187.220 3  -1434780.301 3   -754737.45346  22959187.55646
  19967981.946 7  -2319002.707 7  -1794499.20748  19967978.82548
  19690224.040 7  -4805721.262 7  -3716050.06648  19690219.73548
  22951181.548 5  -2668291.949 5  -2071724.00846  22951175.32946
  19918670.907 7  -2865099.172 7  -2222880.81348  19918671.42748
  21413305.118 6  -8255540.523 6  -6353537.47748  21413303.82148
  20813162.774 7  -3398038.289 7  -2635786.81348  20813159.08348
  22175782.079 6   -331768.094 6   -257363.63747  22175783.91947
 18  5 30  0 37 14.9970000  0  8G03G14G16G22G26G27G31G32            -0.000001539
  22956588.860 1  -1448434.582 1   -765377.18046  22956589.72846
  19966381.478 7  -2327414.578 7  -1801053.91448  19966377.70448
  19686588.540 7  -4824822.359 7  -3730934.04748  19686584.43948
  22949143.892 5  -2678997.449 5  -2080065.91846  22949138.64946
  19916475.767 7  -2876634.863 7  -2231869.66048  19916476.26748
  21406736.915 6  -8290055.992 6  -6380432.63748  21406735.98148
  20810459.024 7  -3412244.488 7  -2646856.57448  20810455.47848
  22175624.931 6   -332594.227 6   -258007.41047  22175626.16547
 18  5 30  0 37 19.9970000  0  8G03G14G16G22G26G27G31G32            -0.000012547
  22953992.243 3  -1462079.699 3   -776009.68046  22953993.38846
  19964782.915 7  -2335814.188 7  -1807599.06348  19964779.72048
  19682955.665 7  -4843913.445 7  -3745810.21148  19682951.88848
  22947108.649 5  -2689698.414 5  -2088404.37146  22947102.10346
  19914281.595 7  -2888165.387 7  -2240854.48848  19914281.69648
  21400170.001 6  -8324566.473 6  -6407323.93848  21400168.76748
  20807756.267 7  -3426448.605 7  -2657924.72748  20807753.52148
  22175468.399 6   -333415.000 6   -258646.99647  22175470.19247
 18  5 30  0 37 24.9970000  0  8G03G14G16G22G26G27G31G32            -0.000023556
  22951397.040 2  -1475715.750 2   -786635.20345  22951398.63445
  19963187.064 7  -2344201.734 7  -1814134.82048  19963183.21648
  19679324.524 6  -4862994.777 6  -3760678.78148  19679320.87648
  22945072.735 5  -2700395.027 5  -2096739.39846  22945067.02846
  19912088.368 7  -2899690.945 7  -2249835.44948  19912088.99348
  21393603.556 6  -8359072.219 6  -6434211.51248  21393602.43948
  20805053.540 7  -3440650.891 7  -2668991.43848  20805050.16148
  22175313.298 6   -334230.559 6   -259282.50847  22175314.91147
 18  5 30  0 37 29.9970000  0  9G03G14G16G22G23G26G27G31G32         -0.000034565
  22948803.017 2  -1489342.559 2   -797253.50045  22948805.68145
  19961593.509 7  -2352576.949 7  -1820660.96948  19961589.59548
  19675695.829 7  -4882066.059 7  -3775539.52348  19675691.31048
  22943037.556 5  -2711087.023 5  -2105070.82846  22943032.50546
  23080705.28211                                
  19909895.892 7  -2911211.273 7  -2258812.32448  19909896.63848
  21387038.220 6  -8393572.832 6  -6461095.11748  21387037.11848
  20802351.454 7  -3454850.969 7  -2680056.43848  20802348.30248
  22175159.321 6   -335040.699 6   -259913.80947  22175161.32547
 18  5 30  0 37 34.9970000  0  9G03G14G16G22G23G26G27G31G32         -0.000045570
  22946212.095 1  -1502960.391 1   -807864.84045  22946213.81745
  19960001.649 7  -2360940.215 7  -1827177.79348  19959998.26748
  19672067.704 6  -4901127.680 6  -3790392.73448  19672063.87248
  22941003.587 5  -2721774.848 5  -2113398.98846  22940998.44246
  23074261.032 1    -67694.758 1                
  19907704.923 7  -2922726.777 7  -2267785.45348  19907705.31448
  21380474.103 6  -8428068.805 6  -6487975.08248  21380472.92348
  20799649.446 7  -3469049.266 7  -2691120.05548  20799646.37248
  22175006.774 6   -335845.781 6   -260541.15647  22175008.20047
 18  5 30  0 37 39.9970000  0  9G03G14G16G22G23G26G27G31G32         -0.000056581
  22943622.439 1  -1516569.098 1   -818468.98045  22943623.67345
  19958412.571 7  -2369291.191 7  -1833685.05148  19958408.84148
  19668442.954 6  -4920179.320 6  -3805238.17648  19668439.30648
  22938971.196 5  -2732458.125 5  -2121723.63346  22938965.81046
  23067821.704 1   -101541.023 1                
  19905514.446 7  -2934237.125 7  -2276754.55548  19905515.05648
  21373910.235 6  -8462559.758 6  -6514851.13748  21373908.90348
  20796947.814 7  -3483245.473 7  -2702182.02748  20796944.44248
  22174854.634 6   -336645.516 6   -261164.33247  22174855.66547
 18  5 30  0 37 44.9970000  0  9G03G14G16G22G23G26G27G31G32         -0.000067595
  22941034.970 1  -1530169.656 1   -829066.83245  22941035.38845
  19956825.384 7  -2377630.980 7  -1840183.59048  19956821.94648
  19664819.001 7  -4939222.035 7  -3820076.66448  19664815.33748
  22936938.728 5  -2743137.945 5  -2130045.55946  22936933.09146
  23061379.868 1   -135385.172 1                
  19903324.728 7  -2945743.391 7  -2285720.48448  19903325.23948
  21367347.782 6  -8497046.684 6  -6541724.05948  21367346.00548
  20794246.829 7  -3497440.609 7  -2713243.18448  20794243.95048
  22174703.399 6   -337440.961 6   -261784.17247  22174704.08747
 18  5 30  0 37 49.9970000  0  9G03G14G16G22G23G26G27G31G32         -0.000078608
  22938446.462 1  -1543761.270 1   -839657.69945  22938449.26745
  19955240.712 7  -2385958.871 7  -1846672.85948  19955237.43948
  19661197.204 7  -4958255.125 7  -3834907.64848  19661193.15748
  22934907.118 5  -2753813.570 5  -2138364.23446  22934901.29046
  23054940.735 1   -169226.430 1                
  19901136.314 7  -2957244.840 7  -2294682.65648  19901136.64248
  21360786.142 6  -8531528.887 6  -6568593.30948  21360784.47048
  20791545.712 7  -3511633.977 7  -2724302.95348  20791543.03248
  22174552.392 6   -338231.387 6   -262400.11347  22174553.83747
 18  5 30  0 37 54.9970000  0  9G03G14G16G22G23G26G27G31G32         -0.000089622
  22935862.587 1  -1557343.156 1   -850241.02745  22935865.04445
  19953658.204 7  -2394273.840 7  -1853152.07048  19953655.05248
  19657577.501 7  -4977277.605 7  -3849730.35948  19657573.37248
  22932876.907 5  -2764484.074 5  -2146678.92646  22932870.84946
  23048500.860 2   -203063.750 2                
  19898948.798 7  -2968740.531 7  -2303640.34048  19898948.98548
  21354225.259 6  -8566005.328 6  -6595458.05948  21354223.88848
  20788845.540 7  -3525824.570 7  -2735360.56348  20788842.45048
  22174403.392 6   -339015.855 6   -263011.39547  22174404.17747
 18  5 30  0 37 59.9970000  0  9G03G14G16G22G23G26G27G31G32         -0.000100639
  22933282.376 1  -1570916.320 1   -860817.52745  22933281.94645
  19952078.087 6  -2402577.141 6  -1859622.18048  19952075.05248
  19653959.282 7  -4996290.730 7  -3864545.78148  19653954.63848
  22930846.790 5  -2775150.691 5  -2154990.57846  22930841.75146
  23042062.689 1   -236898.438 1                
  19896762.009 7  -2980231.672 7  -2312594.49248  19896762.40748
  21347665.681 6  -8600477.270 6  -6622319.30948  21347664.13448
  20786145.321 7  -3540013.633 7  -2746416.98448  20786142.38848
  22174255.110 6   -339795.547 6   -263618.96947  22174255.86847
 18  5 30  0 38  4.9970000  0  9G03G14G16G22G23G26G27G31G32         -0.000111656
  22930699.735 1  -1584480.309 1   -871386.85545  22930701.00545
  19950500.189 7  -2410868.152 7  -1866082.71148  19950497.50548
  19650342.774 7  -5015293.859 7  -3879353.41448  19650339.19248
  22928818.220 5  -2785812.766 5  -2163298.69146  22928812.70846
  23035624.431 1   -270729.852 1                
  19894576.267 7  -2991717.633 7  -2321544.58648  19894576.51348
  21341106.595 6  -8634944.027 6  -6649176.52048  21341105.41148
  20783445.509 6  -3554200.465 6  -2757471.66048  20783442.81448
  22174108.032 6   -340569.883 6   -264222.36347  22174108.50547
 18  5 30  0 38  9.9970000  0  9G03G14G16G22G23G26G27G31G32         -0.000122673
  22928118.970 1  -1598036.137 1   -881949.79345  22928121.29445
  19948924.478 6  -2419147.895 6  -1872534.46948  19948921.59148
  19646728.642 7  -5034288.020 7  -3894154.06648  19646724.61048
  22926790.556 5  -2796471.328 5  -2171604.09045  22926784.72045
  23029187.415 1   -304558.785 1                
  19892391.470 7  -3003199.484 7  -2330491.48048  19892391.37248
  21334548.493 6  -8669406.629 6  -6676030.49648  21334547.69648
  20780746.204 6  -3568386.156 6  -2768525.45348  20780743.03648
  22173962.228 6   -341339.887 6   -264822.39547  22173962.01747
 18  5 30  0 38 14.9970000  0  9G03G14G16G22G23G26G27G31G32         -0.000133694
  22925542.251 1  -1611582.980 1   -892505.82445  22925543.29045
  19947351.235 6  -2427415.605 6  -1878976.84048  19947348.49348
  19643116.235 7  -5053272.406 7  -3908947.09048  19643112.05648
  22924762.353 5  -2807125.660 5  -2179906.15646  22924756.66546
  23022751.845 1   -338384.762 1                
  19890207.329 7  -3014676.449 7  -2339434.57448  19890207.90748
  21327991.282 6  -8703864.297 6  -6702880.61348  21327990.54848
  20778047.087 7  -3582569.934 7  -2779577.75048  20778043.91548
  22173816.564 6   -342104.820 6   -265418.45347  22173816.46647
 18  5 30  0 38 19.9970000  0  9G03G14G16G22G23G26G27G31G32         -0.000144712
  22922966.728 1  -1625121.363 1   -903055.19545  22922966.94245
  19945780.181 6  -2435671.754 6  -1885410.22348  19945777.45048
  19639505.009 7  -5072247.508 7  -3923732.88348  19639501.25148
  22922735.454 5  -2817776.215 5  -2188205.29346  22922729.93146
  23016313.220 2   -372207.988 2                
  19888024.251 7  -3026148.969 7  -2348374.21548  19888024.47448
  21321435.189 6  -8738317.473 6  -6729727.24648  21321434.20848
  20775348.267 7  -3596752.191 7  -2790628.86348  20775345.18548
  22173672.126 6   -342865.125 6   -266010.93447  22173672.02147
 18  5 30  0 38 24.9970000  0  9G03G14G16G22G23G26G27G31G32         -0.000155735
  22920392.595 1  -1638650.965 1   -913597.74645  22920392.29845
  19944211.587 6  -2443916.023 6  -1891834.33648  19944208.77848
  19635896.095 7  -5091213.059 7  -3938511.23848  19635891.93148
  22920709.399 5  -2828422.684 5  -2196501.21145  22920703.75945
  23009876.821 2   -406028.309 2   -294547.43056  23009875.51756
  19885841.814 7  -3037616.785 7  -2357310.19548  19885842.30248
  21314880.454 6  -8772765.855 6  -6756570.12948  21314879.10648
  20772650.189 7  -3610932.668 7  -2801678.59848  20772647.09548
  22173528.017 6   -343620.527 6   -266599.57847  22173527.88047
 18  5 30  0 38 29.9970000  0  9G03G14G16G22G23G26G27G31G32         -0.000166758
  22917819.493 2  -1652171.695 2   -924133.38745  22917819.94245
  19942644.704 6  -2452148.344 6  -1898249.14548  19942642.46248
  19632288.954 6  -5110168.969 6  -3953282.08648  19632284.70448
  22918684.384 5  -2839065.000 5  -2204793.98045  22918678.43545
  23003442.251 1   -439845.527 1   -320898.54345  23003440.18945
  19883660.478 7  -3049079.801 7  -2366242.42248  19883661.22448
  21308325.868 6  -8807209.324 6  -6783409.18848  21308324.39948
  20769951.814 7  -3625111.234 7  -2812726.84448  20769949.09148
  22173385.243 6   -344370.941 6   -267184.32047  22173384.88047
 18  5 30  0 38 34.9970000  0  9G03G14G16G22G23G26G27G31G32         -0.000177780
  22915248.657 1  -1665683.367 1   -934661.98045  22915248.45445
  19941080.564 6  -2460368.469 6  -1904654.44948  19941077.60348
  19628683.774 7  -5129114.969 7  -3968045.20348  19628679.52848
  22916659.774 5  -2849702.984 5  -2213083.31345  22916654.03645
  22997005.978 2   -473659.398 2   -347246.99645  22997005.49345
  19881480.220 7  -3060537.785 7  -2375170.71948  19881481.36048
  21301772.134 6  -8841647.574 6  -6810244.18047  21301771.13447
  20767254.399 7  -3639287.680 7  -2823773.41848  20767251.39648
  22173243.696 6   -345116.125 6   -267765.01647  22173243.17747
 18  5 30  0 38 39.9970000  0  9G03G14G16G22G23G26G27G31G32         -0.000188805
  22912678.728 2  -1679186.430 2   -945183.82445  22912678.75545
  19939518.587 6  -2468576.883 6  -1911050.61748  19939515.55248
  19625080.470 7  -5148051.566 7  -3982800.98848  19625076.15748
  22914636.423 5  -2860337.074 5  -2221369.59445  22914630.78245
  22990572.454 1   -507470.445 1   -373593.29345  22990571.41945
  19879300.353 7  -3071991.219 7  -2384095.47348  19879301.56048
  21295219.439 6  -8876081.141 6  -6837075.52047  21295218.27147
  20764556.845 7  -3653462.473 7  -2834818.71948  20764553.73548
  22173102.821 6   -345856.570 6   -268342.00447  22173102.07947
 18  5 30  0 38 44.9970000  0  9G03G14G16G22G23G26G27G31G32         -0.000199831
  22910110.103 2  -1692680.090 2   -955698.43045  22910110.42745
  19937958.923 6  -2476772.871 6  -1917437.11348  19937956.01748
  19621478.814 7  -5166977.969 7  -3997548.83648  19621474.56048
  22912614.024 5  -2870966.574 5  -2229652.34445  22912607.60345
  22984139.196 1   -541277.895 1   -399936.74645  22984137.64645
  19877122.024 7  -3083439.344 7  -2393016.08248  19877122.68148
  21288668.274 6  -8910509.230 6  -6863902.59847  21288666.86447
  20761860.274 7  -3667634.801 7  -2845862.08248  20761856.93948
  22172963.204 6   -346591.535 6   -268914.73847  22172961.94247
 18  5 30  0 38 49.9970000  0  9G03G14G16G22G23G26G27G31G32         -0.000210857
  22907544.048 2  -1706165.246 2   -966206.28945  22907544.58345
  19936401.970 6  -2484957.152 6  -1923814.46148  19936398.87648
  19617878.868 7  -5185895.008 7  -4012289.39548  19617874.56048
  22910591.493 5  -2881592.164 5  -2237932.02745  22910585.80245
  22977705.806 1   -575082.469 1   -426278.02745  22977704.98145
  19874944.173 7  -3094882.934 7  -2401933.16048  19874945.15348
  21282117.821 6  -8944932.559 6  -6890725.98047  21282116.37647
  20759163.392 7  -3681805.473 7  -2856904.16848  20759160.18548
  22172824.204 6   -347321.828 6   -269483.81347  22172822.91547
 18  5 30  0 38 54.9970000  0 10G03G14G16G22G23G26G27G29G31G32      -0.000221884
  22904978.759 1  -1719641.480 1   -976707.31645  22904980.54845
  19934846.665 6  -2493129.414 6  -1930182.47348  19934843.89248
  19614280.689 7  -5204802.324 7  -4027022.37148  19614276.61848
  22908570.548 5  -2892213.535 5  -2246208.43845  22908564.39945
  22971273.376 1   -608883.891 1   -452616.70345  22971272.39645
  19872767.634 7  -3106321.676 7  -2410846.46548  19872768.17748
  21275568.423 6  -8979350.824 6  -6917545.40247  21275566.58347
  23130766.55613     -1641.60213                
  20756467.548 7  -3695974.125 7  -2867944.67648  20756464.29448
  22172686.689 6   -348047.059 6   -270048.94147  22172684.91147
 18  5 30  0 38 59.9970000  0 10G03G14G16G22G23G26G27G29G31G32      -0.000232910
  22902416.314 1  -1733108.008 1   -987200.71545  22902418.51345
  19933293.610 6  -2501288.949 6  -1936540.54748  19933291.18148
  19610685.048 7  -5223699.168 7  -4041747.18448  19610680.55248
  22906550.446 5  -2902830.039 5  -2254481.06345  22906544.94645
  22964842.196 1   -642681.246 1   -478952.40245  22964841.45045
  19870591.892 7  -3117754.883 7  -2419755.47348  19870592.89248
  21269019.774 6  -9013763.254 6  -6944360.28147  21269018.18147
  23130168.774 2     -4779.301 2                
  20753771.853 7  -3710140.059 7  -2878983.07848  20753768.30248
  22172549.204 6   -348766.559 6   -270609.60247  22172547.84947
 18  5 30  0 39  4.9970000  0 10G03G14G16G22G23G26G27G29G31G32      -0.000243938
  22899856.587 3  -1746565.035 3   -997686.67645  22899857.86845
  19931743.392 6  -2509435.789 6  -1942888.73848  19931740.97448
  19607091.040 7  -5242585.629 7  -4056463.91048  19607086.91948
  22904530.657 5  -2913441.676 5  -2262749.91445  22904525.08345
  22958411.548 1   -676474.828 1   -505284.99645  22958410.74745
  19868417.399 7  -3129182.527 7  -2428660.13348  19868418.27148
  21262472.126 6  -9048169.887 6  -6971170.64148  21262471.08748
  23129573.892 3     -7908.551 3                
  20751076.845 7  -3724303.285 7  -2890019.35548  20751073.00548
  22172413.696 6   -349480.352 6   -271165.82847  22172412.31747
 18  5 30  0 39  9.9970000  0 10G03G14G16G22G23G26G27G29G31G32      -0.000254969
  22897296.720 3  -1760013.465 3  -1008165.97345  22897299.05645
  19930195.392 6  -2517570.848 6  -1949227.77048  19930192.82548
  19603498.649 7  -5261462.637 7  -4071173.26648  19603494.35348
  22902511.899 5  -2924049.469 5  -2271015.68046  22902506.70046
  22951981.62611   -710265.37511   -531615.35255  22951980.72855
  19866243.564 7  -3140605.609 7  -2437561.23448  19866244.54448
  21255926.321 6  -9082571.660 6  -6997977.21548  21255924.94648
  23128978.587 2    -11030.340 2                
  20748381.548 7  -3738464.734 7  -2901054.25448  20748377.93948
  22172278.767 6   -350189.414 6   -271718.37147  22172276.91547
 18  5 30  0 39 14.9970000  0 10G03G14G16G22G23G26G27G29G31G32      -0.000265999
  22894739.712 3  -1773453.020 3  -1018638.36345  22894742.16545
  19928649.415 6  -2525693.945 6  -1955557.45748  19928647.22848
  19599908.196 7  -5280329.973 7  -4085875.10248  19599903.81048
  22900493.923 5  -2934653.098 5  -2279278.28146  22900488.81446
  22945550.485 1   -744052.586 1   -557942.94145  22945551.19645
  19864070.782 7  -3152023.918 7  -2446458.62148  19864071.57548
  21249380.353 6  -9116968.313 6  -7024779.79748  21249379.54848
  23128386.048 1    -14144.324 1                
  20745687.462 7  -3752624.188 7  -2912087.58248  20745683.71248
  22172144.009 6   -350893.504 6   -272267.01647  22172142.93947
 18  5 30  0 39 19.9970000  0 10G03G14G16G22G23G26G27G29G31G32      -0.000277031
  22892183.946 3  -1786883.375 3  -1029103.58646  22892186.14246
  19927106.376 6  -2533804.723 6  -1961877.53148  19927103.86048
  19596320.087 7  -5299187.309 7  -4100569.11748  19596315.65348
  22898477.626 5  -2945252.250 5  -2287537.35546  22898471.97446
  22939120.907 1   -777836.211 1   -584267.94545  22939122.31045
  19861898.993 7  -3163437.055 7  -2455351.98448  19861899.87248
  21242835.485 6  -9151359.430 6  -7051578.07448  21242834.84148
  23127793.939 1    -17250.188 1                
  20742993.243 7  -3766781.289 7  -2923119.09048  20742989.87648
  22172011.876 6   -351592.270 6   -272811.53547  22172009.66947
 18  5 30  0 39 24.9970000  0 10G03G14G16G22G23G26G27G29G31G32      -0.000288063
  22889630.048 3  -1800304.727 3  -1039561.76246  22889632.25146
  19925565.032 6  -2541903.352 6  -1968188.16048  19925562.50548
  19592733.235 7  -5318034.813 7  -4115255.48848  19592728.64248
  22896461.524 5  -2955847.195 5  -2295793.15246  22896456.14946
  22932694.657 1   -811616.465 1   -610590.19545  22932693.95845
  19859728.009 7  -3174845.266 7  -2464241.50448  19859728.56048
  21236292.845 6  -9185745.273 6  -7078372.23047  21236291.55647
  23127204.814 1    -20348.348 1                
  20740299.399 7  -3780936.270 7  -2934148.95348  20740295.79448
  22171878.868 6   -352285.953 6   -273352.07847  22171878.35347
 18  5 30  0 39 29.9970000  0 10G03G14G16G22G23G26G27G29G31G32      -0.000299097
  22887077.993 3  -1813717.551 3  -1050013.34446  22887078.90746
  19924026.157 6  -2549990.230 6  -1974489.63748  19924023.53648
  19589148.720 7  -5336872.922 7  -4129934.53148  19589144.25948
  22894445.767 5  -2966438.293 5  -2304045.98046  22894441.11846
  22926266.634 1   -845393.629 1   -636910.03145  22926265.80645
  19857558.103 7  -3186248.969 7  -2473127.50848  19857558.41148
  21229750.071 6  -9220126.195 6  -7105162.57048  21229748.66148
  23126615.12611    -23438.90211                
  20737606.032 7  -3795089.465 7  -2945177.42248  20737602.69648
  22171747.689 6   -352974.941 6   -273888.97747  22171747.71647
 18  5 30  0 39 34.9970000  0 10G03G14G16G22G23G26G27G29G31G32      -0.000310131
  22884527.478 4  -1827121.406 4  -1060457.87546  22884527.87246
  19922489.571 6  -2558064.992 6  -1980781.65248  19922487.24348
  19585565.540 7  -5355701.262 7  -4144605.96548  19585561.22848
  22892431.618 5  -2977025.141 5  -2312295.49646  22892426.73946
  22919838.962 1   -879167.344 1   -663227.23845  22919839.03645
  19855388.517 6  -3197647.734 6  -2482009.66448  19855389.29048
  21223208.689 6  -9254501.770 6  -7131948.72748  21223207.36048
  23126028.814 1    -26521.727 1                
  20734912.915 7  -3809240.480 7  -2956204.18848  20734909.61848
  22171618.110 6   -353658.828 6   -274421.90647  22171617.51747
 18  5 30  0 39 39.9970000  0 10G03G14G16G22G23G26G27G29G31G32      -0.000321167
  22881978.439 3  -1840516.863 3  -1070895.86345  22881978.67345
  19920955.399 6  -2566128.305 6  -1987064.75048  19920952.96248
  19581984.704 6  -5374520.422 6  -4159270.25048  19581980.25148
  22890417.696 5  -2987608.367 5  -2320542.19146  22890412.93146
  22913413.837 2   -912938.219 2   -689542.19545  22913412.33745
  19853220.251 6  -3209042.199 6  -2490888.46948  19853221.08748
  21216668.337 6  -9288872.598 6  -7158731.20348  21216666.42348
  23125442.79011                                
  20732220.774 7  -3823389.910 7  -2967229.72348  20732217.21248
  22171488.954 6   -354338.270 6   -274951.37147  22171488.38847
 18  5 30  0 39 44.9970000  0 10G03G14G16G22G23G26G27G29G31G32      -0.000332205
  22879430.071 3  -1853903.121 3  -1081326.75845  22879431.29445
  19919423.095 6  -2574179.238 6  -1993338.22348  19919420.27148
  19578405.399 6  -5393329.496 6  -4173926.67248  19578401.18148
  22888403.923 5  -2998187.160 5  -2328785.39846  22888399.93946
  22906987.204 1   -946705.270 1   -715854.20345  22906986.38445
  19851053.157 7  -3220431.484 7  -2499763.23448  19851053.51748
  21210128.681 6  -9323237.762 6  -7185509.24648  21210127.44248
  23124858.75111    -32664.65211                
  20729528.610 7  -3837536.883 7  -2978253.34848  20729524.99748
  22171361.017 6   -355012.383 6   -275476.65647  22171360.13847
 18  5 30  0 39 49.9970000  0 10G03G14G16G22G23G26G27G29G31G32      -0.000343243
  22876885.689 3  -1867280.691 3  -1091750.86745  22876885.89945
  19917893.610 6  -2582218.359 6  -1999602.47748  19917890.62648
  19574828.095 7  -5412129.055 7  -4188575.68448  19574823.71648
  22886392.689 5  -3008762.008 5  -2337025.54746  22886387.76346
  22900562.017 2   -980469.180 2   -742163.71945  22900560.57945
  19848886.759 7  -3231816.160 7  -2508634.40248  19848887.25148
  21203590.149 6  -9357597.828 6  -7212283.30548  21203589.37248
  23124277.97811    -35724.48411                
  20726836.978 7  -3851681.961 7  -2989275.49248  20726833.28648
  22171232.665 6   -355681.672 6   -275998.19947  22171233.06747
 18  5 30  0 39 54.9970000  0 10G03G14G16G22G23G26G27G29G31G32      -0.000354280
  22874340.985 3  -1880648.910 3  -1102167.63345  22874342.14945
  19916366.579 6  -2590244.930 6  -2005856.94948  19916363.36848
  19571252.478 7  -5430918.375 7  -4203216.71548  19571248.34548
  22884380.251 5  -3019332.223 5  -2345262.09046  22884376.54046
  22894137.790 2  -1014229.074 2   -768470.14145  22894136.72045
  19846721.376 7  -3243195.508 7  -2517501.43048  19846722.53648
  21197053.071 6  -9391952.078 6  -7239052.84848  21197052.25548
  23123698.90711    -38776.24611                
  20724145.743 7  -3865824.375 7  -3000295.57448  20724141.73548
  22171106.892 6   -356345.520 6   -276515.51247  22171106.23547
 18  5 30  0 39 59.9970000  0 10G03G14G16G22G23G26G27G29G31G32      -0.000365318
  22871798.876 3  -1894008.113 3  -1112577.40246  22871799.76746
  19914840.954 6  -2598259.293 6  -2012101.91048  19914838.05248
  19567678.657 6  -5449697.734 6  -4217849.98048  19567674.68548
  22882369.907 5  -3029898.152 5  -2353495.29746  22882366.00546
  22887714.579 2  -1047985.270 2   -794773.71145  22887712.48545
  19844556.728 7  -3254569.805 7  -2526364.51648  19844557.72048
  21190516.868 6  -9426300.785 6  -7265818.07448  21190516.31748
  23123118.946 1    -41820.023 1                
  20721454.876 7  -3879964.469 7  -3011313.82048  20721451.04848
  22170982.103 6   -357004.215 6   -277028.79747  22170980.95047
 18  5 30  0 40  4.9970000  0 10G03G14G16G22G23G26G27G29G31G32      -0.000376360
  22869257.970 4  -1907358.758 4  -1122980.50445  22869259.00945
  19913317.821 6  -2606261.926 6  -2018337.73448  19913315.06448
  19564106.845 7  -5468467.715 7  -4232475.94548  19564102.67348
  22880360.071 5  -3040460.270 5  -2361725.53946  22880356.62646
  22881291.673 3  -1081738.355 3   -821074.82445  22881289.35645
  19842392.931 7  -3265939.629 7  -2535224.11748  19842394.26348
  21183981.110 6  -9460644.414 6  -7292579.33648  21183980.69248
  23122542.14911                                
  20718764.774 7  -3894102.707 7  -3022330.64548  20718761.11448
  22170856.985 6   -357658.254 6   -277538.46547  22170856.90347
 18  5 30  0 40  9.9970000  0 10G03G14G16G22G23G26G27G29G31G32      -0.000387400
  22866720.681 4  -1920700.027 4  -1133376.27345  22866719.94645
  19911797.845 6  -2614251.984 6  -2024563.75048  19911794.99748
  19560537.298 7  -5487227.434 7  -4247093.91848  19560532.99748
  22878350.696 5  -3051017.793 5  -2369952.18446  22878347.66546
  22874869.392 3  -1115487.477 3   -847372.82045  22874867.03245
  19840230.642 7  -3277304.137 7  -2544079.59048  19840231.33348
  21177446.517 6  -9494982.180 6  -7319336.04348  21177445.80248
  23121962.04811    -47884.63711                
  20716074.837 7  -3908238.305 7  -3033345.40648  20716071.56048
  22170733.274 6   -358306.805 6   -278043.85547  22170733.76347
 18  5 30  0 40 14.9970000  0 10G03G14G16G22G23G26G27G29G31G32      -0.000398439
  22864183.064 5  -1934032.266 5  -1143765.12545  22864182.72045
  19910279.962 6  -2622229.875 6  -2030780.29348  19910276.97848
  19556968.993 7  -5505977.172 7  -4261704.10248  19556964.72848
  22876342.759 4  -3061571.063 4  -2378175.51646  22876339.31746
  22868448.564 3  -1149232.855 3   -873667.98445  22868445.48145
  19838069.243 7  -3288663.637 7  -2552931.14148  19838069.82148
  21170914.298 6  -9529314.332 6  -7346088.35548  21170912.64648
  23121391.399 1    -50904.926 1                
  20713385.845 7  -3922371.535 7  -3044358.32448  20713381.51348
  22170611.118 6   -358950.227 6   -278545.23847  22170611.38847
 18  5 30  0 40 19.9970000  0 10G03G14G16G22G23G26G27G29G31G32      -0.000409483
  22861647.946 4  -1947355.633 4  -1154146.93445  22861647.00545
  19908763.712 6  -2630195.711 6  -2036987.43848  19908761.03648
  19553403.196 6  -5524717.199 6  -4276306.73448  19553398.60648
  22874335.149 4  -3072120.227 4  -2386395.64546  22874331.71246
  22862027.556 4  -1182974.762 4   -899960.32845  22862024.20045
  19835908.462 7  -3300018.301 7  -2561778.94148  19835909.05248
  21164381.681 6  -9563641.020 6  -7372836.42647  21164380.35347
  23120816.55611                                
  20710696.274 7  -3936502.586 7  -3055369.53148  20710692.81448
  22170489.126 6   -359588.723 6   -279042.78147  22170490.19647
 18  5 30  0 40 24.9970000  0 10G03G14G16G22G23G26G27G29G31G32      -0.000420525
  22859114.845 4  -1960670.629 4  -1164522.31345  22859113.56045
  19907250.087 6  -2638149.930 6  -2043185.53548  19907247.08748
  19549838.868 7  -5543447.973 7  -4290902.14548  19549834.05648
  22872329.423 4  -3082665.688 4  -2394612.87946  22872324.85646
  22855607.157 4  -1216713.492 4   -926250.28945  22855603.39645
  19833748.665 7  -3311368.621 7  -2570623.34848  19833749.48548
  21157850.118 6  -9597962.707 6  -7399580.59847  21157848.93547
  23120245.243 1    -56922.820 1                
  20708008.017 7  -3950631.883 7  -3066379.39148  20708004.47848
  22170368.892 6   -360222.676 6   -279536.80147  22170369.83347
 18  5 30  0 40 29.9970000  0 10G03G14G16G22G23G26G27G29G31G32      -0.000431570
  22856581.579 4  -1973976.410 4  -1174890.45745  22856581.16945
  19905739.485 6  -2646091.773 6  -2049373.99248  19905735.92348
  19546276.196 7  -5562168.688 7  -4305489.71548  19546271.34148
  22870322.649 4  -3093206.801 4  -2402826.72746  22870318.90746
  22849188.978 4  -1250448.383 4   -952537.23845  22849183.80245
  19831590.079 7  -3322713.793 7  -2579463.73848  19831590.67748
  21151319.993 6  -9632278.578 6  -7426320.23447  21151318.71647
  23119673.43911    -59920.02011                
  20705319.837 7  -3964758.637 7  -3077387.23848  20705316.07948
  22170249.399 6   -360851.348 6   -280026.69147  22170250.06747
 18  5 30  0 40 34.9970000  0 10G03G14G16G22G23G26G27G29G31G32      -0.000442616
  22854051.282 4  -1987273.734 4  -1185252.01645  22854050.81745
  19904229.923 6  -2654022.020 6  -2055553.41048  19904226.84148
  19542715.618 6  -5580880.113 6  -4320070.04748  19542710.90348
  22868317.517 4  -3103744.180 4  -2411037.69946  22868313.90346
  22842769.939 4  -1284180.102 4   -978821.70346  22842764.51746
  19829432.274 7  -3334054.563 7  -2588300.71548  19829432.42748
  21144791.251 6  -9666589.371 6  -7453055.91047  21144789.37247
  23119106.44611                                
  20702631.485 7  -3978883.559 7  -3088393.69548  20702628.58348
  22170130.110 6   -361475.488 6   -280513.04747  22170131.69247
 18  5 30  0 40 39.9970000  0 10G03G14G16G22G23G26G27G29G31G32      -0.000453661
  22851521.665 2  -2000562.645 2  -1195606.96945  22851521.93545
  19902723.212 6  -2661940.668 6  -2061723.78148  19902720.06048
  19539156.595 7  -5599582.137 7  -4334643.06348  19539152.13448
  22866313.017 4  -3114277.875 4  -2419245.78546  22866309.08346
  22836351.806 4  -1317908.610 4  -1005103.71345  22836346.46645
  19827274.556 7  -3345390.891 7  -2597134.21948  19827274.90748
  21138262.626 6  -9700895.023 6  -7479787.58247  21138260.88847
  23118540.57911    -65892.62911                
  20699944.134 7  -3993006.629 7  -3099398.66848  20699941.45848
  22170011.743 6   -362095.066 6   -280995.87547  22170013.55647
 18  5 30  0 40 44.9970000  0 10G03G14G16G22G23G26G27G29G31G32      -0.000464710
  22848994.189 1  -2013842.691 1  -1205955.11345  22848994.29045
  19901218.860 6  -2669847.324 6  -2067884.82048  19901215.75148
  19535599.743 6  -5618274.473 6  -4349208.52048  19535594.57548
  22864308.939 4  -3124807.547 4  -2427450.77345  22864305.60345
  22829933.774 4  -1351633.594 4  -1031382.87545  22829928.53245
  19825118.689 7  -3356722.480 7  -2605964.03548  19825118.93548
  21131735.064 6  -9735195.145 6  -7506514.96547  21131734.00947
  23117975.13411                                
  20697257.017 7  -4007127.516 7  -3110401.95348  20697254.19248
  22169895.540 5   -362709.758 5   -281474.87946  22169896.41146
 18  5 30  0 40 49.9970000  0 10G03G14G16G22G23G26G27G29G31G32      -0.000475756
  22846470.360 3  -2027113.891 3  -1216296.32445  22846469.27445
  19899716.399 6  -2677741.910 6  -2074036.44548  19899713.14948
  19532044.767 6  -5636957.059 6  -4363766.37148  19532039.56748
  22862305.915 3  -3135333.125 3  -2435652.46945  22862302.36845
  22823516.704 4  -1385354.801 4  -1057659.19545  22823511.29045
  19822963.548 7  -3368049.211 7  -2614790.06348  19822963.33748
  21125209.095 6  -9769489.668 6  -7533237.94147  21125208.09547
  23117410.29811    -71834.87511                
  20694570.478 7  -4021246.078 7  -3121403.44548  20694567.42748
  22169779.774 6   -363319.465 6   -281949.97747  22169780.41547
 18  5 30  0 40 54.9970000  0 10G03G14G16G22G23G26G27G29G31G32      -0.000486805
  22843946.282 4  -2040376.801 4  -1226631.00445  22843945.89645
  19898216.345 6  -2685624.953 6  -2080179.08648  19898213.21648
  19528491.274 7  -5655630.418 7  -4378317.04748  19528486.01348
  22860303.564 3  -3145855.086 3  -2443851.39546  22860300.65746
  22817100.993 4  -1419072.875 4  -1083932.97745  22817094.75945
  19820808.798 7  -3379371.676 7  -2623612.76648  19820809.25548
  21118684.415 6  -9803779.145 6  -7559957.02347  21118683.09547
  23116848.118 1    -74795.031 1                
  20691884.392 7  -4035362.922 7  -3132403.57448  20691881.68148
  22169664.423 6   -363924.763 6   -282421.68547  22169665.32947
 18  5 30  0 40 59.9970000  0 10G03G14G16G22G23G26G27G29G31G32      -0.000497854
  22841423.407 3  -2053630.789 3  -1236958.85245  22841423.17345
  19896717.907 7  -2693495.840 7  -2086312.25048  19896715.20848
  19524939.814 7  -5674293.988 7  -4392860.08248  19524934.17348
  22858302.806 3  -3156372.957 3  -2452047.17246  22858298.72846
  22810685.282 5  -1452787.109 5  -1110203.76245  22810678.47045
  19818654.790 7  -3390689.242 7  -2632431.64548  19818655.36448
  21112160.681 6  -9838062.875 6  -7586671.61347  21112159.30247
  23116286.40711    -77747.32411                
  20689198.142 7  -4049477.355 7  -3143401.84048  20689195.33748
  22169549.603 6   -364525.098 6   -282889.47347  22169551.13047
 18  5 30  0 41  4.9960000  0 10G03G14G16G22G23G26G27G29G31G32       0.000491096
  22838904.129 3  -2066872.570 3  -1247277.03145  22838903.74645
  19895223.418 6  -2701352.363 6  -2092434.22748  19895220.37148
  19521391.027 7  -5692943.344 7  -4407392.05948  19521385.89848
  22856303.395 4  -3166883.922 4  -2460237.52346  22856298.88746
  22804271.816 5  -1486490.199 5  -1136465.92645  22804264.84845
  19816503.074 7  -3401998.988 7  -2641244.43848  19816503.30548
  21105639.402 6  -9872333.367 6  -7613375.89547  21105637.44547
  23115727.762 1    -80690.625 1                
  20686513.371 7  -4063585.957 7  -3154395.54348  20686510.29348
  22169436.379 5   -365119.586 5   -283352.75047  22169438.39147
 18  5 30  0 41  9.9960000  0 10G03G14G16G22G23G26G27G29G31G32       0.000480045
  22836384.770 3  -2080107.934 3  -1257590.40245  22836385.35645
  19893730.277 6  -2709198.172 6  -2098547.85548  19893727.56648
  19517842.910 7  -5711586.496 7  -4421919.18448  19517838.10948
  22854302.566 3  -3177392.715 3  -2468426.21546  22854299.02746
  22797857.246 5  -1520196.027 5  -1162730.19545  22797850.40645
  19814351.207 7  -3413305.984 7  -2650055.10248  19814351.70748
  21099117.566 6  -9906604.871 6  -7640080.94947  21099116.51647
  23115169.926 1    -83626.617 1                
  20683828.262 7  -4077694.844 7  -3165389.48848  20683826.06648
  22169324.402 5   -365709.043 5   -283812.08647  22169325.31347
 18  5 30  0 41 14.9960000  0 10G03G14G16G22G23G26G27G29G31G32       0.000468994
  22833867.895 1  -2093334.484 1  -1267896.76645  22833868.19945
  19892239.895 6  -2717032.012 6  -2104652.14848  19892236.88348
  19514297.152 6  -5730220.035 6  -4436438.82448  19514292.28148
  22852304.660 5  -3187897.531 5  -2476611.79746  22852300.05946
  22791444.809 5  -1553898.199 5  -1188991.62545  22791436.78945
  19812200.738 7  -3424608.223 7  -2658862.03948  19812200.98148
  21092596.324 6  -9940870.770 6  -7666781.65247  21092595.02347
  23114609.434 1    -86555.086 1                
  20681144.074 7  -4091801.457 7  -3176381.65248  20681141.62948
  22169213.668 6   -366293.715 6   -284267.70347  22169214.16847
 18  5 30  0 41 19.9960000  0 10G03G14G16G22G23G26G27G29G31G32       0.000457939
  22831353.004 1  -2106552.430 1  -1278196.49645  22831352.58245
  19890751.316 6  -2724853.957 6  -2110747.18848  19890748.66848
  19510753.324 7  -5748843.977 7  -4450950.99248  19510748.69148
  22850306.191 4  -3198398.457 4  -2484794.30946  22850302.08246
  22785031.637 4  -1587596.770 4  -1215250.25445  22785024.21145
  19810050.629 7  -3435905.867 7  -2667665.39848  19810050.76648
  21086077.277 6  -9975131.109 6  -7693478.01647  21086075.84847
  23114053.82411    -89476.03911                
  20678460.145 7  -4105905.883 7  -3187372.12948  20678457.44148
  22169102.809 5   -366873.637 5   -284719.59447  22169103.64547
 18  5 30  0 41 24.9960000  0 10G03G14G16G22G23G26G27G29G31G32       0.000446888
  22828839.004 1  -2119761.355 1  -1288489.21545  22828839.03145
  19889265.066 6  -2732663.691 6  -2116832.68848  19889262.76248
  19507211.418 7  -5767458.039 7  -4465455.44548  19507206.55148
  22848308.223 3  -3208895.164 3  -2492973.57046  22848304.67646
  22778619.895 5  -1621291.348 5  -1241505.73445  22778612.69945
  19807901.832 7  -3447198.543 7  -2676464.87948  19807901.62548
  21079558.590 6 -10009385.605 6  -7720169.82847  21079557.14547
  23113499.74611    -92389.30111                
  20675776.231 7  -4120007.848 7  -3198360.66448  20675774.15648
  22168992.629 5   -367448.457 5   -285167.52046  22168994.30946
 18  5 30  0 41 29.9960000  0 10G03G14G16G22G23G26G27G29G31G32       0.000435829
  22826327.231 3  -2132961.402 3  -1298774.94145  22826327.19145
  19887781.184 6  -2740461.289 6  -2122908.74648  19887778.89548
  19503670.965 7  -5786062.238 7  -4479952.22748  19503666.43848
  22846311.816 4  -3219387.770 4  -2501149.62146  22846308.09446
  22772209.301 5  -1654982.082 5  -1267758.26245  22772201.75045
  19805753.941 7  -3458486.332 7  -2685260.56648  19805753.84448
  21073041.457 6 -10043634.266 6  -7746857.09847  21073040.18047
  23112947.23111                                
  20673093.559 7  -4134107.324 7  -3209347.27048  20673091.19548
  22168885.848 6   -368018.305 6   -285611.58247  22168885.24247
 18  5 30  0 41 34.9960000  0 10G03G14G16G22G23G26G27G29G31G32       0.000424774
  22823817.606 1  -2146152.418 1  -1309053.64845  22823817.27345
  19886300.645 7  -2748246.613 7  -2128975.25048  19886297.03948
  19500132.418 7  -5804656.473 7  -4494441.24648  19500127.62148
  22844315.277 4  -3229876.164 4  -2509322.40246  22844312.19146
  22765798.074 5  -1688668.770 5  -1294007.62945  22765790.68045
  19803606.598 7  -3469769.129 7  -2694052.36348  19803606.47348
  21066525.395 6 -10077876.953 6  -7773539.70747  21066523.64547
  23112397.75411                                
  20670410.637 7  -4148204.281 7  -3220331.91448  20670408.27348
  22168778.043 6   -368583.023 6   -286051.62547  22168778.25047
 18  5 30  0 41 39.9960000  0 10G03G14G16G22G23G26G27G29G31G32       0.000413723
  22821310.137 2  -2159334.707 2  -1319325.56345  22821308.69145
  19884820.152 6  -2756019.965 6  -2135032.41048  19884817.92248
  19496596.152 7  -5823241.047 7  -4508922.73848  19496590.77048
  22842321.559 4  -3240360.512 4  -2517492.04346  22842317.68446
  22759388.973 5  -1722351.637 5  -1320253.96946  22759381.47346
  19801460.082 7  -3481047.164 7  -2702840.46148  19801460.34848
  21060010.441 6 -10112113.895 6  -7800217.84047  21060009.07047
  23111848.785 1   -101082.098 1                
  20667728.629 7  -4162298.906 7  -3231314.73848  20667726.29348
  22168670.910 6   -369142.922 6   -286487.94147  22168671.85647
 18  5 30  0 41 44.9960000  0 10G03G14G16G22G23G26G27G29G31G32       0.000402666
  22818801.316 2  -2172508.313 2  -1329590.75045  22818802.25445
  19883343.418 7  -2763781.426 7  -2141080.30148  19883340.66448
  19493060.981 7  -5841816.039 7  -4523396.75848  19493056.08248
  22840326.113 4  -3250841.031 4  -2525658.66846  22840322.82846
  22752980.777 5  -1756030.898 5  -1346497.55146  22752972.53546
  19799315.074 7  -3492320.594 7  -2711624.95748  19799315.46148
  21053495.965 6 -10146345.227 6  -7826891.61347  21053495.33647
  23111298.941 1   -103964.578 1                
  20665047.066 7  -4176391.344 7  -3242295.85548  20665044.52748
  22168565.832 6   -369698.098 6   -286920.57047  22168566.11347
 18  5 30  0 41 49.9960000  0 10G03G14G16G22G23G26G27G29G31G32       0.000391607
  22816297.332 1  -2185673.320 1  -1339849.14145  22816296.74245
  19881868.746 7  -2771531.063 7  -2147118.99248  19881865.94948
  19489528.449 6  -5860381.473 6  -4537863.32448  19489523.77048
  22838333.074 4  -3261317.727 4  -2533822.35546  22838328.69146
  22746572.340 5  -1789706.383 5  -1372738.20745  22746564.25045
  19797170.691 7  -3503589.422 7  -2720405.85248  19797170.98848
  21046983.449 6 -10180570.902 6  -7853560.95347  21046982.41447
  23110751.645 1   -106839.594 1                
  20662365.629 7  -4190481.508 7  -3253275.19948  20662362.86748
  22168461.410 6   -370248.539 6   -287349.49647  22168461.21547
 18  5 30  0 41 54.9960000  0 10G03G14G16G22G23G26G27G29G31G32       0.000380550
  22813794.754 1  -2198829.180 1  -1350100.48445  22813793.37145
  19880396.691 7  -2779268.254 7  -2153147.97348  19880393.70748
  19485997.074 7  -5878936.766 7  -4552321.99648  19485992.43448
  22836339.871 4  -3271790.098 4  -2541982.62946  22836336.53546
  22740165.324 5  -1823377.637 5  -1398975.50046  22740157.43046
  19795027.012 7  -3514853.094 7  -2729182.75848  19795027.46948
  21040471.488 6 -10214790.359 6  -7880225.46547  21040470.84047
  23110205.996 1   -109706.582 1                
  20659684.840 7  -4204568.910 7  -3264252.41048  20659681.98848
  22168357.793 6   -370793.781 6   -287774.39147  22168357.22347
 18  5 30  0 41 59.9960000  0 10G03G14G16G22G23G26G27G29G31G32       0.000369490
  22811290.387 1  -2211975.770 1  -1360344.54345  22811291.77045
  19878926.738 7  -2786992.895 7  -2159167.18848  19878924.01648
  19482468.449 7  -5897481.859 7  -4566772.72748  19482463.88748
  22834348.363 5  -3282257.938 5  -2550139.39846  22834344.02046
  22733757.910 5  -1857044.414 5  -1425209.35246  22733750.54346
  19792884.613 7  -3526111.504 7  -2737955.54748  19792885.19148
  21033961.270 6 -10249003.480 6  -7906885.03547  21033960.36347
  23109661.535 1   -112565.617 1                
  20657004.871 7  -4218653.410 7  -3275227.34048  20657001.81648
  22168254.981 6   -371333.629 6   -288195.05147  22168254.72347
 18  5 30  0 42  4.9960000  0 10G03G14G16G22G23G26G27G29G31G32       0.000358431
  22808791.582 1  -2225114.297 1  -1370582.41445  22808791.96945
  19877458.723 6  -2794706.219 6  -2165177.56648  19877456.02048
  19478941.051 6  -5916017.934 6  -4581216.43448  19478935.64148
  22832355.777 4  -3292722.559 4  -2558293.60546  22832352.85646
  22727351.949 5  -1890708.031 5  -1451440.70746  22727345.23146
  19790742.895 7  -3537365.914 7  -2746725.21948  19790743.65248
  21027451.590 6 -10283211.480 6  -7933540.60947  21027450.77347
  23109118.551 1   -115417.773 1                
  20654324.863 7  -4232736.219 7  -3286200.96548  20654321.84848
  22168152.754 6   -371869.379 6   -288612.55147  22168152.41447
 18  5 30  0 42  9.9960000  0 10G03G14G16G22G23G26G27G29G31G32       0.000347370
  22806292.551 1  -2238244.457 1  -1380813.67645  22806293.71145
  19875993.316 6  -2802408.000 6  -2171178.96148  19875990.33648
  19475415.473 7  -5934544.797 7  -4595652.94148  19475410.50448
  22830365.816 4  -3303183.648 4  -2566445.16046  22830361.82046
  22720946.395 5  -1924368.285 5  -1477669.52346  22720940.23846
  19788602.613 7  -3548616.031 7  -2755491.55548  19788602.77748
  21020942.785 6 -10317414.074 6  -7960191.98847  21020942.21547
  23108579.56611   -118262.71911                
  20651645.809 7  -4246817.102 7  -3297173.09448  20651642.12148
  22168052.191 6   -372400.738 6   -289026.61347  22168051.89547
 18  5 30  0 42 14.9960000  0 10G03G14G16G22G23G26G27G29G31G32       0.000336308
  22803794.465 1  -2251366.313 1                
  19874530.137 7  -2810098.047 7  -2177171.20348  19874527.00048
  19471891.957 7  -5953062.230 7  -4610082.12148  19471887.19948
  22828375.699 4  -3313641.145 4  -2574593.83246  22828371.71946
  22714541.824 5  -1958024.887 5  -1503895.42646  22714535.52346
  19786462.809 7  -3559861.738 7  -2764254.44548  19786462.74648
  21014435.770 6 -10351611.098 6  -7986839.00847  21014434.76647
  23108036.71511                                
  20648966.457 7  -4260895.871 7  -3308143.56648  20648963.29748
  22167951.754 6   -372927.621 6   -289437.20747  22167951.68847
 18  5 30  0 42 19.9960000  0 10G03G14G16G22G23G26G27G29G31G32       0.000325245
  22801301.293 1  -2264478.859 1                
  19873068.848 7  -2817775.703 7  -2183153.79748  19873065.26648
  19468370.473 7  -5971569.586 7  -4624503.45348  19468365.28148
  22826386.324 4  -3324094.277 4  -2582739.14846  22826382.40646
  22708137.770 5  -1991677.105 5  -1530117.91046  22708131.74246
  19784323.832 7  -3571102.309 7  -2773013.32848  19784323.21148
  21007928.871 6 -10385801.793 6  -8013481.09847  21007928.27047
  23107497.00411   -123930.28511                
  20646288.098 7  -4274971.797 7  -3319111.81648  20646284.25848
  22167853.191 6   -373449.254 6   -289843.68847  22167852.02347
 18  5 30  0 42 24.9960000  0 10G03G14G16G22G23G26G27G29G31G32       0.000314180
  22798806.574 1  -2277582.801 1  -1387355.96555  22798803.59455
  19871610.223 7  -2825441.379 7  -2189127.05948  19871606.86348
  19464850.191 7  -5990067.293 7  -4638917.24248  19464845.47748
  22824397.606 4  -3334543.527 4  -2590881.43846  22824393.89546
  22701734.348 5  -2025325.391 5  -1556337.37546  22701729.00846
  19782185.184 7  -3582338.195 7  -2781768.56348  19782184.52748
  21001424.121 6 -10419986.602 6  -8040118.61347  21001422.79747
  23106959.94111   -126752.61311                
  20643609.926 7  -4289045.371 7  -3330078.24648  20643606.03148
  22167754.238 6   -373966.125 6   -290246.47347  22167753.64147
 18  5 30  0 42 29.9960000  0 10G03G14G16G22G23G26G27G29G31G32       0.000303110
  22796315.371 1  -2290678.059 1  -1397560.09845  22796312.20345
  19870153.621 7  -2833095.090 7  -2195090.98848  19870150.61748
  19461332.004 7  -6008555.383 7  -4653323.54348  19461327.18048
  22822410.285 4  -3344988.969 4  -2599020.73046  22822405.99246
  22695331.645 5  -2058969.809 5  -1582553.78146  22695326.67646
  19780048.191 7  -3593569.434 7  -2790520.17248  19780047.64548
  20994920.184 6 -10454165.594 6  -8066751.58247  20994918.76647
  23106425.61311                                
  20640932.066 7  -4303116.625 7  -3341042.85548  20640928.62148
  22167657.106 6   -374478.270 6   -290645.55547  22167656.39147
 18  5 30  0 42 34.9960000  0 10G03G14G16G22G23G26G27G29G31G32       0.000292049
  22793825.731 1  -2303764.766 1  -1407757.52345  22793822.39545
  19868699.637 7  -2840736.910 7  -2201045.65248  19868695.87548
  19457815.746 7  -6027033.895 7  -4667722.39148  19457810.16048
  22820423.332 5  -3355430.613 5  -2607157.05946  22820418.91446
  22688930.832 5  -2092610.355 5  -1608767.15246  22688925.10946
  19777911.801 7  -3604796.090 7  -2799268.21548  19777911.08248
  20988417.027 6 -10488338.703 6  -8093379.98047  20988416.00847
  23105893.00411   -132374.77311                
  20638255.043 7  -4317185.535 7  -3352005.65648  20638251.62548
  22167560.582 6   -374985.746 6   -291041.02047  22167560.27747
 18  5 30  0 42 39.9960000  0 10G03G14G16G22G23G26G27G29G31G32       0.000280983
  22791336.598 1  -2316842.738 1  -1417948.15645  22791334.48445
  19867247.551 7  -2848366.688 7  -2206990.93448  19867244.23148
  19454301.051 6  -6045502.672 6  -4682113.64548  19454296.30148
  22818437.566 5  -3365868.285 5  -2615290.30546  22818433.23146
  22682530.129 5  -2126246.824 5  -1634977.40646  22682524.75446
  19775776.645 7  -3616018.000 7  -2808012.56648  19775775.27048
  20981916.012 6 -10522505.836 6  -8120003.70747  20981914.15247
  23105361.535 1   -135174.676 1                
  20635577.684 6  -4331251.945 6  -3362966.49248  20635574.77748
  22167464.559 6   -375488.387 6   -291432.71147  22167464.41047
 18  5 30  0 42 44.9960000  0 10G03G14G16G22G23G26G27G29G31G32       0.000269917
  22788849.371 1  -2329911.156 1  -1428131.31645  22788847.80545
  19865798.191 7  -2855983.762 7  -2212926.33248  19865794.34048
  19450788.348 7  -6063961.105 7  -4696496.84848  19450783.70348
  22816451.637 5  -3376301.391 5  -2623420.00046  22816447.72346
  22676129.434 4  -2159878.605 4  -1661183.99246  22676124.53146
  19773642.129 7  -3627234.523 7  -2816752.70748  19773641.05948
  20975415.027 6 -10556666.242 6  -8146622.21147  20975413.26647
  23104829.113 1   -137966.410 1                
  20632902.473 7  -4345315.227 7  -3373924.89548  20632898.98848
  22167369.652 6   -375985.570 6   -291820.16847  22167369.89547
 18  5 30  0 42 49.9960000  0 10G03G14G16G22G23G26G27G29G31G32       0.000258848
  22786364.754 1  -2342971.555 1  -1438308.25045  22786363.07045
  19864350.481 7  -2863589.402 7  -2218852.80148  19864347.21548
  19447278.191 7  -6082410.355 7  -4710872.87548  19447273.42248
  22814466.731 5  -3386731.141 5  -2631547.10946  22814462.68046
  22669730.660 4  -2193506.813 4  -1687387.76546  22669725.78546
  19771507.988 7  -3638446.867 7  -2825489.60248  19771507.57048
  20968915.645 6 -10590821.199 6  -8173236.44547  20968914.52747
  23104299.660 1   -140751.070 1                
  20630226.582 7  -4359376.543 7  -3384881.76648  20630222.94548
  22167276.684 6   -376478.496 6   -292204.28147  22167276.60647
 18  5 30  0 42 54.9960000  0 10G03G14G16G22G23G26G27G29G31G32       0.000247780
  22783880.965 1  -2356023.785 1  -1448478.71145  22783879.30145
  19862905.559 6  -2871183.531 6  -2224770.30948  19862902.20748
  19443768.785 6  -6100850.445 6  -4725241.78148  19443764.24648
  22812483.129 5  -3397157.559 5  -2639671.56346  22812478.40646
  22663331.129 4  -2227131.523 4  -1713588.82446  22663327.62946
  19769375.145 7  -3649655.039 7  -2834223.23448  19769374.44148
  20962417.168 6 -10624970.652 6  -8199846.40247  20962415.67247
  23103769.77011   -143528.80111                
  20627550.981 7  -4373435.914 7  -3395837.12548  20627547.76648
  22167182.918 6   -376967.215 6   -292585.12947  22167183.43047
 18  5 30  0 42 59.9960000  0 10G03G14G16G22G23G26G27G29G31G32       0.000236704
  22781398.184 1  -2369067.305 1  -1458642.66445  22781397.84845
  19861462.707 6  -2878765.699 6  -2230678.50048  19861459.10948
  19440261.488 7  -6119280.910 7  -4739603.18848  19440256.60248
  22810499.606 5  -3407580.066 5  -2647793.01646  22810495.14146
  22656933.215 4  -2260752.152 4  -1739786.71946  22656929.71946
  19767243.746 7  -3660858.547 7  -2842953.23448  19767242.51648
  20955919.465 6 -10659114.090 6  -8226451.67247  20955918.33247
  23103241.31611   -146299.05111                
  20624875.809 7  -4387492.844 7  -3406790.57848  20624873.01648
  22167090.941 6   -377451.195 6   -292962.27347  22167091.26247
 18  5 30  0 43  4.9960000  0 10G03G14G16G22G23G26G27G29G31G32       0.000225634
  22778917.918 1  -2382102.078 1  -1468799.53145  22778917.95745
  19860022.176 6  -2886335.926 6  -2236577.37548  19860018.63348
  19436755.613 6  -6137701.699 6  -4753957.05148  19436751.10648
  22808517.004 4  -3417998.785 4  -2655911.47346  22808512.33646
  22650536.613 4  -2294368.789 4  -1765981.49246  22650532.78146
  19765112.059 7  -3672057.406 7  -2851679.61748  19765111.91448
  20949423.410 6 -10693251.477 6  -8253052.22747  20949422.01647
  23102713.87911                                
  20622201.441 7  -4401547.301 7  -3417742.10548  20622198.32448
  22167000.191 6   -377930.426 6   -293335.71947  22167000.41447
 18  5 30  0 43  9.9960000  0 10G03G14G16G22G23G26G27G29G31G32       0.000214567
  22776439.512 1  -2395128.184 1  -1478949.82045  22776439.92645
  19858583.551 7  -2893894.148 7  -2242466.90248  19858580.21548
  19433252.293 6  -6156112.809 6  -4768303.35948  19433247.53948
  22806535.316 4  -3428413.582 4  -2664026.90646  22806530.45746
  22644140.434 4  -2327981.281 4  -1792173.05946  22644136.42646
  19762982.035 7  -3683251.523 7  -2860402.31348  19762981.82848
  20942928.379 6 -10727382.727 6  -8279648.00447  20942927.29747
  23102189.69111   -151817.13311                
  20619527.363 7  -4415599.227 7  -3428691.65248  20619524.44948
  22166910.145 6   -378404.914 6   -293705.47347  22166910.56347
 18  5 30  0 43 14.9960000  0 10G03G14G16G22G23G26G27G29G31G32       0.000203489
  22773962.348 1  -2408145.359 1  -1489093.09445  22773962.82445
  19857147.613 6  -2901440.094 6  -2248346.86748  19857144.46548
  19429750.895 6  -6174513.938 6  -4782641.91048  19429745.92648
  22804553.723 5  -3438824.254 5  -2672139.11346  22804549.27746
  22637744.824 4  -2361589.336 4  -1818361.16446  22637741.29746
  19760852.629 7  -3694440.703 7  -2869121.16048  19760852.64148
  20936434.801 6 -10761507.594 6  -8306238.80947  20936433.57047
  23101665.27711   -154564.68811                
  20616854.121 7  -4429648.336 7  -3439639.01648  20616851.21948
  22166820.535 6   -378874.367 6   -294071.30947  22166821.15647
 18  5 30  0 43 19.9960000  0  9G03G14G16G22G23G26G27G31G32          0.000192415
  22771487.777 1  -2421154.574 1  -1499230.26245  22771487.76645
  19855713.441 6  -2908974.844 6  -2254218.09848  19855710.92648
  19426251.129 6  -6192906.211 6  -4796973.54348  19426245.82048
  22802573.356 5  -3449231.918 5  -2680248.98046  22802569.03146
  22631349.973 4  -2395193.988 4  -1844546.60946  22631346.62946
  19758724.402 7  -3705625.996 7  -2877836.97748  19758723.95348
  20929941.645 6 -10795627.152 6  -8332825.47348  20929941.31648
  20614180.770 7  -4443695.711 7  -3450585.02048  20614178.04748
  22166732.074 6   -379339.859 6   -294434.05147  22166732.71947
 18  5 30  0 43 24.9960000  0  8G14G16G22G23G26G27G31G32             0.000181343
  19854282.723 6  -2916496.969 6  -2260079.50048  19854279.48848
  19422752.895 7  -6211288.160 7  -4811297.13348  19422748.15648
  22800594.270 5  -3459635.082 5  -2688355.35546  22800589.35646
  22624955.590 4  -2428793.852 4  -1870728.32846  22624952.59046
  19756596.621 7  -3716806.004 7  -2886548.66448  19756596.53148
  20923450.410 6 -10829739.918 6  -8359406.84447  20923449.07447
  20611508.441 7  -4457739.938 7  -3461528.57048  20611505.74248
  22166644.277 6   -379800.016 6   -294792.62147  22166644.88347
 18  5 30  0 43 29.9960000  0  8G14G16G22G23G26G27G31G32             0.000170267
  19852852.824 6  -2924007.781 6  -2265932.09048  19852849.99648
  19419256.668 7  -6229661.172 7  -4825613.75848  19419251.98848
  22798615.316 5  -3470035.133 5  -2696459.26246  22798610.59046
  22618562.738 4  -2462390.332 4  -1896907.41446  22618559.48446
  19754470.129 7  -3727982.078 7  -2895257.29748  19754469.97348
  20916960.285 6 -10863847.227 6  -8385983.96547  20916958.82447
  20608835.676 7  -4471782.355 7  -3472470.71948  20608833.59848
  22166557.402 6   -380256.191 6   -295148.10547  22166558.14847
 18  5 30  0 43 34.9960000  0  8G14G16G22G23G26G27G31G32             0.000159191
  19851426.074 6  -2931507.102 6  -2271775.71948  19851422.60648
  19415762.082 6  -6248024.977 6  -4839923.22748  19415757.40248
  22796636.691 5  -3480431.801 5  -2704560.59446  22796632.10246
  22612169.340 4  -2495983.047 4  -1923083.60546  22612167.21146
  19752344.363 7  -3739153.922 7  -2903962.63348  19752343.75848
  20910470.543 6 -10897948.883 6  -8412556.69547  20910469.71947
  20606164.152 7  -4485822.703 7  -3483411.25048  20606161.91848
  22166471.527 6   -380708.109 6   -295500.25447  22166472.20747
 18  5 30  0 43 39.9960000  0  8G14G16G22G23G26G27G31G32             0.000148115
  19850001.676 6  -2938993.727 6  -2277609.44948  19849998.50048
  19412269.707 6  -6266378.434 6  -4854224.62148  19412265.30148
  22794658.637 5  -3490823.930 5  -2712658.33646  22794654.55946
  22605777.418 4  -2529570.875 4  -1949255.93446  22605775.41046
  19750219.215 7  -3750320.457 7  -2912663.83248  19750219.07448
  20903982.895 6 -10932043.594 6  -8439124.00448  20903981.60948
  20603492.520 7  -4499859.742 7  -3494349.21148  20603490.88748
  22166386.395 6   -381154.637 6   -295848.21947  22166387.48447
 18  5 30  0 43 44.9960000  0  8G14G16G22G23G26G27G31G32             0.000137035
  19848579.293 7  -2946468.840 7  -2283434.22748  19848576.10948
  19408779.012 6  -6284722.711 6  -4868518.85948  19408774.43448
  22792681.856 5  -3501212.742 5  -2720753.52746  22792677.96946
  22599387.629 4  -2563154.895 4  -1975425.32446  22599384.47746
  19748095.043 7  -3761482.793 7  -2921361.75848  19748095.03548
  20897496.184 6 -10966132.582 6  -8465686.84047  20897494.87547
  20600821.996 6  -4513894.715 6  -3505285.56348  20600819.86748
  22166302.129 6   -381596.977 6   -296192.90647  22166303.05147
 18  5 30  0 43 49.9960000  0  8G14G16G22G23G26G27G31G32             0.000125957
  19847158.402 7  -2953932.789 7  -2289250.29348  19847155.60948
  19405289.660 6  -6303058.188 6  -4882806.25448  19405285.59848
  22790704.699 5  -3511598.617 5  -2728846.42646  22790701.56346
  22592997.504 3  -2596735.473 3  -2001591.97346  22592994.30946
  19745971.582 7  -3772641.305 7  -2930056.71548  19745971.53948
  20891009.746 6 -11000216.172 6  -8492245.48447  20891008.98847
  20598151.590 7  -4527927.949 7  -3516220.55148  20598149.09448
  22166218.231 6   -382035.414 6   -296534.56647  22166219.93047
 18  5 30  0 43 54.9960000  0  8G14G16G22G23G26G27G31G32             0.000114878
  19845740.496 6  -2961385.176 6  -2295057.35248  19845737.45748
  19401802.285 6  -6321384.406 6  -4897086.41848  19401798.64548
  22788728.863 4  -3521981.078 4  -2736936.63346  22788725.68046
  22586606.684 3  -2630312.250 3  -2027755.71946  22586604.11746
  19743848.809 7  -3783795.586 7  -2938748.36748  19743849.15248
  20884525.160 6 -11034293.910 6  -8518799.56348  20884524.98148
  20595481.637 7  -4541958.996 7  -3527153.82448  20595479.27348
  22166136.129 6   -382469.559 6   -296872.89147  22166137.32447
 18  5 30  0 43 59.9960000  0  8G14G16G22G23G26G27G31G32             0.000103796
  19844324.715 6  -2968825.309 6  -2300854.86748  19844321.76648
  19398316.402 6  -6339700.703 6  -4911358.85248  19398312.58648
  22786754.316 5  -3532359.516 5  -2745023.75046  22786751.47746
  22580218.918 3  -2663884.520 3  -2053915.92246  22580215.87546
  19741727.582 7  -3794945.012 7  -2947436.23048  19741727.76248
  20878041.949 6 -11068365.133 6  -8545348.57448  20878041.05148
  20592812.316 7  -4555987.207 7  -3538084.89148  20592809.40248
  22166054.684 6   -382898.797 6   -297207.37947  22166055.81647
 18  5 30  0 44  4.9960000  0  8G14G16G22G23G26G27G31G32             0.000092714
  19842911.356 7  -2976253.320 7  -2306642.92248  19842908.48848
  19394833.246 7  -6358007.145 7  -4925623.62148  19394829.37948
  22784779.574 4  -3542733.941 4  -2753107.68446  22784776.60646
  22573831.504 3  -2697452.262 3  -2080072.63346  22573828.21546
  19739606.816 7  -3806089.570 7  -2956120.29348  19739607.10648
  20871559.645 6 -11102429.871 6  -8571892.52748  20871559.11348
  20590143.441 7  -4570012.605 7  -3549013.78548  20590140.68048
  22165973.832 6   -383323.180 6   -297538.07447  22165975.01647
 18  5 30  0 44  9.9960000  0  8G14G16G22G23G26G27G31G32             0.000081633
  19841499.918 6  -2983669.703 6  -2312421.93048  19841497.54748
  19391351.512 6  -6376304.281 6  -4939881.12948  19391347.52048
  22782806.699 4  -3553104.938 4  -2761189.03546  22782803.22346
  22567445.356 3  -2731016.098 3  -2106226.28146  22567441.00046
  19737486.574 7  -3817229.844 7  -2964801.03148  19737487.47348
  20865078.488 6 -11136488.629 6  -8598431.81648  20865078.35648
  20587474.543 7  -4584035.766 7  -3559940.91848  20587471.35648
  22165893.395 6   -383743.246 6   -297865.43047  22165896.00047
 18  5 30  0 44 14.9960000  0  8G14G16G22G23G26G27G31G32             0.000070549
  19840090.551 6  -2991074.180 6  -2318191.64548  19840088.52348
  19387871.301 7  -6394591.848 7  -4954131.16848  19387867.15648
  22780833.762 4  -3563472.289 4  -2769267.44946  22780830.76246
  22561059.027 4  -2764575.645 4  -2132376.59846  22561054.87546
  19735367.621 7  -3828365.574 7  -2973478.22348  19735367.91048
  20858598.316 6 -11170541.156 6  -8624966.26647  20858597.55547
  20584806.621 7  -4598056.375 7  -3570866.06648  20584803.76648
  22165814.731 6   -384158.715 6   -298189.19147  22165816.80547
 18  5 30  0 44 19.9960000  0  8G14G16G22G23G26G27G31G32             0.000059465
  19838683.895 7  -2998466.918 7  -2323952.22748  19838681.37548
  19384392.770 6  -6412870.000 6  -4968373.87548  19384388.91448
  22778861.754 4  -3573836.043 4  -2777343.12546  22778858.99246
  22554673.856 4  -2798131.152 4  -2158523.72746  22554669.31646
  19733249.684 7  -3839496.906 7  -2982151.99648  19733250.02048
  20852119.668 6 -11204587.574 6  -8651495.93448  20852118.94548
  20582138.660 7  -4612074.578 7  -3581789.34048  20582135.76648
  22165736.332 6   -384569.777 6   -298509.50847  22165738.39147
 18  5 30  0 44 24.9960000  0  8G14G16G22G23G26G27G31G32             0.000048380
  19837279.824 7  -3005847.520 7  -2329703.34048  19837277.02348
  19380916.809 6  -6431138.285 6  -4982608.91048  19380912.49648
  22776890.832 4  -3584195.879 4  -2785415.73046  22776887.11746
  22548288.691 4  -2831682.016 4  -2184667.30146  22548284.32046
  19731132.473 7  -3850623.398 7  -2990821.99248  19731132.49648
  20845642.145 6 -11238627.387 6  -8678020.46948  20845641.77348
  20579472.129 7  -4626089.934 7  -3592710.38748  20579468.89548
  22165659.059 6   -384975.977 6   -298826.03147  22165660.85247
 18  5 30  0 44 29.9960000  0  8G14G16G22G23G26G27G31G32             0.000037294
  19835877.856 6  -3013215.930 6  -2335444.96148  19835874.57448
  19377441.981 6  -6449396.727 6  -4996836.27048  19377438.14848
  22774919.699 4  -3594551.727 4  -2793485.23846  22774916.68046
  22541905.543 4  -2865228.258 4  -2210807.20745  22541900.94945
  19729015.981 7  -3861745.074 7  -2999488.23048  19729016.25048
  20839165.738 6 -11272660.617 6  -8704539.87148  20839164.68048
  20576805.606 7  -4640102.453 7  -3603629.23048  20576802.77048
  22165582.645 6   -385377.309 6   -299138.77747  22165584.17647
 18  5 30  0 44 34.9960000  0  8G14G16G22G23G26G27G31G32             0.000026209
  19834477.270 6  -3020573.512 6  -2341178.14848  19834474.82448
  19373969.395 6  -6467646.656 6  -5011057.00048  19373965.64848
  22772949.613 4  -3604904.984 4  -2801552.69546  22772946.08246
  22535522.723 4  -2898771.301 4  -2236944.66046  22535518.05946
  19726900.285 7  -3872863.273 7  -3008151.77348  19726900.43448
  20832690.387 6 -11306688.563 6  -8731055.15248  20832689.70348
  20574139.504 7  -4654113.434 7  -3614546.88748  20574136.23148
  22165506.824 6   -385775.160 6   -299448.82047  22165508.44547
 18  5 30  0 44 39.9960000  0  8G14G16G22G23G26G27G31G32             0.000015121
  19833079.707 6  -3027919.191 6  -2346902.05948  19833076.98148
  19370498.184 6  -6485886.965 6  -5025270.22748  19370494.24248
  22770980.481 5  -3615254.602 5  -2809617.35546  22770976.47746
  22529140.106 4  -2932309.848 4  -2263078.58645  22529135.41045
  19724785.738 7  -3883976.875 7  -3016811.72748  19724785.52348
  20826216.473 6 -11340710.125 6  -8757565.44948  20826215.39848
  20571473.816 7  -4668121.793 7  -3625462.48848  20571470.50048
  22165432.168 6   -386168.391 6   -299755.24247  22165434.13347
 18  5 30  0 44 44.9960000  0  8G14G16G22G23G26G27G31G32             0.000004032
  19831684.387 6  -3035252.234 6  -2352616.12148  19831681.19148
  19367029.801 6  -6504116.934 6  -5039475.39848  19367025.05548
  22769011.840 4  -3625599.855 4  -2817678.57446  22769008.33646
  22522759.035 4  -2965843.344 4  -2289208.61345  22522754.07045
  19722671.941 7  -3895085.246 7  -3025467.60248  19722671.91448
  20819743.027 6 -11374724.578 6  -8784070.22748  20819743.35248
  20568808.707 7  -4682126.805 7  -3636375.48448  20568805.70748
  22165358.801 6   -386556.355 6   -300057.57447  22165359.74247
 18  5 30  0 44 49.9960000  0  8G14G16G22G23G26G27G31G32            -0.000007055
  19830290.715 6  -3042573.711 6  -2358321.16848  19830288.03548
  19363562.449 7  -6522337.664 7  -5053673.37148  19363558.00848
  22767043.738 5  -3635941.750 5  -2825737.20746  22767040.46946
  22516378.816 4  -2999372.773 4  -2315335.39545  22516373.80945
  19720558.684 7  -3906189.363 7  -3034120.17248  19720558.82448
  20813271.496 6 -11408732.918 6  -8810570.23048  20813271.41048
  20566144.012 7  -4696129.473 7  -3647286.67248  20566140.69948
  22165285.262 6   -386940.086 6   -300356.60547  22165286.18847
 18  5 30  0 44 54.9960000  0  8G14G16G22G23G26G27G31G32            -0.000018145
  19828899.496 6  -3049883.695 6  -2364017.25848  19828897.18048
  19360096.809 7  -6540549.242 7  -5067864.20348  19360092.68448
  22765076.879 5  -3646280.359 5  -2833793.26646  22765072.85946
  22509999.395 4  -3032898.246 4  -2341459.15246  22509994.20346
  19718446.590 7  -3917289.359 7  -3042769.52048  19718446.41048
  20806801.871 6 -11442735.277 6  -8837065.58247  20806800.84847
  20563480.090 7  -4710129.895 7  -3658196.10548  20563477.16448
  22165212.973 6   -387319.668 6   -300652.41847  22165214.10647
 18  5 30  0 44 59.9960000  0  8G14G16G22G23G26G27G31G32            -0.000029236
  19827511.152 6  -3057181.305 6  -2369703.69948  19827508.27048
  19356632.918 7  -6558750.762 7  -5082047.20748  19356628.82448
  22763109.629 5  -3656614.852 5  -2841846.12146  22763105.97346
  22503620.402 4  -3066418.750 4  -2367579.02046  22503615.39546
  19716335.246 7  -3928384.324 7  -3051414.94548  19716334.80948
  20800332.145 6 -11476730.688 6  -8863555.50448  20800331.84448
  20560816.152 7  -4724127.219 7  -3669103.10948  20560813.09448
  22165141.941 6   -387694.191 6   -300944.26647  22165142.39147
 18  5 30  0 45  4.9960000  0  8G14G16G22G23G26G27G31G32            -0.000040327
  19826124.270 6  -3064467.141 6  -2375380.98448  19826121.98848
  19353171.285 7  -6576942.863 7  -5096222.85948  19353167.10948
  22761143.824 4  -3666945.832 4  -2849896.25446  22761140.19546
  22497242.199 4  -3099934.988 4  -2393695.53546  22497237.23146
  19714224.535 7  -3939474.918 7  -3060056.97748  19714224.53148
  20793864.020 6 -11510719.801 6  -8890040.52748  20793864.05548
  20558153.590 7  -4738122.027 7  -3680008.15248  20558149.75448
  22165071.340 6   -388064.336 6   -301232.72347  22165071.80947
 18  5 30  0 45  9.9960000  0  8G14G16G22G23G26G27G31G32            -0.000051418
  19824740.410 6  -3071741.445 6  -2381049.27048  19824737.76648
  19349710.824 6  -6595125.684 6  -5110391.30948  19349707.47348
  22759179.785 5  -3677273.527 5  -2857943.81346  22759174.55546
  22490865.184 4  -3133447.051 4  -2419808.85246  22490860.22746
  19712115.129 7  -3950561.281 7  -3068695.71148  19712115.19948
  20787397.441 6 -11544702.770 6  -8916520.75848  20787397.27348
  20555490.566 7  -4752114.465 7  -3690911.34848  20555487.19948
  22165002.340 6   -388430.301 6   -301517.89847  22165002.06647
 18  5 30  0 45 14.9960000  0  8G14G16G22G23G26G27G31G32            -0.000062511
  19823358.668 6  -3079003.582 6  -2386708.08248  19823355.93448
  19346252.965 7  -6613298.672 7  -5124552.06648  19346248.82848
  22757214.731 5  -3687597.379 5  -2865988.36346  22757210.01246
  22484488.809 4  -3166954.441 4  -2445918.50046  22484484.20746
  19710006.363 7  -3961642.883 7  -3077330.72748  19710006.06648
  20780932.371 6 -11578678.953 6  -8942995.69948  20780931.48448
  20552828.215 7  -4766103.961 7  -3701812.25848  20552825.35648
  22164933.465 6   -388791.445 6   -301799.34447  22164932.88347
 18  5 30  0 45 19.9960000  0  8G14G16G22G23G26G27G31G32            -0.000073605
  19821978.113 6  -3086253.871 6  -2392357.66448  19821976.05948
  19342796.488 7  -6631462.176 7  -5138705.44948  19342792.42248
  22755251.254 5  -3697917.656 5  -2874030.13746  22755246.03146
  22478113.770 4  -3200457.355 4  -2472024.68046  22478109.10646
  19707898.137 7  -3972719.996 7  -3085962.25448  19707898.15648
  20774468.020 6 -11612648.695 6  -8969465.62948  20774466.94148
  20550166.691 7  -4780090.855 7  -3712711.13748  20550163.36748
  22164865.801 6   -389148.141 6   -302077.31347  22164865.68447
 18  5 30  0 45 24.9960000  0  8G14G16G22G23G26G27G31G32            -0.000084700
  19820601.020 6  -3093491.945 6  -2397997.71948  19820598.74648
  19339342.113 7  -6649615.773 7  -5152851.10948  19339337.70348
  22753288.160 5  -3708233.918 5  -2882068.80146  22753282.75046
  22471739.207 4  -3233955.398 4  -2498127.01646  22471734.27346
  19705791.582 7  -3983792.254 7  -3094589.98048  19705791.00448
  20768005.535 6 -11646611.535 6  -8995930.18048  20768004.55948
  20547505.535 7  -4794074.707 7  -3723607.65248  20547502.14548
  22164798.590 6   -389499.996 6   -302351.52047  22164798.34447
 18  5 30  0 45 29.9960000  0  8G14G16G22G23G26G27G31G32            -0.000095795
  19819226.418 6  -3100718.102 6  -2403628.50848  19819223.45348
  19335889.004 6  -6667759.824 6  -5166989.33648  19335885.09448
  22751324.684 5  -3718546.641 5  -2890104.66446  22751320.48446
  22465364.746 4  -3267448.902 4  -2524225.83246  22465360.63346
  19703685.270 7  -3994860.020 7  -3103214.22348  19703684.84048
  20761543.863 6 -11680567.852 6  -9022389.63748  20761542.55148
  20544845.012 7  -4808055.914 7  -3734502.10248  20544841.71148
  22164733.004 6   -389847.359 6   -302622.21147  22164732.42247
 18  5 30  0 45 34.9960000  0  8G14G16G22G23G26G27G31G32            -0.000106890
  19817853.293 6  -3107932.930 6  -2409250.44948  19817850.73848
  19332437.856 6  -6685894.867 6  -5181120.53148  19332433.62948
  22749363.184 5  -3728856.285 5  -2898138.15646  22749358.89146
  22458992.785 5  -3300938.359 5  -2550321.51646  22458988.47346
  19701579.981 7  -4005923.801 7  -3111835.35548  19701579.77048
  20755083.434 6 -11714518.090 6  -9048844.37148  20755081.72748
  20542185.316 7  -4822034.902 7  -3745394.82848  20542181.83648
  22164667.137 6   -390190.711 6   -302889.78547  22164666.45347
 18  5 30  0 45 39.9960000  0  8G14G16G22G23G26G27G31G32            -0.000117987
  19816482.738 6  -3115136.012 6  -2414863.25048  19816480.23448
  19328988.520 6  -6704020.453 6  -5195244.37148  19328984.97748
  22747402.246 5  -3739162.500 5  -2906168.97746  22747397.98446
  22452620.332 4  -3334423.438 4  -2576413.75846  22452616.39146
  19699475.473 7  -4016983.211 7  -3120453.07848  19699475.02348
  20748623.379 6 -11748461.840 6  -9075294.05148  20748623.05948
  20539525.449 7  -4836011.285 7  -3756285.52348  20539522.05548
  22164602.707 6   -390529.703 6   -303153.96547  22164601.77747
 18  5 30  0 45 44.9960000  0  8G14G16G22G23G26G27G31G32            -0.000129084
  19815114.262 7  -3122327.539 7  -2420467.03948  19815112.09448
  19325541.004 6  -6722136.785 6  -5209360.99248  19325537.20348
  22745441.590 5  -3749465.477 5  -2914197.27746  22745437.02746
  22446248.512 4  -3367904.176 4  -2602502.64546  22446245.62946
  19697371.809 7  -4028038.410 7  -3129067.52348  19697370.92648
  20742166.043 7 -11782399.316 7  -9101738.83248  20742165.05548
  20536866.035 7  -4849985.219 7  -3767174.30948  20536863.01248
  22164539.035 6   -390864.508 6   -303414.87547  22164537.98147
 18  5 30  0 45 49.9960000  0  8G14G16G22G23G26G27G31G32            -0.000140182
  19813748.066 7  -3129507.656 7  -2426061.94548  19813745.88748
  19322095.457 6  -6740244.000 6  -5223470.51648  19322091.42248
  22743482.441 5  -3759765.250 5  -2922223.07046  22743477.74246
  22439878.457 4  -3401380.809 4  -2628588.30146  22439874.96946
  19695268.691 7  -4039089.559 7  -3137678.80948  19695268.09848
  20735709.129 6 -11816330.625 6  -9128178.80948  20735707.66848
  20534207.527 7  -4863956.895 7  -3778061.32448  20534204.66048
  22164476.754 6   -391195.305 6   -303672.64847  22164475.24247
 18  5 30  0 45 54.9960000  0  8G14G16G22G23G26G27G31G32            -0.000151281
  19812384.168 7  -3136675.988 7  -2431647.66048  19812381.25048
  19318651.668 6  -6758341.766 6  -5237572.66848  19318647.93848
  22741522.027 5  -3770061.574 5  -2930246.17646  22741517.99246
  22433508.871 4  -3434852.965 4  -2654670.49646  22433505.64846
  19693166.496 7  -4050136.289 7  -3146286.65648  19693166.00848
  20729253.152 6 -11850255.344 6  -9154613.66048  20729252.01248
  20531549.410 7  -4877925.914 7  -3788946.27748  20531545.95348
  22164414.168 6   -391521.719 6   -303927.00847  22164413.04747
 18  5 30  0 45 59.9960000  0  8G14G16G22G23G26G27G31G32            -0.000162382
  19811021.691 7  -3143832.680 7  -2437224.31348  19811019.71948
  19315209.402 6  -6776430.254 6  -5251667.60248  19315206.02748
  22739564.152 5  -3780354.598 5  -2938266.73046  22739559.95346
  22427140.020 4  -3468320.789 4  -2680749.28946  22427136.93446
  19691065.106 7  -4061178.867 7  -3154891.26648  19691064.46548
  20722798.348 6 -11884173.703 6  -9181043.53948  20722797.12148
  20528891.527 7  -4891892.480 7  -3799829.31348  20528888.17648
  22164352.981 6   -391843.938 6   -304178.11347  22164352.24647
 18  5 30  0 46  4.9960000  0  8G14G16G22G23G26G27G31G32            -0.000173483
  19809662.582 6  -3150977.648 6  -2442791.83248  19809660.51648
  19311769.223 6  -6794509.277 6  -5265755.15248  19311765.25048
  22737605.059 5  -3790644.199 5  -2946284.58646  22737601.87546
  22420771.996 4  -3501784.027 4  -2706824.53946  22420769.10946
  19688964.973 7  -4072217.035 7  -3163492.43448  19688964.48148
  20716345.457 6 -11918085.496 6  -9207468.30148  20716343.56348
  20526234.293 7  -4905856.387 7  -3810710.27748  20526231.33248
  22164292.254 6   -392161.824 6   -304425.84447  22164291.39547
 18  5 30  0 46  9.9960000  0  9G03G14G16G22G23G26G27G31G32         -0.000184586
  22688278.94112    -24499.36312                
  19808305.246 7  -3158110.844 7  -2448350.18048  19808302.47348
  19308330.973 7  -6812578.895 7  -5279835.37548  19308326.85248
  22735648.551 5  -3800930.371 5  -2954299.80946  22735644.44946
  22414405.012 5  -3535242.773 5  -2732896.30546  22414402.12946
  19686865.121 7  -4083250.844 7  -3172090.21148  19686864.80548
  20709894.098 6 -11951990.711 6  -9233887.95348  20709892.32848
  20523577.660 7  -4919817.621 7  -3821589.18048  20523574.37548
  22164232.934 6   -392475.344 6   -304670.16447  22164232.41447
 18  5 30  0 46 14.9960000  0  9G03G14G16G22G23G26G27G31G32         -0.000195686
  22685858.809 1    -37213.484 1                
  19806950.340 7  -3165231.910 7  -2453899.06648  19806947.44548
  19304894.145 6  -6830638.715 6  -5293907.96548  19304890.18048
  22733692.051 5  -3811212.707 5  -2962312.02346  22733688.37546
  22408039.059 4  -3568696.574 4  -2758964.21146  22408036.48146
  19684765.871 7  -4094279.902 7  -3180684.28548  19684765.46148
  20703443.191 6 -11985888.883 6  -9260302.10548  20703441.64848
  20520921.262 6  -4933775.801 6  -3832465.69148  20520918.32048
  22164174.340 6   -392784.184 6   -304910.85947  22164173.63747
 18  5 30  0 46 19.9960000  0  9G03G14G16G22G23G26G27G31G32         -0.000206791
  22683439.238 1    -49920.320 1                
  19805597.231 7  -3172342.281 7  -2459439.62548  19805594.40648
  19301458.910 6  -6848690.137 6  -5307974.01248  19301454.83648
  22731736.285 5  -3821492.676 5  -2970322.40546  22731732.03546
  22401673.863 4  -3602146.875 4  -2785029.38746  22401670.37946
  19682668.027 7  -4105305.637 7  -3189275.77348  19682667.41448
  20696993.582 6 -12019781.484 6  -9286711.92248  20696991.41048
  20518265.809 6  -4947732.387 6  -3843340.96948  20518262.46148
  22164115.535 6   -393089.734 6   -305148.96947  22164116.25847
 18  5 30  0 46 24.9960000  0  9G03G14G16G22G23G26G27G31G32         -0.000217896
  22681022.582 1    -62618.387 1                
  19804246.387 7  -3179440.387 7  -2464970.62548  19804243.69948
  19298025.879 6  -6866731.645 6  -5322032.33248  19298021.84048
  22729779.879 5  -3831768.688 5  -2978329.71146  22729776.47746
  22395309.512 4  -3635592.012 4  -2811090.53946  22395306.48146
  19680570.684 7  -4116326.516 7  -3197863.47748  19680570.11348
  20690544.793 6 -12053666.953 6  -9313116.18448  20690543.59048
  20515610.449 6  -4961685.766 6  -3854213.73048  20515607.44548
  22164058.231 6   -393390.438 6   -305383.31647  22164058.86347
 18  5 30  0 46 29.9960000  0  9G03G14G16G22G23G26G27G31G32         -0.000229002
  22678608.981 1    -75308.223 1                
  19802898.098 7  -3186526.785 7  -2470492.50848  19802894.97348
  19294594.566 7  -6884763.742 7  -5336083.31648  19294590.39848
  22727825.613 5  -3842041.285 5  -2986334.30146  22727821.72746
  22388945.996 4  -3669032.563 4  -2837148.10946  22388942.97346
  19678474.356 7  -4127343.066 7  -3206447.81348  19678473.92248
  20684098.441 6 -12087545.758 6  -9339515.24648  20684096.74648
  20512955.981 6  -4975636.445 6  -3865084.39148  20512952.85948
  22164002.426 6   -393686.875 6   -305614.32047  22164002.91847
 18  5 30  0 46 34.9960000  0  9G03G14G16G22G23G26G27G31G32         -0.000240107
  22676194.691 1    -87989.781 1                
  19801551.723 6  -3193601.488 6  -2476005.25848  19801548.59048
  19291165.223 6  -6902786.523 6  -5350127.04748  19291160.59448
  22725871.410 5  -3852310.488 5  -2994336.29346  22725867.61746
  22382582.481 4  -3702468.563 4  -2863202.12946  22382580.38346
  19676378.746 7  -4138355.348 7  -3215028.80148  19676377.71148
  20677653.090 6 -12121417.969 6  -9365909.16848  20677651.47348
  20510301.254 7  -4989584.516 7  -3875953.00848  20510298.39148
  22163946.231 6   -393979.063 6   -305842.01247  22163947.20747
 18  5 30  0 46 39.9960000  0  9G03G14G16G22G23G26G27G31G32         -0.000251213
  22673782.848 1   -100662.488 1                
  19800207.902 6  -3200663.855 6  -2481508.40248  19800204.34448
  19287737.293 6  -6920799.309 6  -5364162.98048  19287733.25848
  22723918.254 5  -3862575.793 5  -3002335.26645  22723913.62545
  22376221.746 4  -3735899.332 4  -2889252.07046  22376218.37146
  19674283.926 7  -4149362.688 7  -3223605.94948  19674283.41048
  20671208.176 7 -12155282.906 7  -9392297.43048  20671207.28148
  20507648.051 7  -5003529.285 7  -3886819.06348  20507644.55948
  22163892.082 6   -394266.398 6   -306065.93047  22163892.38347
 18  5 30  0 46 44.9960000  0  9G03G14G16G22G23G26G27G31G32         -0.000262321
  22671373.496 1   -113327.398 1                
  19798865.762 7  -3207715.043 7  -2487002.85248  19798862.53948
  19284311.637 6  -6938803.242 6  -5378192.02048  19284306.89848
  22721965.176 5  -3872838.297 5  -3010331.99646  22721961.05146
  22369860.566 4  -3769325.973 4  -2915298.78946  22369857.87946
  19672190.559 7  -4160366.234 7  -3232180.14548  19672189.04748
  20664765.606 7 -12189141.648 7  -9418680.85248  20664764.27048
  20504994.777 7  -5017471.906 7  -3897683.44948  20504991.27348
  22163838.051 6   -394549.973 6   -306286.92647  22163838.97347
 18  5 30  0 46 49.9960000  0  9G03G14G16G22G23G26G27G31G32         -0.000273432
  22668964.629 1   -125984.191 1                
  19797526.191 6  -3214754.578 6  -2492488.19948  19797523.11348
  19280887.340 7  -6956797.863 7  -5392213.79348  19280882.85248
  22720012.824 5  -3883097.535 5  -3018326.23445  22720008.49645
  22363500.473 4  -3802748.047 4  -2941341.96946  22363497.72746
  19670097.426 7  -4171365.574 7  -3240751.06348  19670096.49648
  20658323.535 6 -12222993.734 6  -9445059.09448  20658322.73848
  20502342.020 7  -5031411.898 7  -3908545.80147  20502338.33647
  22163783.965 6   -394829.359 6   -306504.66047  22163785.89147
 18  5 30  0 46 54.9960000  0  9G03G14G16G22G23G26G27G31G32         -0.000284540
  22666558.746 1   -138633.523 1                
  19796189.004 6  -3221783.086 6  -2497964.97348  19796185.53548
  19277464.285 7  -6974783.727 7  -5406228.76248  19277460.10648
  22718061.207 5  -3893354.164 5  -3026318.41045  22718056.39845
  22357141.582 5  -3836166.094 5  -2967382.00846  22357138.85246
  19668004.926 7  -4182361.242 7  -3249319.11748  19668004.38748
  20651882.863 6 -12256839.801 6  -9471432.64148  20651881.94548
  20499689.926 7  -5045349.801 7  -3919406.50047  20499685.84847
  22163732.043 6   -395105.121 6   -306719.55547  22163733.64847
 18  5 30  0 46 59.9960000  0  9G03G14G16G22G23G26G27G31G32         -0.000295650
  22664153.238 2   -151274.180 2                
  19794853.449 6  -3228799.555 6  -2503432.35548  19794850.18048
  19274043.918 7  -6992759.871 7  -5420236.14848  19274039.30548
  22716110.590 5  -3903607.074 5  -3034307.71145  22716105.46945
  22350783.145 5  -3869579.063 5  -2993418.10246  22350780.52346
  19665913.356 7  -4193352.293 7  -3257883.59048  19665912.96948
  20645443.668 7 -12290678.734 7  -9497800.64148  20645442.51648
  20497038.027 7  -5059284.633 7  -3930264.80547  20497034.33247
  22163681.020 6   -395376.340 6   -306930.91447  22163682.33647
 18  5 30  0 47  4.9960000  0  9G03G14G16G22G23G26G27G31G32         -0.000306763
  22661748.449 2   -163906.926 2                
  19793520.785 6  -3235804.609 6  -2508890.86748  19793517.66448
  19270624.707 7  -7010726.902 7  -5434236.43848  19270620.66448
  22714159.684 5  -3913856.977 5  -3042294.64845  22714154.82045
  22344426.473 5  -3902987.613 5  -3019450.73446  22344423.14146
  19663822.754 7  -4204339.340 7  -3266444.93448  19663822.39148
  20639005.316 6 -12324511.156 6  -9524163.55948  20639004.71948
  20494386.988 7  -5073216.984 7  -3941121.19547  20494383.07447
  22163629.449 6   -395643.586 6   -307139.18047  22163631.47347
 18  5 30  0 47  9.9960000  0  9G03G14G16G22G23G26G27G31G32         -0.000317875
  22659345.707 2   -176531.746 2                
  19792189.457 6  -3242798.266 6  -2514340.46948  19792186.60248
  19267207.465 7  -7028684.852 7  -5448229.64848  19267203.14148
  22712209.168 5  -3924103.844 5  -3050279.24245  22712204.47745
  22338069.285 5  -3936391.809 5  -3045479.98846  22338066.67246
  19661732.410 7  -4215322.355 7  -3275003.13348  19661732.30148
  20632568.504 6 -12358337.129 6  -9550521.45748  20632567.87148
  20491736.301 7  -5087146.902 7  -3951975.65647  20491731.83647
  22163579.660 6   -395906.855 6   -307344.35247  22163581.44947
 18  5 30  0 47 14.9960000  0  9G03G14G16G22G23G26G27G31G32         -0.000328987
  22656944.941 3   -189148.703 3  -1507153.56655  22656943.84055
  19790860.824 6  -3249780.598 6  -2519781.24248  19790858.18448
  19263791.816 7  -7046633.789 7  -5462215.83248  19263787.90648
  22710260.613 5  -3934347.734 5  -3058261.49645  22710255.36345
  22331714.020 5  -3969791.559 5  -3071505.76246  22331711.28546
  19659643.027 7  -4226301.406 7  -3283558.23048  19659643.29348
  20626132.949 6 -12392156.602 6  -9576874.28548  20626132.42248
  20489086.082 7  -5101074.398 7  -3962828.24247  20489081.77347
  22163530.277 6   -396166.281 6   -307546.50447  22163531.86747
 18  5 30  0 47 19.9960000  0  9G03G14G16G22G23G26G27G31G32         -0.000340101
  22654546.504 3   -201756.871 3  -1516978.13345  22654544.86745
  19789534.816 6  -3256750.633 6  -2525212.44948  19789531.65648
  19260378.145 6  -7064572.793 6  -5476194.28148  19260374.03148
  22708311.293 5  -3944587.773 5  -3066240.79745  22708306.10945
  22325359.113 5  -4003186.000 5  -3097527.41846  22325356.67646
  19657554.848 7  -4237275.613 7  -3292109.57848  19657554.60248
  20619698.535 6 -12425968.688 6  -9603221.36748  20619698.21948
  20486436.465 7  -5114998.551 7  -3973678.25047  20486431.78547
  22163481.879 6   -396420.898 6   -307744.91847  22163483.57047
 18  5 30  0 47 24.9960000  0  9G03G14G16G22G23G26G27G31G32         -0.000351215
  22652148.809 3   -214356.516 3  -1526796.04345  22652147.59845
  19788210.629 6  -3263708.621 6  -2530634.27048  19788208.08648
  19256966.348 7  -7082502.055 7  -5490165.13348  19256962.29348
  22706363.731 5  -3954824.141 5  -3074217.19945  22706358.20345
  22319005.996 5  -4036575.313 5  -3123545.04746  22319002.18046
  19655467.551 7  -4248245.230 7  -3300657.34448  19655467.45748
  20613265.590 6 -12459773.621 6  -9629562.85548  20613265.06348
  20483787.191 7  -5128919.516 7  -3984525.75847  20483782.94547
  22163434.402 6   -396670.988 6   -307939.81347  22163436.26647
 18  5 30  0 47 29.9960000  0  9G03G14G16G22G23G26G27G31G32         -0.000362329
  22649752.402 3   -226948.668 3  -1536608.10545  22649751.23445
  19786889.074 7  -3270655.609 7  -2536047.50448  19786886.26248
  19253556.418 7  -7100422.652 7  -5504129.24248  19253552.17648
  22704415.723 5  -3965057.949 5  -3082191.69545  22704410.50045
  22312653.481 5  -4069960.516 5  -3149559.50046  22312649.81646
  19653380.629 7  -4259211.230 7  -3309202.27348  19653380.73148
  20606833.762 6 -12493572.367 6  -9655899.54348  20606833.78948
  20481138.684 7  -5142838.426 7  -3995371.66847  20481133.91847
  22163386.762 6   -396917.559 6   -308131.97347  22163389.56647
 18  5 30  0 47 34.9960000  0  9G03G14G16G22G23G26G27G31G32         -0.000373447
  22647357.707 3   -239532.418 3  -1546413.59845  22647356.96945
  19785569.168 7  -3277590.688 7  -2541451.46548  19785566.48848
  19250148.137 7  -7118333.656 7  -5518085.86748  19250143.97348
  22702469.613 4  -3975288.277 4  -3090163.33645  22702463.42645
  22306301.668 5  -4103340.684 5  -3175570.04346  22306297.98446
  19651295.090 7  -4270172.750 7  -3317743.70348  19651295.33648
  20600403.387 6 -12527364.012 6  -9682230.69548  20600403.14848
  20478490.676 7  -5156754.320 7  -4006215.22747  20478485.97347
  22163340.965 6   -397159.688 6   -308320.66847  22163343.39547
 18  5 30  0 47 39.9960000  0  9G03G14G16G22G23G26G27G31G32         -0.000384563
  22644964.035 2   -252108.082 2  -1556212.87145  22644964.47745
  19784251.621 7  -3284514.172 7  -2546846.40248  19784248.76648
  19246741.637 7  -7136235.418 7  -5532035.29748  19246736.87948
  22700523.824 4  -3985515.418 4  -3098132.52345  22700517.38345
  22299950.301 5  -4136716.109 5  -3201576.85546  22299946.29746
  19649209.738 7  -4281130.082 7  -3326281.88348  19649210.05548
  20593974.473 6 -12561148.855 6  -9708556.53548  20593974.14548
  20475843.082 6  -5170667.508 6  -4017056.66848  20475838.58248
  22163295.613 6   -397397.746 6   -308506.18447  22163297.89547
 18  5 30  0 47 44.9960000  0  9G03G14G16G22G23G26G27G31G32         -0.000395681
  22642572.262 1   -264675.094 1  -1566005.28145  22642572.92645
  19782936.254 7  -3291425.418 7  -2552231.78948  19782933.78148
  19243336.793 7  -7154127.266 7  -5545977.00448  19243332.46948
  22698578.418 5  -3995738.742 5                
  22293600.027 5  -4170086.137 5  -3227579.46546  22293596.46546
  19647125.590 7  -4292082.629 7  -3334816.34448  19647125.84848
  20587547.184 6 -12594926.258 6  -9734876.58248  20587546.37548
  20473195.652 7  -5184577.371 7  -4027895.53548  20473191.58248
  22163251.824 6   -397631.090 6   -308688.02347  22163253.32047
 18  5 30  0 47 49.9960000  0  9G03G14G16G22G23G26G27G31G32         -0.000406799
  22640180.566 1   -277233.996 1  -1575791.61745  22640182.26245
  19781623.137 6  -3298325.133 6  -2557608.19548  19781620.22748
  19239933.504 7  -7172009.941 7  -5559911.55548  19239929.03148
  22696632.910 4  -4005958.895 4                
  22287251.004 5  -4203451.441 5  -3253578.40247  22287247.17647
  19645041.949 7  -4303031.066 7  -3343347.59448  19645042.81648
  20581120.566 6 -12628696.852 6  -9761191.33248  20581119.77748
  20470549.785 7  -5198484.625 7  -4038732.35548  20470545.11748
  22163207.981 6   -397860.371 6   -308866.69947  22163209.66047
 18  5 30  0 47 54.9960000  0  9G03G14G16G22G23G26G27G31G32         -0.000417917
  22637792.910 1   -289785.082 1  -1585571.51245  22637794.98145
  19780312.106 6  -3305213.422 6  -2562975.69948  19780309.09448
  19236532.652 7  -7189883.473 7  -5573838.98448  19236528.12148
  22694689.082 5  -4016176.059 5                
  22280902.746 5  -4236812.129 5  -3279573.75046  22280899.24246
  19642959.473 7  -4313975.465 7  -3351875.68048  19642959.62148
  20574695.574 6 -12662460.730 6  -9787500.84448  20574695.01648
  20467904.184 7  -5212389.258 7  -4049567.13748  20467899.68448
  22163164.816 6   -398085.750 6   -309042.33647  22163166.63347
 18  5 30  0 47 59.9960000  0  9G03G14G16G22G23G26G27G31G32         -0.000429037
  22635406.160 1   -302328.410 1  -1595345.61745  22635408.06345
  19779003.152 6  -3312090.434 6  -2568334.39848  19779000.32848
  19233132.926 7  -7207748.027 7  -5587759.41448  19233128.59048
  22692745.051 4  -4026390.324 4                
  22274556.184 5  -4270168.297 5  -3305565.56346  22274551.26646
  19640877.512 7  -4324915.988 7  -3360400.76648  19640877.64148
  20568271.434 6 -12696218.035 6  -9813805.22748  20568271.35248
  20465258.090 7  -5226291.477 7  -4060400.04748  20465254.34048
  22163122.418 6   -398307.336 6   -309215.03147  22163124.86347
 18  5 30  0 48  4.9960000  0  9G03G14G16G22G23G26G27G31G32         -0.000440159
  22633021.699 1   -314862.754 1  -1605112.62545  22633023.37145
  19777697.363 6  -3318955.117 6  -2573683.50048  19777694.76248
  19229735.762 7  -7225602.594 7  -5601672.06348  19229730.97348
  22690802.496 4  -4036600.734 4                
  22268209.613 5  -4303518.859 5  -3331552.99246  22268205.20746
  19638796.566 7  -4335851.633 7  -3368922.04748  19638796.80148
  20561849.481 6 -12729967.684 6  -9840103.65648  20561848.92648
  20462612.965 7  -5240190.195 7  -4071230.23448  20462609.36748
  22163081.496 6   -398524.121 6   -309383.97347  22163083.43047
 18  5 30  0 48  9.9960000  0  9G03G14G16G22G23G26G27G31G32         -0.000451279
  22630636.996 1   -327389.438 1  -1614873.71545  22630639.79345
  19776393.215 6  -3325808.547 6  -2579023.83248  19776389.85948
  19226340.098 7  -7243448.207 7  -5615577.74248  19226335.09448
  22688859.481 4  -4046808.340 4                
  22261863.535 5  -4336864.953 5  -3357536.95346  22261859.03146
  19636716.262 7  -4346783.469 7  -3377440.36348  19636716.41448
  20555428.551 6 -12763710.719 6  -9866396.91848  20555427.78148
  20459968.770 7  -5254086.441 7  -4082058.49248  20459965.12548
  22163041.254 6   -398737.121 6   -309549.96547  22163042.63347
 18  5 30  0 48 14.9960000  0  9G03G14G16G22G23G26G27G31G32         -0.000462400
  22628257.191 1   -339908.137 1  -1624628.53945  22628257.53145
  19775091.184 6  -3332650.449 6  -2584355.18848  19775088.06648
  19222945.699 7  -7261284.586 7  -5629476.21948  19222940.56348
  22686919.207 4  -4057012.852 4                
  22255519.051 5  -4370206.215 5  -3383517.16046  22255514.27346
  19634636.863 7  -4357711.184 7  -3385955.47748  19634636.89848
  20549008.707 6 -12797446.875 6  -9892684.84048  20549007.82448
  20457324.691 6  -5267979.941 6  -4092884.59048  20457321.28948
  22163002.137 6   -398946.172 6   -309712.87547  22163003.16447
 18  5 30  0 48 19.9960000  0  8G14G16G22G23G26G27G31G32            -0.000473522
  19773791.402 6  -3339480.680 6  -2589677.44148  19773789.35948
  19219553.043 7  -7279111.656 7  -5643367.43848  19219548.64148
  22684977.199 4  -4067214.270 4                
  22249175.051 5  -4403542.531 5  -3409493.50446  22249170.96946
  19632558.246 7  -4368634.684 7  -3394467.30548  19632558.27048
  20542589.957 6 -12831176.031 6  -9918967.28948  20542589.39548
  20454681.660 6  -5281870.641 6  -4103708.52048  20454678.01248
  22162962.762 6   -399151.078 6   -309872.59047  22162963.99647
 18  5 30  0 48 24.9960000  0  8G14G16G22G23G26G27G31G32            -0.000484648
  19772493.645 6  -3346299.703 6  -2594990.97748  19772491.16848
  19216162.356 7  -7296929.766 7  -5657251.68448  19216157.56348
  22683035.098 4  -4077412.800 4                
  22242831.785 4  -4436874.324 4  -3435466.30546  22242828.26246
  19630480.231 7  -4379554.348 7  -3402976.12148  19630480.14548
  20536172.402 6 -12864898.520 6  -9945244.55148  20536172.27348
  20452038.777 6  -5295758.883 6  -4114530.53948  20452035.58248
  22162924.059 6   -399352.262 6   -310029.34847  22162925.52747
 18  5 30  0 48 29.9960000  0  8G14G16G22G23G26G27G31G32            -0.000495771
  19771198.426 6  -3353107.203 6  -2600295.52348  19771195.77748
  19212773.465 7  -7314738.738 7  -5671128.81348  19212769.03548
  22681095.645 4  -4087608.344 4                
  22236489.746 4  -4470201.270 4  -3461435.32846  22236486.05146
  19628403.199 7  -4390469.961 7  -3411481.80148  19628403.17648
  20529756.879 6 -12898614.070 6  -9971516.41048  20529756.42248
  20449396.043 6  -5309644.406 6  -4125350.42247  20449392.69147
  22162886.293 5   -399549.535 5   -310183.09447  22162888.12547
 18  5 30  0 48 34.9950000  0  8G14G16G22G23G26G27G31G32             0.000493105
  19769905.343 6  -3359902.137 6  -2605590.26648  19769902.83548
  19209386.866 7  -7332535.262 7  -5684996.23048  19209382.07348
  22679156.093 4  -4097799.117 4                
  22230149.929 4  -4503516.918 4  -3487395.61346  22230145.81246
  19626327.116 7  -4401379.574 7  -3419982.80148  19626326.91748
  20523343.108 6 -12932316.207 6  -9997777.80548  20523343.41748
  20446754.640 6  -5323524.699 6  -4136166.25047  20446751.40947
  22162849.429 5   -399743.031 5   -310333.89147  22162850.78047
 18  5 30  0 48 39.9950000  0  8G14G16G22G23G26G27G31G32             0.000481977
  19768614.015 6  -3366686.922 6  -2610877.12548  19768611.93348
  19206001.601 7  -7350326.156 7  -5698859.26648  19205996.75348
  22677218.452 4  -4107988.871 4                
  22223808.858 3  -4536834.430 3  -3513357.30146  22223805.71046
  19624251.429 7  -4412287.332 7  -3428482.35548  19624251.10148
  20516930.218 6 -12966018.141 6 -10024039.05948  20516929.85548
  20444113.608 6  -5337405.023 6  -4146982.09047  20444109.82347
  22162813.343 5   -399932.645 5   -310481.66846  22162815.24946
 18  5 30  0 48 44.9950000  0  8G14G16G22G23G26G27G31G32             0.000470850
  19767324.851 6  -3373460.504 6  -2616155.23848  19767322.98748
  19202617.523 7  -7368108.152 7  -5712715.36348  19202612.71048
  22675279.187 3  -4118175.859 3                
  22217470.304 3  -4570147.328 3  -3539315.35946  22217466.53446
  19622176.523 7  -4423191.313 7  -3436978.97748  19622176.19848
  20510518.327 6 -12999713.340 6 -10050295.05147  20510517.95647
  20441472.671 6  -5351282.848 6  -4157795.97747  20441468.82347
  22162778.241 5   -400118.535 5   -310626.55146  22162779.03846
 18  5 30  0 48 49.9950000  0  9G14G16G22G23G26G27G29G31G32          0.000459724
  19766038.218 6  -3380221.930 6  -2621423.88348  19766036.39848
  19199235.843 7  -7385880.332 7  -5726563.81348  19199231.03848
  22673340.280 3  -4128359.281 3                
  22211131.905 2  -4603454.746 2  -3565269.15646  22211127.87846
  19620102.101 7  -4434090.582 7  -3445471.94548  19620102.46448
  20504107.163 6 -13033400.910 6 -10076545.10547  20504106.98047
  23069726.49111     -5392.92211                
  20438832.187 7  -5365157.238 7  -4168607.21147  20438828.94047
  22162743.312 5   -400299.852 5   -310767.83246  22162744.70646
 18  5 30  0 48 54.9950000  0  9G14G16G22G23G26G27G29G31G32          0.000448606
  19764753.382 6  -3386972.406 6  -2626683.99648  19764751.56948
  19195855.155 7  -7403643.887 7  -5740405.54348  19195850.52348
  22671404.296 4  -4138540.156 4                
  22204794.249 2  -4636757.777 2  -3591219.57846  22204790.99946
  19618028.733 7  -4444986.383 7  -3453962.20348  19618028.92948
  20497697.968 6 -13067082.000 6 -10102790.10247  20497697.32347
  23069293.296 1     -7665.551 1                
  20436193.077 7  -5379029.387 7  -4179416.67647  20436188.62447
  22162709.523 5   -400477.859 5   -310906.57846  22162709.98346
 18  5 30  0 48 59.9950000  0  9G14G16G22G23G26G27G29G31G32          0.000437477
  19763471.679 6  -3393711.516 6  -2631935.25848  19763469.03848
  19192476.749 7  -7421398.375 7  -5754240.21548  19192472.35148
  22669466.398 3  -4148718.141 3                
  22198457.108 2  -4670055.988 2  -3617166.21945  22198453.75345
  19615956.148 7  -4455878.180 7  -3462449.32448  19615956.28848
  20491289.929 6 -13100756.188 6 -10129029.73047  20491289.68347
  23068861.007 1     -9931.684 1                
  20433553.312 7  -5392898.898 7  -4190224.10247  20433549.61647
  22162676.030 5   -400651.977 5   -311042.28546  22162676.92146
 18  5 30  0 49  4.9950000  0 10G03G14G16G22G23G26G27G29G31G32       0.000426344
  22604515.37411    -19339.95311                
  19762191.226 7  -3400438.738 7  -2637177.25448  19762189.17548
  19189100.030 7  -7439143.297 7  -5768067.43448  19189095.50748
  22667530.468 3  -4158892.777 3                
  22192121.999 2  -4703348.809 2  -3643108.65645  22192118.75745
  19613884.366 7  -4466765.543 7  -3470932.98848  19613884.34748
  20484883.640 6 -13134422.879 6 -10155263.52747  20484883.04247
  23068430.358 1    -12190.824 1                
  20430914.991 6  -5406765.188 6  -4201029.02047  20430910.62047
  22162643.530 5   -400821.789 5   -311174.61346  22162644.48346
 18  5 30  0 49  9.9950000  0 10G03G14G16G22G23G26G27G29G31G32       0.000415213
  22602149.257 1    -31771.387 1                
  19760912.851 6  -3407154.273 6  -2642410.14848  19760910.41348
  19185725.249 7  -7456878.848 7  -5781887.34448  19185720.66348
  22665595.062 3  -4169064.223 3                
  22185787.694 1  -4736636.441 1  -3669047.03945  22185783.94045
  19611813.538 7  -4477648.648 7  -3479413.34048  19611813.69448
  20478478.398 6 -13168082.309 6 -10181491.64147  20478478.04647
  23067999.944 1    -14443.102 1                
  20428276.632 6  -5420628.457 6  -4211831.57447  20428272.41747
  22162611.648 4   -400987.418 4   -311303.70746  22162612.44446
 18  5 30  0 49 14.9950000  0 10G03G14G16G22G23G26G27G29G31G32       0.000404078
  22599785.241 1    -44194.930 1                
  19759637.523 6  -3413858.363 6  -2647634.11748  19759634.93348
  19182351.640 7  -7474605.242 7  -5795700.12548  19182347.59748
  22663660.288 3  -4179232.645 3                
  22179453.460 1  -4769919.039 1  -3694981.53545  22179450.63245
  19609743.585 7  -4488527.688 7  -3487890.49248  19609743.58948
  20472074.163 6 -13201734.605 6 -10207714.21547  20472074.49147
  23067571.929 1    -16688.898 1                
  20425639.343 6  -5434488.918 6  -4222631.93847  20425634.53447
  22162581.866 4   -401149.191 4   -311429.80146  22162581.65946
 18  5 30  0 49 19.9950000  0 10G03G14G16G22G23G26G27G29G31G32       0.000392944
  22597421.429 1    -56610.449 1                
  19758363.890 6  -3420550.875 6  -2652849.05948  19758361.45248
  19178980.398 7  -7492322.387 7  -5809505.69148  19178975.99948
  22661725.710 3  -4189398.055 3                
  22173122.015 1  -4803196.656 1  -3720912.13345  22173117.80845
  19607673.819 7  -4499402.590 7  -3496364.44548  19607674.11248
  20465672.007 6 -13235379.719 6 -10233931.18447  20465671.77647
  23067146.366 1    -18927.953 1                
  20423002.843 6  -5448346.422 6  -4233429.98447  20422997.69847
  22162551.312 4   -401306.945 4   -311552.74246  22162551.41346
 18  5 30  0 49 24.9950000  0 10G03G14G16G22G23G26G27G29G31G32       0.000381809
  22595059.59311    -69019.53111                
  19757092.460 6  -3427232.391 6  -2658055.43848  19757089.94448
  19175610.663 7  -7510030.863 7  -5823304.50448  19175606.24948
  22659791.327 4  -4199560.914 4                
  22166790.718 1  -4836469.648 1  -3746839.14145  22166786.44845
  19605605.077 7  -4510273.965 7  -3504835.63748  19605605.43348
  20459270.944 6 -13269018.152 6 -10260142.94147  20459270.40947
  23066721.28811    -21160.98811                
  20420366.163 7  -5462201.648 7  -4244226.27047  20420360.87847
  22162522.023 4   -401461.293 4   -311673.04346  22162522.09346
 18  5 30  0 49 29.9950000  0 10G03G14G16G22G23G26G27G29G31G32       0.000370678
  22592700.07711    -81419.94511                
  19755823.358 6  -3433902.590 6  -2663253.00448  19755820.56948
  19172242.593 7  -7527730.383 7  -5837096.34048  19172238.39448
  22657857.546 3  -4209721.082 3                
  22160457.804 1  -4869737.746 1  -3772762.29345  22160455.11245
  19603537.288 7  -4521141.496 7  -3513303.83648  19603537.55448
  20452870.773 6 -13302649.648 6 -10286349.30147  20452870.31547
  23066297.171 1    -23387.660 1                
  20417729.991 7  -5476054.246 7  -4255020.51647  20417724.95247
  22162493.280 4   -401611.930 4   -311790.43846  22162493.76946
 18  5 30  0 49 34.9950000  0 10G03G14G16G22G23G26G27G29G31G32       0.000359526
  22590343.202 1    -93812.211 1                
  19754556.374 6  -3440561.043 6  -2668441.41448  19754553.40548
  19168876.585 7  -7545420.430 7  -5850880.80148  19168871.77348
  22655925.257 3  -4219877.961 3                
  22154128.468 1  -4903000.586 1  -3798681.38345  22154125.90145
  19601470.476 7  -4532004.723 7  -3521768.68848  19601470.22648
  20446471.898 6 -13336273.668 6 -10312549.82847  20446471.98047
  23065878.37411                                
  20415093.976 7  -5489903.730 7  -4265812.32847  20415089.52647
  22162465.499 5   -401758.410 5   -311904.60246  22162466.07746
 18  5 30  0 49 39.9950000  0 10G03G14G16G22G23G26G27G29G31G32       0.000348402
  22587986.835 1   -106196.277 1                
  19753291.718 7  -3447207.809 7  -2673620.71148  19753288.24948
  19165511.960 7  -7563101.121 7  -5864657.96948  19165507.25348
  22653992.819 3  -4230031.676 3                
  22147800.694 1  -4936258.066 1  -3824596.31345  22147797.03445
  19599403.804 7  -4542863.684 7  -3530230.22348  19599404.11648
  20440075.241 6 -13369890.266 6 -10338744.57847  20440074.45647
  23065455.523 1    -27820.473 1                
  20412459.132 7  -5503750.043 7  -4276601.67247  20412454.30047
  22162438.468 5   -401900.773 5   -312015.57846  22162439.05846
 18  5 30  0 49 44.9950000  0 10G03G14G16G22G23G26G27G29G31G32       0.000337265
  22585632.327 1   -118572.684 1                
  19752028.866 7  -3453843.191 7  -2678791.14848  19752025.74948
  19162149.312 7  -7580772.738 7  -5878428.05548  19162144.90948
  22652061.187 3  -4240182.504 3                
  22141472.773 1  -4969510.531 1  -3850507.31645  22141469.46445
  19597338.062 7  -4553718.719 7  -3538688.68848  19597338.71848
  20433679.960 6 -13403499.734 6 -10364933.78547  20433679.42947
  23065037.218 1    -30027.090 1                
  20409824.804 6  -5517593.566 6  -4287388.84047  20409819.97247
  22162411.530 5   -402039.359 5   -312123.55146  22162412.45646
 18  5 30  0 49 49.9950000  0 10G03G14G16G22G23G26G27G29G31G32       0.000326111
  22583279.601 2   -130941.383 2                
  19750768.163 7  -3460467.418 7  -2683952.88348  19750764.94048
  19158788.101 7  -7598435.465 7  -5892191.22348  19158783.44448
  22650130.585 2  -4250330.738 2                
  22135145.06911                  -3876414.57855  22135143.01955
  19595273.030 7  -4564570.047 7  -3547144.26648  19595273.46848
  20427285.124 6 -13437102.262 6 -10391117.56347  20427284.61247
  23064617.60111                                
  20407190.960 6  -5531434.461 6  -4298173.94547  20407186.85847
  22162387.101 5   -402174.391 5   -312228.79746  22162387.08946
 18  5 30  0 49 54.9950000  0  9G03G14G16G22G23G26G27G31G32          0.000314976
  22580926.851 3   -143301.625 3  -1634361.69955  22580927.86655
  19749510.265 7  -3467079.457 7  -2689105.12948  19749507.38248
  19155428.741 7  -7616088.379 7  -5905946.73848  19155424.36648
  22648199.929 2  -4260475.355 2                
  22128820.741 1                  -3902317.20345  22128817.08945
  19593209.171 7  -4575416.664 7  -3555596.18048  19593209.56948
  20420892.710 6 -13470696.879 6 -10417295.19947  20420891.46047
  20404558.148 6  -5545271.781 6  -4308956.28147  20404553.80447
  22162361.827 5   -402304.836 5   -312330.44946  22162362.24146
 18  5 30  0 49 59.9950000  0  9G03G14G16G22G23G26G27G31G32          0.000303837
  22578576.968 2   -155654.082 2  -1643987.02045  22578577.90145
  19748254.405 7  -3473680.172 7  -2694248.54348  19748251.08948
  19152071.171 7  -7633732.215 7  -5919695.18448  19152067.26148
  22646269.194 1  -4270617.191 1                
  22122495.507 1  -5069236.688 1  -3928215.99645  22122492.43345
  19591145.898 7  -4586259.414 7  -3564045.09048  19591145.94448
  20414500.952 6 -13504284.336 6 -10443467.24647  20414500.23047
  20401925.280 6  -5559106.328 6  -4319736.46947  20401921.26147
  22162337.202 5   -402431.555 5   -312429.23846  22162338.42546
 18  5 30  0 50  4.9950000  0  9G03G14G16G22G23G26G27G31G32          0.000292696
  22576227.444 2   -167999.621 2  -1653606.89545  22576228.95645
  19747000.116 7  -3480270.320 7  -2699383.73048  19746996.81548
  19148715.124 7  -7651367.793 7  -5933437.19148  19148710.70248
  22644339.898 1  -4280757.020 1                
  22116172.148 1  -5102469.180 1  -3954111.44945  22116168.44045
  19589083.499 7  -4597099.043 7  -3572491.57448  19589082.95248
  20408110.499 6 -13537865.355 6 -10469634.27747  20408109.69447
  20399292.929 6  -5572938.820 6  -4330515.02047  20399289.06247
  22162315.015 5   -402555.281 5   -312525.66846  22162315.39846
 18  5 30  0 50  9.9950000  0  9G03G14G16G22G23G26G27G31G32          0.000281553
  22573879.343 2   -180337.887 2  -1663221.15245  22573881.31545
  19745748.413 7  -3486849.574 7  -2704510.43048  19745745.40548
  19145360.663 7  -7668994.840 7  -5947172.55948  19145356.96848
  22642410.687 2  -4290894.480 2  -3102875.68455  22642407.00755
  22109848.898 1  -5135697.023 1  -3980003.28145  22109845.90945
  19587021.093 7  -4607935.246 7  -3580935.37148  19587020.98748
  20401722.148 6 -13571439.680 6 -10495796.08648  20401721.10548
  20396661.280 6  -5586768.957 6  -4341291.75047  20396657.34347
  22162291.929 6   -402675.805 6   -312619.61747  22162292.69447
 18  5 30  0 50 14.9950000  0  9G03G14G16G22G23G26G27G31G32          0.000270412
  22571533.202 3   -192668.020 3  -1672829.06345  22571534.69045
  19744498.273 6  -3493417.172 6  -2709628.03948  19744495.32748
  19142008.437 7  -7686612.527 7  -5960900.61748  19142004.23048
  22640482.241 2  -4301028.723 2  -3110772.47345  22640478.88645
  22103525.890 1  -5168919.520 1  -4005890.94945  22103523.83945
  19584959.991 7  -4618767.184 7  -3589375.84448  19584959.94848
  20395334.015 6 -13605006.461 6 -10521952.01648  20395333.35148
  20394029.929 7  -5600595.918 7  -4352066.00847  20394026.38647
  22162270.085 6   -402792.203 6   -312710.33647  22162271.08147
 18  5 30  0 50 19.9950000  0  9G03G14G16G22G23G26G27G31G32          0.000259270
  22569187.718 2   -204990.477 2  -1682431.00845  22569190.30845
  19743250.710 7  -3499973.449 7  -2714736.83248  19743247.59748
  19138657.663 7  -7704221.191 7  -5974621.66048  19138653.38648
  22638553.866 2  -4311160.371 2  -3118667.26645  22638551.88645
  22097204.765 1  -5202136.922 1  -4031774.63746  22097202.67946
  19582899.413 7  -4629595.234 7  -3597813.28148  19582899.30048
  20388948.351 6 -13638565.965 6 -10548102.28148  20388946.98748
  20391399.171 7  -5614420.063 7  -4362838.07047  20391395.54647
  22162248.382 6   -402904.922 6   -312798.17647  22162249.39847
 18  5 30  0 50 24.9950000  0  9G03G14G16G22G23G26G27G31G32          0.000248123
  22566843.374 2   -217305.957 2  -1692027.53945  22566846.23345
  19742005.382 7  -3506519.148 7  -2719837.38348  19742002.02348
  19135308.296 7  -7721821.574 7  -5988336.24248  19135304.29648
  22636626.280 1  -4321289.902 1  -3126560.41045  22636623.99545
  22090885.921 2  -5235349.895 2  -4057654.91846  22090882.54246
  19580839.640 7  -4640420.191 7  -3606248.31648  19580839.20648
  20382563.343 6 -13672119.031 6 -10574247.51648  20382562.30848
  20388769.155 6  -5628242.125 6  -4373608.50847  20388765.99947
  22162227.390 6   -403014.684 6   -312883.73847  22162228.99947
 18  5 30  0 50 29.9950000  0  9G03G14G16G22G23G26G27G31G32          0.000236979
  22564502.671 3   -229613.754 3  -1701618.05545  22564503.94445
  19740761.913 7  -3513053.512 7  -2724929.09848  19740758.67548
  19131960.429 7  -7739412.984 7  -6002043.84048  19131956.68348
  22634699.835 2  -4331416.738 2  -3134451.50045  22634697.40145
  22084566.757 2  -5268557.879 2  -4083531.27046  22084563.31546
  19578780.241 7  -4651241.285 7  -3614680.33648  19578779.79248
  20376179.851 6 -13705664.844 6 -10600387.10248  20376179.38648
  20386139.765 6  -5642061.395 6  -4384376.78147  20386135.64447
  22162207.538 6   -403120.746 6   -312966.40247  22162208.73747
 18  5 30  0 50 34.9950000  0  9G03G14G16G22G23G26G27G31G32          0.000225832
  22562161.398 2   -241914.215 2  -1711202.77045  22562163.55045
  19739520.702 7  -3519576.883 7  -2730012.24648  19739517.67148
  19128614.741 7  -7756995.688 7  -6015744.64548  19128610.97648
  22632773.140 2  -4341541.113 2  -3142340.60945  22632771.14045
  22078248.335 2  -5301760.953 2  -4109403.79346  22078244.86646
  19576721.804 7  -4662058.824 7  -3623109.58648  19576721.40548
  20369798.171 6 -13739203.660 6 -10626521.24248  20369797.25348
  20383510.296 6  -5655878.121 6  -4395143.07847  20383506.80447
  22162188.398 6   -403223.461 6   -313046.46547  22162189.40547
 18  5 30  0 50 39.9950000  0  9G03G14G16G22G23G26G27G31G32          0.000214685
  22559823.569 2   -254207.129 2  -1720781.68845  22559823.99945
  19738281.601 7  -3526089.121 7  -2735086.72748  19738278.14448
  19125270.437 6  -7774569.551 6  -6029438.56648  19125266.59348
  22630847.226 2  -4351662.906 2  -3150227.76645  22630844.58545
  22071930.273 2  -5334959.074 2  -4135272.44146  22071927.83546
  19574663.874 7  -4672872.680 7  -3631535.96148  19574663.92548
  20363416.733 6 -13772735.379 6 -10652649.84848  20363416.45248
  20380881.569 7  -5669692.176 7  -4405907.28547  20380877.91347
  22162168.757 6   -403322.641 6   -313123.77347  22162170.46847
 18  5 30  0 50 44.9950000  0  9G03G14G16G22G23G26G27G31G32          0.000203537
  22557485.343 3   -266492.441 3  -1730354.71545  22557485.77345
  19737044.351 7  -3532590.086 7  -2740152.40248  19737040.98748
  19121928.233 7  -7792134.445 7  -6043125.50048  19121924.70648
  22628921.358 2  -4361782.125 2  -3158112.85945  22628919.04245
  22065614.687 1  -5368152.004 1  -4161137.06346  22065611.48046
  19572606.812 7  -4683682.730 7  -3639959.37548  19572606.80048
  20357037.733 6 -13806259.828 6 -10678772.80148  20357037.51948
  20378254.093 7  -5683503.414 7  -4416669.30947  20378249.83547
  22162150.624 6   -403418.219 6   -313198.25047  22162152.28847
 18  5 30  0 50 49.9950000  0  9G03G14G16G22G23G26G27G31G32          0.000192387
  22555148.616 3   -278770.703 3  -1739922.17645  22555149.43745
  19735808.898 7  -3539080.410 7  -2745209.81648  19735806.00748
  19118587.655 7  -7809690.992 7  -6056805.92248  19118583.65948
  22626995.679 1  -4371899.238 1  -3165996.29345  22626994.00345
  22059299.640 2  -5401340.430 2  -4186998.19946  22059295.57746
  19570550.358 7  -4694489.563 7  -3648380.28148  19570549.95648
  20350659.187 6 -13839777.566 6 -10704890.52348  20350659.19848
  20375625.819 7  -5697312.406 7  -4427429.55948  20375622.03848
  22162133.062 6   -403510.781 6   -313270.40647  22162135.23747
 18  5 30  0 50 54.9950000  0  9G03G14G16G22G23G26G27G31G32          0.000181238
  22552813.132 3   -291041.137 3  -1749483.52745  22552814.29245
  19734576.413 7  -3545559.180 7  -2750258.20748  19734572.99548
  19115247.944 6  -7827238.371 6  -6070479.20348  19115244.37848
  22625071.765 2  -4382013.426 2  -3173877.48845  22625069.37845
  22052983.929 2  -5434523.480 2  -4212855.10246  22052980.98746
  19568494.804 7  -4705292.363 7  -3656798.04748  19568494.63248
  20344282.413 6 -13873287.781 6 -10731002.37948  20344281.87048
  20372998.601 6  -5711118.352 6  -4438187.43847  20372994.78847
  22162115.765 6   -403599.512 6   -313339.55547  22162118.63647
 18  5 30  0 50 59.9950000  0  9G03G14G16G22G23G26G27G31G32          0.000170086
  22550480.304 3   -303303.980 3  -1759039.01245  22550480.36645
  19733345.319 7  -3552026.824 7  -2755297.94548  19733342.22248
  19111910.694 6  -7844776.883 6  -6084145.57048  19111906.55048
  22623146.718 2  -4392125.066 2  -3181756.69945  22623145.16745
  22046670.843 2  -5467701.422 2  -4238708.03546  22046667.56546
  19566439.827 7  -4716091.488 7  -3665212.94548  19566439.39848
  20337907.288 6 -13906790.828 6 -10757108.63748  20337907.06548
  20370371.749 6  -5724921.547 6  -4448943.18047  20370368.30047
  22162100.460 6   -403684.719 6   -313405.96947  22162101.99547
 18  5 30  0 51  4.9950000  0  9G03G14G16G22G23G26G27G31G32          0.000158934
  22548148.132 4   -315559.891 4  -1768589.06645  22548148.46845
  19732116.421 7  -3558483.824 7  -2760329.37948  19732113.67948
  19108575.296 7  -7862307.094 7  -6097805.48048  19108570.84348
  22621223.280 3  -4402234.625 3  -3189634.27045  22621221.36645
  22040358.210 3  -5500874.789 3  -4264557.39846  22040354.92146
  19564385.085 7  -4726887.406 7  -3673625.34848  19564384.48348
  20331533.155 6 -13940287.090 6 -10783209.60548  20331533.09748
  20367745.124 6  -5738722.477 6  -4459697.15647  20367742.28847
  22162084.398 6   -403766.922 6   -313470.03947  22162086.31247
 18  5 30  0 51  9.9950000  0  9G03G14G16G22G23G26G27G31G32          0.000147781
  22545817.491 4   -327808.961 4  -1778133.79345  22545817.24145
  19730890.148 6  -3564930.281 6  -2765352.59848  19730886.83548
  19105240.538 7  -7879829.125 7  -6111459.01248  19105236.40948
  22619300.812 3  -4412342.285 3  -3197510.36745  22619297.81945
  22034046.601 2  -5534043.695 2  -4290403.31346  22034042.90546
  19562331.577 7  -4737680.309 7  -3682035.39848  19562330.75348
  20325159.913 6 -13973776.738 6 -10809305.43848  20325159.94448
  20365119.124 6  -5752521.332 6  -4470449.51247  20365115.76947
  22162068.999 6   -403846.297 6   -313531.91847  22162071.21847
 18  5 30  0 51 14.9950000  0  9G03G14G16G22G23G26G27G31G32          0.000136625
  22543487.577 4   -340050.574 4  -1787672.73846  22543487.85146
  19729665.233 6  -3571365.703 6  -2770367.22348  19729662.11648
  19101907.726 7  -7897342.340 7  -6125105.67648  19101903.87848
  22617377.382 3  -4422447.461 3  -3205384.58645  22617375.06245
  22027736.069 3  -5567207.477 3  -4316245.25046  22027731.96446
  19560278.374 7  -4748469.559 7  -3690442.60548  19560278.02348
  20318788.015 6 -14007259.195 6 -10835395.66048  20318788.20248
  20362493.976 6  -5766317.469 6  -4481199.74247  20362490.46847
  22162054.773 5   -403922.250 5   -313591.12947  22162056.60847
 18  5 30  0 51 19.9950000  0  9G03G14G16G22G23G26G27G31G32          0.000125471
  22541159.233 4   -352284.047 4  -1797205.33646  22541159.97646
  19728442.780 6  -3577789.324 6  -2775372.64548  19728440.21048
  19098576.999 7  -7914846.109 7  -6138744.97348  19098572.67148
  22615454.382 2  -4432549.520 2  -3213256.28945  22615452.26145
  22021425.898 3  -5600365.434 3  -4342082.62546  22021421.98746
  19558226.257 7  -4759254.500 7  -3698846.44948  19558225.69048
  20312418.577 6 -14040733.707 6 -10861479.68448  20312417.98348
  20359869.398 6  -5780110.148 6  -4491947.28148  20359865.96448
  22162041.421 6   -403994.070 6   -313647.12147  22162043.03847
 18  5 30  0 51 24.9950000  0  9G03G14G16G22G23G26G27G31G32          0.000114315
  22538833.804 4   -364509.434 4  -1806731.63346  22538833.10146
  19727223.257 6  -3584201.172 6  -2780368.89548  19727220.03848
  19095247.866 7  -7932340.418 7  -6152376.89848  19095243.47248
  22613534.015 3  -4442648.387 3  -3221125.54345  22613530.79245
  22015117.530 4  -5633517.617 4  -4367915.47746  22015113.00346
  19556174.538 7  -4770035.125 7  -3707246.93848  19556174.19848
  20306049.460 6 -14074200.254 6 -10887557.52048  20306049.62048
  20357245.405 6  -5793899.418 6  -4502692.17247  20357242.37847
  22162028.437 6   -404061.777 6   -313699.89147  22162030.18347
 18  5 30  0 51 29.9950000  0  9G03G14G16G22G23G26G27G31G32          0.000103159
  22536508.726 4   -376727.204 4  -1816251.98746  22536508.46046
  19726005.249 7  -3590601.777 7  -2785356.38748  19726001.93748
  19091920.765 7  -7949825.797 7  -6166001.87948  19091916.07748
  22611611.702 3  -4452744.695 3  -3228992.76645  22611609.82745
  22008809.983 3  -5666664.457 3  -4393744.20746  22008805.48746
  19554123.694 7  -4780812.016 7  -3715644.50848  19554123.09348
  20299682.952 6 -14107659.367 6 -10913629.56648  20299682.85148
  20354621.585 6  -5807685.820 6  -4513434.82047  20354618.26147
  22162016.437 6   -404125.961 6   -313749.92247  22162018.14047
 18  5 30  0 51 34.9950000  0  9G03G14G16G22G23G26G27G31G32          0.000092003
  22534185.233 4   -388937.152 4  -1825766.24646  22534185.19046
  19724789.038 7  -3596990.902 7  -2790334.93448  19724786.15948
  19088595.023 7  -7967301.992 7  -6179619.69148  19088590.58948
  22609691.663 3  -4462838.063 3  -3236857.75045  22609689.11245
  22002502.733 3  -5699805.766 3  -4419568.57846  22002498.61646
  19552073.804 7  -4791584.828 7  -3724038.92248  19552073.21848
  20293317.499 6 -14141110.781 6 -10939695.58248  20293317.38248
  20351999.163 6  -5821469.020 6  -4524174.98847  20351995.31547
  22162004.226 6   -404186.289 6   -313796.93447  22162006.67547
 18  5 30  0 51 39.9950000  0  9G03G14G16G22G23G26G27G31G32          0.000080845
  22531862.694 4   -401139.629 4  -1835274.69546  22531862.99146
  19723575.265 6  -3603368.859 6  -2795304.78148  19723572.28448
  19085270.577 7  -7984769.344 7  -6193230.61348  19085266.62048
  22607771.929 3  -4472928.898 3  -3244720.70746  22607768.86646
  21996197.804 4  -5732941.836 4  -4445388.91446  21996193.21046
  19550024.523 7  -4802353.934 7  -3732430.43848  19550024.07748
  20286953.124 6 -14174554.762 6 -10965755.81648  20286953.12048
  20349376.804 6  -5835249.402 6  -4534912.95747  20349373.08547
  22161993.608 6   -404243.125 6   -313841.24247  22161996.06947
 18  5 30  0 51 44.9950000  0  9G03G14G16G22G23G26G27G31G32          0.000069685
  22529541.304 3   -413334.352 3  -1844777.05146  22529542.44846
  19722363.952 7  -3609735.473 7  -2800265.77348  19722360.42148
  19081948.546 7  -8002227.613 7  -6206834.44948  19081944.01548
  22605851.077 4  -4483016.949 4  -3252581.53145  22605848.88645
  21989892.890 4  -5766072.398 4  -4471204.92246  21989888.73046
  19547976.077 7  -4813119.156 7  -3740818.93048  19547975.22648
  20280590.249 6 -14207991.133 6 -10991810.13748  20280590.11648
  20346755.280 6  -5849026.625 6  -4545648.46147  20346752.18747
  22161983.983 6   -404296.297 6   -313882.68847  22161986.01547
 18  5 30  0 51 49.9950000  0  9G03G14G16G22G23G26G27G31G32          0.000058527
  22527222.038 2   -425521.660 2  -1854273.66045  22527223.15145
  19721154.655 7  -3616091.043 7  -2805218.17248  19721151.76948
  19078627.999 7  -8019677.156 7  -6220431.50048  19078623.39848
  22603931.851 3  -4493102.613 3  -3260440.52745  22603929.17145
  21983589.398 3  -5799197.754 3  -4497016.90646  21983584.71446
  19545928.085 7  -4823880.777 7  -3749204.60948  19545927.69048
  20274229.351 6 -14241420.129 6 -11017858.70348  20274228.80848
  20344133.835 6  -5862801.059 6  -4556381.78548  20344130.92948
  22161973.991 6   -404346.086 6   -313921.50447  22161976.50747
 18  5 30  0 51 54.9950000  0  9G03G14G16G22G23G26G27G31G32          0.000047365
  22524904.960 3   -437702.355 3  -1863765.12145  22524904.98345
  19719946.905 6  -3622436.250 6  -2810162.49248  19719943.76548
  19075308.999 7  -8037118.652 7  -6234022.27348  19075304.42148
  22602012.140 3  -4503186.633 3  -3268298.18445  22602010.03845
  21977286.812 3  -5832318.656 3  -4522825.41046  21977282.15546
  19543880.593 7  -4834639.551 7  -3757588.08648  19543880.30448
  20267869.054 6 -14274842.480 6 -11043902.10248  20267868.73048
  20341513.398 7  -5876573.453 7  -4567113.52747  20341509.61647
  22161964.429 6   -404393.230 6   -313958.25447  22161967.44047
 18  5 30  0 51 59.9950000  0  9G03G14G16G22G23G26G27G31G32          0.000036203
  22522588.507 3   -449875.438 3  -1873250.62945  22522588.47245
  19718741.585 6  -3628770.113 6  -2815097.98048  19718738.72248
  19071991.851 7  -8054551.098 7  -6247606.00048  19071987.12448
  22600094.507 2  -4513267.934 2  -3276153.73045  22600091.81945
  21970984.929 4  -5865434.074 4  -4548629.60946  21970980.48046
  19541833.851 7  -4845394.457 7  -3765968.55148  19541834.12848
  20261510.390 6 -14308257.199 6 -11069939.53148  20261510.26548
  20338893.554 7  -5890342.773 7  -4577842.88347  20338889.15547
  22161956.898 5   -404436.723 5   -313992.17247  22161959.13247
 18  5 30  0 52  4.9950000  0  9G03G14G16G22G23G26G27G31G32          0.000025042
  22520274.577 4   -462040.719 4  -1882730.04745  22520273.20245
  19717538.546 6  -3635092.609 6  -2820024.60548  19717535.87048
  19068675.983 7  -8071974.527 7  -6261182.71548  19068672.33148
  22598177.780 2  -4523346.559 2  -3284007.20345  22598173.90545
  21964683.843 3  -5898543.926 3  -4574429.52346  21964680.02346
  19539788.140 7  -4856145.395 7  -3774345.91048  19539787.99948
  20255153.812 6 -14341664.203 6 -11095970.96148  20255152.44448
  20336273.718 7  -5904108.973 7  -4588569.79347  20336269.36247
  22161949.944 6   -404476.539 6   -314023.22747  22161951.20247
 18  5 30  0 52  9.9950000  0  9G03G14G16G22G23G26G27G31G32          0.000013878
  22517960.710 4   -474199.500 4  -1892204.46945  22517959.75745
  19716337.179 6  -3641404.777 6  -2824943.18048  19716334.20248
  19065362.210 7  -8089389.879 7  -6274753.12148  19065358.14048
  22596259.069 3  -4533423.438 3  -3291859.32445  22596256.56245
  21958384.624 4  -5931649.254 4  -4600225.87146  21958380.30446
  19537743.085 7  -4866893.434 7  -3782720.97348  19537742.96048
  20248797.265 6 -14375064.492 6 -11121997.16447  20248796.79647
  20333654.530 7  -5917873.105 7  -4599295.09448  20333650.39048
  22161942.843 6   -404513.727 6   -314052.21147  22161943.90547
 18  5 30  0 52 14.9950000  0  9G03G14G16G22G23G26G27G31G32          0.000002714
  22515647.796 3   -486351.059 3  -1901673.16045  22515647.62845
  19715138.233 6  -3647706.160 6  -2829853.34448  19715135.01148
  19062049.593 7  -8106796.730 7  -6288316.90248  19062045.68348
  22594342.335 2  -4543498.148 2  -3299709.75445  22594338.40545
  21952085.499 4  -5964749.531 4  -4626018.28546  21952081.29246
  19535698.405 7  -4877638.164 7  -3791093.47748  19535698.29248
  20242442.632 6 -14408457.594 6 -11148017.76248  20242441.98348
  20331035.921 7  -5931634.652 7  -4610018.37548  20331031.96448
  22161935.983 6   -404547.816 6   -314078.80147  22161937.57347
 18  5 30  0 52 19.9950000  0  9G03G14G16G22G23G26G27G31G32         -0.000008451
  22513336.538 2   -498494.035 2  -1911135.29345  22513336.70245
  19713941.257 6  -3653995.254 6  -2834753.93848  19713938.19048
  19058739.483 7  -8124193.578 7  -6301872.88348  19058734.78048
  22592425.632 2  -4553569.262 2  -3307557.38345  22592422.61245
  21945788.648 4  -5997843.258 4  -4651805.60546  21945783.75346
  19533654.648 7  -4888378.074 7  -3799462.23448  19533654.25348
  20236089.366 6 -14441841.965 6 -11174031.54348  20236089.27348
  20328418.062 7  -5945392.102 7  -4620738.46548  20328414.22248
  22161930.562 6   -404577.297 6   -314101.76247  22161931.74947
 18  5 30  0 52 24.9950000  0  9G03G14G16G22G23G26G27G31G32         -0.000019617
  22511027.023 2   -510629.973 2  -1920591.89145  22511027.30445
  19712746.655 6  -3660273.582 6  -2839646.14848  19712743.51548
  19055430.593 7  -8141582.012 7  -6315422.32048  19055426.05048
  22590509.530 2  -4563638.438 2  -3315403.50845  22590506.55845
  21939491.257 4  -6030931.953 4  -4677589.01246  21939486.94446
  19531611.483 7  -4899114.734 7  -3807828.47348  19531611.00348
  20229737.983 6 -14475219.137 6 -11200039.73848  20229737.83148
  20325800.843 7  -5959147.004 7  -4631456.58248  20325796.74948
  22161925.491 6   -404603.773 6   -314122.44947  22161926.48047
 18  5 30  0 52 29.9950000  0  9G03G14G16G22G23G26G27G31G32         -0.000030785
  22508718.648 1   -522758.590 1  -1930042.73845  22508719.05045
  19711553.718 6  -3666540.785 6  -2844529.69548  19711550.93348
  19052123.593 7  -8158961.637 7  -6328964.88348  19052118.77648
  22588594.374 2  -4573705.047 2  -3323247.58245  22588590.54645
  21933196.515 5  -6064015.281 5  -4703368.24246  21933191.39046
  19529569.140 7  -4909847.793 7  -3816191.90648  19529568.55048
  20223387.866 6 -14508588.805 6 -11226042.08648  20223388.10548
  20323183.569 7  -5972899.039 7  -4642172.44548  20323179.94048
  22161920.569 6   -404626.852 6   -314140.44147  22161922.19047
 18  5 30  0 52 34.9950000  0  9G03G14G16G22G23G26G27G31G32         -0.000041952
  22506412.444 1   -534879.180 1  -1939487.34845  22506413.04645
  19710363.499 6  -3672796.371 6  -2849404.19548  19710361.28048
  19048817.851 7  -8176331.891 7  -6342500.16048  19048813.21048
  22586678.655 2  -4583768.738 2  -3331089.45345  22586675.51145
  21926901.733 5  -6097092.621 5  -4729142.76646  21926897.28046
  19527527.562 7  -4920576.637 7  -3824552.03948  19527527.07748
  20217039.257 6 -14541950.320 6 -11252038.07048  20217039.07348
  20320567.702 7  -5986647.594 7  -4652885.62948  20320563.71448
  22161917.023 6   -404645.984 6   -314155.39846  22161918.15946
 18  5 30  0 52 39.9950000  0  9G03G14G16G22G23G26G27G31G32         -0.000053120
  22504107.140 1   -546992.430 1  -1948926.25445  22504107.95645
  19709175.530 7  -3679040.910 7  -2854270.07448  19709173.12048
  19045514.023 7  -8193693.438 7  -6356028.63348  19045509.10548
  22584764.335 3  -4593830.059 3  -3338929.43845  22584760.79645
  21920608.499 4  -6130164.672 4  -4754913.20746  21920603.47646
  19525486.554 7  -4931301.938 7  -3832909.40648  19525485.64448
  20210692.608 6 -14575304.332 6 -11278028.22348  20210691.79248
  20317951.405 6  -6000393.285 6  -4663596.55148  20317948.24948
  22161914.780 6   -404661.844 6   -314167.79347  22161915.09747
 18  5 30  0 52 44.9950000  0  9G03G14G16G22G23G26G27G31G32         -0.000064289
  22501802.491 1   -559098.762 1  -1958359.73045  22501804.40145
  19707989.124 6  -3685274.734 6  -2859127.60948  19707986.39048
  19042211.749 7  -8211046.570 7  -6369550.55548  19042206.52648
  22582850.132 2  -4603889.285 2  -3346767.76645  22582846.42945
  21914314.812 4  -6163231.648 4  -4780679.66446  21914311.03046
  19523446.210 7  -4942024.012 7  -3841264.28148  19523445.14448
  20204346.882 6 -14608651.105 6 -11304012.71547  20204345.66747
  20315336.726 7  -6014136.422 7  -4674305.49648  20315332.81948
  22161912.444 6   -404674.719 6   -314177.85547  22161912.86647
 18  5 30  0 52 49.9950000  0  9G03G14G16G22G23G26G27G31G32         -0.000075459
  22499500.601 1   -571197.465 1  -1967787.28145  22499501.17545
  19706804.507 6  -3691497.227 6  -2863976.31648  19706802.08548
  19038910.929 7  -8228390.660 7  -6383065.42648  19038906.27648
  22580936.351 3  -4613945.918 3  -3354604.16045  22580933.02645
  21908024.343 5  -6196292.922 5  -4806441.69946  21908019.57346
  19521406.468 7  -4952742.223 7  -3849616.14548  19521405.65548
  20198002.460 6 -14641990.016 6 -11329991.09047  20198002.54647
  20312721.499 7  -6027876.352 7  -4685011.93848  20312718.48748
  22161910.773 6   -404683.973 6   -314185.10947  22161910.42947
 18  5 30  0 52 54.9950000  0  9G03G14G16G22G23G26G27G31G32         -0.000086630
  22497200.390 1   -583288.734 1  -1977209.00445  22497200.98045
  19705622.663 6  -3697708.609 6  -2868816.35948  19705620.15148
  19035612.640 7  -8245725.926 7  -6396573.42248  19035607.67148
  22579024.132 3  -4624000.051 3  -3362438.50045  22579019.64845
  21901734.233 5  -6229348.641 5  -4832199.35946  21901729.32346
  19519367.874 7  -4963456.750 7  -3857965.12548  19519367.14048
  20191660.155 6 -14675321.199 6 -11355963.43848  20191659.10148
  20310107.468 7  -6041613.246 7  -4695716.01648  20310104.46448
  22161908.905 6   -404689.840 6   -314189.71947  22161908.96847
 18  5 30  0 52 59.9950000  0  9G03G14G16G22G23G26G27G31G32         -0.000097801
  22494899.554 1   -595372.406 1  -1986624.92645  22494902.06245
  19704443.148 6  -3703908.711 6  -2873647.60948  19704440.67148
  19032315.132 7  -8263052.250 7  -6410074.44948  19032310.55448
  22577111.523 3  -4634051.660 3  -3370271.03545  22577106.63245
  21895445.374 5  -6262398.711 5  -4857952.67646  21895440.05046
  19517329.437 7  -4974167.512 7  -3866311.18448  19517328.65548
  20185318.538 6 -14708644.547 6 -11381929.69148  20185318.27348
  20307493.788 7  -6055347.012 7  -4706417.64548  20307491.20648
  22161909.523 6   -404692.156 6   -314191.55547  22161908.31547
 18  5 30  0 53  4.9950000  0  9G03G14G16G22G23G26G27G31G32         -0.000108973
  22492604.233 1   -607447.980 1  -1996034.45745  22492604.64445
  19703265.890 6  -3710096.914 6  -2878469.59848  19703263.26548
  19029020.257 7  -8280368.996 7  -6423568.02348  19029015.21448
  22575199.413 3  -4644100.121 3  -3378100.97345  22575194.23745
  21889157.077 5  -6295442.410 5  -4883700.99246  21889152.54646
  19515292.155 7  -4984873.859 7  -3874653.79348  19515291.37848
  20178979.171 6 -14741959.445 6 -11407889.35948  20178978.67548
  20304881.398 7  -6069077.004 7  -4717116.34448  20304878.09748
  22161909.632 6   -404690.363 6   -314190.18446  22161908.39846
 18  5 30  0 53  9.9950000  0  9G03G14G16G22G23G26G27G31G32         -0.000120146
  22490306.444 1   -619516.332 1  -2005438.34845  22490307.85845
  19702089.726 6  -3716274.227 6  -2883283.08648  19702087.23748
  19025726.718 7  -8297677.105 7  -6437054.86348  19025721.78448
  22573287.546 4  -4654146.359 4  -3385929.20745  22573283.15945
  21882870.499 5  -6328480.805 5  -4909445.18846  21882865.40546
  19513255.460 7  -4995576.754 7  -3882993.71948  19513254.98348
  20172641.210 6 -14775266.766 6 -11433843.09448  20172640.70648
  20302268.640 7  -6082804.145 7  -4727812.81648  20302265.96448
  22161910.265 6   -404685.402 6   -314186.34446  22161909.61246
 18  5 30  0 53 14.9950000  0  9G03G14G16G22G23G26G27G31G32         -0.000131319
  22488009.64811   -631577.94111  -2014837.04755  22488012.39455
  19700916.702 6  -3722441.004 6  -2888088.37948  19700914.37048
  19022434.546 7  -8314977.004 7  -6450535.30148  19022429.87048
  22571376.210 3  -4664190.789 3  -3393756.05145  22571371.28445
  21876584.569 5  -6361514.207 5  -4935185.47746  21876579.00346
  19511219.585 7  -5006276.609 7  -3891331.27748  19511218.97248
  20166304.460 6 -14808566.914 6 -11459791.27348  20166303.91748
  20299657.655 7  -6096528.898 7  -4738507.43448  20299654.46448
  22161911.374 6   -404677.652 6   -314180.36346  22161911.31246
 18  5 30  0 53 19.9950000  0  9G03G14G16G22G23G26G27G31G32         -0.000142494
  22485714.66311                                
  19699745.163 6  -3728596.766 6  -2892885.08648  19699742.96048
  19019144.046 7  -8332268.168 7  -6464008.93848  19019139.27348
  22569465.023 3  -4674232.945 3  -3401581.11345  22569460.40545
  21870299.437 5  -6394542.066 5  -4960921.46546  21870294.09346
  19509183.796 7  -5016972.945 7  -3899666.11348  19509183.52348
  20159968.687 6 -14841859.359 6 -11485733.44148  20159968.21848
  20297046.499 7  -6110250.652 7  -4749199.71148  20297043.30448
  22161914.062 6   -404666.613 6   -314171.77346  22161913.93346
 18  5 30  0 53 24.9950000  0  9G03G14G16G22G23G26G27G31G32         -0.000153669
  22483423.14011   -655678.60911                
  19698576.515 6  -3734741.000 6  -2897672.81348  19698574.24148
  19015855.562 7  -8349550.043 7  -6477475.33248  19015850.92548
  22567555.023 3  -4684272.242 3  -3409403.98445  22567550.24945
  21864015.374 5  -6427563.852 5  -4986652.73846  21864009.75746
  19507149.413 7  -5027665.145 7  -3907997.69948  19507148.82748
  20153635.108 6 -14875143.570 6 -11511669.18448  20153634.68748
  20294435.663 7  -6123968.887 7  -4759889.25048  20294432.74148
  22161916.679 6   -404651.746 6   -314160.22346  22161917.09346
 18  5 30  0 53 29.9950000  0  8G14G16G22G23G26G27G31G32            -0.000164843
  19697409.327 6  -3740873.324 6  -2902451.25048  19697407.05448
  19012568.608 7  -8366822.301 7  -6490934.23048  19012564.46048
  22565646.054 4  -4694308.281 4  -3417224.23045  22565640.44445
  21857732.929 5  -6460579.188 5  -5012378.96946  21857727.31246
  19505115.483 7  -5038352.898 7  -3916325.81648  19505115.20648
  20147303.171 6 -14908419.129 6 -11537598.19948  20147302.92548
  20291825.968 7  -6137683.234 7  -4770575.76248  20291822.71448
  22161920.046 6   -404632.777 6   -314145.47346  22161920.89446
 18  5 30  0 53 34.9950000  0  8G14G16G22G23G26G27G31G32            -0.000176020
  19696244.694 6  -3746994.586 6  -2907221.07048  19696242.30048
  19009283.194 7  -8384085.805 7  -6504386.32048  19009279.15948
  22563736.296 3  -4704342.074 3  -3425042.87945  22563730.65545
  21851451.663 6  -6493588.934 6  -5038100.82446  21851445.80446
  19503082.483 7  -5049037.094 7  -3924651.16448  19503081.85848
  20140972.679 6 -14941686.938 6 -11563521.15648  20140972.44848
  20289216.952 7  -6151394.609 7  -4781259.95348  20289213.55048
  22161924.874 5   -404610.477 5   -314128.13346  22161925.54646
 18  5 30  0 53 39.9950000  0  9G03G14G16G22G23G26G27G31G32         -0.000187197
  22476557.46811                                
  19695081.718 6  -3753104.723 6  -2911982.21948  19695079.26948
  19005999.991 7  -8401340.477 7  -6517831.52748  19005995.86648
  22561827.382 3  -4714373.383 3  -3432859.41045  22561822.39445
  21845171.116 5  -6526592.965 5  -5063818.28946  21845165.10846
  19501050.249 7  -5059717.629 7  -3932973.65648  19501049.25348
  20134643.452 6 -14974946.820 6 -11589437.95348  20134642.81548
  20286608.296 7  -6165102.848 7  -4791941.69548  20286604.81948
  22161929.577 6   -404584.832 6   -314108.15646  22161930.72246
 18  5 30  0 53 44.9950000  0  8G14G16G22G23G26G27G31G32            -0.000198374
  19693921.351 6  -3759203.906 6  -2916734.83648  19693919.21448
  19002718.210 7  -8418586.461 7  -6531269.98048  19002713.81548
  22559918.483 3  -4724402.473 3  -3440674.33245  22559913.61645
  21838891.944 5  -6559591.457 5  -5089531.34846  21838885.99546
  19499018.015 7  -5070394.672 7  -3941293.42248  19499017.81548
  20128315.749 6 -15008198.984 6 -11615348.73048  20128315.48748
  20284000.483 7  -6178808.113 7  -4802621.12948  20283997.01148
  22161934.608 6   -404556.000 6   -314085.71546  22161936.99946
 18  5 30  0 53 49.9950000  0  8G14G16G22G23G26G27G31G32            -0.000209553
  19692762.382 6  -3765290.789 6  -2921477.87148  19692760.30448
  18999437.976 7  -8435822.496 7  -6544700.64148  18999434.53048
  22558011.132 3  -4734428.043 3  -3448486.48445  22558006.31245
  21832613.671 6  -6592583.051 6  -5115239.10546  21832607.65946
  19496987.491 7  -5081066.895 7  -3949609.44148  19496987.20648
  20121989.687 6 -15041442.059 6 -11641252.41848  20121989.28048
  20281393.507 7  -6192509.098 7  -4813297.22348  20281389.77348
  22161940.366 5   -404522.629 5   -314059.74246  22161943.44446
 18  5 30  0 53 54.9950000  0  8G14G16G22G23G26G27G31G32            -0.000220732
  19691606.827 6  -3771366.969 6  -2926212.55548  19691604.29648
  18996160.007 7  -8453050.078 7  -6558124.73048  18996155.97648
  22556103.851 2  -4744451.656 2  -3456297.08645  22556098.77345
  21826336.702 6  -6625569.242 6  -5140942.61346  21826331.06946
  19494957.233 7  -5091735.906 7  -3957922.94948  19494956.88248
  20115665.452 6 -15074677.594 6 -11667150.23848  20115665.09348
  20278786.804 7  -6206207.316 7  -4823971.17648  20278782.90548
  22161947.452 5   -404486.313 5   -314031.45346  22161950.39446
 18  5 30  0 53 59.9950000  0  8G14G16G22G23G26G27G31G32            -0.000231911
  19690452.421 6  -3777431.594 6  -2930938.24248  19690450.30848
  18992883.585 7  -8470268.406 7  -6571541.61748  18992879.70648
  22554196.624 3  -4754472.539 3  -3464105.56645  22554191.36645
  21820060.671 6  -6658549.285 6  -5166641.38346  21820054.61646
  19492927.554 7  -5102400.832 7  -3966233.28148  19492927.66748
  20109342.483 6 -15107904.746 6 -11693041.52048  20109341.93348
  20276180.866 7  -6219901.996 7  -4834642.36748  20276176.51148
  22161955.148 5   -404446.266 5   -314000.26247  22161958.13647
 18  5 30  0 54  4.9950000  0  8G14G16G22G23G26G27G31G32            -0.000243092
  19689300.741 6  -3783485.027 6  -2935655.21148  19689298.42948
  18989608.663 7  -8487477.824 7  -6584951.55148  18989604.57348
  22552290.069 2  -4764490.898 2  -3471912.11745  22552284.92945
  21813786.093 6  -6691523.426 6  -5192335.50846  21813780.32746
  19490898.757 7  -5113062.047 7  -3974540.72348  19490898.85148
  20103020.921 6 -15141123.820 6 -11718926.51648  20103020.71048
  20273575.343 7  -6233593.453 7  -4845311.04348  20273571.06548
  22161963.358 5   -404402.848 5   -313966.43447  22161966.74947
 18  5 30  0 54  9.9950000  0  8G14G16G22G23G26G27G31G32            -0.000254272
  19688150.694 6  -3789526.766 6  -2940363.06348  19688148.75748
  18986335.593 7  -8504677.832 7  -6598354.16048  18986331.52648
  22550385.093 2  -4774506.332 2  -3479716.39545  22550378.74945
  21807512.851 6  -6724491.168 6  -5218024.68446  21807507.35546
  19488870.655 7  -5123719.020 7  -3982844.85248  19488870.85848
  20096701.593 6 -15174334.320 6 -11744804.82448  20096701.10148
  20270970.671 7  -6247281.086 7  -4855976.73848  20270966.53848
  22161972.523 5   -404355.430 5   -313929.52746  22161976.25746
 18  5 30  0 54 14.9950000  0  8G14G16G22G23G26G27G31G32            -0.000265453
  19687003.273 6  -3795557.250 6  -2945062.14148  19687000.76948
  18983064.327 7  -8521868.945 7  -6611749.82848  18983059.94048
  22548479.562 3  -4784519.328 3  -3487518.69145  22548473.52345
  21801240.069 6  -6757452.996 6  -5243709.20746  21801235.08546
  19486843.640 7  -5134372.262 7  -3991146.08648  19486843.47248
  20090383.421 6 -15207536.688 6 -11770676.78948  20090382.96048
  20268366.741 7  -6260965.473 7  -4866639.89848  20268362.40948
  22161982.812 5   -404304.602 5   -313889.93846  22161985.81946
 18  5 30  0 54 19.9950000  0  9G03G14G16G22G23G26G27G31G32         -0.000276636
  22458305.03011   -787691.39511                
  19685857.655 6  -3801576.238 6  -2949752.26248  19685855.46448
  18979794.710 7  -8539050.848 7  -6625138.32848  18979790.07348
  22546573.788 2  -4794529.527 2  -3495318.90245  22546568.46845
  21794969.140 6  -6790408.527 6  -5269388.85246  21794964.09746
  19484816.866 7  -5145021.516 7  -3999444.20348  19484817.35548
  20084066.601 6 -15240730.625 6 -11796542.19148  20084065.97648
  20265763.429 7  -6274646.242 7  -4877300.25048  20265759.11248
  22161993.194 5   -404250.078 5   -313847.45747  22161996.52647
 18  5 30  0 54 24.9950000  0  9G03G14G16G22G23G26G27G31G32         -0.000287821
  22456030.304 1   -799646.590 1  -2027172.12956  22456032.28056
  19684714.249 6  -3807584.195 6  -2954433.79348  19684712.38648
  18976526.608 7  -8556224.012 7  -6638520.01648  18976522.48348
  22544670.226 2  -4804537.465 2  -3503117.32045  22544664.38645
  21788699.023 6  -6823358.289 6  -5295063.95346  21788694.37446
  19482791.007 7  -5155667.129 7  -4007739.48448  19482791.12048
  20077751.976 6 -15273916.527 6 -11822401.33248  20077751.13648
  20263160.608 7  -6288323.832 7  -4887958.11348  20263156.53848
  22162003.866 5   -404192.289 5   -313802.44546  22162007.25746
 18  5 30  0 54 29.9950000  0  9G03G14G16G22G23G26G27G31G32         -0.000299004
  22453756.038 1   -811593.938 1  -2036481.75046  22453759.05046
  19683573.671 6  -3813580.512 6  -2959106.24648  19683571.03048
  18973260.585 7  -8573387.797 7  -6651894.39548  18973256.23048
  22542765.882 2  -4814542.445 2  -3510913.37545  22542761.37845
  21782430.187 6  -6856301.621 6  -5320734.09446  21782425.85846
  19480765.616 7  -5166308.617 7  -4016031.55548  19480765.99948
  20071438.249 6 -15307093.836 6 -11848253.77748  20071437.78848
  20260558.476 7  -6301997.691 7  -4898613.07048  20260554.57748
  22162015.015 5   -404130.660 5   -313754.44947  22162018.87447
 18  5 30  0 54 34.9950000  0  9G03G14G16G22G23G26G27G31G32         -0.000310186
  22451483.210 1   -823533.582 1  -2045785.33646  22451487.46846
  19682435.030 6  -3819565.262 6  -2963769.68848  19682432.73048
  18969995.819 7  -8590542.297 7  -6665261.54748  18969992.20248
  22540862.460 2  -4824544.605 2                
  21776162.577 6  -6889238.578 6  -5346399.25846  21776157.77646
  19478741.382 7  -5176945.992 7  -4024320.43448  19478742.10848
  20065126.241 6 -15340262.547 6 -11874099.51248  20065125.71448
  20257956.796 7  -6315667.852 7  -4909265.13748  20257953.45248
  22162028.132 5   -404065.211 5   -313703.44947  22162031.78847
 18  5 30  0 54 39.9950000  0  9G03G14G16G22G23G26G27G31G32         -0.000321371
  22449213.148 1   -835465.480 1  -2055082.93445  22449216.48745
  19681298.460 6  -3825538.563 6  -2968424.21948  19681295.71448
  18966733.608 7  -8607687.641 7  -6678621.55548  18966728.94048
  22538959.007 1  -4834544.156 1                
  21769896.093 6  -6922169.246 6  -5372059.51246  21769891.80046
  19476718.108 7  -5187579.367 7  -4032606.15648  19476718.29648
  20058816.030 6 -15373422.801 6 -11899938.67648  20058815.74148
  20255356.608 7  -6329334.398 7  -4919914.39148  20255353.08948
  22162041.218 5   -403996.184 5   -313649.68847  22162044.95247
 18  5 30  0 54 44.9950000  0  9G03G14G16G22G23G26G27G31G32         -0.000332556
  22446944.03011   -847389.91011  -2064374.75455  22446947.30055
  19680163.812 6  -3831500.648 6  -2973070.00048  19680160.92148
  18963472.632 7  -8624824.035 7  -6691974.59848  18963467.96048
  22537057.366 1  -4844541.305 1                
  21763629.960 6  -6955093.871 6  -5397715.05946  21763626.25346
  19474695.304 7  -5198208.984 7  -4040888.97748  19474695.84748
  20052507.288 6 -15406574.813 6 -11925771.40648  20052506.83548
  20252756.241 7  -6342997.574 7  -4930561.02348  20252752.96048
  22162055.069 5   -403923.688 5   -313593.22747  22162059.23047
 18  5 30  0 54 49.9950000  0  9G03G14G16G22G23G26G27G31G32         -0.000343739
  22444677.34311   -859306.56611  -2073660.50055  22444679.85555
  19679031.226 6  -3837451.273 6  -2977706.85548  19679028.66348
  18960213.343 7  -8641951.199 7  -6705320.44148  18960209.27348
  22535155.601 1  -4854535.707 1                
  21757366.038 6  -6988012.176 6  -5423365.68846  21757362.28846
  19472673.358 7  -5208834.664 7  -4049168.73048  19472674.19448
  20046200.460 6 -15439718.285 6 -11951597.48848  20046199.71848
  20250157.038 7  -6356657.152 7  -4941204.84448  20250154.02648
  22162069.640 5   -403847.559 5   -313533.91447  22162072.88247
 18  5 30  0 54 54.9950000  0  9G03G14G16G22G23G26G27G31G32         -0.000354927
  22442410.89011   -871216.19911  -2082940.65255  22442414.23755
  19677901.007 6  -3843390.863 6  -2982335.10948  19677897.64448
  18956955.499 7  -8659069.570 7  -6718659.43848  18956951.50348
  22533253.210 1  -4864527.891 1                
  21751102.858 6  -7020924.543 6  -5449011.68446  21751099.37046
  19470651.882 7  -5219456.727 7  -4057445.64148  19470652.32748
  20039895.187 6 -15472853.594 6 -11977417.21548  20039894.42148
  20247557.960 7  -6370313.473 7  -4951846.14548  20247555.16748
  22162084.421 5   -403768.199 5   -313472.09047  22162088.05047
 18  5 30  0 54 59.9950000  0  9G03G14G16G22G23G26G27G31G32         -0.000366110
  22440144.46811                  -2092215.08255  22440148.89855
  19676772.624 6  -3849319.316 6  -2986954.68848  19676770.05448
  18953699.874 7  -8676179.172 7  -6731991.59448  18953695.18748
  22531352.757 1  -4874517.789 1                
  21744841.429 5  -7053830.934 5  -5474653.01246  21744837.62846
  19468631.483 7  -5230075.223 7  -4065719.80148  19468632.06248
  20033590.671 6 -15505980.715 6 -12003230.55148  20033590.88648
  20244959.921 7  -6383966.555 7  -4962484.89848  20244957.09748
  22162100.827 6   -403685.504 6   -313407.67247  22162104.01547
 18  5 30  0 55  4.9950000  0  9G03G14G16G22G23G26G27G31G32         -0.000377300
  22437881.140 1   -895012.355 1  -2101483.09845  22437885.64045
  19675646.632 6  -3855235.703 6  -2991564.87148  19675644.02348
  18950446.140 7  -8693278.973 7  -6745316.12148  18950441.38648
  22529452.148 1  -4884504.363 1                
  21738580.265 5  -7086730.375 5  -5500288.93446  21738576.67146
  19466611.562 7  -5240689.090 7  -4073990.33648  19466612.48748
  20027289.015 6 -15539098.645 6 -12029036.73048  20027288.48348
  20242362.640 7  -6397615.344 7  -4973120.32848  20242360.16748
  22162117.819 6   -403598.625 6   -313339.98847  22162120.55847
 18  5 30  0 55  9.9950000  0  9G03G14G16G22G23G26G27G31G32         -0.000388487
  22435617.351 1   -906898.895 1  -2110745.35245  22435624.19445
  19674522.726 6  -3861140.773 6  -2996166.22748  19674520.34348
  18947193.905 7  -8710369.746 7  -6758633.60948  18947189.36248
  22527552.429 1  -4894488.410 1                
  21732320.694 5  -7119623.504 5  -5525919.94946  21732317.45246
  19464592.726 7  -5251299.105 7  -4082257.88748  19464593.42948
  20020988.749 6 -15572208.074 6 -12054836.28148  20020987.75748
  20239766.327 7  -6411260.586 7  -4983752.98048  20239763.12848
  22162135.124 6   -403508.203 6   -313269.56347  22162137.51547
 18  5 30  0 55 14.9950000  0  9G03G14G16G22G23G26G27G31G32         -0.000399675
  22433356.51511   -918777.68411  -2120001.58655  22433363.93755
  19673401.413 6  -3867034.586 6  -3000758.81348  19673398.71448
  18943943.007 7  -8727451.582 7  -6771944.12948  18943938.92548
  22525651.960 1  -4904470.137 1                
  21726062.483 5  -7152510.434 5  -5551546.14546  21726059.12446
  19462574.273 7  -5261905.340 7  -4090522.48848  19462575.11648
  20014689.554 6 -15605309.098 6 -12080629.28948  20014688.83548
  20237170.202 7  -6424902.359 7  -4994382.92648  20237167.17948
  22162153.046 6   -403414.387 6   -313196.46147  22162155.99947
 18  5 30  0 55 19.9950000  0  8G14G16G22G23G26G27G31G32            -0.000410860
  19672282.030 6  -3872917.152 6  -3005342.64148  19672279.35848
  18940694.312 6  -8744524.422 6  -6785247.65648  18940690.06548
  22523751.89011  -4914449.29311                
  21719805.398 5  -7185391.070 5  -5577167.41446  21719802.20646
  19460556.866 7  -5272507.801 7  -4098784.16448  19460557.23048
  20008392.648 6 -15638401.668 6 -12106415.69548  20008391.73348
  20234574.702 7  -6438540.621 7  -5005010.16048  20234571.99948
  22162171.194 6   -403317.113 6   -313120.69147  22162174.48347
 18  5 30  0 55 24.9950000  0  8G14G16G22G23G26G27G31G32            -0.000422050
  19671164.726 6  -3878788.230 6  -3009917.51648  19671161.90948
  18937447.233 6  -8761588.039 6  -6798543.98048  18937442.49148
  22521854.99911  -4924425.76611                
  21713549.851 5  -7218265.121 5  -5602783.50446  21713546.53446
  19458540.148 7  -5283106.215 7  -4107042.66448  19458540.54648
  20002096.733 6 -15671485.480 6 -12132195.30148  20002096.39848
  20231980.382 7  -6452175.090 7  -5015634.43048  20231977.73348
  22162190.265 6   -403216.152 6   -313042.03947  22162193.82347
 18  5 30  0 55 29.9950000  0  8G14G16G22G23G26G27G31G32            -0.000433241
  19670049.702 6  -3884648.121 6  -3014483.68447  19670047.01547
  18934202.007 6  -8778642.785 6  -6811833.40248  18934197.25748
  22519955.44411  -4934399.87511                
  21707295.233 5  -7251133.090 5  -5628394.93046  21707291.97246
  19456524.194 7  -5293700.996 7  -4115298.35248  19456524.38248
  19995802.819 6 -15704560.922 6 -12157968.37148  19995802.23048
  20229386.648 7  -6465806.168 7  -5026256.04748  20229383.37848
  22162210.452 5   -403111.914 5   -312960.82847  22162212.88247
 18  5 30  0 55 34.9950000  0  8G14G16G22G23G26G27G31G32            -0.000444429
  19668936.585 6  -3890497.797 6  -3019041.87547  19668933.54647
  18930957.874 6  -8795689.602 6  -6825116.63348  18930953.36248
  22518059.671 1  -4944372.563 1                
  21701042.226 5  -7283995.801 5  -5654002.23446  21701037.96846
  19454508.366 7  -5304292.965 7  -4123551.84048  19454508.96048
  19989510.148 6 -15737628.883 6 -12183735.60548  19989509.62848
  20226793.483 7  -6479434.711 7  -5036875.70348  20226790.05048
  22162231.046 6   -403005.242 6   -312877.74247  22162233.47647
