     2.10           OBSERVATION DATA    GPS(GPS)            RINEX VERSION / TYPE
cnvtToRINEX 2.50.0  convertToRINEX OPR  30-May-18 13:33 UTC PGM / RUN BY / DATE 
----------------------------------------------------------- COMMENT             
GI25                                                        MARKER NAME         
GI25                                                        MARKER NUMBER       
GNSS Observer       Trimble                                 OBSERVER / AGENCY   
0220379226          5700                2.32                REC # / TYPE / VERS 
                    TRM33429.00-GP                          ANT # / TYPE        
 -2966337.6911  5005167.6089  2605116.0904                  APPROX POSITION XYZ 
       -0.0620        0.0000        0.0000                  ANTENNA: DELTA H/E/N
     1     1     0                                          WAVELENGTH FACT L1/2
     4    C1    L1    L2    P2                              # / TYPES OF OBSERV 
  2018     5    30     0    19   50.0000000     GPS         TIME OF FIRST OBS   
  2018     5    30     1    35   50.0000000     GPS         TIME OF LAST OBS    
     0                                                      RCV CLOCK OFFS APPL 
    17                                                      LEAP SECONDS        
    12                                                      # OF SATELLITES     
   G03   693   691   687   687                              PRN / # OF OBS      
   G08   351   351   351   351                              PRN / # OF OBS      
   G14   913   913   913   913                              PRN / # OF OBS      
   G16   913   913   913   913                              PRN / # OF OBS      
   G21   271   264   232   232                              PRN / # OF OBS      
   G22   616   616   615   615                              PRN / # OF OBS      
   G23   913   913   913   913                              PRN / # OF OBS      
   G26   913   913   913   913                              PRN / # OF OBS      
   G27   913   913   913   913                              PRN / # OF OBS      
   G29    36    26     0     0                              PRN / # OF OBS      
   G31   913   913   913   913                              PRN / # OF OBS      
   G32   626   626   626   626                              PRN / # OF OBS      
CARRIER PHASE MEASUREMENTS: PHASE SHIFTS REMOVED            COMMENT             
                                                            END OF HEADER       
 18  5 30  0 19 50.0000000  0  9G03G14G16G22G23G26G27G31G32         -0.000097721
  23727416.67216    -48348.71516    -28719.36357  23727415.93857
  20539332.42217    -12995.66417     -9039.52759  20539329.69159
  20675917.64816   -102377.48816    -63644.19958  20675914.30158
  23583881.49215    -21166.25415    -11207.28557  23583876.24257
  24643641.66414   -198611.91814   -113017.22756  24643635.22356
  20586167.39817    -29008.85917    -18156.14559  20586167.25859
  22982009.19516   -222597.92616   -137490.72357  22982009.31357
  21569627.64117    -40834.83217    -27306.07058  21569624.59858
  22419920.46916     63259.87516     38948.46958  22419920.16058
 18  5 30  0 19 55.0000000  0  9G03G14G16G22G23G26G27G31G32         -0.000102591
  23726203.344 5    -54725.789 5    -33688.53147  23726202.84847
  20539014.344 7    -14667.891 7    -10342.56649  20539011.41449
  20673652.813 6   -114281.758 6    -72920.23848  20673648.84848
  23583402.281 5    -23683.496 5    -13168.78947  23583397.26247
  24638907.508 3   -223489.863 3   -132402.59046  24638901.43046
  20585516.414 7    -32429.535 7    -20821.60549  20585516.43449
  22977089.219 6   -248452.039 6   -157636.78947  22977089.16047
  21568644.227 7    -46002.344 7    -31332.69548  21568641.04748
  22421291.914 6     70466.547 6     44564.05148  22421291.94548
 18  5 30  0 20  0.0000000  0  9G03G14G16G22G23G26G27G31G32         -0.000107464
  23724989.977 5    -61099.293 5    -38654.90647  23724989.77747
  20538697.211 7    -16334.445 7    -11641.18049  20538694.04749
  20671388.477 6   -126182.395 6    -82193.46148  20671384.40248
  23582923.414 5    -26201.223 5    -15130.66047  23582917.97747
  24634171.773 3   -248374.398 3   -151793.10546  24634165.55946
  20584865.516 7    -35850.551 7    -23487.34449  20584865.48049
  22972168.391 5   -274311.504 5   -177787.04347  22972168.28547
  21567660.039 7    -51175.984 7    -35364.11748  21567656.68848
  22422662.836 6     77673.414 6     50179.78948  22422662.80148
 18  5 30  0 20  5.0000000  0  9G03G14G16G22G23G26G27G31G32         -0.000112341
  23723778.750 5    -67467.172 5    -43616.90247  23723778.55547
  20538381.523 7    -17993.293 7    -12933.79749  20538378.23849
  20669124.422 7   -138077.344 7    -91462.26248  20669120.36348
  23582444.727 5    -28717.359 5    -17091.28947  23582439.37147
  24629436.047 4   -273263.504 4   -171187.23846  24629429.36346
  20584214.906 7    -39269.828 7    -26151.70749  20584214.77749
  22967246.664 6   -300174.219 6   -197939.81647  22967246.78147
  21566674.688 7    -56353.656 7    -39398.67648  21566671.44148
  22424035.125 6     84882.543 6     55797.26648  22424035.07848
 18  5 30  0 20 10.0000000  0  9G03G14G16G22G23G26G27G31G32         -0.000117220
  23722567.781 6    -73828.125 6    -48573.48847  23722568.11347
  20538067.734 7    -19643.094 7    -14219.35549  20538064.62549
  20666862.328 7   -149965.246 7   -100725.56648  20666858.53548
  23581967.148 5    -31230.609 5    -19049.68047  23581961.04747
  24624699.508 4   -298155.730 4   -190583.78546  24624692.62546
  20583564.641 7    -42686.055 7    -28813.71149  20583564.99249
  22962325.172 5   -326038.879 5   -218094.10947  22962324.72347
  21565688.633 7    -61534.016 7    -43435.32448  21565684.91048
  22425407.438 6     92095.211 6     61417.52348  22425407.85248
 18  5 30  0 20 15.0000000  0  9G03G14G16G22G23G26G27G31G32         -0.000122103
  23721359.188 6    -80181.289 6    -53524.01247  23721359.82447
  20537755.539 7    -21283.012 7    -15497.21949  20537752.25849
  20664601.633 7   -161845.301 7   -109982.75848  20664597.68848
  23581488.969 5    -33740.102 5    -21005.13747  23581483.79747
  24619962.047 4   -323050.281 4   -209982.09846  24619955.27046
  20582915.563 8    -46098.367 8    -31472.66449  20582915.10249
  22957402.891 6   -351904.570 6   -238249.21147  22957403.01647
  21564702.688 6    -66716.219 6    -47473.39848  21564699.30148
  22426781.273 6     99312.305 6     67041.23848  22426780.98448
 18  5 30  0 20 20.0000000  0  9G03G14G16G22G23G26G27G31G32         -0.000126989
  23720151.805 6    -86526.211 6    -58468.10947  23720152.37147
  20537445.414 7    -22912.594 7    -16767.02049  20537442.15249
  20662342.680 7   -173716.977 7   -119233.42248  20662338.45348
  23581012.438 5    -36245.434 5    -22957.34047  23581007.04747
  24615224.164 4   -347946.684 4   -229381.90246  24615218.00846
  20582266.883 8    -49506.324 8    -34128.20749  20582267.10249
  22952480.969 6   -377770.828 6   -258404.76647  22952480.45347
  21563716.219 6    -71899.805 6    -51512.57448  21563712.64548
  22428155.469 6    106534.262 6     72668.69548  22428154.93848
 18  5 30  0 20 25.0000000  0  9G03G14G16G22G23G26G27G31G32         -0.000131878
  23718946.266 5    -92862.406 5    -63405.40247  23718946.58247
  20537137.242 7    -24531.270 7    -18028.34449  20537134.14149
  20660085.234 6   -185579.805 6   -128477.18448  20660081.38348
  23580536.258 5    -38746.023 5    -24905.85247  23580530.82047
  24610486.672 3   -372844.250 3   -248782.60246  24610480.24246
  20581619.250 8    -52909.414 8    -36779.97349  20581619.52749
  22947559.461 5   -403637.094 5   -278560.33247  22947558.51647
  21562729.719 6    -77084.238 6    -55552.41447  21562725.85247
  22429530.984 6    113761.586 6     78300.37548  22429530.60948
 18  5 30  0 20 30.0000000  0  9G03G14G16G22G23G26G27G31G32         -0.000136768
  23717742.227 5    -99189.590 5    -68335.67647  23717742.80947
  20536831.445 7    -26138.801 7    -19280.96548  20536828.18848
  20657829.133 6   -197433.520 6   -137713.84848  20657825.25448
  23580061.547 5    -41241.684 5    -26850.51647  23580055.58647
  24605747.633 3   -397742.922 3   -268184.16446  24605741.62546
  20580972.820 7    -56307.395 7    -39427.74649  20580972.91849
  22942635.977 5   -429503.172 5   -298715.73447  22942636.47747
  21561742.953 6    -82269.262 6    -59592.69147  21561739.22747
  22430907.094 6    120994.535 6     83936.43048  22430907.43048
 18  5 30  0 20 35.0000000  0  9G03G14G16G22G23G26G27G31G32         -0.000141661
  23716539.688 5   -105507.504 5    -73258.71947  23716540.35947
  20536527.586 7    -27734.945 7    -20524.72749  20536524.27049
  20655575.586 7   -209277.910 7   -146943.23848  20655571.52348
  23579587.383 5    -43732.133 5    -28791.14847  23579581.66847
  24601009.383 3   -422642.441 3   -287586.35546  24601003.59046
  20580327.219 7    -59700.020 7    -42071.35249  20580327.21949
  22937714.266 5   -455368.750 5   -318870.74247  22937714.48847
  21560756.406 6    -87454.602 6    -63633.23047  21560752.85947
  22432284.375 6    128233.332 6     89577.05148  22432284.87148
 18  5 30  0 20 40.0000000  0  9G03G14G16G22G23G26G27G31G32         -0.000146553
  23715338.938 6   -111815.836 6    -78174.30147  23715339.77347
  20536226.258 7    -29319.336 7    -21759.32449  20536222.69549
  20653323.648 6   -221112.590 6   -156165.07448  20653319.28548
  23579113.977 5    -46217.031 5    -30727.45347  23579109.03547
  24596271.398 4   -447542.344 4   -306988.89146  24596265.53946
  20579682.602 7    -63086.910 7    -44710.49249  20579682.81349
  22932792.672 5   -481233.426 5   -339025.02347  22932792.12947
  21559769.078 6    -92639.848 6    -67673.68047  21559765.76247
  22433663.445 6    135478.391 6     95222.51648  22433663.28948
 18  5 30  0 20 45.0000000  0  9G03G14G16G22G23G26G27G31G32         -0.000151449
  23714139.938 5   -118114.492 5    -83082.34447  23714141.64147
  20535926.883 6    -30891.957 6    -22984.75049  20535923.78949
  20651073.453 6   -232937.551 6   -165379.32848  20651069.36348
  23578642.039 5    -48696.328 5    -32659.36747  23578637.61347
  24591532.828 4   -472442.578 4   -326391.66446  24591527.46146
  20579039.344 7    -66468.082 7    -47345.18049  20579039.54349
  22927870.563 5   -507097.199 5   -359178.60947  22927870.28547
  21558782.547 6    -97825.035 6    -71714.09848  21558779.32048
  22435043.766 6    142729.664 6    100872.85548  22435043.53548
 18  5 30  0 20 50.0000000  0  9G03G14G16G22G23G26G27G31G32         -0.000156347
  23712943.453 5   -124403.598 5    -87982.95347  23712944.94547
  20535629.852 7    -32452.820 7    -24201.01248  20535626.18048
  20648825.219 6   -244752.793 6   -174586.01648  20648821.52748
  23578171.820 5    -51170.117 5    -34587.00447  23578167.00047
  24586793.836 3   -497343.289 3   -345794.81646  24586788.61346
  20578396.945 7    -69843.520 7    -49975.39149  20578396.92649
  22922949.305 5   -532960.008 5   -379331.49247  22922949.23047
  21557796.023 6   -103010.137 6    -75754.43847  21557792.05147
  22436424.203 6    149987.102 6    106528.00848  22436424.48448
 18  5 30  0 20 55.0000000  0  9G03G14G16G22G23G26G27G31G32         -0.000161245
  23711747.297 5   -130682.930 5    -92875.94547  23711750.02747
  20535335.078 7    -34001.742 7    -25407.97348  20535331.30948
  20646578.813 7   -256558.188 7   -183785.03148  20646575.02348
  23577701.898 5    -53638.246 5    -36510.23847  23577697.19547
  24582055.070 4   -522244.152 4   -365198.07846  24582050.32046
  20577755.469 7    -73213.102 7    -52601.05149  20577755.64149
  22918027.539 5   -558821.684 5   -399483.43847  22918028.19547
  21556809.297 6   -108195.031 6    -79794.62947  21556805.60947
  22437806.906 6    157250.957 6    112188.13348  22437806.64548
 18  5 30  0 21  0.0000000  0  9G03G14G16G22G23G26G27G31G32         -0.000166145
  23710555.438 5   -136952.262 5    -97761.13347  23710556.98447
  20535042.508 6    -35538.516 6    -26605.46148  20535038.91848
  20644334.422 7   -268353.500 7   -192976.18848  20644330.63748
  23577233.266 5    -56100.461 5    -38428.84847  23577228.54347
  24577316.875 4   -547145.039 4   -384601.39146  24577311.51246
  20577115.547 7    -76576.648 7    -55221.99249  20577115.75449
  22913106.633 5   -584682.105 5   -419634.42647  22913107.04347
  21555822.398 6   -113379.484 6    -83834.46147  21555818.50047
  22439189.875 6    164521.371 6    117853.39148  22439189.90248
 18  5 30  0 21  5.0000000  0  9G03G14G16G22G23G26G27G31G32         -0.000171047
  23709363.922 5   -143211.625 5   -102638.57047  23709365.98447
  20534752.516 7    -37063.148 7    -27793.49248  20534748.57848
  20642092.070 7   -280138.711 7   -202159.46948  20642088.21948
  23576766.398 5    -58556.816 5    -40342.89546  23576761.18446
  24572578.633 3   -572045.875 3   -404004.62946  24572573.41046
  20576476.750 7    -79934.051 7    -57838.15249  20576476.75049
  22908185.938 5   -610541.109 5   -439784.30547  22908186.26247
  21554836.039 6   -118563.438 6    -87873.90247  21554832.23847
  22440574.867 6    171798.375 6    123523.77348  22440574.77048
 18  5 30  0 21 10.0000000  0  9G03G14G16G22G23G26G27G31G32         -0.000175949
  23708174.977 5   -149460.809 5   -107508.05947  23708177.08247
  20534464.719 7    -38575.445 7    -28971.91048  20534461.44148
  20639851.117 7   -291913.625 7   -211334.73048  20639847.68448
  23576300.422 5    -61007.082 5    -42252.19947  23576294.64547
  24567840.445 3   -596946.414 3   -423407.69546  24567834.87946
  20575839.203 7    -83285.211 7    -60449.44549  20575838.99249
  22903264.969 5   -636398.543 5   -459932.95747  22903265.37547
  21553850.141 6   -123746.746 6    -91912.85547  21553846.25447
  22441960.164 6    179082.148 6    129199.43448  22441961.00048
 18  5 30  0 21 15.0000000  0  9G03G14G16G22G23G26G27G31G32         -0.000180855
  23706987.852 5   -155699.430 5   -112369.34847  23706989.80947
  20534178.961 7    -40075.047 7    -30140.43848  20534175.43048
  20637612.672 7   -303677.891 7   -220501.69548  20637608.82448
  23575835.172 5    -63450.895 5    -44156.46547  23575829.69547
  24563101.430 3   -621846.340 3   -442810.21146  24563096.35946
  20575202.594 7    -86629.746 7    -63055.58249  20575202.46949
  22898346.031 5   -662254.000 5   -480080.08647  22898344.82847
  21552863.570 6   -128929.004 6    -95950.98047  21552859.79347
  22443348.234 6    186373.047 6    134880.64548  22443348.37948
 18  5 30  0 21 20.0000000  0  9G03G14G16G22G23G26G27G31G32         -0.000185759
  23705802.336 5   -161927.637 5   -117222.50047  23705804.36747
  20533896.586 6    -41561.980 6    -31299.10548  20533892.62948
  20635375.930 7   -315431.555 7   -229660.40248  20635372.21148
  23575371.180 5    -65888.324 5    -46055.77047  23575365.43447
  24558362.688 2   -646745.684 2   -462212.30546  24558358.27046
  20574567.383 7    -89967.707 7    -65656.60249  20574567.66049
  22893425.555 5   -688107.570 5   -500225.70347  22893425.22747
  21551877.984 6   -134110.258 6    -99988.32447  21551874.44947
  22444736.664 6    193671.023 6    140567.34848  22444736.77348
 18  5 30  0 21 25.0000000  0  9G03G14G16G22G23G26G27G31G32         -0.000190664
  23704618.953 5   -168145.676 5   -122067.75047  23704621.17247
  20533615.570 6    -43036.609 6    -32448.16448  20533612.41848
  20633141.328 7   -327174.953 7   -238811.09448  20633137.39548
  23574908.594 5    -68319.645 5    -47950.30547  23574902.96547
  24553624.992 3   -671644.691 3   -481614.18446  24553620.59846
  20573933.148 7    -93299.441 7    -68252.76649  20573933.50849
  22888505.906 5   -713959.555 5   -520370.11347  22888505.50047
  21550891.711 6   -139290.871 6   -104025.16847  21550888.23847
  22446126.555 6    200975.695 6    146259.30148  22446126.60548
 18  5 30  0 21 30.0000000  0  9G03G14G16G22G23G26G27G31G32         -0.000195572
  23703438.336 5   -174352.922 5   -126904.55547  23703439.48047
  20533337.930 7    -44498.242 7    -33587.10248  20533334.23848
  20630908.344 7   -338907.488 7   -247953.33648  20630904.77348
  23574447.680 5    -70744.375 5    -49839.71947  23574441.86347
  24548888.086 3   -696542.805 3   -501015.30946  24548882.29746
  20573300.836 7    -96624.332 7    -70843.59449  20573300.68049
  22883587.586 5   -739809.281 5   -540512.76247  22883586.69547
  21549906.430 6   -144470.195 6   -108061.02347  21549903.60547
  22447518.352 6    208287.730 6    151956.98448  22447518.25048
 18  5 30  0 21 35.0000000  0  9G03G14G16G22G23G26G27G31G32         -0.000200481
  23702259.594 5   -180549.836 5   -131733.33247  23702260.63747
  20533061.906 7    -45947.281 7    -34716.23048  20533058.36748
  20628677.656 7   -350629.473 7   -257087.35248  20628673.71948
  23573987.242 6    -73162.805 6    -51724.20747  23573981.82447
  24544149.406 2   -721440.250 2   -520415.92646  24544145.02346
  20572669.313 7    -99942.734 7    -73429.35249  20572669.35549
  22878668.016 5   -765657.066 5   -560653.91047  22878667.25447
  21548920.344 6   -149648.539 6   -112096.09447  21548917.57047
  22448911.156 6    215606.727 6    157660.09448  22448910.94148
 18  5 30  0 21 40.0000000  0  9G03G14G16G22G23G26G27G31G32         -0.000205391
  23701082.164 5   -186736.906 5   -136554.44147  23701083.28547
  20532788.734 7    -47384.352 7    -35836.02748  20532785.23048
  20626448.844 7   -362341.570 7   -266213.65648  20626444.95348
  23573527.789 5    -75575.574 5    -53604.30547  23573522.12147
  24539411.477 3   -746337.676 3   -539816.48846  24539407.01646
  20572038.594 7   -103255.262 7    -76010.55549  20572039.12549
  22873749.828 5   -791503.578 5   -580794.05547  22873748.81647
  21547934.891 6   -154826.559 6   -116130.93447  21547932.60947
  22450305.445 6    222932.090 6    163368.17248  22450305.29348
 18  5 30  0 21 45.0000000  0  9G03G14G16G22G23G26G27G31G32         -0.000210300
  23699906.539 5   -192913.543 5   -141367.41047  23699907.41847
  20532517.438 7    -48808.730 7    -36945.94148  20532514.25448
  20624222.094 7   -374043.027 7   -275331.68448  20624218.22348
  23573069.313 5    -77981.945 5    -55479.40647  23573064.41047
  24534674.672 2   -771234.504 2   -559216.59046  24534669.87946
  20571409.477 7   -106561.266 7    -78586.66849  20571410.00049
  22868831.531 5   -817348.066 5   -600932.63347  22868830.85547
  21546949.555 6   -160003.531 6   -120164.93847  21546947.53147
  22451700.063 6    230264.484 6    169081.70748  22451700.57848
 18  5 30  0 21 50.0000000  0  9G03G14G16G22G23G26G27G31G32         -0.000215212
  23698732.805 5   -199079.316 5   -146171.90647  23698733.51247
  20532249.227 6    -50220.059 6    -38045.68448  20532245.68848
  20621997.672 7   -385733.477 7   -284441.12148  20621993.99248
  23572613.750 5    -80381.594 5    -57349.25847  23572607.92247
  24529936.945 2   -796130.215 2   -578615.90646  24529932.24246
  20570782.047 7   -109860.316 7    -81157.35549  20570782.23449
  22863913.500 4   -843190.105 4   -621069.29747  22863912.89547
  21545965.453 6   -165179.059 6   -124197.81347  21545961.99647
  22453097.047 6    237604.316 6    174801.05148  22453097.16848
 18  5 30  0 21 55.0000000  0  9G03G14G16G22G23G26G27G31G32         -0.000220125
  23697562.031 5   -205233.895 5   -150967.69147  23697562.64847
  20531982.961 7    -51617.973 7    -39134.96948  20531979.99648
  20619775.039 7   -397412.566 7   -293541.71548  20619770.68448
  23572157.961 5    -82774.156 5    -59213.61747  23572152.27047
  24525199.664 3   -821024.477 3   -598014.00846  24525194.86346
  20570155.445 7   -113152.070 7    -83722.37149  20570156.04749
  22858997.117 5   -869029.387 5   -641203.81347  22858995.77347
  21544980.578 5   -170352.801 5   -128229.30547  21544978.20747
  22454495.211 6    244951.949 6    180526.46148  22454495.53948
 18  5 30  0 22  0.0000000  0  9G03G14G16G22G23G26G27G31G32         -0.000225039
  23696393.445 5   -211377.113 5   -155754.62947  23696393.54747
  20531719.500 7    -53002.289 7    -40213.66449  20531716.61349
  20617555.141 7   -409080.176 7   -302633.36748  20617550.69948
  23571704.367 5    -85159.543 5    -61072.37147  23571698.19947
  24520462.734 3   -845917.035 3   -617410.77046  24520458.40646
  20569530.570 7   -116436.438 7    -86281.61749  20569530.71549
  22854080.414 5   -894865.688 5   -661336.03547  22854079.08247
  21543996.852 5   -175524.551 5   -132259.24647  21543993.69547
  22455894.977 6    252307.430 6    186258.00048  22455895.44148
 18  5 30  0 22  5.0000000  0  9G03G14G16G22G23G26G27G31G32         -0.000229950
  23695226.758 5   -217509.059 5   -160532.78547  23695226.43047
  20531458.617 6    -54373.109 6    -41281.84849  20531455.75449
  20615336.766 7   -420736.359 7   -311716.10248  20615332.25848
  23571251.438 5    -87537.770 5    -62925.53947  23571245.58247
  24515726.352 3   -870808.145 3   -636806.44946  24515722.15646
  20568907.000 7   -119713.434 7    -88835.11749  20568907.31649
  22849164.570 5   -920699.125 5   -681465.99647  22849163.44947
  21543012.461 5   -180694.398 5   -136287.70747  21543009.80947
  22457296.234 6    259670.781 6    191995.66448  22457296.56348
 18  5 30  0 22 10.0000000  0  9G03G14G16G22G23G26G27G31G32         -0.000234865
  23694061.992 6   -223629.781 6   -165302.18847  23694062.13747
  20531200.531 7    -55730.461 7    -42339.51649  20531197.73049
  20613120.656 7   -432381.156 7   -320789.96948  20613116.38348
  23570799.805 5    -89908.887 5    -64773.16847  23570794.39547
  24510990.172 3   -895697.684 3   -656200.91846  24510985.98446
  20568284.469 7   -122983.160 7    -91382.96949  20568285.13749
  22844249.188 4   -946529.660 4   -701593.69147  22844248.02747
  21542029.055 6   -185862.426 6   -140314.74647  21542026.34847
  22458698.570 6    267041.914 6    197739.38348  22458699.05948
 18  5 30  0 22 15.0000000  0  9G03G14G16G22G23G26G27G31G32         -0.000239779
  23692899.742 5   -229739.391 5   -170062.94947  23692899.50847
  20530944.867 6    -57074.434 6    -43386.77348  20530941.63748
  20610907.242 7   -444014.664 7   -329855.03948  20610902.63348
  23570350.930 5    -92273.008 5    -66615.34447  23570344.21547
  24506253.703 3   -920585.711 3   -675594.18846  24506249.96946
  20567663.867 7   -126245.660 7    -93925.17649  20567664.49249
  22839334.641 4   -972357.367 4   -721719.17247  22839333.33647
  21541046.352 6   -191028.629 6   -144340.37147  21541043.08247
  22460103.398 6    274420.750 6    203489.11748  22460103.40648
 18  5 30  0 22 20.0000000  0  9G03G14G16G22G23G26G27G31G32         -0.000244694
  23691738.719 6   -235837.656 6   -174814.85947  23691738.80947
  20530691.844 6    -58404.863 6    -44423.47749  20530688.88749
  20608695.477 7   -455636.684 7   -338911.16848  20608691.06648
  23569901.617 5    -94629.965 5    -68451.94147  23569896.02747
  24501518.688 3   -945472.164 3   -694986.25446  24501514.01646
  20567044.508 7   -129500.789 7    -96461.64149  20567044.75449
  22834420.422 5   -998182.012 5   -741842.26647  22834419.14547
  21540064.148 6   -196192.785 6   -148364.39547  21540060.32447
  22461509.031 6    281807.430 6    209244.96548  22461509.03148
 18  5 30  0 22 25.0000000  0  9G03G14G16G22G23G26G27G31G32         -0.000249609
  23690579.945 5   -241924.582 5   -179557.89847  23690580.03147
  20530441.102 6    -59721.723 6    -45449.60549  20530438.19949
  20606485.969 7   -467247.223 7   -347958.34048  20606481.78148
  23569455.094 5    -96979.719 5    -70282.91847  23569449.07047
  24496783.234 3   -970356.824 3   -714376.85946  24496779.02346
  20566426.500 7   -132748.504 7    -98992.32849  20566426.80149
  22829506.578 4  -1024003.613 4   -761962.99647  22829505.69947
  21539081.469 6   -201355.055 6   -152386.93447  21539077.87147
  22462916.398 6    289202.016 6    215006.96148  22462916.28548
 18  5 30  0 22 30.0000000  0  9G03G14G16G22G23G26G27G31G32         -0.000254524
  23689424.227 6   -248000.121 6   -184292.09847  23689423.41847
  20530193.047 6    -61024.949 6    -46465.11349  20530190.13349
  20604278.578 7   -478846.191 7   -356996.49648  20604274.00048
  23569009.141 5    -99322.277 5    -72108.28947  23569003.91847
  24492047.523 4   -995239.672 4   -733766.04346  24492043.93846
  20565809.992 7   -135988.785 7   -101517.22749  20565810.54349
  22824593.555 5  -1049822.133 5   -782081.32047  22824592.84447
  21538099.297 6   -206515.293 6   -156407.88747  21538095.66447
  22464325.266 6    296604.551 6    220775.15648  22464325.29348
 18  5 30  0 22 35.0000000  0  9G03G14G16G22G23G26G27G31G32         -0.000259439
  23688270.516 5   -254064.289 5   -189017.43047  23688269.39147
  20529947.555 6    -62314.570 6    -47470.01648  20529944.20748
  20602073.609 7   -490433.602 7   -366025.65248  20602068.91848
  23568564.406 5   -101657.516 5    -73927.94947  23568559.45347
  24487313.195 4  -1020120.758 4   -753153.90246  24487309.55546
  20565194.625 7   -139221.594 7   -104036.29749  20565195.01649
  22819681.563 3  -1075637.211 3   -802197.02346  22819680.72746
  21537118.023 6   -211673.504 6   -160427.27347  21537114.65647
  22465734.930 6    304014.992 6    226549.50448  22465735.68048
 18  5 30  0 22 40.0000000  0  9G03G14G16G22G23G26G27G31G32         -0.000264357
  23687119.234 6   -260117.102 6   -193733.91047  23687117.68047
  20529704.664 7    -63590.594 7    -48464.32449  20529701.62149
  20599870.781 6   -502009.457 6   -375045.80548  20599866.75048
  23568121.789 5   -103985.566 5    -75742.02347  23568116.81347
  24482579.094 5  -1045000.160 5   -772540.42246  24482574.66846
  20564580.859 7   -142446.988 7   -106549.59449  20564581.35949
  22814769.023 5  -1101449.082 5   -822309.72747  22814769.34847
  21536137.055 6   -216829.711 6   -164445.09047  21536132.96947
  22467147.063 6    311433.340 6    232330.03948  22467147.48048
 18  5 30  0 22 45.0000000  0  9G03G14G16G22G23G26G27G31G32         -0.000269274
  23685969.609 6   -266158.398 6   -198441.41447  23685967.89547
  20529464.453 6    -64852.773 6    -49447.84449  20529461.16849
  20597670.164 7   -513573.648 7   -384056.85548  20597666.07448
  23567680.742 5   -106306.277 5    -77550.37147  23567675.09047
  24477845.156 4  -1069877.626 4   -791925.46646  24477840.92646
  20563968.422 7   -145664.813 7   -109056.98849  20563968.54349
  22809857.844 4  -1127257.926 4   -842420.59447  22809858.40647
  21535155.938 6   -221983.668 6   -168461.15647  21535152.15647
  22468559.914 6    318859.730 6    238116.80948  22468560.36348
 18  5 30  0 22 50.0000000  0  9G03G14G16G22G23G26G27G31G32         -0.000274191
  23684821.680 6   -272188.449 6   -203140.15647  23684819.57847
  20529227.125 6    -66101.418 6    -50420.81649  20529223.98049
  20595471.711 7   -525126.414 7   -393059.01248  20595468.03548
  23567240.125 5   -108619.871 5    -79353.18447  23567234.84847
  24473111.508 4  -1094753.320 4   -811309.11346  24473107.27746
  20563357.547 7   -148875.328 7   -111558.68449  20563357.61349
  22804947.883 5  -1153063.711 5   -862528.94947  22804946.50847
  21534175.813 6   -227135.664 6   -172475.70747  21534171.16847
  22469975.141 6    326293.938 6    243909.69548  22469975.03948
 18  5 30  0 22 55.0000000  0  9G03G14G16G22G23G26G27G31G32         -0.000279108
  23683676.328 6   -278207.035 6   -207829.95747  23683674.31347
  20528991.672 6    -67336.352 6    -51383.10248  20528988.76648
  20593275.141 7   -536667.504 7   -402052.07848  20593271.46148
  23566800.922 5   -110926.199 5    -81150.31647  23566796.29747
  24468377.594 4  -1119627.172 4   -830691.34846  24468373.82446
  20562748.289 7   -152078.313 7   -114054.52349  20562748.32449
  22800037.109 5  -1178866.215 5   -882634.76647  22800036.58247
  21533195.328 6   -232285.500 6   -176488.56347  21533191.40647
  22471391.531 6    333736.137 6    249708.79748  22471391.48848
 18  5 30  0 23  0.0000000  0  9G03G14G16G22G23G26G27G31G32         -0.000284027
  23682532.945 6   -284214.391 6   -212511.01247  23682530.78547
  20528759.680 6    -68557.754 6    -52334.85248  20528756.14148
  20591081.289 7   -548197.207 7   -411036.25448  20591077.88748
  23566363.250 5   -113225.469 5    -82941.98447  23566358.93847
  24463644.539 5  -1144499.262 5   -850072.20746  24463641.35946
  20562139.836 7   -155274.066 7   -116544.71549  20562139.86749
  22795128.109 5  -1204665.625 5   -902738.21547  22795126.64847
  21532216.195 6   -237433.344 6   -180499.87547  21532211.65247
  22472809.109 6    341186.082 6    255513.93448  22472808.72748
 18  5 30  0 23  5.0000000  0  9G03G14G16G22G23G26G27G31G32         -0.000288944
  23681392.000 6   -290210.067 6   -217182.96847  23681389.30147
  20528529.656 7    -69765.246 7    -53275.76248  20528526.64148
  20588889.500 7   -559715.043 7   -420011.20348  20588885.99648
  23565927.383 5   -115517.277 5    -84727.80147  23565922.27047
  24458912.633 5  -1169369.199 5   -869451.38746  24458909.14846
  20561533.313 7   -158462.082 7   -119028.88749  20561533.07849
  22790218.711 5  -1230461.531 5   -922838.90647  22790217.80947
  21531237.117 6   -242578.813 6   -184509.32847  21531232.66447
  22474228.422 6    348644.188 6    261325.43848  22474227.68048
 18  5 30  0 23 10.0000000  0  9G03G14G16G22G23G26G27G31G32         -0.000293863
  23680252.422 5   -296194.328 5   -221846.04347  23680251.10547
  20528302.531 7    -70958.996 7    -54205.95748  20528299.28148
  20586700.141 7   -571221.242 7   -428977.07448  20586696.76248
  23565492.516 5   -117801.738 5    -86507.90647  23565487.57047
  24454180.406 5  -1194237.098 5   -888828.96147  24454177.16047
  20560928.203 7   -161642.594 7   -121507.21149  20560928.10249
  22785310.352 5  -1256254.043 5   -942936.95747  22785309.73047
  21530258.883 6   -247722.121 6   -188517.10247  21530254.41047
  22475648.914 6    356110.301 6    267143.16048  22475648.57448
 18  5 30  0 23 15.0000000  0  9G03G14G16G22G23G26G27G31G32         -0.000298782
  23679116.133 5   -302167.023 5   -226500.10247  23679114.03947
  20528077.789 7    -72138.914 7    -55125.36748  20528075.58648
  20584512.602 6   -582715.738 6   -437933.82448  20584508.84448
  23565059.141 5   -120078.867 5    -88282.28547  23565054.32447
  24449447.727 5  -1219102.957 5   -908204.94546  24449444.83646
  20560324.164 7   -164815.523 7   -123979.61749  20560324.29749
  22780402.938 5  -1282043.152 5   -963032.36347  22780402.19947
  21529280.430 6   -252863.164 6   -192523.10947  21529276.28147
  22477071.289 6    363584.449 6    272967.16048  22477070.78148
 18  5 30  0 23 20.0000000  0  9G03G14G16G22G23G26G27G31G32         -0.000303701
  23677981.375 5   -308128.055 5   -231145.06647  23677979.84047
  20527856.102 6    -73304.809 6    -56033.88348  20527853.42248
  20582327.734 6   -594198.301 6   -446881.27748  20582323.78148
  23564627.000 5   -122348.445 5    -90050.79346  23564622.20346
  24444716.930 5  -1243966.570 5   -927579.18046  24444713.55946
  20559722.078 7   -167980.703 7   -126446.00049  20559722.05549
  22775496.836 5  -1307828.559 5   -983124.86347  22775495.62547
  21528302.172 6   -258001.648 6   -196527.12947  21528298.58247
  22478494.867 6    371066.828 6    278797.58248  22478494.39548
 18  5 30  0 23 25.0000000  0  9G03G14G16G22G23G26G27G31G32         -0.000308622
  23676849.070 5   -314077.246 5   -235780.80546  23676847.87546
  20527637.016 6    -74456.641 6    -56931.39848  20527634.30148
  20580144.945 7   -605668.879 7   -455819.39848  20580141.04348
  23564196.188 5   -124610.457 5    -91813.39547  23564191.21947
  24439986.836 5  -1268827.766 5   -946951.55146  24439981.99646
  20559120.938 7   -171138.043 7   -128906.27049  20559120.82849
  22770590.250 5  -1333610.207 5  -1003214.45747  22770590.11747
  21527325.047 6   -263137.590 6   -200529.16847  21527321.15647
  22479920.164 6    378557.520 6    284634.45748  22479919.68848
 18  5 30  0 23 30.0000000  0  9G03G14G16G22G23G26G27G31G32         -0.000313541
  23675719.492 5   -320014.754 5   -240407.43846  23675717.71146
  20527420.641 7    -75594.387 7    -57817.96549  20527417.65249
  20577964.461 7   -617127.539 7   -464748.21948  20577960.77748
  23563768.008 5   -126864.902 5    -93570.10547  23563761.97347
  24435255.648 5  -1293686.652 5   -966322.08647  24435250.89547
  20558521.617 7   -174287.605 7   -131360.47749  20558521.95749
  22765684.555 5  -1359388.125 5  -1023301.12147  22765684.56647
  21526348.414 6   -268271.008 6   -204529.23047  21526344.96547
  22481347.359 6    386056.469 6    290477.78548  22481346.55948
 18  5 30  0 23 35.0000000  0  9G03G14G16G22G23G26G27G31G32         -0.000318460
  23674591.688 4   -325940.578 4   -245024.95746  23674589.89546
  20527206.695 6    -76718.195 6    -58693.66849  20527204.13349
  20575786.516 6   -628574.320 6   -473667.78948  20575782.60948
  23563340.977 5   -129111.898 5    -95321.02047  23563334.25047
  24430525.742 5  -1318543.316 5   -985690.91846  24430521.16446
  20557923.930 7   -177429.523 7   -133808.71949  20557923.72749
  22760780.039 5  -1385162.410 5  -1043384.98047  22760779.72747
  21525372.297 6   -273401.984 6   -208527.39147  21525368.57847
  22482775.805 6    393563.547 6    296327.44148  22482775.02048
 18  5 30  0 23 40.0000000  0  9G03G14G16G22G23G26G27G31G32         -0.000323381
  23673466.875 5   -331855.004 5   -249633.60547  23673464.87147
  20526995.328 7    -77828.242 7    -59558.64849  20526992.98449
  20573609.477 7   -640009.441 7   -482578.27348  20573606.43848
  23562914.227 5   -131351.715 5    -97066.33247  23562908.03947
  24425796.516 5  -1343397.879 5  -1005058.13347  24425791.79747
  20557327.297 7   -180563.945 7   -136251.12549  20557327.56349
  22755875.828 5  -1410933.180 5  -1063466.09047  22755875.41447
  21524396.289 6   -278530.676 6   -212523.75847  21524393.18847
  22484206.133 6    401078.555 6    302183.27748  22484205.10548
 18  5 30  0 23 45.0000000  0  9G03G14G16G22G23G26G27G31G32         -0.000328302
  23672343.977 5   -337757.695 5   -254233.10247  23672342.14847
  20526786.859 7    -78924.227 7    -60412.66449  20526784.25849
  20571435.922 7   -651432.629 7   -491479.46148  20571432.82048
  23562488.930 5   -133583.992 5    -98805.78146  23562483.35546
  24421066.914 5  -1368250.047 5  -1024423.45747  24421062.77747
  20556732.398 7   -183690.605 7   -138687.48049  20556732.33649
  22750972.563 5  -1436700.188 5  -1083544.26647  22750971.45747
  21523420.727 6   -283656.820 6   -216518.16447  21523417.81347
  22485637.578 6    408601.816 6    308045.53548  22485636.52048
 18  5 30  0 23 50.0000000  0  9G03G14G16G22G23G26G27G31G32         -0.000333223
  23671222.586 5   -343648.676 5   -258823.47747  23671221.17647
  20526580.922 7    -80006.160 7    -61255.74249  20526578.27349
  20569264.695 6   -662843.879 6   -500371.35548  20569261.68048
  23562065.266 4   -135808.723 4   -100539.33246  23562059.75846
  24416337.906 5  -1393099.805 5  -1043786.89147  24416333.80547
  20556138.742 7   -186809.492 7   -141117.78149  20556138.95749
  22746069.797 5  -1462463.414 5  -1103619.50047  22746068.81347
  21522445.477 6   -288780.418 6   -220510.57447  21522442.18847
  22487070.469 6    416133.301 6    313914.21948  22487069.79748
 18  5 30  0 23 55.0000000  0  9G03G14G16G22G23G26G27G31G32         -0.000338142
  23670103.555 5   -349527.742 5   -263404.58247  23670102.43047
  20526378.039 7    -81073.910 7    -62087.75449  20526375.40649
  20567095.344 6   -674243.027 6   -509253.80948  20567092.81348
  23561643.180 5   -138025.809 5   -102266.93446  23561638.00846
  24411609.516 5  -1417946.977 5  -1063148.32446  24411605.76646
  20555546.664 7   -189920.461 7   -143541.91849  20555546.88349
  22741168.414 5  -1488222.645 5  -1123691.62547  22741166.85947
  21521471.195 6   -293901.270 6   -224500.85247  21521467.91047
  22488505.055 6    423673.172 6    319789.42248  22488504.38348
 18  5 30  0 24  0.0000000  0  9G03G14G16G22G23G26G27G31G32         -0.000343063
  23668987.000 5   -355395.082 5   -267976.53147  23668986.21147
  20526177.719 7    -82127.559 7    -62908.78549  20526174.70349
  20564928.430 6   -685630.227 6   -518126.95348  20564925.66448
  23561222.703 4   -140235.383 4   -103988.70746  23561217.66046
  24406882.000 5  -1442791.738 5  -1082507.88746  24406877.68846
  20554956.219 7   -193023.688 7   -145960.02049  20554956.36749
  22736267.586 5  -1513978.004 5  -1143760.73047  22736265.98047
  21520497.375 6   -299019.516 6   -228489.08247  21520493.55147
  22489941.680 6    431221.293 6    325671.06348  22489940.32448
 18  5 30  0 24  5.0000000  0  9G03G14G16G22G23G26G27G31G32         -0.000347984
  23667873.055 5   -361250.633 5   -272539.28547  23667872.51647
  20525979.891 7    -83167.070 7    -63718.79749  20525976.70749
  20562763.859 6   -697005.402 6   -526990.72748  20562761.10548
  23560804.219 4   -142437.355 4   -105704.53947  23560798.48847
  24402154.961 5  -1467633.949 5  -1101865.45746  24402150.02746
  20554367.195 7   -196119.055 7   -148371.99649  20554367.38749
  22731366.938 5  -1539729.465 5  -1163826.78947  22731365.41047
  21519523.672 6   -304135.109 6   -232475.24247  21519520.47347
  22491379.500 6    438777.688 6    331559.14848  22491377.97348
 18  5 30  0 24 10.0000000  0  9G03G14G16G22G23G26G27G31G32         -0.000352905
  23666762.383 3   -367094.508 3   -277092.97346  23666760.79346
  20525784.422 7    -84192.785 7    -64518.06349  20525781.36749
  20560602.000 6   -708368.887 6   -535845.39148  20560598.83648
  23560387.133 4   -144632.090 4   -107414.72346  23560380.89146
  24397427.102 3  -1492473.723 3  -1121221.15646  24397423.14146
  20553779.609 7   -199206.957 7   -150778.14549  20553779.79749
  22726466.828 4  -1565477.215 4  -1183889.97747  22726466.48847
  21518550.344 6   -309248.328 6   -236459.57447  21518546.82847
  22492818.875 6    446342.059 6    337453.44948  22492817.96948
 18  5 30  0 24 15.0000000  0  9G03G14G16G22G23G26G27G31G32         -0.000357826
  23665656.453 2   -372926.699 2   -281637.55146  23665651.67246
  20525591.961 7    -85204.328 7    -65306.30549  20525588.91049
  20558441.570 6   -719720.266 6   -544690.62948  20558438.64548
  23559970.953 4   -146819.219 4   -109118.98046  23559964.84046
  24392700.742 3  -1517311.086 3  -1140574.94546  24392696.63346
  20553193.617 7   -202286.961 7   -153178.13349  20553193.89149
  22721568.109 5  -1591220.996 5  -1203950.09047  22721567.48047
  21517578.539 6   -314358.789 6   -240441.75447  21517574.41047
  22494260.008 6    453914.750 6    343354.21548  22494259.05948
 18  5 30  0 24 20.0000000  0  9G03G14G16G22G23G26G27G31G32         -0.000362747
  23664543.852 5   -378747.121 5   -286172.94147  23664543.58647
  20525402.320 7    -86201.535 7    -66083.33249  20525399.12549
  20556283.891 6   -731059.438 6   -553526.34849  20556280.53149
  23559555.758 5   -148998.520 5   -110817.18447  23559550.57047
  24387975.336 5  -1542145.875 5  -1159926.69946  24387970.34446
  20552608.992 7   -205358.934 7   -155571.91449  20552609.18849
  22716669.789 5  -1616960.594 5  -1224006.86347  22716669.35947
  21516606.070 6   -319466.367 6   -244421.67647  21516602.14847
  22495701.922 6    461495.906 6    349261.62948  22495701.62148
 18  5 30  0 24 25.0000000  0  9G03G14G16G22G23G26G27G31G32         -0.000367670
  23663438.414 5   -384555.660 5   -290699.09047  23663437.98047
  20525215.375 7    -87184.660 7    -66849.41849  20525211.85549
  20554128.430 6   -742386.652 6   -562352.75048  20554125.17248
  23559142.453 4   -151170.348 4   -112509.50847  23559137.26247
  24383249.820 5  -1566977.906 5  -1179276.32846  24383245.43046
  20552026.063 7   -208423.180 7   -157959.62949  20552026.12949
  22711772.078 4  -1642696.207 4  -1244060.61347  22711771.83647
  21515634.602 6   -324571.359 6   -248399.59047  21515630.24647
  22497146.203 6    469085.277 6    355175.40247  22497146.36347
 18  5 30  0 24 30.0000000  0  9G03G14G16G22G23G26G27G31G32         -0.000372591
  23662335.172 5   -390352.309 5   -295215.94547  23662334.66447
  20525030.766 7    -88153.520 7    -67604.37949  20525027.59449
  20551975.500 6   -753701.715 6   -571169.68048  20551972.00048
  23558730.781 4   -153334.531 4   -114195.91046  23558725.66046
  24378525.023 5  -1591807.209 5  -1198623.83146  24378519.83646
  20551444.063 7   -211479.512 7   -160341.19949  20551444.68049
  22706874.836 4  -1668427.728 4  -1264111.13947  22706875.50847
  21514664.172 6   -329673.527 6   -252375.30147  21514659.86747
  22498592.477 6    476683.012 6    361095.70748  22498592.07048
 18  5 30  0 24 35.0000000  0  9G03G14G16G22G23G26G27G31G32         -0.000377512
  23661234.438 5   -396137.273 5   -299723.70747  23661233.90647
  20524848.570 7    -89108.332 7    -68348.39149  20524845.52049
  20549824.594 6   -765004.820 6   -579977.30148  20549820.66848
  23558319.766 4   -155491.184 4   -115876.41447  23558315.13747
  24373800.031 5  -1616634.109 5  -1217969.46146  24373795.52346
  20550864.047 7   -214528.125 7   -162716.74249  20550864.35249
  22701979.617 4  -1694155.203 4  -1284158.48847  22701979.92247
  21513693.898 6   -334773.043 6   -256348.95347  21513688.89547
  22500039.531 6    484288.953 6    367022.40648  22500040.00848
 18  5 30  0 24 40.0000000  0  9G03G14G16G22G23G26G27G31G32         -0.000382435
  23660135.617 5   -401910.672 5   -304222.46947  23660135.40247
  20524669.727 7    -90049.238 7    -69081.57449  20524666.55949
  20547675.750 6   -776296.160 6   -588775.74248  20547672.36348
  23557910.836 5   -157640.566 5   -117551.27747  23557906.34847
  24369076.734 4  -1641458.516 4  -1237313.13346  24369071.75446
  20550285.484 7   -217569.191 7   -165086.40649  20550285.25049
  22697085.156 5  -1719878.895 5  -1304202.91447  22697085.31647
  21512723.203 6   -339870.113 6   -260320.69147  21512719.16447
  22501488.805 6    491902.871 6    372955.31648  22501488.88348
 18  5 30  0 24 45.0000000  0  9G03G14G16G22G23G26G27G31G32         -0.000387356
  23659038.625 5   -407672.155 5   -308711.94347  23659038.69947
  20524493.391 7    -90975.852 7    -69803.61748  20524490.40648
  20545529.297 6   -787575.340 6   -597564.71548  20545525.91048
  23557503.047 4   -159782.215 4   -119220.09447  23557498.77047
  24364352.625 4  -1666280.160 4  -1256654.67246  24364347.98046
  20549708.094 7   -220602.316 7   -167449.88749  20549708.28149
  22692190.688 5  -1745598.340 5  -1324244.03947  22692191.33247
  21511754.039 6   -344964.277 6   -264290.16047  21511749.46547
  22502939.094 6    499525.199 6    378894.78148  22502939.13348
 18  5 30  0 24 50.0000000  0  9G03G14G16G22G23G26G27G31G32         -0.000392277
  23657944.992 5   -413421.723 5   -313192.12547  23657945.41447
  20524319.938 7    -91888.176 7    -70514.52748  20524316.31648
  20543385.250 6   -798842.348 6   -606344.19548  20543381.63748
  23557097.617 4   -161916.293 4   -120883.02347  23557092.98447
  24359629.414 5  -1691098.977 5  -1275994.01646  24359625.00846
  20549132.633 7   -223627.539 7   -169807.20749  20549132.91449
  22687296.445 4  -1771313.590 4  -1344281.88747  22687297.44947
  21510785.484 6   -350055.563 6   -268257.41847  21510780.65647
  22504390.945 6    507155.891 6    384840.77048  22504391.76648
 18  5 30  0 24 55.0000000  0  9G03G14G16G22G23G26G27G31G32         -0.000397200
  23656853.297 5   -419159.465 5   -317663.09447  23656853.29747
  20524148.844 7    -92786.313 7    -71214.37148  20524145.44548
  20541243.656 6   -810097.301 6   -615114.27748  20541240.17248
  23556692.656 4   -164042.703 4   -122539.99647  23556688.59847
  24354907.945 5  -1715915.074 5  -1295331.21546  24354902.82046
  20548558.539 7   -226644.918 7   -172158.41449  20548558.48449
  22682404.313 5  -1797024.590 5  -1364316.43047  22682405.43047
  21509816.594 6   -355144.051 6   -272222.46147  21509812.50047
  22505844.766 6    514794.867 6    390793.20748  22505845.41848
 18  5 30  0 25  0.0000000  0  9G03G14G16G22G23G26G27G31G32         -0.000402121
  23655763.180 5   -424885.570 5   -322124.99247  23655763.90247
  20523980.758 7    -93670.391 7    -71903.26648  20523977.33248
  20539104.094 7   -821340.301 7   -623875.05948  20539100.41448
  23556289.320 4   -166161.758 4   -124191.20747  23556285.26647
  24350185.883 5  -1740728.590 5  -1314666.41446  24350180.87146
  20547985.773 7   -229654.590 7   -174503.60949  20547985.93849
  22677512.828 4  -1822731.574 4  -1384347.85247  22677513.18047
  21508849.031 6   -360229.836 6   -276185.40247  21508844.58647
  22507300.266 6    522441.996 6    396752.00848  22507300.82048
 18  5 30  0 25  5.0000000  0  9G03G14G16G22G23G26G27G31G32         -0.000407043
  23654676.211 5   -430599.805 5   -326577.64847  23654676.40247
  20523814.953 7    -94540.223 7    -72581.06648  20523811.98448
  20536967.031 7   -832571.211 7   -632626.41448  20536963.47348
  23555888.141 5   -168273.191 5   -125836.48847  23555883.85547
  24345464.016 5  -1765539.262 5  -1333999.41046  24345459.06346
  20547414.422 7   -232656.438 7   -176842.71149  20547414.43849
  22672622.047 4  -1848434.344 4  -1404375.98847  22672622.14547
  21507882.359 6   -365312.797 6   -280146.14847  21507877.68047
  22508757.047 6    530097.426 6    402717.26648  22508757.89848
 18  5 30  0 25 10.0000000  0  9G03G14G16G22G23G26G27G31G32         -0.000411964
  23653591.461 5   -436302.199 5   -331021.08247  23653591.10947
  20523652.719 7    -95395.840 7    -73247.78948  20523649.19148
  20534832.578 7   -843790.004 7   -641368.32848  20534828.19148
  23555487.305 5   -170377.039 5   -127475.86347  23555483.17647
  24340743.641 5  -1790347.133 5  -1353330.20346  24340737.89146
  20546844.594 7   -235650.430 7   -179175.69949  20546844.94949
  22667731.703 5  -1874132.836 5  -1424400.79347  22667731.75447
  21506914.906 6   -370392.895 6   -284104.67647  21506910.67647
  22510215.586 6    537761.156 6    408688.98448  22510216.27048
 18  5 30  0 25 15.0000000  0  9G03G14G16G22G23G26G27G31G32         -0.000416887
  23652509.000 6   -441992.863 6   -335455.37947  23652508.56647
  20523492.180 7    -96237.281 7    -73903.46948  20523488.86748
  20532699.672 7   -854996.785 7   -650100.88348  20532695.18848
  23555088.617 5   -172473.445 5   -129109.43047  23555084.12547
  24336023.508 5  -1815152.250 5  -1372658.85946  24336017.54746
  20546276.500 7   -238636.676 7   -181502.64849  20546276.68849
  22662842.500 5  -1899827.121 5  -1444422.30947  22662842.24647
  21505948.484 6   -375470.254 6   -288061.04747  21505944.62947
  22511675.609 6    545433.086 6    414667.10948  22511675.79748
 18  5 30  0 25 20.0000000  0  9G03G14G16G22G23G26G27G31G32         -0.000421808
  23651428.000 5   -447671.727 5   -339880.46547  23651428.35247
  20523334.898 7    -97064.547 7    -74548.09448  20523331.37148
  20530569.266 7   -866191.516 7   -658824.04348  20530564.94548
  23554691.359 5   -174562.301 5   -130737.13347  23554687.21947
  24331303.727 5  -1839954.551 5  -1391985.32446  24331297.73046
  20545709.672 7   -241615.137 7   -183823.52349  20545709.80149
  22657953.664 5  -1925517.199 5  -1464440.56347  22657953.72747
  21504982.523 6   -380544.766 6   -292015.21947  21504978.98847
  22513137.305 6    553113.227 6    420651.62548  22513137.23448
 18  5 30  0 25 25.0000000  0  9G03G14G16G22G23G26G27G31G32         -0.000426731
  23650350.109 5   -453339.098 5   -344296.60947  23650350.16847
  20523180.016 7    -97877.867 7    -75181.84448  20523177.18448
  20528441.438 7   -877374.426 7   -667538.00448  20528436.41048
  23554295.242 5   -176643.941 5   -132359.20747  23554290.94547
  24326584.773 5  -1864754.301 5  -1411309.79346  24326578.68446
  20545144.297 7   -244586.027 7   -186138.50849  20545144.78549
  22653065.836 5  -1951203.215 5  -1484455.65647  22653065.78947
  21504018.203 6   -385616.684 6   -295967.35947  21504014.10947
  22514600.102 6    560801.383 6    426642.38348  22514600.32048
 18  5 30  0 25 30.0000000  0  9G03G14G16G22G23G26G27G31G32         -0.000431652
  23649273.359 5   -458994.527 5   -348703.44547  23649273.75047
  20523027.695 7    -98676.883 7    -75804.44948  20523025.21548
  20526315.813 7   -888545.145 7   -676242.45748  20526310.78548
  23553900.656 5   -178717.949 5   -133975.32047  23553896.12147
  24321866.094 5  -1889551.148 5  -1430631.99246  24321859.18446
  20544580.453 7   -247549.035 7   -188447.35549  20544580.50849
  22648178.914 5  -1976884.887 5  -1504467.34847  22648178.47747
  21503053.188 5   -390685.711 5   -299917.23047  21503049.00047
  22516065.438 6    568497.891 6    432639.64148  22516065.12948
 18  5 30  0 25 35.0000000  0  9G03G14G16G22G23G26G27G31G32         -0.000436575
  23648200.234 6   -464638.250 6   -353101.14847  23648200.37547
  20522878.766 7    -99461.727 7    -76416.03148  20522875.69948
  20524192.375 7   -899703.879 7   -684937.57448  20524187.61348
  23553507.742 5   -180784.535 5   -135585.66447  23553502.80147
  24317148.047 5  -1914345.203 5  -1449952.04346  24317141.02346
  20544018.188 7   -250504.309 7   -190750.16449  20544018.16049
  22643292.594 5  -2002562.219 5  -1524475.66847  22643292.32847
  21502088.828 6   -395751.801 6   -303864.87147  21502085.30547
  22517531.070 6    576202.578 6    438643.29748  22517531.35548
 18  5 30  0 25 40.0000000  0  9G03G14G16G22G23G26G27G31G32         -0.000441496
  23647127.750 5   -470270.113 5   -357489.60547  23647128.08647
  20522732.148 7   -100232.316 7    -77016.49648  20522728.79748
  20522071.273 7   -910850.535 7   -693623.27348  20522066.58248
  23553115.359 5   -182843.570 5   -137190.07447  23553110.98047
  24312430.711 5  -1939136.309 5  -1469269.76646  24312423.28546
  20543457.227 7   -253451.750 7   -193046.87949  20543457.20349
  22638408.297 5  -2028235.180 5  -1544480.56647  22638406.69947
  21501125.703 6   -400815.012 6   -307810.22347  21501121.49647
  22518998.953 6    583915.543 6    444653.39148  22518998.89848
 18  5 30  0 25 45.0000000  0  9G03G14G16G22G23G26G27G31G32         -0.000446419
  23646058.836 5   -475890.219 5   -361868.91047  23646058.61347
  20522588.234 7   -100988.664 7    -77605.84848  20522585.42248
  20519952.469 7   -921985.078 7   -702299.54748  20519947.73848
  23552725.070 5   -184895.098 5   -138788.69147  23552720.72747
  24307713.219 5  -1963924.539 5  -1488585.25446  24307705.88346
  20542897.820 7   -256391.379 7   -195337.50049  20542897.82849
  22633523.352 6  -2053903.789 6  -1564482.10947  22633522.01647
  21500163.289 6   -405875.359 6   -311753.34047  21500158.09047
  22520468.281 6    591636.746 6    450669.90648  22520467.98048
 18  5 30  0 25 50.0000000  0  9G03G14G16G22G23G26G27G31G32         -0.000451342
  23644991.617 5   -481498.762 5   -366239.21147  23644991.19947
  20522446.883 7   -101731.070 7    -78184.35549  20522443.33649
  20517835.938 7   -933107.750 7   -710966.56348  20517831.70748
  23552336.625 5   -186939.316 5   -140381.60547  23552331.78147
  24302996.195 5  -1988710.074 5  -1507898.66846  24302989.43846
  20542340.031 7   -259323.473 7   -197622.25849  20542340.05549
  22628639.344 5  -2079568.242 5  -1584480.37147  22628638.43047
  21499200.383 5   -410933.039 5   -315694.41447  21499196.25447
  22521939.258 6    599365.918 6    456692.62948  22521938.93448
 18  5 30  0 25 55.0000000  0  9G03G14G16G22G23G26G27G31G32         -0.000456263
  23643925.938 5   -487095.477 5   -370600.29747  23643926.27347
  20522308.297 7   -102459.215 7    -78751.73848  20522305.54348
  20515721.648 7   -944218.297 7   -719624.13748  20515717.01648
  23551949.109 5   -188976.051 5   -141968.68447  23551944.37547
  24298280.469 5  -2013492.609 5  -1527209.73646  24298274.08246
  20541783.625 7   -262247.758 7   -199900.93049  20541783.57449
  22623756.117 5  -2105228.273 5  -1604475.19547  22623755.27747
  21498238.141 5   -415987.836 5   -319633.19547  21498234.31647
  22523411.320 6    607103.328 6    462721.76648  22523411.44948
 18  5 30  0 26  0.0000000  0  9G03G14G16G22G23G26G27G31G32         -0.000461185
  23642862.734 5   -492680.207 5   -374952.02747  23642863.77747
  20522172.234 7   -103172.875 7    -79307.84848  20522169.05948
  20513609.742 7   -955316.570 7   -728272.14148  20513605.39148
  23551562.438 5   -191004.992 5   -143549.66847  23551558.40647
  24293565.547 5  -2038272.074 5  -1546518.40246  24293558.73446
  20541228.594 7   -265164.043 7   -202173.35549  20541228.47349
  22618873.773 5  -2130883.645 5  -1624466.41047  22618873.04747
  21497277.258 5   -421039.504 5   -323569.56647  21497273.60947
  22524885.359 6    614849.203 6    468757.50448  22524885.35548
 18  5 30  0 26  5.0000000  0  9G03G14G16G22G23G26G27G31G32         -0.000466106
  23641802.789 5   -498252.930 5   -379294.40647  23641803.39147
  20522039.633 7   -103872.066 7    -79852.68048  20522035.94148
  20511500.180 7   -966402.520 7   -736910.55149  20511495.74649
  23551177.922 5   -193026.258 5   -145124.67647  23551173.53547
  24288850.773 5  -2063048.344 5  -1565824.59046  24288844.50446
  20540674.992 7   -268072.320 7   -204439.55149  20540675.14149
  22613992.578 5  -2156534.336 5  -1644453.94147  22613992.06347
  21496316.859 5   -426087.973 5   -327503.44947  21496312.87147
  22526360.781 6    622603.539 6    474799.83248  22526360.80148
 18  5 30  0 26 10.0000000  0  9G03G14G16G22G23G26G27G31G32         -0.000471029
  23640744.344 5   -503813.840 5   -383627.59847  23640745.07447
  20521909.375 7   -104557.000 7    -80386.39848  20521905.91048
  20509392.805 7   -977476.348 7   -745539.50848  20509388.32448
  23550794.664 5   -195040.012 5   -146693.85247  23550790.06647
  24284136.383 5  -2087821.578 5  -1585128.40646  24284130.02346
  20540123.523 8   -270972.785 8   -206699.65649  20540123.11749
  22609112.633 5  -2182180.457 5  -1664437.93447  22609111.87147
  21495356.984 6   -431133.516 6   -331435.05547  21495352.40647
  22527838.406 6    630366.078 6    480848.56648  22527838.87548
 18  5 30  0 26 15.0000000  0  9G03G14G16G22G23G26G27G31G32         -0.000475950
  23639688.289 5   -509363.207 5   -387951.77347  23639688.59447
  20521781.797 7   -105227.918 7    -80909.19948  20521778.12548
  20507287.742 7   -988538.305 7   -754159.21949  20507283.41449
  23550412.617 4   -197046.504 4   -148257.36347  23550408.38347
  24279423.289 5  -2112592.027 5  -1604430.04346  24279416.63346
  20539572.688 7   -273865.719 7   -208953.88749  20539572.76249
  22604233.031 5  -2207822.406 5  -1684418.66447  22604232.09047
  21494397.094 5   -436176.352 5   -335364.54347  21494393.24247
  22529316.859 6    638136.613 6    486903.50448  22529317.84848
 18  5 30  0 26 20.0000000  0  9G03G14G16G22G23G26G27G31G32         -0.000480873
  23638634.070 5   -514900.793 5   -392266.77347  23638634.62947
  20521656.328 7   -105884.574 7    -81420.87549  20521653.14849
  20505184.914 7   -999588.164 7   -762769.50448  20505180.89548
  23550032.406 4   -199045.527 4   -149815.04747  23550028.11747
  24274710.055 6  -2137359.520 6  -1623729.39147  24274703.65247
  20539023.781 7   -276750.883 7   -211202.07049  20539023.72349
  22599354.344 5  -2233459.840 5  -1704395.87547  22599353.46147
  21493438.211 6   -441216.207 6   -339291.71547  21493434.05547
  22530796.359 6    645915.340 6    492964.84048  22530797.42648
 18  5 30  0 26 25.0000000  0  9G03G14G16G22G23G26G27G31G32         -0.000485794
  23637582.844 5   -520426.605 5   -396572.60547  23637583.07047
  20521534.414 7   -106526.969 7    -81921.46149  20521530.91849
  20503084.445 7  -1010625.926 7   -771370.36349  20503080.45349
  23549653.789 5   -201037.063 5   -151366.91047  23549649.41847
  24269997.250 5  -2162123.930 5  -1643026.32046  24269991.30146
  20538476.125 7   -279628.277 7   -213444.19549  20538476.00049
  22594476.758 5  -2259092.789 5  -1724369.60547  22594476.42247
  21492479.484 6   -446253.074 6   -343216.57047  21492475.69947
  22532278.914 6    653702.270 6    499032.56648  22532279.36348
 18  5 30  0 26 30.0000000  0  9G03G14G16G22G23G26G27G31G32         -0.000490717
  23636533.188 5   -525940.594 5   -400869.21547  23636534.03547
  20521415.031 7   -107155.070 7    -82410.89148  20521411.38748
  20500986.109 7  -1021651.539 7   -779961.73848  20500981.90248
  23549276.359 5   -203021.109 5   -152912.91047  23549271.65647
  24265285.688 5  -2186885.258 5  -1662320.87947  24265279.55147
  20537930.266 7   -282497.859 7   -215680.23449  20537930.23449
  22589599.523 6  -2284721.129 6  -1744339.71947  22589599.79747
  21491521.844 6   -451286.988 6   -347139.07847  21491517.81347
  22533762.180 6    661497.457 6    505106.72748  22533762.68048
 18  5 30  0 26 35.0000000  0  9G03G14G16G22G23G26G27G31G32         -0.000495638
  23635486.070 5   -531442.895 5   -405156.71546  23635486.47346
  20521297.766 7   -107769.027 7    -82889.29748  20521294.28548
  20498890.641 7  -1032665.180 7   -788543.80148  20498886.29348
  23548899.422 5   -204997.820 5   -154453.20747  23548895.36747
  24260574.398 5  -2211643.555 5  -1681613.06346  24260568.65246
  20537385.484 7   -285359.762 7   -217910.28949  20537385.30949
  22584723.727 5  -2310344.969 5  -1764306.34047  22584723.60247
  21490564.109 6   -456317.938 6   -351059.30947  21490561.15647
  22535246.805 6    669300.719 6    511187.17648  22535247.58248
 18  5 30  0 26 39.9990000  0  9G03G14G16G22G23G26G27G31G32          0.000499439
  23634441.526 5   -536932.298 5   -409434.17347  23634441.56247
  20521184.190 7   -108368.577 7    -83356.49048  20521180.75748
  20496797.276 7  -1043664.488 7   -797114.69348  20496792.96448
  23548524.847 5   -206966.646 5   -155987.37347  23548520.70647
  24255864.519 5  -2236393.815 5  -1700898.98247  24255858.62447
  20536842.433 7   -288213.325 7   -220133.84949  20536842.65149
  22579849.472 5  -2335959.099 5  -1784265.40247  22579849.49947
  21489607.331 6   -461344.819 6   -354976.36147  21489604.06247
  22536733.417 6    677110.663 6    517272.83348  22536734.11648
 18  5 30  0 26 44.9990000  0  9G03G14G16G22G23G26G27G31G32          0.000494518
  23633398.495 5   -542410.977 5   -413703.27046  23633398.91346
  20521072.331 7   -108954.000 7    -83812.66848  20521069.17148
  20494705.980 7  -1054653.887 7   -805677.86348  20494702.00348
  23548151.745 4   -208928.348 4   -157515.95346  23548147.47646
  24251154.542 5  -2261145.898 5  -1720186.32047  24251149.12447
  20536301.034 7   -291059.652 7   -222351.76249  20536301.00749
  22574975.222 5  -2361573.684 5  -1804224.80547  22574975.22247
  21488651.901 5   -466369.754 5   -358891.89547  21488647.74147
  22538221.292 6    684930.348 6    523366.07448  22538221.79248
 18  5 30  0 26 49.9990000  0  9G03G14G16G22G23G26G27G31G32          0.000489597
  23632357.940 5   -547877.996 5   -417963.29347  23632358.76547
  20520963.745 7   -109525.285 7    -84257.82448  20520960.15148
  20492617.159 7  -1065631.277 7   -814231.67248  20492613.24548
  23547779.073 5   -210882.703 5   -159038.84447  23547775.73047
  24246445.198 5  -2285894.953 5  -1739471.31647  24246439.34347
  20535760.589 7   -293898.340 7   -224563.73449  20535760.22249
  22570101.480 6  -2387183.766 6  -1824180.70347  22570101.65947
  21487695.308 5   -471391.738 5   -362805.12947  21487692.40947
  22539710.573 6    692758.160 6    529465.65648  22539711.27248
 18  5 30  0 26 54.9990000  0  9G03G14G16G22G23G26G27G31G32          0.000484676
  23631320.300 5   -553333.246 5   -422214.13746  23631320.11246
  20520857.722 6   -110082.328 6    -84691.89148  20520853.91348
  20490530.847 7  -1076596.590 7   -822776.07448  20490526.73348
  23547409.065 4   -212829.703 4   -160555.99246  23547404.95646
  24241735.495 5  -2310640.918 5  -1758753.87547  24241730.65147
  20535221.839 7   -296729.293 7   -226769.66449  20535221.59749
  22565228.987 5  -2412789.188 5  -1844132.98447  22565228.87047
  21486739.995 5   -476410.684 5   -366716.00447  21486737.15547
  22541201.659 6    700594.098 6    535571.56648  22541202.60548
 18  5 30  0 26 59.9990000  0  9G03G14G16G22G23G26G27G31G32          0.000479753
  23630284.597 5   -558776.809 5   -426455.87947  23630283.67947
  20520754.401 6   -110625.137 6    -85114.85248  20520750.99948
  20488446.230 7  -1087549.832 7   -831311.07448  20488442.12048
  23547039.464 4   -214769.320 4   -162067.35546  23547035.99946
  24237027.776 5  -2335383.758 5  -1778034.01646  24237022.52646
  20534684.519 7   -299552.543 7   -228969.60549  20534684.62449
  22560357.300 5  -2438389.992 5  -1864081.65247  22560357.07347
  21485785.581 5   -481426.672 5   -370624.56647  21485782.46447
  22542694.597 6    708438.156 6    541683.80148  22542695.65948
 18  5 30  0 27  4.9990000  0  9G03G14G16G22G23G26G27G31G32          0.000474833
  23629250.253 5   -564208.648 5   -430688.48847  23629250.31547
  20520653.612 7   -111153.691 7    -85526.72348  20520650.09748
  20486364.042 7  -1098491.043 7   -839836.69148  20486359.61248
  23546671.706 3   -216701.543 3   -163572.98846  23546667.93346
  24232319.589 5  -2360123.484 5  -1797311.72746  24232314.89446
  20534148.675 7   -302368.090 7   -231163.53549  20534148.54649
  22555486.269 5  -2463986.152 5  -1884026.70347  22555486.33547
  21484832.065 5   -486439.641 5   -374530.78147  21484828.06947
  22544188.667 6    716290.355 6    547802.38348  22544189.58148
 18  5 30  0 27  9.9990000  0  9G03G14G16G22G23G26G27G31G32          0.000469910
  23628219.089 5   -569628.621 5   -434911.85247  23628218.83547
  20520556.175 7   -111667.902 7    -85927.41448  20520552.31948
  20484284.050 7  -1109420.055 7   -848352.80948  20484279.89448
  23546304.964 4   -218626.219 4   -165072.73846  23546301.47646
  24227611.980 5  -2384859.949 5  -1816586.89846  24227607.23746
  20533614.440 7   -305175.836 7   -233351.39149  20533614.48749
  22550616.925 5  -2489577.523 5  -1903968.03547  22550616.47247
  21483878.331 5   -491449.480 5   -378434.56347  21483875.22647
  22545684.792 6    724150.785 6    553927.37948  22545685.08948
 18  5 30  0 27 14.9990000  0  9G03G14G16G22G23G26G27G31G32          0.000464989
  23627190.097 5   -575036.895 5   -439126.09047  23627190.05447
  20520460.862 6   -112167.898 6    -86317.02748  20520457.40548
  20482207.136 7  -1120336.996 7   -856859.52048  20482202.67948
  23545940.378 4   -220543.566 4   -166566.77747  23545936.62447
  24222905.651 5  -2409593.258 5  -1835859.60946  24222900.99146
  20533081.745 7   -307975.902 7   -235533.26649  20533081.99549
  22545747.808 5  -2515164.246 5  -1923905.73447  22545747.61247
  21482925.862 5   -496456.344 5   -382336.02347  21482921.84347
  22547181.870 6    732019.301 6    560058.68448  22547182.83948
 18  5 30  0 27 19.9990000  0  9G03G14G16G22G23G26G27G31G32          0.000460068
  23626163.964 5   -580433.406 5   -443331.17247  23626162.99947
  20520368.300 7   -112653.613 7    -86695.50448  20520365.16748
  20480131.761 7  -1131241.805 7   -865356.77048  20480127.49148
  23545577.144 5   -222453.477 5   -168055.03547  23545573.05047
  24218200.159 5  -2434323.281 5  -1855129.76246  24218195.00746
  20532550.519 7   -310768.188 7   -237709.07449  20532550.40949
  22540879.776 5  -2540746.176 5  -1943839.70347  22540879.54647
  21481973.526 6   -501460.078 6   -386235.03147  21481969.87447
  22548680.870 6    739896.020 6    566196.36748  22548681.42548
 18  5 30  0 27 24.9990000  0  9G03G14G16G22G23G26G27G31G32          0.000455147
  23625140.026 5   -585818.316 5   -447527.20347  23625138.73047
  20520278.651 6   -113125.176 6    -87062.96148  20520275.29248
  20478059.136 7  -1142134.645 7   -873844.71148  20478054.69848
  23545215.253 5   -224356.113 5   -169537.60947  23545211.00347
  24213494.894 5  -2459050.219 5  -1874397.50046  24213490.03446
  20532020.612 7   -313552.902 7   -239878.98049  20532020.18749
  22536012.628 5  -2566323.512 5  -1963770.08647  22536012.50747
  21481021.815 6   -506460.867 6   -390131.74647  21481018.14447
  22550181.589 6    747780.703 6    572340.27048  22550181.29248
 18  5 30  0 27 29.9990000  0  9G03G14G16G22G23G26G27G31G32          0.000450224
  23624116.909 5   -591191.418 5   -451714.03947  23624116.93347
  20520191.823 6   -113582.438 6    -87419.27048  20520188.59748
  20475988.526 7  -1153015.340 7   -882323.16848  20475983.84348
  23544855.190 5   -226251.313 5   -171014.39146  23544849.99946
  24208789.183 5  -2483773.848 5  -1893662.66446  24208785.66746
  20531491.964 7   -316329.855 7   -242042.83249  20531491.91349
  22531146.269 5  -2591895.988 5  -1983696.68447  22531145.93747
  21480070.878 5   -511458.555 5   -394026.03947  21480067.40947
  22551683.440 6    755673.590 6    578490.55148  22551683.71048
 18  5 30  0 27 34.9990000  0  9G03G14G16G22G23G26G27G31G32          0.000445303
  23623096.940 5   -596552.953 5   -455891.86347  23623096.49147
  20520107.620 6   -114025.586 6    -87764.58248  20520104.55448
  20473919.980 7  -1163884.094 7   -890792.34048  20473915.86648
  23544495.620 5   -228139.363 5   -172485.59046  23544490.75346
  24204085.487 5  -2508494.368 5  -1912925.40146  24204081.71046
  20530965.081 7   -319099.254 7   -244200.80949  20530964.91349
  22526280.753 5  -2617463.832 5  -2003619.68847  22526280.61247
  21479120.065 5   -516453.285 5   -397918.04747  21479116.78047
  22553187.276 6    763574.438 6    584647.04748  22553187.22648
 18  5 30  0 27 39.9990000  0  9G03G14G16G22G23G26G27G31G32          0.000440382
  23622079.245 5   -601902.355 5   -460060.22347  23622079.01147
  20520025.722 6   -114454.043 6    -88098.44548  20520022.94448
  20471854.753 7  -1174740.367 7   -899251.77348  20471849.84748
  23544137.620 4   -230019.613 4   -173950.72346  23544132.27246
  24199381.909 5  -2533211.266 5  -1932185.31647  24199377.99147
  20530439.347 7   -321860.555 7   -246352.48049  20530439.35849
  22521416.417 5  -2643026.492 5  -2023538.64147  22521415.88247
  21478170.597 5   -521444.574 5   -401807.36347  21478167.07347
  22554692.206 6    771483.813 6    590810.17248  22554692.40148
 18  5 30  0 27 44.9990000  0  9G03G14G16G22G23G26G27G31G32          0.000435461
  23621063.425 5   -607240.039 5   -464219.46947  23621063.99947
  20519946.761 6   -114868.230 6    -88421.19948  20519943.75348
  20469791.003 7  -1185584.516 7   -907701.77048  20469786.49948
  23543781.347 4   -231892.511 4   -175410.10746  23543776.15146
  24194679.026 5  -2557924.859 5  -1951442.66046  24194675.42946
  20529915.800 7   -324614.133 7   -248498.12949  20529915.58149
  22516552.440 5  -2668584.309 5  -2043453.81347  22516552.37447
  21477221.628 5   -526432.770 5   -405694.27747  21477217.78047
  22556198.690 6    779401.293 6    596979.62548  22556198.81548
 18  5 30  0 27 49.9990000  0  9G03G14G16G22G23G26G27G31G32          0.000430540
  23620050.628 5   -612565.891 5   -468369.49647  23620050.49547
  20519870.815 6   -115268.105 6    -88732.78948  20519867.80848
  20467729.901 7  -1196416.563 7   -916142.32448  20467724.90148
  23543426.315 4   -233757.957 4   -176863.73846  23543420.96846
  24189976.487 4  -2582635.102 4  -1970697.40246  24189973.78446
  20529393.128 7   -327360.004 7   -250637.77049  20529393.12049
  22511690.362 5  -2694137.242 5  -2063365.19947  22511689.19847
  21476272.948 6   -531417.789 6   -409578.70347  21476269.67147
  22557706.683 6    787326.910 6    603155.41848  22557707.08548
 18  5 30  0 27 54.9990000  0  9G03G14G16G22G23G26G27G31G32          0.000425619
  23619039.065 5   -617880.113 5   -472510.45347  23619038.99947
  20519797.433 6   -115653.691 6    -89033.24248  20519794.65548
  20465670.730 7  -1207236.504 7   -924573.45348  20465666.29248
  23543072.667 4   -235616.035 4   -178311.58646  23543067.69046
  24185274.901 4  -2607342.043 4  -1989949.56346  24185271.99546
  20528872.026 7   -330098.184 7   -252771.43049  20528871.86249
  22506828.198 5  -2719685.293 5  -2083272.76247  22506827.41347
  21475324.925 6   -536399.680 6   -413460.71147  21475321.32747
  22559216.128 6    795260.629 6    609337.52348  22559216.84748
 18  5 30  0 27 59.9990000  0  9G03G14G16G22G23G26G27G31G32          0.000420698
  23618030.448 6   -623182.590 6   -476642.26247  23618029.65147
  20519726.800 6   -116025.039 6    -89322.60948  20519724.08148
  20463613.862 7  -1218044.348 7   -932995.15648  20463610.00748
  23542720.987 4   -237466.773 4   -179753.73047  23542715.73347
  24180573.347 4  -2632045.527 4  -2009199.03946  24180571.08946
  20528352.589 7   -332828.668 7   -254899.07849  20528352.26949
  22501967.956 5  -2745228.484 5  -2103176.54747  22501967.13247
  21474377.417 6   -541378.445 6   -417340.27347  21474374.49947
  22560727.425 6    803202.445 6    615525.93448  22560728.28048
 18  5 30  0 28  4.9990000  0  9G03G14G16G22G23G26G27G31G32          0.000415777
  23617024.081 6   -628473.363 6   -480764.94147  23617023.26147
  20519658.862 6   -116382.086 6    -89600.82848  20519656.20648
  20461559.620 7  -1228840.137 7   -941407.46948  20461555.29248
  23542369.276 4   -239310.203 4   -181190.18046  23542365.06546
  24175873.284 4  -2656745.699 4  -2028445.92246  24175870.82346
  20527834.136 7   -335551.477 7   -257020.75049  20527834.32349
  22497108.003 5  -2770766.727 5  -2123076.48447  22497107.41347
  21473430.355 6   -546354.113 6   -421217.42247  21473427.49947
  22562240.347 6    811152.320 6    621720.63348  22562241.42948
 18  5 30  0 28  9.9990000  0  9G03G14G16G22G23G26G27G31G32          0.000410856
  23616018.917 6   -633752.492 6   -484878.54747  23616018.68347
  20519593.503 6   -116724.945 6    -89868.00048  20519590.87048
  20459507.386 6  -1239623.930 6   -949810.43448  20459503.79248
  23542020.183 4   -241146.371 4   -182620.97346  23542015.83946
  24171173.862 4  -2681442.570 4  -2047690.21546  24171171.28046
  20527317.620 7   -338266.688 7   -259136.50049  20527317.52649
  22492249.284 5  -2796300.160 5  -2142972.64847  22492248.65147
  21472484.183 6   -551326.656 6   -425092.15247  21472481.16347
  22563754.526 6    819110.242 6    627921.59448  22563755.75348
 18  5 30  0 28 14.9990000  0  9G03G14G16G22G23G26G27G31G32          0.000405937
  23615016.011 6   -639019.875 6   -488983.00847  23615016.31247
  20519531.105 6   -117053.547 6    -90124.06348  20519528.37448
  20457457.722 6  -1250395.641 6   -958203.96948  20457454.07748
  23541672.308 4   -242975.203 4   -184046.02046  23541668.39446
  24166474.683 4  -2706136.043 4  -2066931.86346  24166471.51146
  20526802.323 7   -340974.230 7   -261246.27049  20526802.01149
  22487391.534 5  -2821828.664 5  -2162865.00847  22487390.69447
  21471539.058 6   -556296.113 6   -428964.45747  21471535.60147
  22565270.706 6    827076.223 6    634128.83648  22565271.73348
 18  5 30  0 28 19.9990000  0  9G03G14G16G22G23G26G27G31G32          0.000401016
  23614015.675 5   -644275.883 5   -493078.60547  23614016.28047
  20519471.417 7   -117368.156 7    -90369.21948  20519468.59348
  20455410.440 7  -1261155.512 7   -966588.28548  20455406.28448
  23541325.683 4   -244796.980 4   -185465.59446  23541321.77246
  24161776.401 4  -2730826.461 4  -2086171.18446  24161773.83946
  20526288.730 7   -343674.352 7   -263350.26249  20526288.21049
  22482534.839 5  -2847352.410 5  -2182753.62547  22482533.92947
  21470594.011 6   -561262.633 6   -432834.51647  21470590.44847
  22566788.120 6    835050.004 6    640342.17248  22566789.73048
 18  5 30  0 28 24.9990000  0  9G03G14G16G22G23G26G27G31G32          0.000396095
  23613017.933 6   -649519.996 6   -497164.93447  23613018.75347
  20519414.105 6   -117668.352 6    -90603.12948  20519411.32348
  20453364.847 7  -1271903.109 7   -974963.03548  20453361.48048
  23540979.089 3   -246611.328 3   -186879.37946  23540976.66346
  24157078.276 4  -2755513.215 4  -2105407.62146  24157076.03046
  20525776.065 7   -346366.660 7   -265448.16449  20525776.37449
  22477678.831 5  -2872871.035 5  -2202638.27047  22477677.68747
  21469649.511 6   -566225.820 6   -436701.94547  21469645.93747
  22568306.636 6    843032.008 6    646561.92248  22568308.62848
 18  5 30  0 28 29.9990000  0  9G03G14G16G22G23G26G27G31G32          0.000391174
  23612023.198 6   -654752.391 6   -501242.13747  23612023.08947
  20519359.847 7   -117954.203 7    -90825.87548  20519356.97648
  20451321.948 6  -1282638.563 6   -983328.32448  20451318.73348
  23540636.190 3   -248418.293 3   -188287.40246  23540632.55046
  24152381.792 4  -2780196.492 4  -2124641.33646  24152379.26146
  20525265.245 7   -349051.285 7   -267540.08249  20525264.88249
  22472823.151 5  -2898384.703 5  -2222519.04347  22472822.89447
  21468705.355 6   -571185.770 6   -440566.84447  21468702.16347
  22569827.253 6    851022.082 6    652787.92648  22569829.11248
 18  5 30  0 28 34.9990000  0  9G03G14G16G22G23G26G27G31G32          0.000386255
  23611029.823 6   -659973.324 6   -505310.38747  23611029.46847
  20519307.964 6   -118225.996 6    -91037.66448  20519304.91348
  20449281.495 7  -1293362.156 7   -991684.38348  20449278.17148
  23540293.323 4   -250218.219 4   -189689.95746  23540290.39446
  24147685.948 4  -2804876.520 4  -2143872.53547  24147682.68747
  20524755.659 7   -351728.488 7   -269626.21549  20524755.31949
  22467969.347 5  -2923893.492 5  -2242396.02347  22467969.09347
  21467761.776 6   -576142.801 6   -444429.48847  21467758.89047
  22571349.058 6    859020.027 6    659020.08648  22571350.72648
 18  5 30  0 28 39.9990000  0  9G03G14G16G22G23G26G27G31G32          0.000381334
  23610038.151 6   -665182.359 6   -509369.37147  23610037.91747
  20519259.331 6   -118483.223 6    -91238.10248  20519255.81948
  20447242.987 7  -1304073.379 7  -1000030.78548  20447240.04248
  23539952.472 4   -252010.570 4   -191086.62146  23539948.84346
  24142989.300 3  -2829552.949 3  -2163100.91046  24142986.37446
  20524247.909 7   -354397.773 7   -271706.18449  20524247.58149
  22463116.136 5  -2949397.051 5  -2262268.93847  22463116.14447
  21466820.222 6   -581096.344 6   -448289.39547  21466816.53447
  22572872.995 6    867026.211 6    665258.68048  22572874.35548
 18  5 30  0 28 44.9990000  0  9G03G14G16G22G23G26G27G31G32          0.000376415
  23609048.823 6   -670379.730 6   -513419.26247  23609049.15547
  20519212.776 6   -118726.227 6    -91427.46948  20519209.59348
  20445207.190 6  -1314772.574 6  -1008367.82048  20445204.01948
  23539612.831 4   -253795.660 4   -192477.61346  23539609.19846
  24138294.315 4  -2854225.895 4  -2182326.59046  24138291.37046
  20523741.214 7   -357059.516 7   -273780.27049  20523741.02649
  22458263.690 5  -2974895.625 5  -2282137.91447  22458263.93347
  21465877.456 5   -586046.828 5   -452146.95347  21465874.26547
  22574398.628 6    875040.398 6    671503.48048  22574399.51148
 18  5 30  0 28 49.9990000  0  9G03G14G16G22G23G26G27G31G32          0.000371494
  23608061.690 6   -675565.523 6   -517460.15247  23608062.06947
  20519169.253 6   -118955.051 6    -91605.77348  20519166.22648
  20443173.120 7  -1325459.801 7  -1016695.52748  20443170.08948
  23539274.589 4   -255573.641 4   -193863.08246  23539270.81546
  24133600.112 4  -2878895.457 4  -2201549.61346  24133597.03046
  20523236.565 7   -359713.707 7   -275848.48449  20523235.89749
  22453412.222 5  -3000389.227 5  -2302003.08647  22453412.25347
  21464936.667 6   -590994.125 6   -456001.95347  21464933.25347
  22575924.542 6    883062.508 6    677754.49248  22575926.13248
 18  5 30  0 28 54.9990000  0  9G03G14G16G22G23G26G27G31G32          0.000366575
  23607077.198 5   -680739.566 5   -521491.89147  23607077.40147
  20519128.878 6   -119169.555 6    -91772.93048  20519125.35548
  20441142.198 7  -1336134.902 7  -1025013.78948  20441138.87048
  23538937.628 4   -257344.309 4   -195242.80547  23538934.35147
  24128906.097 3  -2903561.465 3  -2220769.86346  24128902.92946
  20522732.839 7   -362360.215 7   -277910.68849  20522732.00349
  22448561.870 5  -3025877.656 5  -2321864.16847  22448562.25347
  21463995.378 6   -595938.176 6   -459854.48447  21463992.29247
  22577452.839 6    891092.719 6    684011.77048  22577454.01148
 18  5 30  0 28 59.9990000  0  9G03G14G16G22G23G26G27G31G32          0.000361656
  23606095.386 6   -685901.906 6   -525514.50047  23606094.70247
  20519090.448 6   -119369.688 6    -91928.87148  20519087.21448
  20439112.839 6  -1346797.813 6  -1033322.55948  20439109.44848
  23538601.386 4   -259107.566 4   -196616.80946  23538598.56246
  24124213.722 4  -2928223.859 4  -2239987.35547  24124209.87847
  20522230.847 7   -364998.988 7   -279966.88349  20522230.26949
  22443713.214 5  -3051360.930 5  -2341721.27347  22443712.93747
  21463055.237 6   -600878.883 6   -463704.40247  21463052.26547
  22578981.964 6    899131.008 6    690275.35548  22578983.60148
 18  5 30  0 29  4.9990000  0  9G03G14G16G22G23G26G27G31G32          0.000356735
  23605114.980 6   -691052.582 6   -529528.03947  23605114.59347
  20519055.136 6   -119555.582 6    -92073.73448  20519051.76548
  20437086.245 6  -1357448.648 6  -1041621.91848  20437082.82348
  23538268.581 5   -260863.629 5   -197985.17247  23538264.81547
  24119520.573 4  -2952882.688 4  -2259202.03146  24119517.11246
  20521729.847 7   -367630.195 7   -282017.18049  20521729.44049
  22438864.683 5  -3076839.098 5  -2361574.37147  22438864.77647
  21462115.690 6   -605816.453 6   -467551.86347  21462112.62847
  22580514.175 6    907177.301 6    696545.19148  22580514.92148
 18  5 30  0 29  9.9990000  0  9G03G14G16G22G23G26G27G31G32          0.000351816
  23604136.558 5   -696191.566 5   -533532.44147  23604136.55047
  20519021.800 6   -119727.188 6    -92207.44948  20519019.16348
  20435062.089 6  -1368087.402 6  -1049911.85548  20435058.31248
  23537935.339 5   -262612.434 5   -199347.88747  23537932.05047
  24114829.644 5  -2977537.973 5  -2278413.89547  24114825.71047
  20521230.894 7   -370253.746 7   -284061.51649  20521230.33949
  22434017.128 5  -3102312.074 5  -2381423.44547  22434016.96447
  21461176.784 6   -610750.738 6   -471396.76647  21461173.06547
  22582046.550 6    915231.609 6    702821.25848  22582047.76548
 18  5 30  0 29 14.9990000  0  9G03G14G16G22G23G26G27G31G32          0.000346897
  23603160.753 5   -701318.793 5   -537527.68047  23603160.49947
  20518992.308 6   -119884.383 6    -92329.95348  20518989.76148
  20433039.886 7  -1378713.953 7  -1058192.28548  20433036.19448
  23537603.206 5   -264353.828 5   -200704.83647  23537600.94047
  24110138.417 4  -3002189.566 4  -2297622.93046  24110133.94046
  20520732.909 7   -372869.574 7   -286099.82449  20520732.53849
  22429171.409 5  -3127779.809 5  -2401268.43447  22429170.36247
  21460238.355 6   -615681.652 6   -475239.03147  21460235.15147
  22583580.667 6    923294.027 6    709103.66448  22583582.03048
 18  5 30  0 29 19.9990000  0  9G03G14G16G22G23G26G27G31G32          0.000341978
  23602187.605 5   -706434.488 5   -541513.96947  23602186.81247
  20518964.964 6   -120027.445 6    -92441.43048  20518962.09748
  20431019.667 6  -1389328.586 6  -1066463.42648  20431015.89448
  23537273.956 5   -266088.133 5   -202056.25447  23537270.89747
  24105447.823 4  -3026837.738 4  -2316829.29746  24105443.63646
  20520236.534 7   -375477.949 7   -288132.32849  20520236.46449
  22424325.253 5  -3153242.492 5  -2421109.49247  22424324.83547
  21459300.792 6   -620609.457 6   -479078.89847  21459296.81947
  22585116.565 6    931364.297 6    715392.17648  22585117.54248
 18  5 30  0 29 24.9990000  0  9G03G14G16G22G23G26G27G31G32          0.000337059
  23601215.980 5   -711538.711 5   -545491.28547  23601215.89747
  20518940.667 6   -120156.355 6    -92541.89548  20518937.41748
  20429002.401 7  -1399931.277 7  -1074725.26648  20428998.70248
  23536945.597 4   -267815.426 4   -203402.18847  23536942.05847
  24100758.394 4  -3051482.418 4  -2336032.93446  24100754.12446
  20519741.815 7   -378078.875 7   -290159.02049  20519741.25749
  22419481.128 5  -3178700.164 5  -2440946.64547  22419479.90147
  21458363.675 6   -625534.184 6   -482916.32847  21458359.74147
  22586653.730 6    939442.395 6    721686.77748  22586654.99148
 18  5 30  0 29 29.9990000  0  9G03G14G16G22G23G26G27G31G32          0.000332140
  23600246.003 5   -716631.188 5   -549459.43047  23600246.77247
  20518918.526 6   -120270.891 6    -92631.14848  20518915.80048
  20426986.909 7  -1410521.781 7  -1082977.60248  20426983.13248
  23536618.933 5   -269535.434 5   -204742.47747  23536614.69847
  24096069.292 5  -3076123.355 5  -2355233.65646  24096064.69046
  20519248.362 7   -380672.090 7   -292179.71549  20519247.99549
  22414637.565 5  -3204152.496 5  -2460779.61347  22414636.55447
  21457426.370 6   -630455.512 6   -486751.13747  21457422.68747
  22588192.026 6    947528.598 6    727987.68848  22588193.78048
 18  5 30  0 29 34.9990000  0  9G03G14G16G22G23G26G27G31G32          0.000327221
  23599279.112 5   -721711.836 5   -553418.40247  23599279.33547
  20518899.808 6   -120371.035 6    -92709.18048  20518896.49148
  20424973.901 7  -1421100.066 7  -1091220.42649  20424969.62449
  23536292.612 4   -271248.020 4   -206076.95347  23536288.30447
  24091381.347 5  -3100760.555 5  -2374431.47346  24091375.85546
  20518756.026 7   -383257.582 7   -294194.39149  20518755.74149
  22409794.558 5  -3229599.457 5  -2480608.39547  22409794.15147
  21456490.651 6   -635373.465 6   -490583.32047  21456487.10847
  22589732.440 6    955622.887 6    734294.91848  22589733.76148
 18  5 30  0 29 39.9990000  0  9G03G14G16G22G23G26G27G31G32          0.000322302
  23598314.159 5   -726780.750 5   -557368.21947  23598314.65147
  20518883.347 6   -120456.723 6    -92775.94948  20518880.88248
  20422963.292 7  -1431666.125 7  -1099453.71148  20422959.58948
  23535968.167 5   -272953.313 5   -207405.78147  23535964.03047
  24086693.675 5  -3125393.941 5  -2393626.32846  24086688.10846
  20518265.558 7   -385835.324 7   -296203.01649  20518265.68749
  22404953.284 5  -3255041.016 5  -2500433.00047  22404952.82347
  21455555.800 6   -640287.926 6   -494412.78147  21455552.03047
  22591274.878 6    963725.309 6    740608.46948  22591275.70648
 18  5 30  0 29 44.9990000  0  9G03G14G16G22G23G26G27G31G32          0.000317385
  23597352.815 5   -731837.938 5   -561308.86747  23597352.16747
  20518869.698 6   -120528.086 6    -92831.55548  20518866.81948
  20420955.261 7  -1442220.059 7  -1107677.55948  20420951.21448
  23535645.144 5   -274651.375 5   -208728.92647  23535640.63647
  24082006.995 5  -3150023.633 5  -2412818.23446  24082001.83946
  20517776.401 7   -388405.449 7   -298205.71949  20517776.49949
  22400112.855 5  -3280477.246 5  -2520253.45347  22400112.40547
  21454621.105 5   -645199.063 5   -498239.64847  21454617.72247
  22592817.511 6    971835.742 6    746928.28548  22592819.01948
 18  5 30  0 29 49.9990000  0  9G03G14G16G22G23G26G27G31G32          0.000312466
  23596393.230 5   -736883.754 5   -565240.65247  23596392.26947
  20518859.128 6   -120585.301 6    -92876.14848  20518856.40148
  20418948.940 7  -1452762.074 7  -1115892.12949  20418945.02249
  23535323.644 5   -276342.379 5   -210046.62147  23535319.03847
  24077320.550 5  -3174649.734 5  -2432007.43447  24077315.41747
  20517288.995 7   -390968.145 7   -300202.62949  20517288.85149
  22395273.362 5  -3305908.352 5  -2540069.89147  22395272.74947
  21453686.472 5   -650107.000 5   -502064.02047  21453683.28047
  22594362.839 6    979953.965 6    753254.15648  22594363.51148
 18  5 30  0 29 54.9990000  0  9G03G14G16G22G23G26G27G31G32          0.000307547
  23595434.112 5   -741917.797 5   -569163.29747  23595433.99947
  20518850.823 6   -120628.234 6    -92909.60948  20518847.67548
  20416944.909 7  -1463291.996 7  -1124097.26248  20416941.41348
  23535003.026 5   -278026.137 5   -211358.66847  23534998.60547
  24072635.128 5  -3199272.055 5  -2451193.67646  24072629.27246
  20516802.698 7   -393523.246 7   -302193.62549  20516802.72649
  22390434.565 4  -3331334.125 4  -2559882.17247  22390434.97247
  21452753.183 5   -655011.574 5   -505885.76647  21452750.29247
  22595908.425 6    988080.090 6    759586.18847  22595909.71847
 18  5 30  0 29 59.9990000  0  9G03G14G16G22G23G26G27G31G32          0.000302629
  23594478.870 5   -746940.379 5   -573076.99647  23594478.51947
  20518845.308 6   -120656.922 6    -92931.96948  20518842.79248
  20414943.409 7  -1473809.914 7  -1132293.04348  20414939.55848
  23534683.651 5   -279702.793 5   -212665.15247  23534679.39047
  24067949.722 5  -3223890.801 5  -2470377.07446  24067944.41346
  20516318.026 7   -396070.836 7   -304178.76249  20516317.53049
  22385597.237 5  -3356754.652 5  -2579690.36347  22385597.72647
  21451820.737 5   -659912.922 5   -509705.00847  21451817.78047
  22597456.355 6    996214.137 6    765924.39848  22597457.66348
 18  5 30  0 30  4.9990000  0  9G03G14G16G22G23G26G27G31G32          0.000297712
  23593525.206 5   -751951.223 5   -576981.56647  23593524.62447
  20518842.433 6   -120671.289 6    -92943.16048  20518839.84348
  20412944.440 7  -1484315.684 7  -1140479.35948  20412940.48748
  23534366.144 5   -281372.199 5   -213966.00047  23534361.84747
  24063266.058 5  -3248505.691 5  -2489557.52746  24063260.29646
  20515834.792 7   -398610.809 7   -306157.96149  20515834.52249
  22380761.144 5  -3382169.754 5  -2599494.32447  22380761.33547
  21450888.894 5   -664810.883 5   -513521.59447  21450885.91347
  22599005.784 6   1004356.234 6    772268.86347  22599007.14747
 18  5 30  0 30  9.9990000  0  9G03G14G16G22G23G26G27G31G32          0.000292793
  23592573.675 5   -756950.512 5   -580877.15247  23592573.28047
  20518842.792 6   -120671.434 6    -92943.28148  20518839.58948
  20410947.081 7  -1494809.453 7  -1148656.32048  20410943.17948
  23534050.394 5   -283034.527 5   -215261.32847  23534045.55447
  24058583.315 5  -3273116.961 5  -2508735.10946  24058576.87446
  20515352.800 7   -401143.285 7   -308131.33249  20515353.01149
  22375925.120 4  -3407579.590 4  -2619294.18847  22375926.20247
  21449957.456 5   -669705.555 5   -517335.64847  21449954.33547
  22600556.362 6   1012506.145 6    778619.44947  22600557.87047
 18  5 30  0 30 14.9990000  0  9G03G14G16G22G23G26G27G31G32          0.000287876
  23591624.722 5   -761938.469 5   -584763.85247  23591623.98047
  20518845.105 6   -120657.563 6    -92932.47348  20518842.19448
  20408952.901 7  -1505291.395 7  -1156824.06348  20408949.12048
  23533734.581 5   -284689.953 5   -216551.26647  23533730.62047
  24053900.128 5  -3297724.672 5  -2527909.95346  24053893.57746
  20514871.808 7   -403668.465 7   -310099.00849  20514871.98749
  22371091.034 4  -3432984.203 4  -2639090.02047  22371091.92947
  21449026.409 5   -674597.098 5   -521147.23447  21449023.81247
  22602108.636 6   1020663.781 6    784976.03547  22602109.44847
 18  5 30  0 30 19.9990000  0  9G03G14G16G22G23G26G27G31G32          0.000282957
  23590676.987 5   -766915.105 5   -588641.75447  23590676.58547
  20518850.870 6   -120629.672 6    -92910.74648  20518847.67148
  20406960.511 7  -1515761.539 7  -1164982.62948  20406956.28448
  23533421.823 5   -286338.500 5   -217835.87147  23533417.13647
  24049217.972 5  -3322328.930 5  -2547082.09046  24049211.31946
  20514392.956 7   -406186.371 7   -312061.01649  20514392.79649
  22366257.409 4  -3458383.785 4  -2658881.89147  22366258.56947
  21448096.269 5   -679485.590 5   -524956.48447  21448093.49947
  22603662.886 6   1028829.027 6    791338.54747  22603663.80847
 18  5 30  0 30 24.9990000  0  9G03G14G16G22G23G26G27G31G32          0.000278040
  23589732.401 4   -771880.242 4   -592510.69147  23589731.71447
  20518858.690 6   -120587.613 6    -92877.97348  20518855.76148
  20404970.394 7  -1526219.699 7  -1173131.83648  20404966.16348
  23533109.667 5   -287980.016 5   -219114.97347  23533104.17147
  24044536.222 5  -3346929.473 5  -2566251.31646  24044530.16746
  20513915.440 7   -408696.832 7   -314017.22349  20513914.92949
  22361425.675 4  -3483778.020 4  -2678669.59847  22361426.56947
  21447166.558 5   -684370.844 5   -528763.16047  21447163.85547
  22605217.667 6   1037002.086 6    797707.14847  22605219.22647
 18  5 30  0 30 29.9990000  0  9G03G14G16G22G23G26G27G31G32          0.000273123
  23588790.261 4   -776833.754 4   -596370.58646  23588789.10146
  20518869.026 6   -120531.246 6    -92834.04748  20518866.56248
  20402982.362 7  -1536665.758 7  -1181271.63348  20402978.27648
  23532798.409 6   -289614.359 6   -220388.50047  23532793.55047
  24039855.644 5  -3371526.242 5  -2585417.62946  24039849.48746
  20513439.128 7   -411199.734 7   -315967.53949  20513439.06249
  22356594.331 3  -3509166.832 3  -2698453.06647  22356595.06947
  21446237.144 5   -689252.715 5   -532567.23047  21446234.78047
  22606774.378 6   1045183.074 6    804081.92647  22606775.49147
 18  5 30  0 30 34.9990000  0  9G03G14G16G22G23G26G27G31G32          0.000268206
  23587849.425 5   -781775.574 5   -600221.35546  23587848.17546
  20518882.737 6   -120460.512 6    -92778.93448  20518879.70248
  20400997.120 7  -1547099.699 7  -1189401.97348  20400992.42548
  23532488.331 6   -291241.512 6   -221656.41447  23532483.88647
  24035175.683 5  -3396119.113 5  -2604580.89146  24035169.22646
  20512963.964 7   -413695.051 7   -317911.94149  20512963.92149
  22351763.105 3  -3534550.129 3  -2718232.27047  22351764.58547
  21445308.901 5   -694131.133 5   -536368.58647  21445306.48347
  22608332.683 6   1053372.012 6    810462.91447  22608333.81947
 18  5 30  0 30 39.9990000  0  9G03G14G16G22G23G26G27G31G32          0.000263288
  23586912.003 5   -786706.195 5   -604063.39847  23586910.17947
  20518899.214 6   -120375.797 6    -92712.92248  20518895.88648
  20399013.839 7  -1557521.926 7  -1197523.18048  20399009.33148
  23532180.284 5   -292861.848 5   -222919.00447  23532175.49147
  24030496.675 5  -3420708.484 5  -2623741.44146  24030490.08546
  20512491.120 7   -416183.156 7   -319850.73049  20512490.88249
  22346934.425 3  -3559928.250 3  -2738007.42247  22346935.63247
  21444381.526 5   -699006.531 5   -540167.60247  21444378.64447
  22609892.292 5   1061568.523 5    816849.78947  22609893.60147
 18  5 30  0 30 44.9990000  0  9G03G14G16G22G23G26G27G31G32          0.000258369
  23585975.112 5   -791625.316 5   -607896.48447  23585974.21447
  20518917.237 6   -120276.914 6    -92635.87948  20518915.31548
  20397032.589 7  -1567932.191 7  -1205635.08248  20397028.22248
  23531873.065 5   -294475.191 5   -224176.16447  23531868.92147
  24025817.878 5  -3445294.164 5  -2642899.09046  24025812.30446
  20512018.769 7   -418663.883 7   -321783.77049  20512018.60149
  22342105.972 2  -3585300.980 2  -2757778.36347  22342107.15947
  21443454.081 5   -703878.707 5   -543964.09447  21443451.06547
  22611453.464 5   1069772.762 5    823242.69947  22611454.71447
 18  5 30  0 30 49.9990000  0  9G03G14G16G22G23G26G27G31G32          0.000253452
  23585041.448 5   -796532.902 5   -611720.58247  23585040.46047
  20518939.362 6   -120163.773 6    -92547.70748  20518937.13248
  20395053.714 6  -1578330.395 6  -1213737.57448  20395049.81548
  23531567.042 5   -296081.465 5   -225427.80547  23531562.99947
  24021140.589 5  -3469875.938 5  -2662053.71947  24021134.58147
  20511547.980 7   -421137.055 7   -323710.92249  20511548.38649
  22337278.628 2  -3610668.301 2  -2777545.09447  22337279.96847
  21442527.347 5   -708747.426 5   -547757.89147  21442524.53447
  22613016.042 5   1077984.918 5    829641.77747  22613017.05447
 18  5 30  0 30 54.9990000  0  9G03G14G16G22G23G26G27G31G32          0.000248535
  23584109.972 5   -801428.891 5   -615535.63747  23584108.82747
  20518963.456 6   -120036.324 6    -92448.40248  20518960.85848
  20393077.237 6  -1588716.535 6  -1221830.67248  20393073.16748
  23531263.300 5   -297680.645 5   -226673.92647  23531258.91747
  24016463.050 5  -3494453.832 5  -2681205.30546  24016457.85846
  20511078.862 7   -423602.734 7   -325632.22749  20511078.57349
  22332452.761 2  -3636029.969 2  -2797307.45347  22332454.27247
  21441601.972 5   -713612.785 5   -551549.05947  21441598.94447
  22614580.956 5   1086204.918 5    836046.95747  22614581.40947
 18  5 30  0 30 59.9990000  0  9G03G14G16G22G23G26G27G31G32          0.000243618
  23583181.276 5   -806313.535 5   -619341.84047  23583179.60547
  20518990.230 6   -119894.813 6    -92338.13348  20518988.16348
  20391103.440 6  -1599090.820 6  -1229914.52748  20391099.33548
  23530959.550 5   -299272.980 5   -227914.70747  23530955.87447
  24011786.855 5  -3519028.035 5  -2700354.04746  24011781.22246
  20510611.144 7   -426061.125 7   -327547.86349  20510610.74549
  22327628.448 3  -3661386.402 3  -2817065.70347  22327628.81247
  21440677.159 5   -718474.775 5   -555337.65947  21440673.94447
  22616146.042 5   1094432.578 5    842458.09847  22616146.92947
 18  5 30  0 31  4.9990000  0  9G03G14G16G22G23G26G27G31G32          0.000238701
  23582253.159 5   -811186.672 5   -623139.08647  23582252.67547
  20519020.144 6   -119739.121 6    -92216.81648  20519017.55048
  20389131.112 7  -1609453.145 7  -1237989.05948  20389127.17548
  23530658.839 5   -300858.297 5   -229150.02047  23530653.44047
  24007110.355 5  -3543598.414 5  -2719499.79747  24007106.59347
  20510144.480 7   -428512.105 7   -329457.72349  20510144.23349
  22322803.144 3  -3686737.359 3  -2836819.71147  22322804.63647
  21439752.253 4   -723333.563 4   -559123.72347  21439749.08947
  22617713.761 5   1102668.000 5    848875.29747  22617713.93347
 18  5 30  0 31  9.9990000  0  9G03G14G16G22G23G26G27G31G32          0.000233786
  23581328.159 5   -816048.520 5   -626927.53947  23581326.64447
  20519052.401 6   -119569.340 6    -92084.52348  20519049.65948
  20387161.886 7  -1619803.602 7  -1246054.35548  20387157.47648
  23530357.753 5   -302436.777 5   -230380.00847  23530353.44847
  24002436.237 5  -3568165.066 5  -2738642.60246  24002431.41746
  20509679.526 7   -430955.777 7   -331361.88349  20509679.17949
  22317979.800 3  -3712082.883 3  -2856569.46147  22317980.96047
  21438828.573 5   -728189.156 5   -562907.28947  21438825.10547
  22619282.808 6   1110911.059 6    855298.44147  22619282.49547
 18  5 30  0 31 14.9990000  0  9G03G14G16G22G23G26G27G31G32          0.000228868
  23580405.550 5   -820899.039 5   -630707.15247  23580404.91747
  20519086.995 6   -119385.520 6    -91941.28948  20519084.71048
  20385194.081 6  -1630142.270 6  -1254110.45348  20385190.03048
  23530058.440 5   -304008.422 5   -231604.67246  23530053.96046
  23997761.651 5  -3592727.973 5  -2757782.56646  23997757.05046
  20509215.839 7   -433392.234 7   -333260.41849  20509215.48049
  22313157.503 2  -3737423.105 2  -2876315.09047  22313159.44047
  21437904.581 4   -733041.449 4   -566688.29746  21437901.33546
  22620852.308 5   1119161.707 5    861727.50847  22620852.18347
 18  5 30  0 31 19.9990000  0  9G03G14G16G22G23G26G27G31G32          0.000223951
  23579483.886 5   -825737.996 5   -634477.77047  23579483.45247
  20519125.081 6   -119187.391 6    -91786.90648  20519122.47648
  20383229.261 7  -1640468.855 7  -1262157.14548  20383224.74948
  23529759.909 5   -305573.004 5   -232823.83246  23529756.38246
  23993087.605 5  -3617286.957 5  -2776919.41846  23993083.66346
  20508753.651 7   -435821.176 7   -335153.11749  20508753.33149
  22308338.159 3  -3762757.672 3  -2896056.30147  22308338.23747
  21436983.050 5   -737890.398 5   -570466.68447  21436978.82747
  22622423.823 6   1127420.219 6    868162.69147  22622423.80047
 18  5 30  0 31 24.9990000  0  9G03G14G16G22G23G26G27G31G32          0.000219034
  23578565.995 5   -830565.676 5   -638239.60247  23578565.37047
  20519165.519 6   -118975.273 6    -91621.62548  20519162.57748
  20381266.167 7  -1650783.648 7  -1270194.64148  20381262.09348
  23529463.433 5   -307130.801 5   -234037.71546  23529459.74146
  23988414.956 4  -3641842.191 4  -2796053.34847  23988411.14747
  20508293.112 7   -438242.898 7   -337040.17249  20508292.67949
  22303517.230 3  -3788086.914 3  -2915793.39847  22303518.13647
  21436060.745 5   -742736.086 5   -574242.56347  21436057.05847
  22623997.417 6   1135686.277 6    874603.75447  22623997.05447
 18  5 30  0 31 29.9990000  0  9G03G14G16G22G23G26G27G31G32          0.000214119
  23577649.136 5   -835382.105 5   -641992.66847  23577648.59747
  20519208.573 6   -118749.184 6    -91445.44948  20519205.81548
  20379305.862 7  -1661086.695 7  -1278222.98848  20379302.27648
  23529169.136 5   -308681.887 5   -235246.36346  23529164.60846
  23983742.581 4  -3666393.719 4  -2815184.43047  23983739.97247
  20507833.378 7   -440657.473 7   -338921.66049  20507833.22249
  22298697.800 3  -3813410.809 3  -2935526.28547  22298699.15147
  21435139.448 5   -747578.633 5   -578015.98447  21435135.29247
  22625572.081 6   1143959.867 6    881050.68447  22625571.22647
 18  5 30  0 31 34.9990000  0  9G03G14G16G22G23G26G27G31G32          0.000209202
  23576734.433 5   -840187.125 5   -645736.84447  23576734.66347
  20519254.230 6   -118508.926 6    -91258.23848  20519251.48348
  20377347.198 7  -1671377.809 7  -1286242.04348  20377343.43748
  23528875.237 5   -310226.023 5   -236449.59846  23528870.56246
  23979071.784 4  -3690941.348 4  -2834312.43446  23979068.56546
  20507375.355 7   -443064.684 7   -340797.41049  20507375.17949
  22293879.175 3  -3838729.137 3  -2955254.84047  22293881.68747
  21434217.651 5   -752417.805 5   -581786.78147  21434214.25747
  22627148.128 6   1152241.141 6    887503.60247  22627146.81547
 18  5 30  0 31 39.9990000  0  9G03G14G16G22G23G26G27G31G32          0.000204285
  23575823.159 5   -844980.984 5   -649472.31647  23575822.74547
  20519302.581 6   -118254.762 6    -91060.19548  20519300.17148
  20375391.159 7  -1681657.223 7  -1294251.96948  20375387.31548
  23528582.628 5   -311763.488 5   -237647.63346  23528578.62446
  23974401.675 4  -3715485.340 4  -2853437.63746  23974397.74146
  20506918.917 7   -445464.801 7   -342667.64149  20506918.74149
  22289063.980 4  -3864042.133 4  -2974979.24647  22289064.92147
  21433298.151 5   -757253.863 5   -585555.15247  21433294.32747
  22628725.300 6   1160529.883 6    893962.36747  22628723.74947
 18  5 30  0 31 44.9990000  0  9G03G14G16G22G23G26G27G31G32          0.000199369
  23574911.987 5   -849763.527 5   -653198.96547  23574912.44847
  20519353.651 6   -117986.520 6    -90851.17648  20519350.50348
  20373437.261 7  -1691924.832 7  -1302252.69948  20373433.52248
  23528291.394 5   -313294.176 5   -238840.38747  23528287.45647
  23969731.628 4  -3740025.504 4  -2872559.83647  23969728.05047
  20506463.472 7   -447857.676 7   -344532.21149  20506463.31549
  22284247.831 3  -3889349.645 3  -2994699.39547  22284249.12447
  21432378.347 5   -762086.727 5   -589321.01247  21432374.13647
  22630304.050 6   1168826.188 6    900426.98047  22630302.89047
 18  5 30  0 31 49.9990000  0  9G03G14G16G22G23G26G27G31G32          0.000194452
  23574004.019 5   -854534.668 5   -656916.75047  23574004.65147
  20519407.831 7   -117704.086 7    -90631.09848  20519404.84748
  20371485.628 7  -1702180.473 7  -1310244.11748  20371482.27248
  23528001.659 5   -314817.988 5   -240027.77346  23527997.24146
  23965062.980 4  -3764561.691 4  -2891678.93847  23965059.30847
  20506009.253 7   -450243.195 7   -346391.06349  20506008.89749
  22279432.526 4  -3914651.535 4  -3014415.15247  22279433.75747
  21431459.495 5   -766916.152 5   -593084.20347  21431455.72247
  22631883.886 6   1177130.203 6    906897.62947  22631883.40547
 18  5 30  0 31 54.9990000  0  9G03G14G16G22G23G26G27G31G32          0.000189537
  23573098.792 5   -859294.430 5   -660625.65647  23573098.85847
  20519464.620 7   -117407.570 7    -90400.04748  20519461.03448
  20369536.315 6  -1712424.242 6  -1318226.27348  20369533.14748
  23527713.206 5   -316334.879 5   -241209.78147  23527708.67547
  23960393.917 3  -3789093.953 3  -2910795.01247  23960391.39747
  20505557.058 7   -452621.395 7   -348244.20349  20505556.89049
  22274619.542 4  -3939947.840 4  -3034126.55947  22274619.84747
  21430540.940 5   -771742.215 5   -596844.77347  21430537.18747
  22633465.964 6   1185441.863 6    913374.21947  22633465.36247
 18  5 30  0 31 59.9990000  0  9G03G14G16G22G23G26G27G31G32          0.000184620
  23572194.495 5   -864042.895 5   -664325.76647  23572195.78447
  20519523.315 7   -117096.906 7    -90157.97348  20519519.98748
  20367589.472 7  -1722656.176 7  -1326199.21548  20367585.69448
  23527425.823 5   -317845.008 5   -242386.52047  23527421.30447
  23955726.409 4  -3813622.379 4  -2929908.05147  23955723.69847
  20505105.940 7   -454992.355 7   -350091.70749  20505105.53049
  22269807.073 5  -3965238.570 5  -3053833.62147  22269807.15547
  21429623.175 5   -776564.953 5   -600602.75847  21429619.92947
  22635048.995 6   1193761.109 6    919856.74247  22635048.33547
 18  5 30  0 32  4.9990000  0  9G03G14G16G22G23G26G27G31G32          0.000179705
  23571293.737 5   -868779.734 5   -668016.82047  23571294.31247
  20519585.159 6   -116771.930 6    -89904.75048  20519581.90948
  20365644.995 7  -1732875.984 7  -1334162.70748  20365641.28048
  23527139.675 5   -319348.023 5   -243557.70747  23527135.46847
  23951060.339 4  -3838146.574 4  -2949017.83646  23951057.20246
  20504656.011 7   -457355.785 7   -351933.34449  20504655.77649
  22264995.605 5  -3990523.438 5  -3073536.11747  22264995.37447
  21428706.073 5   -781384.090 5   -604357.93047  21428702.84747
  22636633.753 6   1202088.180 6    926345.34847  22636632.87847
 18  5 30  0 32  9.9990000  0  9G03G14G16G22G23G26G27G31G32          0.000174789
  23570394.073 5   -873505.039 5   -671698.89847  23570394.58147
  20519649.269 6   -116432.625 6    -89640.36748  20519646.33148
  20363702.425 7  -1743083.676 7  -1342116.76248  20363698.56948
  23526855.331 5   -320844.027 5   -244723.42247  23526850.76947
  23946393.136 3  -3862666.629 3  -2968124.37147  23946390.92947
  20504207.589 7   -459711.746 7   -353769.16449  20504207.54649
  22260185.542 5  -4015802.508 5  -3093234.08647  22260185.19047
  21427789.573 5   -786199.711 5   -608110.36747  21427786.42947
  22638219.956 6   1210423.105 6    932840.07047  22638219.28447
 18  5 30  0 32 14.9990000  0  9G03G14G16G22G23G26G27G31G32          0.000169874
  23569496.980 5   -878219.027 5   -675372.13347  23569497.31947
  20519717.198 6   -116079.156 6    -89364.94148  20519713.05848
  20361761.886 7  -1753279.504 7  -1350061.56348  20361758.30848
  23526571.933 5   -322333.168 5   -245883.81647  23526567.59747
  23941728.706 3  -3887182.754 3  -2987227.84047  23941726.17947
  20503760.901 7   -462060.461 7   -355599.32849  20503760.50349
  22255376.292 5  -4041075.883 5  -3112927.60947  22255375.69447
  21426873.737 6   -791011.902 6   -611860.13747  21426871.00347
  22639807.659 6   1218765.613 6    939340.70347  22639807.15947
 18  5 30  0 32 19.9990000  0  9G03G14G16G22G23G26G27G31G32          0.000164957
  23568603.120 5   -882921.809 5   -679036.66447  23568602.43747
  20519787.120 6   -115711.758 6    -89078.66048  20519782.88648
  20359824.261 6  -1763463.586 6  -1357997.21148  20359820.56248
  23526289.784 5   -323815.703 5   -247039.01247  23526285.46447
  23937064.331 3  -3911694.973 3  -3006328.27346  23937061.61246
  20503315.144 7   -464402.023 7   -357423.93049  20503314.85549
  22250567.198 5  -4066343.758 5  -3132616.86347  22250567.81547
  21425958.940 6   -795820.930 6   -615607.43447  21425955.39447
  22641396.659 6   1227115.547 6    945847.12147  22641395.83547
 18  5 30  0 32 24.9990000  0  9G03G14G16G22G23G26G27G31G32          0.000160042
  23567709.636 5   -887613.379 5   -682692.43047  23567710.05047
  20519859.714 6   -115330.352 6    -88781.47348  20519855.92948
  20357888.511 7  -1773635.895 7  -1365923.69148  20357884.57348
  23526009.245 5   -325291.539 5   -248189.04347  23526005.02247
  23932401.292 4  -3936203.297 4  -3025425.68046  23932397.77646
  20502871.081 7   -466736.457 7   -359242.96949  20502871.10549
  22245760.183 5  -4091606.063 5  -3152301.78147  22245760.23047
  21425044.378 6   -800626.594 6   -619352.10947  21425040.84747
  22642986.886 6   1235472.980 6    952359.39147  22642986.58147
 18  5 30  0 32 29.9990000  0  9G03G14G16G22G23G26G27G31G32          0.000155127
  23566818.870 5   -892293.766 5   -686339.50447  23566819.75747
  20519934.612 6   -114934.973 6    -88473.39548  20519930.82348
  20355955.151 7  -1783796.492 7  -1373841.03548  20355950.77648
  23525729.589 5   -326760.766 5   -249333.88747  23525724.62047
  23927737.190 4  -3960707.785 4  -3044520.07046  23927734.83146
  20502428.089 7   -469063.773 7   -361056.46949  20502427.81549
  22240954.417 5  -4116862.754 5  -3171982.30147  22240954.35547
  21424130.776 6   -805429.031 6   -623094.27047  21424127.01547
  22644578.230 6   1243837.859 6    958877.46148  22644578.49948
 18  5 30  0 32 34.9990000  0  9G03G14G16G22G23G26G27G31G32          0.000150211
  23565930.464 5   -896962.941 5   -689977.84847  23565931.01947
  20520012.151 6   -114525.559 6    -88154.37548  20520008.35848
  20354023.620 6  -1793945.340 6  -1381749.23048  20354019.22248
  23525450.972 5   -328223.324 5   -250473.54747  23525446.49147
  23923075.175 4  -3985208.348 4  -3063611.43046  23923072.60846
  20501986.808 7   -471383.938 7   -362864.39149  20501986.53449
  22236149.300 5  -4142113.871 5  -3191658.48447  22236148.69047
  21423217.175 6   -810228.156 6   -626833.86747  21423213.43347
  22646172.190 6   1252210.195 6    965401.34048  22646171.97248
 18  5 30  0 32 39.9990000  0  9G03G14G16G22G23G26G27G31G32          0.000145296
  23565044.175 5   -901620.887 5   -693607.41447  23565045.02247
  20520093.409 6   -114102.129 6    -87824.43448  20520089.71048
  20352095.144 6  -1804082.367 6  -1389648.21148  20352090.50348
  23525173.956 5   -329679.113 5   -251607.93847  23525169.21047
  23918414.526 4  -4009704.957 4  -3082699.70346  23918410.93346
  20501546.565 7   -473696.945 7   -364666.72349  20501546.44449
  22231344.784 5  -4167359.305 5  -3211330.25447  22231345.44047
  21422304.511 6   -815023.957 6   -630570.87547  21422301.05847
  22647766.925 6   1260590.039 6    971931.08247  22647766.65947
 18  5 30  0 32 44.9990000  0  9G03G14G16G22G23G26G27G31G32          0.000140381
  23564159.597 5   -906267.465 5   -697228.13747  23564160.58547
  20520176.222 6   -113664.500 6    -87483.43048  20520172.76548
  20350168.230 7  -1814207.461 7  -1397537.89148  20350163.64448
  23524897.769 5   -331128.160 5   -252737.07847  23524893.58147
  23913753.019 5  -4034197.430 5  -3101784.73846  23913750.28446
  20501107.628 7   -476002.656 7   -366463.39549  20501107.19449
  22226541.823 5  -4192598.930 5  -3230997.46947  22226542.68347
  21421392.995 6   -819816.270 6   -634305.14147  21421389.28447
  22649362.565 6   1268977.480 6    978466.73447  22649362.64747
 18  5 30  0 32 49.9990000  0 10G03G14G16G22G23G26G27G29G31G32       0.000135475
  23563277.722 5   -910902.828 5   -700840.12947  23563278.50347
  20520261.839 6   -113212.836 6    -87131.48848  20520258.74548
  20348243.862 7  -1824320.742 7  -1405418.35948  20348238.65948
  23524623.792 5   -332570.465 5   -253860.96947  23524618.91747
  23909093.026 5  -4058685.889 5  -3120866.66347  23909090.35147
  20500670.112 7   -478301.191 7   -368254.46149  20500669.51949
  22221740.073 5  -4217832.832 5  -3250660.24247  22221740.45247
  23644884.34711     57776.93811                
  21420481.347 6   -824605.285 6   -638036.84447  21420478.09747
  22650960.401 6   1277372.418 6    985008.22348  22650960.20648
 18  5 30  0 32 54.9990000  0 10G03G14G16G22G23G26G27G29G31G32       0.000130560
  23562397.870 5   -915526.949 5   -704443.32847  23562398.78847
  20520350.917 6   -112747.086 6    -86768.57048  20520347.25748
  20346320.870 7  -1834422.215 7  -1413289.63748  20346316.43748
  23524351.683 5   -334006.066 5   -254979.64147  23524346.17947
  23904434.128 5  -4083170.262 5  -3139945.39146  23904431.27246
  20500234.355 7   -480592.559 7   -370039.94949  20500233.83549
  22216939.456 5  -4243060.965 5  -3270318.52747  22216939.64447
  23645983.651 1     63559.879 1                
  21419570.472 6   -829390.902 6   -641765.88347  21419566.48747
  22652558.886 6   1285774.863 6    991555.57047  22652559.39447
 18  5 30  0 32 59.9990000  0 10G03G14G16G22G23G26G27G29G31G32       0.000125645
  23561519.808 5   -920139.770 5   -708037.73047  23561520.94047
  20520442.073 6   -112267.242 6    -86394.66448  20520438.60148
  20344400.917 6  -1844511.859 6  -1421151.69148  20344396.35848
  23524080.159 5   -335434.973 5   -256093.07047  23524074.14047
  23899776.026 5  -4107650.535 5  -3159020.92647  23899772.73347
  20499799.714 7   -482876.730 7   -371819.82049  20499799.34349
  22212140.105 5  -4268283.340 5  -3289972.31647  22212140.11647
  23647085.089 1     69353.129 1                
  21418660.683 6   -834173.105 6   -645492.28547  21418656.76147
  22654159.253 6   1294184.797 6    998108.74248  22654159.61248
 18  5 30  0 33  4.9990000  0 10G03G14G16G22G23G26G27G29G31G32       0.000120729
  23560643.776 5   -924741.488 5   -711623.47747  23560644.96047
  20520536.159 6   -111773.449 6    -86009.90248  20520533.12448
  20342483.331 6  -1854589.832 6  -1429004.64848  20342478.83548
  23523808.769 6   -336857.352 6   -257201.42647  23523802.94847
  23895118.190 5  -4132126.848 5  -3178093.39147  23895114.64447
  20499366.331 7   -485153.867 7   -373594.21949  20499365.95249
  22207341.776 5  -4293500.043 5  -3309621.69147  22207341.79247
  23648186.761 1     75156.430 1                
  21417751.190 6   -838951.984 6   -649216.08647  21417747.66747
  22655761.183 6   1302602.117 6   1004667.68848  22655761.38648
 18  5 30  0 33  9.9990000  0  9G03G14G16G22G23G26G27G31G32          0.000115807
  23559770.862 5   -929332.043 5   -715200.53147  23559771.46047
  20520632.519 6   -111265.652 6    -85614.21948  20520629.55448
  20340568.120 7  -1864656.027 7  -1436848.43448  20340563.38648
  23523538.964 6   -338273.055 6   -258304.58247  23523533.58947
  23890461.667 5  -4156599.203 5  -3197162.76646  23890457.89746
  20498934.378 7   -487423.875 7   -375363.05549  20498933.83949
  22202543.925 5  -4318711.000 5  -3329266.59447  22202543.82347
  21416842.823 6   -843727.410 6   -652937.19148  21416838.43348
  22657364.714 6   1311026.832 6   1011232.39548  22657365.08948
 18  5 30  0 33 14.9990000  0  9G03G14G16G22G23G26G27G31G32          0.000110893
  23558899.292 5   -933911.451 5   -718768.90647  23558900.26147
  20520731.933 6   -110743.844 6    -85207.61748  20520728.23748
  20338654.753 7  -1874710.430 7  -1444683.03948  20338650.11248
  23523271.159 6   -339682.141 6   -259402.58247  23523265.78847
  23885805.480 5  -4181067.441 5  -3216228.94546  23885801.47246
  20498503.605 7   -489686.789 7   -377126.36349  20498503.05049
  22197747.456 5  -4343916.141 5  -3348906.96547  22197747.73347
  21415934.347 6   -848499.488 6   -656655.69548  21415930.85848
  22658968.815 6   1319458.980 6   1017802.87948  22658969.69848
 18  5 30  0 33 19.9990000  0  9G03G14G16G22G23G26G27G31G32          0.000105978
  23558029.433 5   -938479.688 5   -722328.58147  23558031.44047
  20520833.940 6   -110208.137 6    -84790.18848  20520830.33148
  20336743.394 6  -1884753.250 6  -1452508.59848  20336739.21848
  23523004.433 6   -341084.727 6   -260495.53147  23522999.43747
  23881150.097 5  -4205531.688 5  -3235291.96547  23881145.84347
  20498074.112 7   -491942.680 7   -378884.19949  20498074.06249
  22192952.417 5  -4369115.672 5  -3368542.95747  22192952.01547
  21415026.925 6   -853268.371 6   -660371.70747  21415023.36647
  22660574.894 6   1327898.418 6   1024379.05148  22660575.57348
 18  5 30  0 33 24.9990000  0  9G03G14G16G22G23G26G27G31G32          0.000101065
  23557162.597 5   -943036.691 5   -725879.51247  23557163.98047
  20520938.683 6   -109658.316 6    -84361.76648  20520934.98748
  20334834.909 7  -1894784.152 7  -1460324.88348  20334830.21448
  23522738.464 6   -342480.531 6   -261583.18047  23522733.46847
  23876495.667 5  -4229991.652 5  -3254351.67647  23876491.23347
  20497646.386 7   -494191.348 7   -380636.41449  20497645.89749
  22188157.730 5  -4394309.207 5  -3388174.28947  22188157.93747
  21414119.956 6   -858033.719 6   -664084.97347  21414116.06247
  22662182.112 6   1336345.449 6   1030961.14148  22662183.02248
 18  5 30  0 33 29.9990000  0  9G03G14G16G22G23G26G27G31G32          0.000096149
  23556297.698 5   -947582.410 5   -729421.62947  23556299.05847
  20521045.987 6   -109094.375 6    -83922.33648  20521042.11648
  20332928.214 7  -1904803.203 7  -1468131.93848  20332923.69048
  23522474.105 5   -343869.676 5   -262665.62147  23522469.42547
  23871841.722 5  -4254447.379 5  -3273408.07447  23871836.96847
  20497219.808 7   -496432.844 7   -382383.02349  20497219.21449
  22183364.394 5  -4419496.832 5  -3407801.01247  22183364.40547
  21413213.948 6   -862795.613 6   -667795.53548  21413209.38248
  22663791.534 6   1344799.918 6   1037549.02748  22663792.21048
 18  5 30  0 33 34.9990000  0  9G03G14G16G22G23G26G27G31G32          0.000091236
  23555435.081 5   -952117.066 5   -732955.14847  23555436.62447
  20521156.097 6   -108516.551 6    -83472.07848  20521152.36648
  20331023.987 6  -1914810.602 6  -1475929.90648  20331019.44048
  23522210.644 5   -345252.340 5   -263743.03147  23522206.99147
  23867189.308 5  -4278899.180 5  -3292461.43047  23867184.09747
  20496794.675 7   -498667.387 7   -384124.23049  20496794.29649
  22178572.698 5  -4444678.750 5  -3427423.28547  22178572.68347
  21412308.589 6   -867554.336 6   -671503.62948  21412304.68748
  22665401.433 6   1353261.672 6   1044142.59447  22665401.99947
 18  5 30  0 33 39.9990000  0  9G03G14G16G22G23G26G27G31G32          0.000086321
  23554574.112 5   -956640.445 5   -736479.87147  23554575.60847
  20521268.565 6   -107924.516 6    -83010.74648  20521265.42548
  20329122.042 7  -1924806.016 7  -1483718.55148  20329117.85548
  23521949.011 5   -346628.215 5   -264815.14847  23521945.23747
  23862536.761 5  -4303346.648 5  -3311511.39147  23862531.56247
  20496370.565 7   -500894.621 7   -385859.73449  20496370.14449
  22173781.855 5  -4469854.637 5  -3447040.85547  22173781.64047
  21411403.347 6   -872309.414 6   -675208.87948  21411400.16348
  22667012.644 6   1361731.012 6   1050742.05547  22667013.33147
 18  5 30  0 33 44.9990000  0  9G03G14G16G22G23G26G27G31G32          0.000081408
  23553716.276 5   -961152.559 5   -739995.82047  23553717.49147
  20521384.050 6   -107318.418 6    -82538.46948  20521380.54648
  20327222.058 7  -1934789.656 7  -1491498.01648  20327217.55848
  23521688.573 5   -347997.488 5   -265882.12547  23521684.50747
  23857886.089 6  -4327789.883 6  -3330558.04747  23857880.18747
  20495948.136 7   -503114.738 7   -387589.69949  20495947.74949
  22168991.792 5  -4495024.563 5  -3466653.77047  22168991.80847
  21410499.534 6   -877061.039 6   -678911.44948  21410495.98748
  22668625.605 6   1370207.793 6   1057347.35547  22668625.49947
 18  5 30  0 33 49.9990000  0  9G03G14G16G22G23G26G27G31G32          0.000076494
  23552859.089 5   -965653.652 5   -743503.17247  23552860.74947
  20521501.855 6   -106698.379 6    -82055.32848  20521498.67148
  20325324.776 7  -1944761.641 7  -1499268.38748  20325320.21048
  23521429.120 5   -349360.242 5   -266944.02047  23521424.91747
  23853235.597 6  -4352229.070 6  -3349601.56347  23853229.63647
  20495527.058 7   -505327.848 7   -389314.21149  20495526.75349
  22164204.089 5  -4520188.652 5  -3486262.17647  22164203.40947
  21409595.948 6   -881809.277 6   -682611.37948  21409592.57348
  22670240.730 6   1378691.855 6   1063958.30147  22670240.56547
 18  5 30  0 33 54.9990000  0  9G03G14G16G22G23G26G27G31G32          0.000071579
  23552004.831 5   -970143.641 5   -747001.87147  23552006.24547
  20521622.558 6   -106064.418 6    -81561.34448  20521619.41748
  20323429.026 7  -1954721.910 7  -1507029.64548  20323424.88648
  23521170.784 5   -350716.520 5   -268000.86347  23521166.46447
  23848584.956 6  -4376664.141 6  -3368641.87547  23848579.64447
  20495106.940 7   -507533.941 7   -391033.24649  20495106.55449
  22159415.753 5  -4545346.902 5  -3505866.00447  22159416.01547
  21408692.839 6   -886554.102 6   -686308.65648  21408689.62448
  22671856.347 6   1387183.230 6   1070574.94947  22671856.96447
 18  5 30  0 33 59.9990000  0  9G03G14G16G22G23G26G27G31G32          0.000066666
  23551152.464 5   -974622.281 5   -750491.71547  23551153.62847
  20521745.605 6   -105416.199 6    -81056.23048  20521742.49148
  20321536.097 7  -1964670.203 7  -1514781.56348  20321532.10148
  23520914.183 5   -352066.039 5   -269052.43847  23520910.46447
  23843936.151 6  -4401094.793 6  -3387678.71947  23843930.34347
  20494688.839 7   -509732.773 7   -392746.62549  20494688.41349
  22154630.058 5  -4570499.031 5  -3525465.05947  22154629.93747
  21407790.753 6   -891295.305 6   -690003.09048  21407787.67948
  22673473.440 6   1395682.164 6   1077197.48047  22673473.96047
 18  5 30  0 34  4.9990000  0  9G03G14G16G22G23G26G27G31G32          0.000061752
  23550302.519 5   -979089.961 5   -753973.04347  23550303.42547
  20521871.987 6   -104754.121 6    -80540.33248  20521868.92148
  20319645.519 7  -1974606.910 7  -1522524.44948  20319641.26548
  23520658.300 5   -353409.129 5   -270098.99247  23520654.56247
  23839288.128 6  -4425521.316 6  -3406712.35547  23839282.42947
  20494271.659 7   -511924.715 7   -394454.63749  20494271.11649
  22149845.167 5  -4595645.340 5  -3545059.60248  22149844.42548
  21406889.284 6   -896033.188 6   -693694.95748  21406886.26148
  22675092.269 6   1404188.316 6   1083825.64847  22675092.77247
 18  5 30  0 34  9.9990000  0  9G03G14G16G22G23G26G27G31G32          0.000056839
  23549454.253 5   -983546.488 5   -757445.65647  23549455.15147
  20522000.503 6   -104078.020 6    -80013.50448  20521997.49548
  20317756.589 7  -1984531.883 7  -1530258.19948  20317752.48348
  23520404.370 5   -354745.672 5   -271140.46547  23520400.40947
  23834640.534 6  -4449943.664 6  -3425742.74247  23834634.55447
  20493856.105 7   -514109.586 7   -396157.13349  20493855.67949
  22145061.308 6  -4620785.664 6  -3564649.45348  22145060.87448
  21405988.355 6   -900767.625 6   -697384.12148  21405985.45248
  22676711.964 6   1412701.789 6   1090459.51247  22676712.56247
 18  5 30  0 34 14.9990000  0  9G03G14G16G22G23G26G27G31G32          0.000051926
  23548608.433 5   -987992.105 5   -760909.78147  23548608.87847
  20522132.011 6   -103388.098 6    -79475.90648  20522128.63648
  20315869.995 7  -1994445.258 7  -1537982.90648  20315866.24548
  23520151.058 5   -356075.844 5   -272176.96547  23520147.01947
  23829993.597 6  -4474361.938 6  -3444769.95747  23829987.92147
  20493441.542 7   -516287.594 7   -397854.28549  20493440.83549
  22140278.487 6  -4645920.203 6  -3584234.81648  22140278.12848
  21405088.073 7   -905498.754 7   -701070.72347  21405084.73347
  22678333.925 6   1421222.438 6   1097098.95747  22678334.05447
 18  5 30  0 34 19.9990000  0  9G03G14G16G22G23G26G27G31G32          0.000047012
  23547764.675 5   -992426.652 5   -764365.25847  23547764.65547
  20522266.011 6   -102684.258 6    -78927.46148  20522262.74148
  20313986.331 7  -2004346.984 7  -1545698.54348  20313982.10548
  23519899.261 5   -357399.594 5   -273208.46547  23519894.60147
  23825347.550 6  -4498775.988 6  -3463793.86747  23825342.03047
  20493028.448 7   -518458.613 7   -399545.99249  20493028.10549
  22135496.597 6  -4671048.777 6  -3603815.51248  22135496.12448
  21404188.245 7   -910226.465 7   -704754.65648  21404185.06948
  22679957.065 6   1429750.375 6   1103744.09047  22679956.74147
 18  5 30  0 34 24.9990000  0  9G03G14G16G22G23G26G27G31G32          0.000042099
  23546922.628 5   -996850.164 5   -767812.15647  23546922.42147
  20522402.081 6   -101966.457 6    -78368.14148  20522399.39748
  20312104.081 7  -2014237.000 7  -1553405.04348  20312100.28448
  23519648.581 5   -358716.805 5   -274234.85947  23519643.91347
  23820703.151 6  -4523185.855 6  -3482814.52047  23820696.97247
  20492616.620 7   -520622.656 7   -401232.26649  20492615.55049
  22130715.792 6  -4696171.359 6  -3623391.54748  22130715.15948
  21403289.659 7   -914950.777 7   -708435.92647  21403285.91347
  22681580.097 6   1438285.539 6   1110394.84047  22681580.19047
 18  5 30  0 34 29.9990000  0  9G03G14G16G22G23G26G27G31G32          0.000037186
  23546083.026 5  -1001262.531 5   -771250.35247  23546082.03047
  20522541.862 6   -101234.672 6    -77797.91848  20522538.20248
  20310224.370 7  -2024115.270 7  -1561102.39848  20310220.26548
  23519399.440 5   -360027.578 5   -275256.25047  23519394.17547
  23816058.050 6  -4547591.363 6  -3501831.81647  23816052.67147
  20492206.050 7   -522779.648 7   -402913.04349  20492205.50749
  22125935.808 6  -4721287.938 6  -3642962.89548  22125935.60148
  21402390.808 7   -919671.566 7   -712114.45747  21402387.36247
  22683206.339 6   1446828.074 6   1117051.37147  22683206.49947
 18  5 30  0 34 34.9990000  0  9G03G14G16G22G23G26G27G31G32          0.000032272
  23545246.073 5  -1005663.766 5   -774679.88747  23545244.40947
  20522683.698 6   -100488.836 6    -77216.75448  20522680.48748
  20308346.792 7  -2033981.801 7  -1568790.60948  20308342.41748
  23519151.050 5   -361331.785 5   -276272.53947  23519146.20647
  23811414.573 6  -4571992.598 6  -3520845.74647  23811409.28447
  20491797.026 7   -524929.582 7   -404588.32049  20491796.51149
  22121158.355 6  -4746398.367 6  -3662529.47348  22121157.31548
  21401493.159 6   -924388.848 6   -715790.27047  21401489.49547
  22684833.581 6   1455377.953 6   1123713.57848  22684833.65148
 18  5 30  0 34 39.9990000  0  9G03G14G16G22G23G26G27G31G32          0.000027359
  23544410.573 5  -1010053.863 5   -778100.74647  23544408.52647
  20522828.120 6    -99728.996 6    -76624.68048  20522824.64048
  20306471.230 7  -2043836.586 7  -1576469.66048  20306467.32748
  23518903.253 5   -362629.496 5   -277283.72747  23518898.90947
  23806772.011 6  -4596389.480 6  -3539856.30947  23806766.81947
  20491389.120 7   -527072.480 7   -406258.10949  20491388.60849
  22116380.855 6  -4771502.727 6  -3682091.30548  22116380.27648
  21400596.065 7   -929102.609 7   -719463.32447  21400591.85147
  22686461.651 6   1463935.148 6   1130381.50048  22686461.63248
 18  5 30  0 34 44.9990000  0  9G03G14G16G22G23G26G27G31G32          0.000022446
  23543576.987 5  -1014433.121 5   -781513.16047  23543575.42947
  20522975.120 6    -98955.340 6    -76021.83248  20522972.01548
  20304597.909 7  -2053679.824 7  -1584139.72348  20304593.68348
  23518657.667 5   -363920.938 5   -278290.03547  23518652.93747
  23802130.620 5  -4620782.184 5  -3558863.60947  23802125.09747
  20490982.823 7   -529208.543 7   -407922.57849  20490982.10849
  22111604.886 6  -4796601.176 6  -3701648.52348  22111604.35848
  21399700.433 7   -933813.043 7   -723133.80547  21399695.93347
  22688092.120 6   1472499.438 6   1137054.96147  22688091.86647
 18  5 30  0 34 49.9990000  0  9G03G14G16G22G23G26G27G31G32          0.000017532
  23542745.831 5  -1018801.305 5   -784916.94547  23542744.26147
  20523124.917 6    -98167.691 6    -75408.09048  20523121.48348
  20302727.456 7  -2063511.379 7  -1591800.67648  20302723.28848
  23518412.870 5   -365205.949 5   -279291.36347  23518408.23747
  23797489.026 5  -4645170.539 5  -3577867.51647  23797483.94847
  20490577.573 7   -531337.660 7   -409581.63749  20490576.76549
  22106830.222 6  -4821693.555 6  -3721201.01648  22106829.17948
  21398804.487 7   -938519.992 7   -726801.55547  21398799.90147
  22689722.980 6   1481070.988 6   1143734.05947  22689722.49947
 18  5 30  0 34 54.9990000  0  9G03G14G16G22G23G26G27G31G32          0.000012619
  23541916.917 6  -1023158.387 6   -788312.08247  23541915.40947
  20523277.776 6    -97366.055 6    -74783.44948  20523274.64048
  20300858.370 7  -2073331.172 7  -1599452.47348  20300854.49148
  23518169.839 5   -366484.445 5   -280287.60547  23518164.73347
  23792849.019 5  -4669554.531 5  -3596868.00847  23792844.08947
  20490173.581 7   -533459.758 7   -411235.21949  20490173.46449
  22102056.331 6  -4846779.805 6  -3740748.73448  22102055.87848
  21397909.589 6   -943223.395 6   -730466.53547  21397905.00347
  22691356.026 6   1489649.816 6   1150418.84848  22691354.98748
 18  5 30  0 34 59.9990000  0  9G03G14G16G22G23G26G27G31G32          0.000007708
  23541089.776 5  -1027504.410 5   -791698.61347  23541088.33547
  20523433.284 6    -96550.426 6    -74147.89548  20523429.59748
  20298992.058 7  -2083139.266 7  -1607095.14548  20298988.22648
  23517928.565 5   -367756.473 5   -281278.80947  23517923.01947
  23788209.581 5  -4693934.156 5  -3615865.12547  23788204.58547
  20489771.222 7   -535574.848 7   -412883.34049  20489770.78849
  22097283.144 6  -4871859.879 6  -3760291.65248  22097283.08548
  21397014.956 7   -947923.270 7   -734128.78947  21397010.49547
  22692989.409 6   1498235.930 6   1157109.29748  22692989.23748
 18  5 30  0 35  4.9990000  0  9G03G14G16G22G23G26G27G31G32          0.000002794
  23540264.987 5  -1031839.410 5   -795076.54747  23540263.42147
  20523590.745 6    -95720.867 6    -73501.48848  20523587.62848
  20297127.503 6  -2092935.699 6  -1614728.72748  20297124.49148
  23517687.706 5   -369022.121 5   -282265.02047  23517682.23747
  23783570.487 5  -4718309.391 5  -3634858.82046  23783566.69046
  20489370.284 7   -537682.996 7   -414526.06649  20489369.71849
  22092511.972 6  -4896933.875 6  -3779829.82848  22092511.26548
  21396121.737 7   -952619.621 7   -737788.27747  21396116.73047
  22694624.815 6   1506829.258 6   1163805.38348  22694625.04248
 18  5 30  0 35  9.9990000  0  9G03G14G16G22G23G26G27G31G32         -0.000002117
  23539441.417 5  -1036163.563 5   -798446.02047  23539440.65947
  20523751.550 6    -94877.516 6    -72844.34448  20523748.10848
  20295265.433 7  -2102720.547 7  -1622353.28548  20295262.28448
  23517447.940 5   -370281.551 5   -283246.42246  23517442.00746
  23778932.776 5  -4742680.449 5  -3653849.21946  23778928.73746
  20488970.190 7   -539784.348 7   -416163.48049  20488969.58949
  22087741.573 6  -4922001.891 6  -3799363.32048  22087741.64448
  21395228.534 7   -957312.598 7   -741445.14847  21395223.90947
  22696261.878 6   1515429.656 6   1170506.96948  22696261.15148
 18  5 30  0 35 14.9990000  0  9G03G14G16G22G23G26G27G31G32         -0.000007030
  23538620.644 6  -1040476.938 6   -801807.09447  23538620.29247
  20523914.511 6    -94020.457 6    -72176.50448  20523911.03448
  20293406.065 6  -2112493.969 6  -1629968.94548  20293402.63648
  23517209.183 5   -371534.762 5   -284222.94146  23517203.02646
  23774295.800 5  -4767047.293 5  -3672836.37147  23774291.74147
  20488571.675 7   -541878.996 7   -417795.66449  20488570.73049
  22082972.753 6  -4947063.938 6  -3818892.18448  22082972.52248
  21394336.362 7   -962002.297 7   -745099.45347  21394331.21847
  22697899.534 6   1524037.004 6   1177213.97348  22697898.94048
 18  5 30  0 35 19.9990000  0  9G03G14G16G22G23G26G27G31G32         -0.000011944
  23537802.964 5  -1044779.184 5   -805159.52347  23537802.03847
  20524080.003 6    -93149.352 6    -71497.73448  20524077.08948
  20291548.620 6  -2122255.637 6  -1637575.45348  20291545.02648
  23516972.597 5   -372781.426 5   -285194.37547  23516966.31547
  23769660.690 5  -4791409.688 5  -3691820.06647  23769655.68347
  20488174.425 7   -543966.594 7   -419422.36349  20488173.89049
  22078204.159 6  -4972119.707 6  -3838416.15248  22078204.46848
  21393444.105 7   -966688.391 7   -748750.97747  21393439.56247
  22699538.534 6   1532651.688 6   1183926.69548  22699538.64448
 18  5 30  0 35 24.9990000  0  9G03G14G16G22G23G26G27G31G32         -0.000016855
  23536985.995 5  -1049070.500 5   -808503.38747  23536985.22247
  20524248.347 6    -92264.406 6    -70808.16048  20524245.35548
  20289692.800 6  -2132005.684 6  -1645172.89148  20289689.51148
  23516735.839 5   -374021.828 5   -286160.94146  23516730.50346
  23765024.761 5  -4815767.664 5  -3710800.28947  23765020.96047
  20487778.706 7   -546047.332 7   -421043.73049  20487777.67949
  22073437.847 6  -4997169.348 6  -3857935.35248  22073437.69048
  21392553.355 7   -971371.016 7   -752399.75047  21392548.34347
  22701179.565 6   1541273.488 6   1190644.96947  22701179.03847
 18  5 30  0 35 29.9990000  0  9G03G14G16G22G23G26G27G31G32         -0.000021769
  23536171.167 5  -1053350.852 5   -811838.75447  23536170.89747
  20524419.440 6    -91365.555 6    -70107.76248  20524416.22648
  20287839.230 6  -2141744.121 6  -1652761.29348  20287836.53848
  23516501.651 5   -375255.848 5   -287122.51246  23516495.26546
  23760390.565 5  -4840121.254 5  -3729777.11346  23760386.93746
  20487383.925 7   -548121.176 7   -422659.71149  20487383.01149
  22068672.597 6  -5022212.801 6  -3877449.74248  22068671.90548
  21391662.503 7   -976050.195 7   -756045.86747  21391657.86647
  22702821.472 6   1549902.449 6   1197368.82847  22702821.03047
 18  5 30  0 35 34.9990000  0  9G03G14G16G22G23G26G27G31G32         -0.000026680
  23535358.784 5  -1057620.234 5   -815165.55147  23535358.67947
  20524593.323 6    -90452.773 6    -69396.50848  20524590.60148
  20285988.667 6  -2151470.945 6  -1660340.63348  20285985.46448
  23516268.050 5   -376483.586 5   -288079.19546  23516261.85146
  23755757.058 5  -4864470.477 5  -3748750.55147  23755753.45647
  20486990.651 7   -550188.133 7   -424270.33249  20486989.92949
  22063907.761 6  -5047250.059 6  -3896959.27748  22063907.34348
  21390772.925 6   -980725.824 6   -759689.20747  21390768.69847
  22704465.237 6   1558538.555 6   1204098.23447  22704464.94847
 18  5 30  0 35 39.9990000  0  9G03G14G16G22G23G26G27G31G32         -0.000031591
  23534548.558 5  -1061878.637 5   -818483.76247  23534548.38647
  20524769.589 6    -89526.035 6    -68674.37948  20524766.80848
  20284139.612 6  -2161186.004 6  -1667910.80148  20284136.55848
  23516035.300 5   -377704.945 5   -289030.92646  23516029.12846
  23751124.855 5  -4888815.223 5  -3767720.45347  23751121.00747
  20486598.542 7   -552248.168 7   -425875.55149  20486597.59749
  22059144.144 6  -5072281.086 6  -3916463.98848  22059144.30848
  21389883.675 6   -985397.930 6   -763329.83247  21389879.21447
  22706109.323 6   1567181.852 6   1210833.25847  22706109.66347
 18  5 30  0 35 44.9990000  0  9G03G14G16G22G23G26G27G31G32         -0.000036505
  23533740.222 5  -1066125.898 5   -821793.31647  23533740.78847
  20524949.026 6    -88585.199 6    -67941.26248  20524946.12048
  20282293.355 6  -2170889.320 6  -1675471.83648  20282290.12048
  23515804.112 5   -378919.824 5   -289977.58247  23515798.46847
  23746492.128 5  -4913155.328 5  -3786686.77047  23746488.89047
  20486208.128 7   -554301.176 7   -427475.29749  20486207.01949
  22054382.183 6  -5097305.641 6  -3935963.62948  22054381.90148
  21388994.909 6   -990066.281 6   -766967.50447  21388990.85547
  22707755.175 6   1575832.449 6   1217573.97347  22707755.49147
 18  5 30  0 35 49.9990000  0  9G03G14G16G22G23G26G27G31G32         -0.000041416
  23532933.565 5  -1070362.247 5   -825094.37447  23532934.62847
  20525130.456 6    -87630.457 6    -67197.31648  20525127.30848
  20280449.105 6  -2180581.016 6  -1683023.79748  20280445.83148
  23515574.839 6   -380128.516 6   -290919.42647  23515568.51547
  23741861.370 5  -4937490.996 5  -3805649.64847  23741857.89747
  20485818.722 7   -556347.309 7   -429069.69149  20485817.85849
  22049621.105 6  -5122324.004 6  -3955458.46548  22049620.69848
  21388107.456 6   -994731.086 6   -770602.41447  21388102.90947
  22709402.901 6   1584490.172 6   1224320.23047  22709403.36647
 18  5 30  0 35 54.9990000  0  9G03G14G16G22G23G26G27G31G32         -0.000046328
  23532129.690 5  -1074587.832 5   -828387.01647  23532131.09747
  20525315.128 6    -86661.965 6    -66442.65648  20525311.82348
  20278606.839 6  -2190261.152 6  -1690566.76648  20278603.72248
  23515345.394 6   -381331.086 6   -291856.50047  23515339.30847
  23737231.386 4  -4961822.277 4  -3824609.05946  23737228.04246
  20485430.378 8   -558386.707 8   -430658.84049  20485429.76549
  22044861.433 6  -5147336.215 6  -3974948.50448  22044861.40148
  21387220.269 6   -999392.516 6   -774234.70747  21387215.88247
  22711051.315 5   1593154.863 5   1231071.93047  22711052.18347
 18  5 30  0 35 59.9990000  0 10G03G14G16G22G23G26G27G29G31G32      -0.000051241
  23531327.144 5  -1078802.469 5   -831671.15647  23531329.04247
  20525501.987 6    -85679.578 6    -65677.16848  20525498.05048
  20276766.620 6  -2199929.680 6  -1698100.68848  20276763.34348
  23515118.690 6   -382527.266 6   -292788.58647  23515112.38247
  23732602.573 5  -4986149.141 5  -3843565.05147  23732598.67947
  20485043.730 7   -560419.234 7   -432242.62549  20485043.06949
  22040103.480 6  -5172342.148 6  -3994433.64148  22040102.67948
  23688058.91711                                
  21386334.300 6  -1004050.348 6   -777864.17247  21386329.81247
  22712701.386 5   1601826.684 5   1237829.15247  22712702.20247
 18  5 30  0 36  4.9990000  0 10G03G14G16G22G23G26G27G29G31G32      -0.000056149
  23530527.776 5  -1083006.230 5   -834946.82447  23530529.27647
  20525691.151 6    -84683.313 6    -64900.84848  20525688.19048
  20274929.331 6  -2209586.707 6  -1705625.66048  20274926.00348
  23514891.769 6   -383717.254 6   -293715.85247  23514886.14447
  23727973.628 4  -5010471.551 4  -3862517.57447  23727969.98347
  20484658.378 8   -562445.004 8   -433821.15249  20484657.51949
  22035345.933 6  -5197341.879 6  -4013913.94148  22035345.11648
  23689231.605 1     12137.109 1                
  21385448.417 6  -1008704.742 6   -781490.96147  21385444.05447
  22714353.073 5   1610505.508 5   1244591.86347  22714353.70247
 18  5 30  0 36  9.9990000  0 10G03G14G16G22G23G26G27G29G31G32      -0.000061060
  23529729.315 5  -1087199.129 5   -838214.01647  23529731.15947
  20525883.675 6    -83673.188 6    -64113.75848  20525879.76548
  20273094.136 6  -2219232.133 6  -1713141.58248  20273090.34748
  23514666.175 6   -384900.984 6   -294638.23847  23514660.66347
  23723345.925 4  -5034789.453 4  -3881466.60547  23723342.53047
  20484274.097 8   -564463.957 8   -435394.37949  20484273.78049
  22030589.456 6  -5222335.301 6  -4033389.32448  22030588.71048
  23690406.83911                                
  21384563.245 6  -1013355.574 6   -785114.99647  21384559.39447
  22716006.190 6   1619191.383 6   1251360.06647  22716006.65947
 18  5 30  0 36 14.9990000  0 10G03G14G16G22G23G26G27G29G31G32      -0.000065971
  23528934.597 5  -1091381.156 5   -841472.74647  23528934.73747
  20526078.823 6    -82649.207 6    -63315.84448  20526075.03848
  20271260.659 6  -2228865.957 6  -1720648.45748  20271257.44848
  23514442.425 5   -386078.445 5   -295555.75047  23514436.40547
  23718719.940 5  -5059102.816 5  -3900412.06346  23718715.60146
  20483891.190 8   -566476.098 8   -436962.27749  20483890.71049
  22025834.628 6  -5247322.410 6  -4052859.81648  22025834.26548
  23691583.78411     24498.27011                
  21383679.011 6  -1018002.859 6   -788736.24247  21383674.77247
  22717660.573 6   1627884.320 6   1258133.76647  22717660.86647
 18  5 30  0 36 19.9990000  0 10G03G14G16G22G23G26G27G29G31G32      -0.000070883
  23528139.847 5  -1095552.141 5   -844722.88347  23528140.55047
  20526276.003 6    -81611.215 6    -62507.04748  20526272.57348
  20269429.378 6  -2238488.070 6  -1728146.20748  20269426.21048
  23514218.933 5   -387249.539 5   -296468.28547  23514213.77247
  23714093.503 4  -5083411.516 4  -3919353.90246  23714090.30446
  20483509.784 7   -568481.297 7   -438524.77049  20483509.20649
  22021080.612 6  -5272303.035 6  -4072325.22748  22021080.45648
  23692762.097 1     30693.773 1                
  21382794.917 6  -1022646.445 6   -792354.61747  21382791.16747
  22719315.323 5   1636584.492 5   1264913.09447  22719316.71447
 18  5 30  0 36 24.9990000  0 10G03G14G16G22G23G26G27G29G31G32      -0.000075798
  23527349.355 5  -1099712.324 5   -847964.57047  23527349.12447
  20526476.151 7    -80559.406 7    -61687.46148  20526472.85148
  20267600.995 6  -2248098.582 6  -1735634.92648  20267597.70648
  23513997.886 6   -388414.465 6   -297376.00847  23513991.50747
  23709468.495 4  -5107715.719 4  -3938292.21146  23709464.60846
  20483129.417 7   -570479.746 7   -440082.01649  20483128.77249
  22016329.292 6  -5297277.398 6  -4091785.77048  22016328.22248
  23693943.60511     36899.04711                
  21381912.105 6  -1027286.523 6   -795970.27747  21381907.88247
  22720972.292 5   1645291.617 5   1271697.85947  22720973.35147
 18  5 30  0 36 29.9990000  0 10G03G14G16G22G23G26G27G29G31G32      -0.000080706
  23526559.175 5  -1103861.703 5   -851197.87547  23526559.23747
  20526678.901 6    -79493.832 6    -60857.14148  20526675.89748
  20265774.347 6  -2257697.672 6  -1743114.74248  20265770.87448
  23513777.706 6   -389573.281 6   -298279.02347  23513771.81947
  23704844.675 4  -5132015.473 4  -3957227.11346  23704841.04246
  20482750.081 7   -572471.461 7   -441633.99649  20482749.89749
  22011577.300 6  -5322245.461 6  -4111241.37148  22011576.58548
  23695126.480 1     43114.109 1                
  21381030.511 6  -1031923.113 6   -799583.20747  21381025.62047
  22722631.222 5   1654005.711 5   1278488.05147  22722631.40147
 18  5 30  0 36 34.9990000  0 10G03G14G16G22G23G26G27G29G31G32      -0.000085617
  23525772.003 5  -1108000.129 5   -854422.61347  23525771.65147
  20526884.589 6    -78414.285 6    -60015.93448  20526881.11648
  20263949.315 6  -2267285.043 6  -1750585.42648  20263946.29648
  23513558.042 6   -390725.770 6   -299177.03947  23513552.12447
  23700221.511 4  -5156310.520 4  -3976158.32046  23700217.65146
  20482372.542 7   -574456.281 7   -443180.62549  20482372.50349
  22006826.972 6  -5347207.027 6  -4130691.96948  22006826.13248
  23696311.784 1     49338.938 1                
  21380148.433 6  -1036555.918 6   -803193.17247  21380144.17947
  22724290.503 5   1662726.938 5   1285283.79347  22724291.17147
 18  5 30  0 36 39.9990000  0 10G03G14G16G22G23G26G27G29G31G32      -0.000090532
  23524986.815 5  -1112127.586 5   -857638.82847  23524985.82747
  20527092.331 6    -77320.773 6    -59163.85548  20527089.37448
  20262127.815 6  -2276860.762 6  -1758047.03148  20262124.33948
  23513339.159 6   -391871.992 6   -300070.19147  23513333.80847
  23695599.558 5  -5180600.918 5  -3995085.92246  23695595.64746
  20481996.401 8   -576434.211 8   -444721.86749  20481996.04649
  22002078.612 6  -5372162.090 6  -4150137.45748  22002077.55048
  23697496.08911                                
  21379267.347 6  -1041185.078 6   -806800.32847  21379263.57347
  22725950.839 5   1671455.301 5   1292085.09447  22725951.85147
 18  5 30  0 36 44.9990000  0 10G03G14G16G22G23G26G27G29G31G32      -0.000095438
  23524203.276 6  -1116244.172 6   -860846.55547  23524202.19847
  20527303.308 6    -76213.344 6    -58300.93848  20527300.54248
  20260307.823 6  -2286424.887 6  -1765499.60248  20260304.01548
  23513121.886 5   -393012.004 5   -300958.52047  23513116.89747
  23690978.222 5  -5204886.641 5  -4014009.87146  23690974.11246
  20481620.995 7   -578405.348 7   -446257.82849  20481620.74549
  21997330.948 5  -5397110.719 5  -4169577.93847  21997330.42547
  23698685.456 1     61818.305 1                
  21378387.628 6  -1045810.551 6   -810404.58647  21378383.59347
  22727614.058 5   1680190.723 5   1298891.89147  22727614.16747
 18  5 30  0 36 49.9990000  0 10G03G14G16G22G23G26G27G29G31G32      -0.000100349
  23523422.519 6  -1120350.070 6   -864045.96147  23523421.40147
  20527516.636 6    -75092.219 6    -57427.34448  20527513.59748
  20258489.917 6  -2295977.566 6  -1772943.25048  20258486.12048
  23512907.112 6   -394145.957 6   -301842.14147  23512901.35147
  23686357.698 5  -5229167.852 5  -4032930.31646  23686353.58146
  20481247.261 8   -580369.828 8   -447788.60249  20481247.35149
  21992585.019 6  -5422053.074 6  -4189013.56348  21992584.00348
  23699875.67511     68072.66411                
  21377507.667 6  -1050432.555 6   -814006.16847  21377503.96447
  22729277.284 5   1688932.988 5   1305704.03147  22729277.49147
 18  5 30  0 36 54.9990000  0 10G03G14G16G22G23G26G27G29G31G32      -0.000105265
  23522642.956 5  -1124445.242 5   -867237.00047  23522641.70647
  20527732.019 6    -73957.367 6    -56543.04348  20527729.67548
  20256674.300 6  -2305518.809 6  -1780378.00048  20256670.82748
  23512692.089 6   -395273.848 6   -302720.99247  23512686.79247
  23681737.972 5  -5253444.539 5  -4051847.17647  23681733.76147
  20480874.800 8   -582327.656 8   -449314.18449  20480874.64049
  21987839.675 6  -5446989.055 6  -4208444.18448  21987838.76148
  23701068.98011     74336.57411                
  21376629.284 6  -1055051.066 6   -817605.00847  21376625.44447
  22730942.706 5   1697682.129 5   1312521.53947  22730942.17947
 18  5 30  0 36 59.9990000  0 10G03G14G16G22G23G26G27G29G31G32      -0.000110174
  23521865.495 6  -1128529.484 6   -870419.53147  23521864.61247
  20527951.097 6    -72808.586 6    -55647.89548  20527948.39048
  20254860.855 6  -2315048.438 6  -1787803.68048  20254856.92948
  23512477.823 6   -396395.480 6   -303594.99247  23512473.08947
  23677120.026 5  -5277716.547 5  -4070760.43447  23677115.00747
  20480503.339 8   -584278.652 8   -450834.44149  20480503.22649
  21983095.300 6  -5471918.488 6  -4227869.71147  21983094.56547
  23702258.44011                                
  21375750.909 6  -1059665.984 6   -821201.04747  21375747.31547
  22732609.105 6   1706438.367 6   1319344.55947  22732608.63247
 18  5 30  0 37  4.9990000  0 10G03G14G16G22G23G26G27G29G31G32      -0.000115086
  23521090.480 5  -1132603.031 5   -873593.73847  23521089.82747
  20528172.120 6    -71646.082 6    -54742.05548  20528169.27648
  20253049.940 6  -2324566.613 6  -1795220.44148  20253046.33548
  23512265.792 6   -397511.055 6   -304464.30147  23512260.76547
  23672501.315 5  -5301983.977 5  -4089670.09447  23672496.84347
  20480133.698 8   -586223.012 8   -452349.52749  20480133.58549
  21978352.386 5  -5496841.570 5  -4247290.30147  21978351.86247
  23703455.96411     86893.92611                
  21374873.644 6  -1064277.414 6   -824794.38347  21374869.76947
  22734275.511 5   1715201.445 5   1326172.91847  22734276.36647
 18  5 30  0 37  9.9990000  0 10G03G14G16G22G23G26G27G29G31G32      -0.000119995
  23520318.167 6  -1136665.703 6   -876759.46547  23520316.91747
  20528396.011 6    -70469.660 6    -53825.37948  20528393.30048
  20251240.792 6  -2334073.207 6  -1802628.18048  20251237.11648
  23512054.925 6   -398620.449 6   -305328.75447  23512049.92547
  23667884.956 5  -5326246.660 5  -4108576.07846  23667879.65946
  20479765.019 8   -588160.559 8   -453859.29749  20479764.80049
  21973611.237 6  -5521758.055 6  -4266705.75047  21973610.03847
  23704652.84711                                
  21373996.362 6  -1068885.176 6   -828384.87147  21373992.87447
  22735945.612 5   1723971.590 5   1333006.77347  22735944.70247
 18  5 30  0 37 14.9990000  0 10G03G14G16G22G23G26G27G29G31G32      -0.000124907
  23519546.605 5  -1140717.496 5   -879916.70347  23519546.07347
  20528622.378 6    -69279.320 6    -52897.84448  20528619.79248
  20249434.175 6  -2343568.152 6  -1810026.83648  20249430.02648
  23511845.261 5   -399723.656 5   -306188.42647  23511839.65147
  23663267.987 5  -5350504.629 5  -4127478.40247  23663263.46847
  20479397.347 8   -590091.281 8   -455363.77349  20479397.39749
  21968871.175 5  -5546667.996 5  -4286116.08647  21968870.27247
  23705850.58911     99490.29311                
  21373120.144 6  -1073489.289 6   -831972.47747  21373116.76147
  22737615.105 5   1732748.746 5   1339846.10247  22737615.19847
 18  5 30  0 37 19.9990000  0  9G03G14G16G22G23G26G27G31G32         -0.000129816
  23518777.464 6  -1144758.582 6   -883065.60547  23518776.91347
  20528851.300 6    -68075.266 6    -51959.62948  20528848.90548
  20247629.292 7  -2353051.625 7  -1817416.55148  20247625.53848
  23511636.097 5   -400820.824 5   -307043.36747  23511630.89747
  23658652.745 5  -5374757.906 5  -4146377.04347  23658648.46447
  20479031.347 7   -592015.375 7   -456863.06649  20479031.28049
  21964131.995 5  -5571571.488 5  -4305521.39147  21964131.62847
  21372245.144 6  -1078089.875 6   -835557.36347  21372241.57347
  22739287.026 5   1741532.770 5   1346690.76247  22739287.22247
 18  5 30  0 37 24.9990000  0  9G03G14G16G22G23G26G27G31G32         -0.000134726
  23518010.315 6  -1148789.023 6   -886206.21547  23518010.24947
  20529083.183 6    -66857.508 6    -51010.71948  20529080.21448
  20245826.714 6  -2362523.719 6  -1824797.41048  20245822.78048
  23511428.534 5   -401912.059 5   -307893.68047  23511422.99547
  23654038.831 5  -5399006.633 5  -4165272.14547  23654033.76947
  20478666.276 8   -593932.887 8   -458357.23849  20478666.55049
  21959394.956 6  -5596468.578 6  -4324921.71548  21959393.80048
  21371369.870 6  -1082686.961 6   -839139.50047  21371366.72647
  22740959.948 6   1750323.633 6   1353540.78147  22740960.16747
 18  5 30  0 37 29.9990000  0  9G03G14G16G22G23G26G27G31G32         -0.000139637
  23517244.823 5  -1152808.809 5   -889338.50847  23517245.28447
  20529317.870 6    -65626.059 6    -50051.15248  20529314.76148
  20244026.628 7  -2371984.375 7  -1832169.34848  20244022.55048
  23511222.472 5   -402997.281 5   -308739.32847  23511216.46447
  23649425.339 5  -5423250.738 5  -4184163.66047  23649420.57747
  20478302.605 8   -595843.793 8   -459846.26649  20478302.85849
  21954657.956 6  -5621359.211 6  -4344317.01648  21954656.99948
  21370496.183 6  -1087280.465 6   -842718.87147  21370492.54247
  22742633.620 5   1759121.309 5   1360396.09047  22742634.38647
 18  5 30  0 37 34.9990000  0  9G03G14G16G22G23G26G27G31G32         -0.000144547
  23516482.644 5  -1156817.676 5   -892462.30947  23516482.65547
  20529554.659 7    -64380.648 7    -49080.71548  20529551.42548
  20242228.901 6  -2381433.367 6  -1839532.19548  20242224.56248
  23511016.464 6   -404076.316 6   -309580.13347  23511010.95647
  23644812.784 5  -5447490.031 5  -4203051.43047  23644807.76547
  20477940.183 8   -597747.840 8   -461329.93849  20477940.26949
  21949923.128 6  -5646243.145 6  -4363707.08648  21949921.95248
  21369622.823 6  -1091870.160 6   -846295.27747  21369619.30047
  22744309.894 6   1767926.027 6   1367256.89547  22744309.70247
 18  5 30  0 37 39.9990000  0  9G03G14G16G22G23G26G27G31G32         -0.000149456
  23515721.612 5  -1160815.828 5   -895577.74247  23515721.46447
  20529794.550 6    -63121.406 6    -48099.48848  20529791.35848
  20240432.519 6  -2390870.867 6  -1846886.09048  20240428.24548
  23510812.558 5   -405149.273 5   -310416.23447  23510806.67147
  23640200.448 5  -5471724.563 5  -4221935.46547  23640195.94847
  20477579.245 8   -599645.238 8   -462808.43049  20477579.21449
  21945188.948 6  -5671120.520 6  -4383092.04348  21945187.50748
  21368750.019 6  -1096456.281 6   -849868.89147  21368746.81947
  22745986.808 5   1776737.645 5   1374123.07047  22745987.00347
 18  5 30  0 37 44.9990000  0  9G03G14G16G22G23G26G27G31G32         -0.000154366
  23514963.214 5  -1164803.320 5   -898684.90247  23514962.85147
  20530036.511 6    -61848.508 6    -47107.62548  20530033.59748
  20238638.675 6  -2400296.957 6  -1854231.09048  20238634.14048
  23510609.058 5   -406216.281 5   -311247.64547  23510603.48747
  23635590.315 5  -5495954.461 5  -4240815.89547  23635585.14447
  20477219.612 8   -601536.055 8   -464281.79749  20477219.26549
  21940455.995 6  -5695991.355 6  -4402471.91848  21940455.17148
  21367877.565 6  -1101038.836 6   -853439.73047  21367874.82747
  22747664.878 6   1785556.008 6   1380994.50047  22747665.31947
 18  5 30  0 37 49.9990000  0  9G03G14G16G22G23G26G27G31G32         -0.000159275
  23514206.480 5  -1168780.145 5   -901783.72747  23514205.80047
  20530281.026 6    -60561.863 6    -46105.05548  20530277.85848
  20236847.253 6  -2409711.613 6  -1861567.17648  20236842.60548
  23510407.597 5   -407277.277 5   -312074.41447  23510402.18347
  23630980.120 5  -5520179.641 5  -4259692.65247  23630975.42147
  20476860.987 7   -603420.234 7   -465749.99649  20476861.20249
  21935724.456 6  -5720855.715 6  -4421846.72348  21935722.75748
  21367006.925 6  -1105617.785 6   -857007.74647  21367003.58547
  22749344.355 6   1794381.223 6   1387871.25447  22749344.33947
 18  5 30  0 37 54.9990000  0  9G03G14G16G22G23G26G27G31G32         -0.000164186
  23513451.245 5  -1172746.105 5   -904874.08647  23513451.10147
  20530528.370 6    -59261.316 6    -45091.64848  20530525.50348
  20235058.112 6  -2419114.629 6  -1868894.19548  20235053.27648
  23510206.901 5   -408332.160 5   -312896.41847  23510201.30447
  23626370.839 5  -5544399.941 5  -4278565.63747  23626366.71047
  20476503.730 7   -605297.656 7   -467212.91849  20476503.62049
  21930994.401 6  -5745713.289 6  -4441216.25048  21930992.86648
  21366135.855 6  -1110192.973 6   -860572.82048  21366132.94448
  22751024.995 6   1803213.434 6   1394753.49647  22751025.55447
 18  5 30  0 37 59.9990000  0  9G03G14G16G22G23G26G27G31G32         -0.000169094
  23512699.214 6  -1176701.262 6   -907956.00847  23512698.38247
  20530778.690 6    -57946.863 6    -44067.40248  20530775.55848
  20233270.745 6  -2428506.047 6  -1876212.17648  20233265.98048
  23510007.925 5   -409380.867 5   -313713.60547  23510001.59347
  23621762.761 5  -5568615.336 5  -4297434.77347  23621758.06547
  20476147.878 7   -607168.297 7   -468670.57049  20476147.76149
  21926266.300 6  -5770564.133 6  -4460580.55548  21926263.94448
  21365266.401 6  -1114764.332 6   -864134.95348  21365263.08948
  22752707.261 6   1812052.605 6   1401641.12547  22752707.55847
 18  5 30  0 38  4.9990000  0  9G03G14G16G22G23G26G27G31G32         -0.000174004
  23511948.417 6  -1180645.996 6   -911029.84447  23511948.08147
  20531031.925 6    -56618.949 6    -43032.67648  20531028.46848
  20231485.956 7  -2437886.328 7  -1883521.48448  20231480.93348
  23509809.425 5   -410423.930 5   -314526.38747  23509803.40147
  23617155.855 5  -5592826.227 5  -4316300.39147  23617151.17947
  20475793.269 8   -609032.621 8   -470123.29349  20475793.26149
  21921537.722 6  -5795408.594 6  -4479939.84848  21921536.62848
  21364396.808 6  -1119332.391 6   -867694.47747  21364393.78847
  22754390.839 6   1820898.344 6   1408533.90247  22754390.97247
 18  5 30  0 38  9.9990000  0  9G03G14G16G22G23G26G27G31G32         -0.000178913
  23511199.870 6  -1184580.164 6   -914095.43447  23511199.26947
  20531287.097 6    -55277.297 6    -41987.23448  20531283.63648
  20229703.339 7  -2447255.172 7  -1890821.88348  20229698.21848
  23509611.690 5   -411461.027 5   -315334.51646  23509605.93346
  23612548.636 5  -5617032.352 5  -4335162.32847  23612545.00747
  20475439.480 7   -610890.379 7   -471570.90249  20475439.30049
  21916811.003 6  -5820246.508 6  -4499294.06348  21916810.49148
  21363528.081 6  -1123896.844 6   -871251.21148  21363525.12848
  22756074.628 6   1829750.828 6   1415431.91847  22756075.85547
 18  5 30  0 38 14.9990000  0  9G03G14G16G22G23G26G27G31G32         -0.000183823
  23510452.542 6  -1188503.391 6   -917152.50047  23510452.78047
  20531545.058 6    -53921.727 6    -40930.94948  20531541.43748
  20227922.644 7  -2456612.336 7  -1898113.17648  20227917.25348
  23509415.573 5   -412491.973 5   -316137.84846  23509409.87446
  23607944.433 5  -5641233.469 5  -4354020.30946  23607939.48046
  20475087.065 8   -612741.316 8   -473013.20349  20475087.12849
  21912086.128 6  -5845077.543 6  -4518642.91448  21912085.37048
  21362660.261 6  -1128457.402 6   -874804.90248  21362657.00348
  22757760.651 6   1838610.316 6   1422335.39147  22757761.35847
 18  5 30  0 38 19.9990000  0 10G03G14G16G22G23G26G27G29G31G32      -0.000188730
  23509708.097 6  -1192416.094 6   -920201.35947  23509708.44047
  20531805.636 6    -52552.516 6    -39864.03548  20531802.14448
  20226144.276 7  -2465958.164 7  -1905395.64148  20226138.99148
  23509220.198 5   -413517.027 5   -316936.59446  23509214.89446
  23603339.292 5  -5665429.803 5  -4372874.61747  23603334.76547
  20474735.925 8   -614585.770 8   -474450.45749  20474736.06949
  21907362.237 6  -5869902.004 6  -4537986.65648  21907361.44048
  23721615.25312     29040.00412                
  21361793.128 6  -1133014.410 6   -878355.83648  21361790.28048
  22759447.870 6   1847476.512 6   1429244.10247  22759448.70247
 18  5 30  0 38 24.9990000  0 10G03G14G16G22G23G26G27G29G31G32      -0.000193636
  23508965.495 6  -1196318.035 6   -923241.82447  23508966.12447
  20532068.659 6    -51169.422 6    -38786.30148  20532065.47248
  20224367.612 7  -2475292.426 7  -1912669.08248  20224362.59348
  23509026.620 5   -414536.063 5   -317730.64147  23509020.75347
  23598736.089 5  -5689621.262 5  -4391725.09447  23598731.53047
  20474386.433 7   -616423.484 7   -475882.44549  20474386.83149
  21902639.589 6  -5894719.652 6  -4557325.07848  21902638.91748
  23722839.573 1     35477.855 1                
  21360927.003 6  -1137567.652 6   -881903.82848  21360923.74948
  22761135.909 6   1856349.582 6   1436158.16047  22761137.53847
 18  5 30  0 38 29.9990000  0 10G03G14G16G22G23G26G27G29G31G32      -0.000198545
  23508225.183 5  -1200209.270 5   -926273.96947  23508225.54647
  20532334.308 6    -49772.535 6    -37697.82048  20532331.48048
  20222593.862 7  -2484615.223 7  -1919933.60248  20222589.08548
  23508833.808 5   -415549.109 5   -318520.03947  23508827.61247
  23594133.792 5  -5713807.801 5  -4410571.74247  23594129.40547
  20474038.019 7   -618254.559 7   -477309.25449  20474038.04649
  21897918.425 6  -5919530.508 6  -4576658.20748  21897917.84348
  23724065.667 1     41925.406 1                
  21360061.050 6  -1142117.145 6   -885448.90648  21360057.80848
  22762826.331 6   1865229.508 6   1443077.57847  22762826.97247
 18  5 30  0 38 34.9990000  0 10G03G14G16G22G23G26G27G29G31G32      -0.000203453
  23507486.675 5  -1204089.883 5   -929297.82447  23507486.98747
  20532602.940 6    -48361.922 6    -36598.65648  20532599.90548
  20220821.987 7  -2493926.566 7  -1927189.19148  20220817.01148
  23508642.487 5   -416556.238 5   -319304.82846  23508636.12046
  23589531.558 4  -5737989.512 4  -4429414.62946  23589527.34746
  20473690.823 8   -620079.063 8   -478730.93849  20473690.73349
  21893198.425 6  -5944334.707 6  -4595986.16048  21893197.60148
  23725295.823 1     48382.355 1                
  21359195.394 6  -1146662.977 6   -888991.11348  21359192.73048
  22764516.956 6   1874116.168 6   1450002.23047  22764518.36247
 18  5 30  0 38 39.9990000  0 10G03G14G16G22G23G26G27G29G31G32      -0.000208363
  23506750.058 5  -1207960.055 5   -932313.55947  23506750.84747
  20532873.964 6    -46937.762 6    -35488.92648  20532870.69848
  20219052.042 7  -2503226.664 7  -1934436.02048  20219047.45248
  23508451.331 5   -417557.664 5   -320085.15247  23508445.75347
  23584931.261 4  -5762166.484 4  -4448253.80546  23584926.89746
  20473344.815 8   -621897.203 8   -480147.66449  20473344.83949
  21888479.425 6  -5969132.313 6  -4615308.96948  21888478.80848
  23726525.237 1     54848.824 1                
  21358331.386 6  -1151205.293 6   -892530.58648  21358327.94448
  22766208.792 6   1883009.422 6   1456932.02347  22766210.38247
 18  5 30  0 38 44.9990000  0 10G03G14G16G22G23G26G27G29G31G32      -0.000213272
  23506015.378 5  -1211819.754 5   -935321.13747  23506015.92547
  20533147.948 6    -45500.055 6    -34368.64148  20533144.55848
  20217284.964 7  -2512515.480 7  -1941674.05549  20217279.94849
  23508262.136 5   -418553.367 5   -320861.03947  23508256.83947
  23580331.159 5  -5786338.688 5  -4467089.31347  23580327.60847
  20473000.105 8   -623708.930 8   -481559.40649  20472999.99949
  21883761.394 6  -5993923.379 6  -4634626.67248  21883760.99548
  23727757.089 1     61324.504 1                
  21357468.019 6  -1155744.086 6   -896067.31348  21357464.90948
  22767903.159 6   1891909.266 6   1463866.94947  22767904.20247
 18  5 30  0 38 49.9990000  0 10G03G14G16G22G23G26G27G29G31G32      -0.000218182
  23505283.167 5  -1215668.945 5   -938320.49247  23505283.73347
  20533423.714 6    -44048.660 6    -33237.68848  20533420.77248
  20215519.519 7  -2521792.953 7  -1948903.25048  20215514.60148
  23508073.581 5   -419543.168 5   -321632.31647  23508068.51947
  23575732.355 5  -5810506.141 5  -4485921.07446  23575728.83146
  20472656.659 8   -625514.141 8   -482966.06349  20472656.73049
  21879045.698 6  -6018707.664 6  -4653939.10548  21879044.85548
  23728990.987 1     67809.727 1                
  21356604.206 6  -1160279.203 6   -899601.17248  21356601.39448
  22769598.206 6   1900815.785 6   1470807.09047  22769599.07747
 18  5 30  0 38 54.9990000  0 10G03G14G16G22G23G26G27G29G31G32      -0.000223089
  23504552.456 5  -1219507.426 5   -941311.51647  23504552.56247
  20533702.776 6    -42583.477 6    -32096.00048  20533699.50748
  20213756.542 7  -2531058.902 7  -1956123.48049  20213751.40149
  23507886.776 5   -420527.047 5   -322398.98447  23507881.35547
  23571134.573 5  -5834668.527 5  -4504748.89147  23571131.10847
  20472314.409 7   -627312.758 7   -484367.58649  20472314.31549
  21874330.612 6  -6043485.133 6  -4673246.22348  21874329.60548
  23730227.33911                                
  21355742.230 6  -1164810.543 6   -903132.08648  21355739.44848
  22771294.378 6   1909729.121 6   1477752.52347  22771295.48347
 18  5 30  0 38 59.9990000  0 10G03G14G16G22G23G26G27G29G31G32      -0.000228003
  23503823.417 5  -1223335.348 5   -944294.31647  23503824.39447
  20533984.261 6    -41104.613 6    -30943.64148  20533981.29248
  20211995.284 7  -2540313.492 7  -1963334.85249  20211990.51149
  23507700.761 5   -421505.078 5   -323161.10547  23507694.99547
  23566537.401 5  -5858826.121 5  -4523572.99647  23566534.05047
  20471973.214 7   -629104.879 7   -485764.05549  20471972.97649
  21869617.347 6  -6068255.840 6  -4692548.06648  21869616.10848
  23731466.33111                                
  21354880.784 6  -1169338.219 6   -906660.14548  21354877.56948
  22772991.753 6   1918649.121 6   1484703.18447  22772992.23347
 18  5 30  0 39  4.9990000  0 10G03G14G16G22G23G26G27G29G31G32      -0.000232906
  23503097.651 5  -1227152.855 5   -947269.02047  23503097.93747
  20534268.276 6    -39612.250 6    -29780.76648  20534265.14448
  20210235.862 7  -2549556.832 7  -1970537.44549  20210231.33549
  23507515.737 6   -422477.453 6   -323918.79747  23507510.64047
  23561941.409 5  -5882978.938 5  -4542393.37146  23561937.81246
  20471633.722 8   -630890.621 8   -487155.53949  20471633.49949
  21864904.480 6  -6093019.922 6  -4711844.75448  21864903.30448
  23732706.167 1     87322.000 1                
  21354020.089 6  -1173862.395 6   -910185.46948  21354016.95648
  22774690.980 6   1927575.641 6   1491658.89147  22774690.86247
 18  5 30  0 39  9.9990000  0 10G03G14G16G22G23G26G27G29G31G32      -0.000237816
  23502372.815 5  -1230959.598 5   -950235.31647  23502374.39447
  20534554.628 6    -38105.949 6    -28607.02348  20534551.63248
  20208479.050 7  -2558788.594 7  -1977731.02349  20208474.36249
  23507331.792 6   -423443.781 6   -324671.77047  23507326.22247
  23557346.565 5  -5907126.602 5  -4561209.73847  23557342.44447
  20471294.847 8   -632669.664 8   -488541.80949  20471294.64749
  21860193.175 6  -6117776.941 6  -4731135.94548  21860192.55048
  23733945.23011                                
  21353159.972 6  -1178382.621 6   -913707.73448  21353156.40548
  22776390.300 6   1936509.070 6   1498619.99647  22776391.35147
 18  5 30  0 39 14.9990000  0 10G03G14G16G22G23G26G27G29G31G32      -0.000242723
  23501650.292 5  -1234755.816 5   -953193.41847  23501651.39447
  20534843.690 6    -36586.004 6    -27422.64548  20534841.33948
  20206724.511 7  -2568008.984 7  -1984915.75048  20206719.95648
  23507148.995 6   -424404.281 6   -325420.20347  23507143.19447
  23552752.003 5  -5931269.320 5  -4580022.23847  23552747.75347
  20470957.667 8   -634442.211 8   -489923.02749  20470957.73349
  21855483.690 6  -6142527.156 6  -4750421.82848  21855482.53448
  23735188.370 1    100377.652 1                
  21352300.636 6  -1182899.152 6   -917227.11748  21352297.10148
  22778091.659 6   1945449.180 6   1505586.30547  22778092.31547
 18  5 30  0 39 19.9990000  0 10G03G14G16G22G23G26G27G29G31G32      -0.000247631
  23500929.894 5  -1238541.469 5   -956143.27347  23500930.48747
  20535135.612 6    -35052.379 6    -26227.62148  20535132.71848
  20204972.097 7  -2577218.047 7  -1992091.63749  20204967.83949
  23506967.167 5   -425358.988 5   -326164.14147  23506961.44447
  23548159.144 5  -5955407.117 5  -4598830.91847  23548155.03847
  20470621.761 8   -636208.305 8   -491299.20349  20470621.55049
  21850775.300 6  -6167270.566 6  -4769702.40248  21850773.85548
  23736433.769 1    106919.539 1                
  21351441.480 6  -1187412.027 6   -920743.65648  21351438.09748
  22779794.128 6   1954395.898 6   1512557.75447  22779794.99547
 18  5 30  0 39 24.9990000  0 10G03G14G16G22G23G26G27G29G31G32      -0.000252544
  23500211.683 5  -1242316.715 5   -959085.02347  23500212.16347
  20535429.995 6    -33505.156 6    -25021.99248  20535427.45648
  20203221.550 7  -2586415.855 7  -1999258.75849  20203217.72249
  23506786.597 5   -426308.000 5   -326903.62146  23506780.53846
  23543566.558 5  -5979540.043 5  -4617635.78547  23543562.93347
  20470286.948 8   -637968.008 8   -492670.41049  20470286.33949
  21846067.261 6  -6192007.223 6  -4788977.71548  21846066.69048
  23737678.12011                                
  21350583.831 6  -1191921.309 6   -924257.39148  21350579.99948
  22781497.886 6   1963349.176 6   1519534.32047  22781498.91747
 18  5 30  0 39 29.9990000  0 10G03G14G16G22G23G26G27G29G31G32      -0.000257448
  23499495.448 5  -1246081.426 5   -962018.57447  23499495.61247
  20535726.870 6    -31944.211 6    -23805.68048  20535724.27648
  20201473.597 7  -2595602.234 7  -2006416.96949  20201469.64049
  23506607.089 5   -427251.191 5   -327638.58646  23506600.94046
  23538975.019 5  -6003667.961 5  -4636436.75447  23538970.96847
  20469953.269 8   -639721.199 8   -494036.53149  20469952.98349
  21841361.214 6  -6216736.973 6  -4808247.64848  21841360.48048
  23738927.112 1    120031.379 1                
  21349726.089 6  -1196426.805 6   -927768.17248  21349722.89748
  22783202.581 6   1972309.137 6   1526516.09047  22783204.03047
 18  5 30  0 39 34.9990000  0 10G03G14G16G22G23G26G27G29G31G32      -0.000262360
  23498781.253 5  -1249835.637 5   -964943.93447  23498780.76547
  20536027.042 6    -30369.668 6    -22578.77048  20536023.82348
  20199727.636 7  -2604777.355 7  -2013566.41849  20199723.53849
  23506428.612 5   -428188.633 5   -328369.08647  23506422.53847
  23534384.784 5  -6027790.879 5  -4655233.83247  23534380.51547
  20469620.597 8   -641467.961 8   -495397.64849  20469620.84749
  21836656.862 6  -6241459.859 6  -4827512.23848  21836655.93748
  23740177.37011                                
  21348869.448 6  -1200928.648 6   -931276.10948  21348866.26148
  22784908.901 6   1981275.699 6   1533503.00047  22784909.84347
 18  5 30  0 39 39.9990000  0  9G03G14G16G22G23G26G27G31G32         -0.000267269
  23498068.558 5  -1253579.438 5   -967861.18447  23498068.19047
  20536328.800 6    -28781.535 6    -21341.27748  20536326.13248
  20197983.792 7  -2613941.242 7  -2020707.11349  20197979.90549
  23506250.355 5   -429120.410 5   -329095.11346  23506245.51946
  23529794.745 5  -6051908.871 5  -4674027.07447  23529790.78847
  20469289.745 8   -643208.352 8   -496753.80549  20469289.71849
  21831953.870 6  -6266175.922 6  -4846771.49648  21831952.73348
  21348013.761 6  -1205426.828 6   -934781.17648  21348010.65948
  22786616.862 6   1990248.773 6   1540494.99647  22786617.05047
 18  5 30  0 39 44.9990000  0  9G03G14G16G22G23G26G27G31G32         -0.000272177
  23497358.855 6  -1257312.797 6   -970770.28947  23497357.58947
  20536634.042 6    -27179.824 6    -20093.19148  20536630.96048
  20196242.323 7  -2623093.820 7  -2027838.99649  20196238.04249
  23506074.776 5   -430046.492 5   -329816.74246  23506069.10546
  23525206.026 5  -6076021.852 5  -4692816.40646  23525202.70246
  20468959.870 8   -644942.320 8   -498104.94549  20468959.59749
  21827252.003 6  -6290885.090 6  -4866025.40248  21827250.85148
  21347158.690 6  -1209921.344 6   -938283.40248  21347154.74948
  22788325.472 6   1999228.453 6   1547492.11347  22788325.40947
 18  5 30  0 39 49.9990000  0  9G03G14G16G22G23G26G27G31G32         -0.000277084
  23496650.050 5  -1261035.551 5   -973671.16447  23496649.09747
  20536941.425 6    -25564.426 6    -18834.44148  20536938.52248
  20194502.761 7  -2632234.949 7  -2034961.96549  20194498.58549
  23505899.698 5   -430966.750 5   -330533.84046  23505894.01546
  23520619.339 5  -6100129.727 5  -4711601.77047  23520615.02647
  20468631.292 8   -646669.789 8   -499451.02749  20468630.90149
  21822550.519 6  -6315587.266 6  -4885273.85248  21822550.42148
  21346303.862 6  -1214412.027 6   -941782.63348  21346300.53848
  22790035.495 6   2008214.785 6   1554494.44947  22790035.53047
 18  5 30  0 39 54.9990000  0  9G03G14G16G22G23G26G27G31G32         -0.000281992
  23495943.761 5  -1264747.828 5   -976563.85247  23495942.78047
  20537251.112 6    -23935.297 6    -17564.99648  20537248.34348
  20192765.276 7  -2641364.684 7  -2042076.03949  20192761.66749
  23505726.269 5   -431881.227 5   -331246.41046  23505720.38246
  23516031.589 5  -6124232.516 5  -4730383.15647  23516028.39747
  20468303.651 8   -648390.742 8   -500792.03549  20468303.51549
  21817850.698 6  -6340282.441 6  -4904516.82048  21817851.10148
  21345449.964 6  -1218898.898 6   -945278.90648  21345446.43748
  22791746.245 6   2017207.785 6   1561501.94547  22791747.13247
 18  5 30  0 39 59.9990000  0  9G03G14G16G22G23G26G27G31G32         -0.000286900
  23495239.667 5  -1268449.691 5   -979448.41847  23495238.25747
  20537564.034 6    -22292.625 6    -16284.99648  20537560.49548
  20191029.675 7  -2650483.176 7  -2049181.35949  20191026.27249
  23505552.105 5   -432790.082 5   -331954.60946  23505547.37846
  23511447.284 5  -6148330.258 5  -4749160.62147  23511442.74147
  20467977.222 8   -650105.391 8   -502128.11749  20467977.03849
  21813152.894 6  -6364970.766 6  -4923754.47348  21813152.82348
  21344596.972 6  -1223382.141 6   -948772.34848  21344593.78048
  22793459.698 6   2026207.234 6   1568514.49247  22793459.88247
 18  5 30  0 40  4.9990000  0  9G03G14G16G22G23G26G27G31G32         -0.000291805
  23494537.128 6  -1272141.332 6   -982325.02747  23494535.12047
  20537879.097 6    -20636.508 6    -14994.52048  20537876.16348
  20189297.144 7  -2659590.531 7  -2056278.01248  20189293.20648
  23505380.878 5   -433693.410 5   -332658.50047  23505375.80047
  23506862.409 5  -6172423.152 5  -4767934.30947  23506858.30847
  20467651.901 8   -651813.809 8   -503459.35949  20467652.14749
  21808455.987 5  -6389652.289 5  -4942986.84048  21808456.81948
  21343744.292 6  -1227861.820 6   -952263.01248  21343741.13648
  22795173.261 6   2035213.105 6   1575532.02747  22795173.54647
 18  5 30  0 40  9.9990000  0  9G03G14G16G22G23G26G27G31G32         -0.000296713
  23493836.573 5  -1275822.746 5   -985193.64147  23493834.74147
  20538196.698 6    -18966.984 6    -13693.59048  20538193.23348
  20187566.105 7  -2668686.781 7  -2063366.00448  20187562.58948
  23505209.995 5   -434591.262 5   -333358.14547  23505205.33547
  23502278.659 5  -6196511.243 5  -4786704.26347  23502274.28847
  20467328.425 8   -653516.090 8   -504785.80949  20467328.22249
  21803761.026 6  -6414327.090 6  -4962213.95748  21803761.05048
  21342892.815 6  -1232337.969 6   -955750.91848  21342889.28448
  22796888.339 6   2044225.258 6   1582554.47747  22796888.65947
 18  5 30  0 40 14.9990000  0  9G03G14G16G22G23G26G27G31G32         -0.000301620
  23493138.808 5  -1279493.980 5   -988054.36347  23493136.24947
  20538516.659 6    -17284.102 6    -12382.25848  20538513.78448
  20185836.878 7  -2677771.918 7  -2070445.33649  20185833.65949
  23505039.940 5   -435483.711 5   -334053.56646  23505035.36646
  23497695.417 5  -6220594.457 5  -4805470.40247  23497691.79647
  20467005.417 8   -655212.164 8   -506107.42249  20467005.40949
  21799066.815 5  -6438995.094 5  -4981435.77348  21799067.04648
  21342041.675 6  -1236810.609 6   -959236.09848  21342038.20248
  22798603.925 6   2053243.727 6   1589581.80947  22798604.55847
 18  5 30  0 40 19.9990000  0  9G03G14G16G22G23G26G27G31G32         -0.000306528
  23492442.206 6  -1283154.625 6   -990906.82047  23492439.86247
  20538839.714 6    -15587.512 6    -11060.24248  20538836.46048
  20184110.198 7  -2686845.680 7  -2077515.80149  20184106.84349
  23504872.105 5   -436370.406 5   -334744.50047  23504867.44847
  23493113.347 5  -6244672.484 5  -4824232.51647  23493109.58947
  20466683.894 8   -656901.789 8   -507424.01649  20466683.96849
  21794373.901 5  -6463656.012 5  -5000652.08248  21794374.14748
  21341191.112 6  -1241279.402 6   -962718.27748  21341187.99148
  22800321.940 6   2062268.816 6   1596614.31647  22800321.89047
 18  5 30  0 40 24.9990000  0  9G03G14G16G22G23G26G27G31G32         -0.000311436
  23491747.433 6  -1286804.793 6   -993751.12147  23491745.94847
  20539165.456 6    -13877.188 6     -9727.52048  20539162.21848
  20182385.362 6  -2695908.055 6  -2084577.39149  20182382.47249
  23504703.980 5   -437251.316 5   -335430.93447  23504699.54647
  23488532.683 5  -6268745.273 5  -4842990.53947  23488528.31247
  20466363.565 8   -658584.918 8   -508735.54749  20466363.54649
  21789683.237 5  -6488309.758 5  -5019862.79348  21789682.92948
  21340341.675 7  -1245744.348 7   -966197.46148  21340338.41748
  22802040.495 6   2071300.527 6   1603651.99647  22802040.49947
 18  5 30  0 40 29.9990000  0  9G03G14G16G22G23G26G27G31G32         -0.000316343
  23491054.612 6  -1290444.645 6   -996587.39147  23491053.05847
  20539493.183 6    -12153.344 6     -8384.27348  20539489.99548
  20180663.565 7  -2704959.250 7  -2091630.27349  20180660.61249
  23504537.823 5   -438126.637 5   -336113.00847  23504532.51547
  23483952.612 5  -6292813.008 5  -4861744.62947  23483948.79647
  20466044.581 8   -660261.766 8   -510042.18049  20466044.26549
  21784993.097 6  -6512956.582 6  -5039068.12148  21784992.72648
  21339492.495 7  -1250205.578 7   -969673.74648  21339489.26548
  22803760.761 6   2080338.676 6   1610694.68047  22803760.30047
 18  5 30  0 40 34.9990000  0  9G03G14G16G22G23G26G27G31G32         -0.000321251
  23490363.347 6  -1294074.273 6   -999415.68447  23490362.77647
  20539823.745 6    -10416.121 6     -7030.60248  20539820.69848
  20178943.284 7  -2713999.352 7  -2098674.51649  20178939.77249
  23504372.011 5   -438996.551 5   -336790.84847  23504367.53047
  23479373.120 5  -6316875.820 5  -4880494.87547  23479369.26947
  20465726.636 8   -661932.434 8   -511344.00449  20465726.62449
  21780303.698 6  -6537596.543 6  -5058268.07848  21780303.85148
  21338644.659 7  -1254663.234 7   -973147.24648  21338641.12048
  22805481.667 6   2089383.121 6   1617742.27747  22805481.34347
 18  5 30  0 40 39.9990000  0  9G03G14G16G22G23G26G27G31G32         -0.000326159
  23489675.065 5  -1297693.586 5  -1002235.91847  23489674.79647
  20540157.331 6     -8665.418 6     -5666.42248  20540153.69448
  20177224.940 7  -2723028.211 7  -2105709.98449  20177221.96849
  23504207.315 5   -439860.828 5   -337464.32847  23504203.32347
  23474795.675 5  -6340933.598 5  -4899241.22347  23474791.10547
  20465409.644 8   -663596.805 8   -512640.91849  20465410.01149
  21775616.808 6  -6562229.453 6  -5077462.55948  21775616.86648
  21337797.042 7  -1259117.121 7   -976617.81648  21337793.85148
  22807203.862 6   2098434.012 6   1624794.89147  22807203.86647
 18  5 30  0 40 44.9990000  0  9G03G14G16G22G23G26G27G31G32         -0.000331064
  23488987.972 5  -1301302.730 5  -1005048.27047  23488988.36247
  20540492.636 6     -6901.391 6     -4291.86348  20540489.65948
  20175508.933 7  -2732046.020 7  -2112736.85549  20175505.44049
  23504043.581 5   -440719.754 5   -338133.62547  23504039.62847
  23470218.386 5  -6364986.395 5  -4917983.66446  23470214.24546
  20465094.464 8   -665255.082 8   -513933.08249  20465094.33949
  21770930.722 6  -6586855.535 6  -5096651.70748  21770930.56248
  21336950.081 7  -1263567.492 7   -980085.64148  21336946.80448
  22808927.823 6   2107491.137 6   1631852.35947  22808927.58547
 18  5 30  0 40 49.9990000  0  7G14G16G23G26G27G31G32               -0.000335972
  20540831.073 6     -5123.879 6     -2906.79748  20540828.09748
  20173795.440 6  -2741052.684 6  -2119755.02748  20173791.97248
  23465642.230 5  -6389034.109 5  -4936722.14847  23465638.09347
  20464779.792 8   -666907.070 8   -515220.37949  20464780.16749
  21766245.136 6  -6611474.605 6  -5115835.40248  21766244.96448
  21336104.190 7  -1268014.168 7   -983550.59448  21336100.46448
  22810652.144 6   2116554.652 6   1638914.83247  22810652.70647
 18  5 30  0 40 54.9990000  0  8G03G14G16G23G26G27G31G32            -0.000340879
  23487621.65911                                
  20541171.878 6     -3332.875 6     -1511.21548  20541168.74948
  20172083.612 6  -2750048.121 6  -2126764.46548  20172079.92148
  23461066.886 6  -6413076.625 6  -4955456.53147  23461063.21047
  20464466.573 8   -668552.898 8   -516502.80149  20464466.86649
  21761561.878 6  -6636086.660 6  -5135013.62148  21761561.35848
  21335258.730 7  -1272457.094 7   -987012.62148  21335254.94848
  22812378.440 6   2125624.504 6   1645982.23847  22812378.08547
 18  5 30  0 40 59.9990000  0  8G03G14G16G23G26G27G31G32            -0.000345787
  23486940.32315     -2430.40315                
  20541515.315 6     -1528.340 6      -105.09048  20541512.14448
  20170373.855 7  -2759032.516 7  -2133765.30549  20170370.34749
  23456493.362 5  -6437114.105 5  -4974187.02747  23456489.08547
  20464154.597 8   -670192.430 8   -517780.35249  20464154.97649
  21756879.378 6  -6660691.637 6  -5154186.34048  21756878.89048
  21334414.105 7  -1276896.316 7   -990471.75448  21334410.54648
  22814105.464 6   2134700.742 6   1653054.60247  22814105.74947
 18  5 30  0 41  4.9990000  0  7G14G16G23G26G27G31G32               -0.000350693
  20541861.542 6       289.598 6      1311.47348  20541858.42548
  20168666.190 7  -2768005.734 7  -2140757.41849  20168662.78049
  23451919.769 5  -6461146.441 5  -4992913.53546  23451915.58946
  20463843.847 8   -671825.785 8   -519053.10549  20463844.16349
  21752199.019 6  -6685289.574 6  -5173353.54348  21752198.25748
  21333569.940 7  -1281331.883 7   -993928.05148  21333565.87448
  22815834.019 6   2143783.336 6   1660131.93047  22815834.55847
 18  5 30  0 41  9.9990000  0  7G14G16G23G26G27G31G32               -0.000355600
  20542209.831 6      2121.336 6      2738.78148  20542206.76548
  20166961.284 6  -2776967.516 6  -2147740.61748  20166957.44448
  23447347.659 5  -6485173.285 5  -5011635.72747  23447343.14747
  20463534.370 7   -673452.629 7   -520320.80149  20463534.59349
  21747519.605 6  -6709880.207 6  -5192515.07048  21747518.70248
  21332726.573 7  -1285763.410 7   -997381.18448  21332722.94448
  22817563.722 6   2152872.484 6   1667214.39147  22817564.55447
 18  5 30  0 41 14.9990000  0  8G03G14G16G23G26G27G31G32            -0.000360506
  23484908.71414     -7939.28114                
  20542561.222 6      3966.656 6      4176.71948  20542557.85848
  20165257.792 6  -2785918.055 6  -2154715.07448  20165254.40148
  23442776.698 5  -6509194.887 5  -5030353.84846  23442771.69846
  20463225.823 8   -675073.117 8   -521583.47349  20463226.26549
  21742841.284 6  -6734463.555 6  -5211670.95348  21742840.67548
  21331883.636 7  -1290191.078 7  -1000831.31348  21331880.43748
  22819293.761 6   2161968.184 6   1674301.86347  22819294.92547
 18  5 30  0 41 19.9990000  0  7G14G16G23G26G27G31G32               -0.000365414
  20542914.894 6      5825.508 6      5625.14148  20542911.69848
  20163556.456 7  -2794857.418 7  -2161680.80948  20163553.38248
  23438205.784 5  -6533211.242 5  -5049067.89847  23438201.87447
  20462918.730 8   -676687.371 8   -522841.39149  20462919.26949
  21738164.933 6  -6759039.734 6  -5230821.20748  21738164.21048
  21331041.886 6  -1294614.914 6  -1004278.48448  21331038.94848
  22821025.659 6   2171070.184 6   1681394.34847  22821026.94047
 18  5 30  0 41 24.9990000  0  8G03G14G16G23G26G27G31G32            -0.000370319
  23483564.44015     -4290.85915                
  20543271.065 6      7697.820 6      7084.09848  20543268.13648
  20161857.362 7  -2803785.598 7  -2168637.84449  20161853.89749
  23433636.800 5  -6557222.414 5  -5067777.89547  23433632.65147
  20462612.706 8   -678295.395 8   -524094.37949  20462612.85549
  21733489.925 6  -6783608.848 6  -5249965.97748  21733488.69048
  21330200.776 6  -1299035.016 6  -1007722.71148  21330196.94848
  22822759.401 5   2180178.512 5   1688491.69947  22822760.69847
 18  5 30  0 41 29.9990000  0  8G03G14G16G23G26G27G31G32            -0.000375227
  23482895.65115                                
  20543629.800 6      9583.492 6      8553.43448  20543627.00348
  20160160.769 7  -2812702.758 7  -2175586.27749  20160157.03849
  23429068.519 5  -6581228.496 5  -5086483.94947  23429064.35547
  20462307.690 8   -679897.359 8   -525342.65649  20462307.99549
  21728815.659 6  -6808170.883 6  -5269105.21948  21728814.37448
  21329359.956 6  -1303451.461 6  -1011164.10948  21329356.17548
  22824493.401 5   2189293.074 5   1695593.96147  22824494.97247
 18  5 30  0 41 34.9990000  0  7G14G16G23G26G27G31G32               -0.000380135
  20543991.183 6     11482.559 6     10033.22748  20543988.68348
  20158466.144 7  -2821608.758 7  -2182526.01648  20158462.44848
  23424501.534 5  -6605229.340 5  -5105185.87147  23424497.03047
  20462003.714 8   -681493.133 8   -526586.13749  20462004.67149
  21724142.823 6  -6832725.777 6  -5288238.88748  21724141.99548
  21328520.589 6  -1307864.215 6  -1014602.61348  21328516.54248
  22826228.730 5   2198413.887 5   1702701.06647  22826230.43347
 18  5 30  0 41 39.9990000  0  9G03G14G16G22G23G26G27G31G32         -0.000385040
  23481562.67515     -4148.02715                
  20544355.456 6     13395.000 6     11523.44948  20544352.47248
  20156773.425 7  -2830503.734 7  -2189457.17649  20156769.40949
  23502316.64415     -2061.88315                
  23419934.964 5  -6629225.070 5  -5123883.86346  23419930.99946
  20461701.636 7   -683082.805 7   -527824.82449  20461701.51949
  21719471.534 6  -6857273.574 6  -5307367.04748  21719470.95248
  21327681.605 6  -1312273.254 6  -1018038.22748  21327677.61248
  22827965.933 5   2207540.926 5   1709813.02047  22827967.19847
 18  5 30  0 41 44.9990000  0  9G03G14G16G22G23G26G27G31G32         -0.000389948
  23480898.855 5     -7634.012 5  -1012699.93457  23480896.30057
  20544721.925 6     15321.031 6     13024.23848  20544718.76148
  20155082.917 7  -2839387.426 7  -2196379.53949  20155079.12049
  23502164.792 6     -2854.840 6   -338938.11757  23502160.53457
  23415370.034 5  -6653215.359 5  -5142577.55546  23415365.62446
  20461400.565 7   -684666.145 7   -529058.61349  20461400.73749
  21714802.026 6  -6881814.023 6  -5326489.46548  21714800.93348
  21326843.323 6  -1316678.371 6  -1021470.78548  21326839.28848
  22829703.511 5   2216674.383 5   1716929.97747  22829705.01147
 18  5 30  0 41 49.9990000  0  9G03G14G16G22G23G26G27G31G32         -0.000394854
  23480237.222 5    -11109.570 5  -1015408.13347  23480236.03847
  20545090.831 7     17260.625 7     14535.60548  20545088.24148
  20153394.425 7  -2848259.824 7  -2203293.10549  20153390.71449
  23502015.347 6     -3642.313 6   -339551.74247  23502011.02647
  23410806.362 5  -6677200.258 5  -5161267.09846  23410800.79646
  20461100.214 7   -686243.191 7   -530287.48049  20461100.30849
  21710133.105 6  -6906347.105 6  -5345606.14848  21710131.88248
  21326005.690 6  -1321079.535 6  -1024900.25848  21326001.68748
  22831442.839 5   2225814.277 5   1724051.96547  22831444.26147
 18  5 30  0 41 54.9990000  0  9G03G14G16G22G23G26G27G31G32         -0.000399759
  23479577.440 5    -14575.125 5  -1018108.58646  23479575.87846
  20545462.456 6     19213.449 6     16057.28548  20545459.57348
  20151708.362 7  -2857121.313 7  -2210198.16848  20151704.14048
  23501866.050 6     -4424.598 6   -340161.32847  23501861.92147
  23406243.112 5  -6701180.051 5  -5179952.59846  23406237.53046
  20460801.276 7   -687814.258 7   -531511.69549  20460801.66749
  21705465.589 6  -6930873.188 6  -5364717.37548  21705464.55048
  21325168.425 6  -1325477.125 6  -1028326.95348  21325164.90548
  22833182.901 5   2234960.238 5   1731178.66847  22833185.31947
 18  5 30  0 41 59.9990000  0  9G03G14G16G22G23G26G27G31G32         -0.000404667
  23478919.815 5    -18030.504 5  -1020801.06346  23478918.69846
  20545836.698 6     21179.750 6     17589.46948  20545833.46848
  20150024.401 7  -2865971.656 7  -2217094.54348  20150020.51148
  23501718.284 6     -5201.461 6   -340766.66047  23501714.01547
  23401681.058 5  -6725154.559 5  -5198634.03946  23401675.34346
  20460503.378 7   -689379.148 7   -532731.09449  20460503.73049
  21700799.956 6  -6955391.984 6  -5383822.93848  21700798.88248
  21324332.651 6  -1329870.898 6  -1031750.67648  21324328.64748
  22834925.159 5   2244112.457 5   1738310.25047  22834926.56947
 18  5 30  0 42  4.9990000  0  9G03G14G16G22G23G26G27G31G32         -0.000409573
  23478264.472 5    -21475.531 5  -1023485.49246  23478263.52246
  20546213.644 6     23159.680 6     19132.26648  20546210.50748
  20148342.401 7  -2874810.699 7  -2223982.10249  20148337.99149
  23501571.300 6     -5972.801 6   -341367.71947  23501567.27647
  23397119.612 5  -6749123.586 5  -5217311.21546  23397113.69046
  20460207.042 7   -690937.723 7   -533945.56649  20460206.86649
  21696135.308 6  -6979903.371 6  -5402922.71148  21696134.78048
  21323497.253 6  -1334260.684 6  -1035171.29348  21323493.74948
  22836668.136 5   2253271.074 5   1745446.83247  22836669.61647
 18  5 30  0 42  9.9990000  0  9G03G14G16G22G23G26G27G31G32         -0.000414480
  23477610.511 5    -24910.527 5  -1026162.12947  23477610.02647
  20546592.761 6     25152.910 6     20685.42648  20546589.65148
  20146662.456 7  -2883638.758 7  -2230861.11749  20146657.60149
  23501425.355 6     -6738.883 6   -341964.66047  23501421.61647
  23392559.355 5  -6773087.418 5  -5235984.33247  23392553.93347
  20459911.417 7   -692490.285 7   -535155.34849  20459911.39449
  21691472.440 6  -7004407.586 6  -5422016.90648  21691472.01548
  21322662.722 6  -1338646.777 6  -1038589.02348  21322658.96048
  22838411.878 5   2262435.867 5   1752588.19147  22838413.97247
 18  5 30  0 42 14.9990000  0  9G03G14G16G22G23G26G27G31G32         -0.000419386
  23476959.034 5    -28335.297 5  -1028830.77746  23476958.72246
  20546974.230 6     27159.621 6     22249.09448  20546971.60148
  20144984.487 7  -2892455.660 7  -2237731.43048  20144979.95248
  23501280.847 6     -7499.609 6   -342557.42647  23501276.69047
  23388000.292 5  -6797045.852 5  -5254653.23446  23387994.19446
  20459617.308 7   -694036.672 7   -536360.33249  20459617.06949
  21686810.823 6  -7028904.465 6  -5441105.39148  21686810.40548
  21321828.855 6  -1343029.004 6  -1042003.75448  21321824.78848
  22840157.183 5   2271606.914 5   1759734.44147  22840158.35547
 18  5 30  0 42 19.9990000  0  9G03G14G16G22G23G26G27G31G32         -0.000424292
  23476309.050 5    -31750.016 5  -1031491.60547  23476309.08147
  20547358.612 6     29179.645 6     23823.12548  20547355.74948
  20143308.847 7  -2901261.539 7  -2244593.15249  20143304.02249
  23501136.940 6     -8255.016 6   -343146.06647  23501133.00347
  23383441.815 5  -6820998.984 5  -5273317.98847  23383436.48347
  20459324.183 7   -695576.977 7   -537560.56649  20459323.92549
  21682150.714 6  -7053394.090 6  -5460188.21548  21682150.14448
  21320995.464 6  -1347407.461 6  -1045415.53548  21320991.91748
  22841903.667 5   2280784.082 5   1766885.47347  22841904.67547
 18  5 30  0 42 24.9990000  0  9G03G14G16G22G23G26G27G31G32         -0.000429199
  23475661.526 5    -35154.617 5  -1034144.52747  23475661.50347
  20547745.862 6     31213.113 6     25407.65248  20547742.51548
  20141635.339 7  -2910056.348 7  -2251446.25049  20141630.64449
  23500994.253 6     -9005.125 6   -343730.58247  23500990.14447
  23378884.855 5  -6844946.750 5  -5291978.58246  23378878.96846
  20459032.089 7   -697111.164 7   -538756.04349  20459032.42949
  21677492.284 6  -7077876.402 6  -5479265.35248  21677491.05448
  21320163.042 6  -1351782.094 6  -1048824.34847  21320159.51547
  22843650.690 5   2289967.492 5   1774041.35547  22843651.98747
 18  5 30  0 42 29.9990000  0  9G03G14G16G22G23G26G27G31G32         -0.000434105
  23475015.823 5    -38549.047 5  -1036789.53147  23475015.91347
  20548135.503 6     33260.039 6     27002.66048  20548132.10848
  20139964.073 7  -2918840.027 7  -2258290.68049  20139959.37449
  23500852.667 6     -9749.918 6   -344310.93847  23500848.19847
  23374329.331 5  -6868889.168 5  -5310635.00446  23374322.82746
  20458741.542 8   -698639.227 8   -539946.75049  20458741.25749
  21672834.565 6  -7102351.371 6  -5498336.75848  21672833.36248
  21319331.487 6  -1356152.961 6  -1052230.21948  21319327.53848
  22845399.534 5   2299157.098 5   1781202.05547  22845400.62447
 18  5 30  0 42 34.9990000  0  9G03G14G16G22G23G26G27G31G32         -0.000439011
  23474371.565 5    -41933.367 5  -1039426.67647  23474372.06247
  20548527.612 6     35320.344 6     28608.08648  20548524.23048
  20138294.159 7  -2927612.609 7  -2265126.45749  20138289.91749
  23500712.136 6    -10489.379 6   -344887.14546  23500707.05046
  23369773.644 5  -6892826.199 5  -5329287.22346  23369767.87846
  20458451.472 7   -700161.180 7   -541132.69149  20458451.22249
  21668178.526 6  -7126818.961 6  -5517402.41048  21668177.56248
  21318500.230 6  -1360519.957 6  -1055633.07047  21318496.44447
  22847149.769 5   2308352.871 5   1788367.57447  22847150.22247
 18  5 30  0 42 39.9990000  0  9G03G14G16G22G23G26G27G31G32         -0.000443916
  23473730.050 5    -45307.520 5  -1042055.88347  23473730.71447
  20548922.300 6     37394.121 6     30224.02048  20548918.96848
  20136627.378 7  -2936374.074 7  -2271953.57448  20136622.58148
  23500571.987 6    -11223.508 6   -345459.20747  23500567.34347
  23365219.644 5  -6916757.730 5  -5347935.14546  23365214.29646
  20458163.308 7   -701676.980 7   -542313.83249  20458162.99549
  21663524.230 6  -7151279.141 6  -5536462.30548  21663522.81548
  21317669.753 6  -1364883.027 6  -1059032.87947  21317666.15147
  22848901.081 6   2317554.934 6   1795537.97347  22848901.34347
 18  5 30  0 42 44.9990000  0  9G03G14G16G22G23G26G27G31G32         -0.000448822
  23473088.894 5    -48671.441 5  -1044677.12147  23473090.59347
  20549319.480 7     39481.434 7     31850.48848  20549316.26148
  20134962.019 7  -2945124.320 7  -2278771.94548  20134957.23048
  23500433.519 6    -11952.145 6   -346026.96547  23500428.65147
  23360666.956 5  -6940683.750 5  -5366578.80546  23360661.16346
  20457875.956 7   -703186.566 7   -543490.12949  20457875.59349
  21658870.831 6  -7175731.777 6  -5555516.30548  21658869.49948
  21316840.714 6  -1369242.133 6  -1062429.57448  21316836.76148
  22850653.800 6   2326763.281 6   1802713.30547  22850652.98747
 18  5 30  0 42 49.9990000  0  9G03G14G16G22G23G26G27G31G32         -0.000453728
  23472451.105 5    -52025.324 5  -1047290.55547  23472452.46847
  20549719.026 6     41582.063 6     33487.34048  20549715.68348
  20133298.948 7  -2953863.555 7  -2285581.73848  20133294.16348
  23500295.886 6    -12675.680 6   -346590.77347  23500291.26547
  23356115.222 5  -6964604.359 5  -5385218.24646  23356109.22246
  20457589.948 7   -704690.117 7   -544661.73449  20457589.69849
  21654219.315 6  -7200177.086 6  -5574564.60548  21654218.10848
  21316011.761 6  -1373597.445 6  -1065823.32447  21316008.07347
  22852407.480 6   2335977.734 6   1809893.35247  22852406.40147
 18  5 30  0 42 54.9990000  0  9G03G14G16G22G23G26G27G31G32         -0.000458633
  23471815.042 5    -55369.102 5  -1049896.10947  23471816.47247
  20550121.151 6     43696.102 6     35134.64148  20550118.39048
  20131637.831 7  -2962591.715 7  -2292382.89548  20131633.26548
  23500159.261 6    -13393.887 6   -347150.40647  23500154.61647
  23351563.808 5  -6988519.516 5  -5403853.40246  23351558.49946
  20457305.034 7   -706187.559 7   -545828.56649  20457305.03849
  21649569.284 6  -7224614.977 6  -5593607.10948  21649567.55448
  21315183.730 6  -1377948.848 6  -1069214.02747  21315180.29647
  22854162.417 6   2345198.336 6   1817078.21947  22854160.80447
 18  5 30  0 42 59.9990000  0  9G03G14G16G22G23G26G27G31G32         -0.000463539
  23471181.175 5    -58703.000 5  -1052493.95347  23471181.70247
  20550526.042 7     45823.316 7     36792.20748  20550522.64748
  20129979.206 7  -2971309.020 7  -2299175.60548  20129974.51148
  23500023.269 6    -14107.012 6   -347706.10247  23500018.78447
  23347013.800 5  -7012429.410 5  -5422484.47346  23347008.65546
  20457021.105 7   -707679.152 7   -546990.85249  20457020.79649
  21644920.308 6  -7249045.641 6  -5612643.98048  21644918.53048
  21314356.065 6  -1382296.621 6  -1072601.91047  21314352.83947
  22855917.925 6   2354424.883 6   1824267.71147  22855916.86247
 18  5 30  0 43  4.9990000  0  9G03G14G16G22G23G26G27G31G32         -0.000468445
  23470548.058 5    -62026.727 5  -1055083.87947  23470549.14747
  20550933.503 7     47964.008 7     38460.27348  20550930.71048
  20128322.269 7  -2980015.148 7  -2305959.60248  20128317.59748
  23499888.214 6    -14814.766 6   -348257.59446  23499883.78846
  23342465.425 5  -7036333.754 5  -5441111.23446  23342459.76946
  20456738.362 7   -709164.555 7   -548148.31349  20456738.04649
  21640272.417 6  -7273468.719 6  -5631674.95348  21640270.75748
  21313529.675 6  -1386640.367 6  -1075986.65247  21313526.67947
  22857675.308 6   2363657.676 6   1831462.07047  22857673.60547
 18  5 30  0 43  9.9990000  0  9G03G14G16G22G23G26G27G31G32         -0.000473351
  23469917.222 5    -65340.637 5  -1057666.15647  23469918.56247
  20551343.417 6     50117.785 6     40138.53948  20551340.40948
  20126667.550 7  -2988710.504 7  -2312735.20348  20126662.93348
  23499755.253 6    -15517.566 6   -348805.22746  23499749.80446
  23337917.105 5  -7060232.902 5  -5459733.94946  23337912.17146
  20456456.753 7   -710644.145 7   -549301.23849  20456456.69449
  21635626.308 6  -7297884.574 6  -5650700.28948  21635624.80848
  21312703.628 6  -1390980.520 6  -1079368.58647  21312700.80047
  22859433.495 6   2372896.352 6   1838661.01647  22859432.08147
 18  5 30  0 43 14.9990000  0  9G03G14G16G22G23G26G27G31G32         -0.000478256
  23469289.019 5    -68644.605 5  -1060240.69947  23469289.89747
  20551755.644 7     52284.836 7     41827.14548  20551753.01948
  20125014.956 7  -2997394.871 7  -2319502.24248  20125010.73348
  23499622.198 6    -16215.230 6   -349348.85546  23499616.94046
  23333370.620 5  -7084126.617 5  -5478352.44146  23333365.41346
  20456176.690 7   -712117.805 7   -550449.55549  20456176.31949
  21630981.612 6  -7322293.074 6  -5669719.89848  21630979.67548
  21311878.753 6  -1395316.859 6  -1082747.54347  21311875.62047
  22861192.542 6   2382141.023 6   1845864.63747  22861191.65547
 18  5 30  0 43 19.9990000  0  9G03G14G16G22G23G26G27G31G32         -0.000483160
  23468661.503 5    -71938.582 5  -1062807.41847  23468662.70247
  20552170.933 6     54465.246 6     43526.16448  20552167.76548
  20123364.651 7  -3006068.234 7  -2326260.71148  20123360.28448
  23499490.519 5    -16907.719 5   -349888.47346  23499484.32346
  23328824.417 5  -7108014.867 5  -5496966.65646  23328819.36646
  20455897.269 7   -713585.445 7   -551593.17249  20455896.71849
  21626337.839 6  -7346694.086 6  -5688733.66848  21626336.15548
  21311054.222 6  -1399649.336 6  -1086123.50847  21311051.63247
  22862952.862 6   2391391.793 6   1853072.99247  22862951.53447
 18  5 30  0 43 24.9990000  0  9G03G14G16G22G23G26G27G31G32         -0.000488066
  23468037.019 5    -75222.305 5  -1065366.15647  23468037.86647
  20552588.362 7     56659.172 7     45235.71548  20552585.24548
  20121716.073 7  -3014730.391 7  -2333010.44948  20121712.03448
  23499359.894 5    -17594.859 5   -350423.89146  23499354.01146
  23324279.628 5  -7131897.344 5  -5515576.40246  23324274.81246
  20455619.253 7   -715046.879 7   -552731.94949  20455618.88649
  21621696.292 6  -7371087.441 6  -5707741.46548  21621693.78448
  21310230.706 6  -1403977.750 6  -1089496.28547  21310228.23747
  22864714.417 6   2400648.816 6   1860286.23447  22864712.97647
 18  5 30  0 43 29.9990000  0  9G03G14G16G22G23G26G27G31G32         -0.000492971
  23467413.964 5    -78496.184 5  -1067917.25447  23467414.88247
  20553007.909 7     58866.352 7     46955.59048  20553005.50748
  20120069.925 7  -3023381.652 7  -2339751.69548  20120065.85548
  23499230.565 5    -18276.838 5   -350955.29846  23499223.64746
  23319735.980 5  -7155774.480 5  -5534181.95746  23319731.17546
  20455342.081 7   -716502.410 7   -553866.12949  20455341.81249
  21617055.706 6  -7395473.375 6  -5726743.49648  21617053.38248
  21309407.612 6  -1408302.391 6  -1092866.14147  21309404.67947
  22866476.987 6   2409911.797 6   1867504.12547  22866476.25347
 18  5 30  0 43 34.9990000  0  9G03G14G16G22G23G26G27G31G32         -0.000497877
  23466793.714 5    -81760.086 5  -1070460.53147  23466793.81947
  20553430.769 7     61086.852 7     48685.84448  20553427.79648
  20118425.472 7  -3032021.926 7  -2346484.37548  20118422.12848
  23499101.612 5    -18953.711 5   -351482.75046  23499095.07346
  23315193.620 5  -7179646.043 5  -5552783.16846  23315188.94846
  20455066.511 7   -717951.969 7   -554995.66049  20455066.19449
  21612416.394 6  -7419851.832 6  -5745739.68848  21612414.00348
  21308585.667 6  -1412623.156 6  -1096232.96947  21308582.27647
  22868240.651 6   2419180.840 6   1874726.72747  22868239.86647
 18  5 30  0 43 39.9980000  0  9G03G14G16G22G23G26G27G31G32          0.000497219
  23466174.436 5    -85013.387 5  -1072995.58247  23466174.60447
  20553855.537 6     63320.145 6     50426.06348  20553853.06448
  20116783.170 7  -3040649.547 7  -2353207.19148  20116780.02248
  23498973.561 5    -19625.344 5   -352006.09846  23498967.28346
  23310652.209 5  -7203507.402 5  -5571376.44146  23310647.81146
  20454791.342 7   -719395.305 7   -556120.34849  20454791.18249
  21607779.795 6  -7444217.906 6  -5764726.23448  21607777.46748
  21307764.123 6  -1416939.227 6  -1099596.14147  21307761.30747
  22870005.357 6   2428453.969 6   1881952.51647  22870005.16647
 18  5 30  0 43 44.9980000  0  9G03G14G16G22G23G26G27G31G32          0.000492313
  23465557.272 5    -88257.305 5  -1075523.32047  23465557.10447
  20554283.240 6     65567.301 6     52177.08648  20554280.40048
  20115143.795 7  -3049267.844 7  -2359922.75048  20115139.61548
  23498847.107 6    -20291.891 6   -352525.46146  23498840.52246
  23306112.303 5  -7227367.855 5  -5589969.00046  23306107.60446
  20454518.131 7   -720832.883 7   -557240.53549  20454517.76449
  21603143.326 6  -7468581.270 6  -5783710.67248  21603141.59248
  21306944.006 6  -1421252.191 6  -1102956.89847  21306940.57247
  22871771.295 6   2437735.039 6   1889184.47747  22871771.85447
 18  5 30  0 43 49.9980000  0  9G03G14G16G22G23G26G27G31G32          0.000487410
  23464941.975 5    -91491.332 5  -1078043.34447  23464942.00647
  20554713.795 6     67827.691 6     53938.42248  20554710.40448
  20113505.873 7  -3057875.227 7  -2366629.79348  20113501.88148
  23498721.365 6    -20953.387 6   -353040.93446  23498714.37346
  23301573.053 5  -7251222.766 5  -5608557.24246  23301568.04546
  20454245.498 8   -722264.551 8   -558356.12949  20454245.57249
  21598508.701 6  -7492937.121 6  -5802689.25848  21598506.64748
  21306123.389 6  -1425561.301 6  -1106314.64547  21306120.43247
  22873539.154 6   2447022.102 6   1896421.13347  22873538.93647
 18  5 30  0 43 54.9980000  0  9G03G14G16G22G23G26G27G31G32          0.000482504
  23464328.568 5    -94715.180 5  -1080555.43447  23464329.14747
  20555146.498 6     70101.660 6     55710.34848  20555143.58048
  20111870.232 7  -3066471.363 7  -2373328.09048  20111866.39348
  23498596.795 6    -21609.492 6   -353552.19946  23498588.97946
  23297034.717 5  -7275071.863 5  -5627140.95347  23297029.65047
  20453974.170 7   -723690.000 7   -559466.86749  20453974.11149
  21593876.115 6  -7517285.129 6  -5821661.72748  21593873.23648
  21305304.232 6  -1429866.258 6  -1109669.15247  21305300.84647
  22875307.412 6   2456315.434 6   1903662.67247  22875307.74447
 18  5 30  0 43 59.9980000  0  9G03G14G16G22G23G26G27G31G32          0.000477600
  23463717.162 5    -97929.148 5  -1083059.82047  23463717.87747
  20555581.092 6     72388.852 6     57492.56648  20555578.45148
  20110236.193 7  -3075056.625 7  -2380017.89848  20110232.42448
  23498472.732 6    -22260.594 6   -354059.57046  23498464.67046
  23292497.412 5  -7298915.473 5  -5645720.39847  23292492.18247
  20453704.498 7   -725109.590 7   -560573.04349  20453703.96349
  21589243.600 6  -7541625.641 6  -5840628.34848  21589241.50648
  21304485.662 6  -1434167.391 6  -1113020.69547  21304483.14747
  22877076.748 6   2465614.664 6   1910908.80947  22877077.14747
 18  5 30  0 44  4.9980000  0  9G03G14G16G22G23G26G27G31G32          0.000472694
  23463107.076 5   -101133.172 5  -1085556.47747  23463108.18947
  20556018.826 6     74689.270 6     59285.09848  20556015.73648
  20108604.732 7  -3083630.910 7  -2386699.16848  20108601.06848
  23498349.959 6    -22906.605 6   -354562.95746  23498342.34246
  23287961.115 5  -7322753.512 5  -5664295.48046  23287956.02246
  20453435.131 7   -726523.238 7   -561674.59049  20453435.14349
  21584612.787 6  -7565958.559 6  -5859589.06648  21584611.36148
  21303667.920 6  -1438464.621 6  -1116369.18847  21303664.46747
  22878847.537 6   2474919.848 6   1918159.57847  22878848.26047
 18  5 30  0 44  9.9980000  0  9G03G14G16G22G23G26G27G31G32          0.000467791
  23462498.951 5   -104327.320 5  -1088045.43847  23462500.75247
  20556459.373 7     77002.938 7     61087.95748  20556456.33448
  20106974.553 6  -3092194.277 6  -2393371.91848  20106971.22148
  23498227.389 6    -23547.523 6   -355062.39546  23498221.01046
  23283426.053 5  -7346585.977 5  -5682866.25846  23283420.84646
  20453167.615 7   -727930.984 7   -562771.53949  20453167.38149
  21579983.584 6  -7590283.867 6  -5878543.82848  21579982.18248
  21302851.006 6  -1442757.961 6  -1119714.64547  21302847.54947
  22880619.084 6   2484230.988 6   1925414.98447  22880620.10447
 18  5 30  0 44 14.9980000  0  9G03G14G16G22G23G26G27G31G32          0.000462885
  23461893.842 5   -107511.523 5  -1090526.65247  23461894.54547
  20556902.022 6     79329.930 6     62901.18848  20556898.83448
  20105347.467 6  -3100746.672 6  -2400036.12548  20105343.86148
  23498106.225 5    -24183.383 5   -355557.87946  23498100.25246
  23278891.787 5  -7370412.785 5  -5701432.62146  23278887.34646
  20452900.811 7   -729332.754 7   -563863.83249  20452900.54949
  21575356.084 6  -7614601.543 6  -5897492.68448  21575354.70948
  21302034.592 6  -1447047.367 6  -1123057.02747  21302031.26847
  22882392.420 6   2493548.102 6   1932675.04347  22882393.04547
 18  5 30  0 44 19.9980000  0  9G03G14G16G22G23G26G27G31G32          0.000457981
  23461289.084 5   -110685.754 5  -1093000.07047  23461290.44747
  20557347.295 6     81670.246 6     64724.80948  20557344.10448
  20103722.006 6  -3109288.035 6  -2406691.73048  20103718.60048
  23497985.943 5    -24814.105 5   -356049.35246  23497980.81846
  23274358.412 5  -7394233.867 5  -5719994.51247  23274354.38947
  20452635.201 8   -730728.555 8   -564951.46149  20452634.97149
  21570730.279 6  -7638911.488 6  -5916435.49248  21570729.03748
  21301218.943 6  -1451332.738 6  -1126396.28547  21301216.00647
  22884165.990 6   2502871.262 6   1939939.84847  22884167.16247
 18  5 30  0 44 24.9980000  0  9G03G14G16G22G23G26G27G31G32          0.000453077
  23460686.818 5   -113850.117 5  -1095465.81347  23460687.81447
  20557794.967 6     84023.813 6     66558.75448  20557792.13548
  20102098.990 7  -3117818.504 7  -2413338.84848  20102095.35748
  23497867.397 5    -25439.805 5   -356536.93046  23497861.91246
  23269826.811 5  -7418049.320 5  -5738552.02346  23269822.38146
  20452370.717 7   -732118.441 7   -566034.49649  20452370.71349
  21566106.139 6  -7663213.797 6  -5935372.35248  21566104.70548
  21300404.600 6  -1455614.227 6  -1129732.50047  21300401.44747
  22885941.803 5   2512200.324 5   1947209.22347  22885942.20547
 18  5 30  0 44 29.9980000  0  9G03G14G16G22G23G26G27G31G32          0.000448172
  23460086.779 5   -117004.711 5  -1097923.94547  23460087.65447
  20558245.701 6     86390.453 6     68402.87948  20558242.45148
  20100477.928 7  -3126338.133 7  -2419977.52348  20100473.45548
  23497748.600 5    -26060.637 5   -357020.68046  23497743.77546
  23265296.084 5  -7441859.176 5  -5757105.16047  23265291.52547
  20452107.209 7   -733502.570 7   -567113.03549  20452107.26049
  21561482.873 6  -7687508.563 6  -5954303.33648  21561481.57248
  21299590.389 6  -1459891.926 6  -1133065.80147  21299586.78347
  22887717.717 5   2521535.238 5   1954483.16847  22887718.85747
 18  5 30  0 44 34.9980000  0  9G03G14G16G22G23G26G27G31G32          0.000443268
  23459488.928 5   -120149.215 5  -1100374.22347  23459489.36547
  20558698.537 6     88770.609 6     70257.55148  20558695.26048
  20098858.272 7  -3134846.637 7  -2426607.52748  20098854.72148
  23497631.803 5    -26676.191 5   -357500.33246  23497627.11146
  23260766.647 5  -7465663.148 5  -5775653.71147  23260762.04547
  20451844.873 7   -734880.570 7   -568186.80549  20451845.03349
  21556861.295 6  -7711795.371 6  -5973228.12548  21556859.94348
  21298777.451 6  -1464165.438 6  -1136395.79747  21298774.02547
  22889494.779 5   2530876.254 5   1961761.87147  22889495.47947
 18  5 30  0 44 39.9980000  0  9G03G14G16G22G23G26G27G31G32          0.000438364
  23458892.201 5   -123283.887 5  -1102816.81347  23458893.07247
  20559154.326 6     91163.930 6     72122.47348  20559150.77548
  20097241.529 7  -3143344.234 7  -2433229.03148  20097237.64348
  23497515.115 5    -27286.828 5   -357976.14846  23497510.87746
  23256237.873 5  -7489461.410 5  -5794197.81647  23256233.66247
  20451583.959 7   -736252.727 7   -569256.02349  20451583.80749
  21552240.982 6  -7736074.543 6  -5992146.95748  21552240.28748
  21297964.514 6  -1468435.109 6  -1139722.80547  21297961.38547
  22891274.240 6   2540223.156 6   1969045.15647  22891274.72147
 18  5 30  0 44 44.9980000  0  9G03G14G16G22G23G26G27G31G32          0.000433458
  23458297.186 5   -126408.574 5  -1105251.62547  23458298.35047
  20559612.334 6     93570.648 6     73997.83248  20559609.00648
  20095626.662 7  -3151830.762 7  -2439841.90248  20095622.83848
  23497400.748 5    -27892.277 5   -358447.97346  23497396.21346
  23251710.498 5  -7513253.824 5  -5812737.35247  23251706.07647
  20451324.045 7   -737618.852 7   -570320.54349  20451323.76049
  21547622.779 6  -7760345.840 6  -6011059.66048  21547621.61548
  21297153.186 6  -1472700.602 6  -1143046.56347  21297149.08847
  22893053.772 6   2549576.078 6   1976333.14147  22893055.05747
 18  5 30  0 44 49.9980000  0  9G03G14G16G22G23G26G27G31G32          0.000428555
  23457704.100 5   -129523.336 5  -1107678.73047  23457705.60047
  20560072.623 6     95990.691 6     75883.57848  20560069.44348
  20094013.686 6  -3160306.289 6  -2446446.21948  20094009.86148
  23497285.178 5    -28492.645 5   -358915.77046  23497281.96346
  23247183.451 5  -7537040.504 5  -5831272.41847  23247180.13547
  20451064.967 7   -738979.020 7   -571380.41849  20451064.92049
  21543005.412 6  -7784609.305 6  -6029966.24248  21543004.51848
  21296341.897 6  -1476962.031 6  -1146367.17247  21296338.18247
  22894834.615 6   2558935.008 6   1983625.78947  22894835.38147
 18  5 30  0 44 54.9980000  0  9G03G14G16G22G23G26G27G31G32          0.000423651
  23457112.631 5   -132628.156 5  -1110098.06647  23457114.26047
  20560535.740 6     98424.051 6     77779.70348  20560532.44348
  20092402.975 7  -3168770.844 7  -2453041.98048  20092399.07648
  23497172.061 4    -29087.953 4   -359379.67246  23497168.87346
  23242658.717 5  -7560821.313 5  -5849802.93847  23242654.02947
  20450807.428 7   -740333.215 7   -572435.63749  20450807.51849
  21538389.764 6  -7808864.938 6  -6048866.72348  21538388.83048
  21295531.584 6  -1481219.375 6  -1149684.59047  21295528.02947
  22896616.506 6   2568299.895 6   1990923.09047  22896617.47547
 18  5 30  0 44 59.9980000  0  9G03G14G16G22G23G26G27G31G32          0.000418747
  23456524.147 5   -135723.012 5  -1112509.68047  23456525.56847
  20561001.139 6    100870.707 6     79686.18448  20560998.22148
  20090794.467 7  -3177224.422 7  -2459629.18048  20090790.93648
  23497059.928 5    -29678.168 5   -359839.58246  23497056.32646
  23238134.311 5  -7584596.277 5  -5868328.88347  23238130.07247
  20450550.865 8   -741681.500 8   -573486.24649  20450550.78349
  21533775.318 6  -7833112.691 6  -6067761.09048  21533774.58448
  21294722.654 6  -1485472.691 6  -1152998.85547  21294718.81847
  22898400.475 6   2577670.742 6   1998225.02747  22898400.55747
 18  5 30  0 45  4.9980000  0  9G03G14G16G22G23G26G27G31G32          0.000413845
  23455936.897 5   -138807.910 5  -1114913.48447  23455937.74447
  20561469.318 6    103330.785 6     81603.11748  20561466.11148
  20089187.881 7  -3185666.914 7  -2466207.74248  20089183.97148
  23496949.272 5    -30263.273 5   -360295.53546  23496944.66646
  23233611.943 5  -7608365.289 5  -5886850.19947  23233606.90847
  20450295.334 8   -743023.723 8   -574532.14549  20450295.05349
  21529162.889 6  -7857352.523 6  -6086649.24248  21529162.06148
  21293914.537 6  -1489721.828 6  -1156309.86747  21293910.23647
  22900184.904 6   2587047.652 6   2005531.69947  22900185.26847
 18  5 30  0 45  9.9980000  0  9G03G14G16G22G23G26G27G31G32          0.000408941
  23455351.990 5   -141882.773 5  -1117309.46947  23455353.00247
  20561940.170 6    105804.289 6     83530.52748  20561937.20948
  20087583.451 7  -3194098.285 7  -2472777.64848  20087579.79548
  23496838.545 5    -30843.211 5   -360747.44546  23496834.02546
  23229089.178 5  -7632128.328 5  -5905366.83647  23229084.76447
  20450041.397 7   -744359.848 7   -575573.28949  20450040.77549
  21524551.342 6  -7881584.281 6  -6105531.14148  21524550.84648
  21293106.123 6  -1493966.773 6  -1159617.65247  21293102.39347
  22901970.897 6   2596430.617 6   2012843.09447  22901971.11947
 18  5 30  0 45 14.9980000  0  9G03G14G16G22G23G26G27G31G32          0.000404037
  23454768.592 4   -144948.008 4  -1119697.97347  23454769.61147
  20562413.256 6    108290.840 6     85468.10248  20562410.31448
  20085981.225 7  -3202518.918 7  -2479339.16848  20085977.76448
  23496729.264 5    -31418.359 5   -361195.63746  23496724.44346
  23224568.631 5  -7655885.758 5  -5923879.14547  23224563.93947
  20449788.326 8   -745690.316 8   -576610.01649  20449787.74049
  21519941.818 6  -7905808.418 6  -6124407.08648  21519941.11548
  21292299.061 6  -1498207.879 6  -1162922.39547  21292295.71347
  22903756.897 6   2605819.270 6   2020158.87547  22903757.96347
 18  5 30  0 45 19.9980000  0  9G03G14G16G22G23G26G27G31G32          0.000399134
  23454187.209 4   -148003.324 4  -1122078.74647  23454188.41647
  20562889.045 6    110790.727 6     87416.06648  20562886.14348
  20084380.693 7  -3210928.539 7  -2485892.13349  20084377.25249
  23496621.303 5    -31988.414 5   -361639.84846  23496616.61946
  23220049.045 5  -7679637.176 5  -5942386.73447  23220043.79947
  20449535.686 7   -747014.801 7   -577642.09449  20449535.91249
  21515333.568 6  -7930024.527 6  -6143276.75848  21515332.89748
  21291492.639 6  -1502444.844 6  -1166223.93047  21291489.28347
  22905544.522 6   2615213.945 6   2027479.40247  22905545.27547
 18  5 30  0 45 24.9980000  0  9G03G14G16G22G23G26G27G31G32          0.000394232
  23453607.975 4   -151048.637 4  -1124451.73047  23453608.52947
  20563367.287 6    113303.930 6     89374.39548  20563364.60448
  20082782.443 7  -3219327.223 7  -2492436.55148  20082778.81448
  23496513.732 5    -32553.508 5   -362080.20746  23496508.64346
  23215530.240 5  -7703382.691 5  -5960889.72747  23215525.78747
  20449285.162 7   -748333.383 7   -578669.55949  20449284.98249
  21510727.201 6  -7954232.734 6  -6162140.29748  21510726.27248
  21290687.662 6  -1506677.738 6  -1169522.28147  21290684.05347
  22907333.475 6   2624614.488 6   2034804.48047  22907333.98647
 18  5 30  0 45 29.9980000  0  9G03G14G16G22G23G26G27G31G32          0.000389328
  23453031.092 5   -154084.113 5  -1126817.05547  23453030.85747
  20563848.068 6    115830.496 6     91343.14848  20563845.22948
  20081186.357 7  -3227714.848 7  -2498972.37149  20081182.92849
  23496407.842 5    -33113.473 5   -362516.54746  23496401.92446
  23211012.592 5  -7727122.137 5  -5979387.99647  23211008.47547
  20449035.248 7   -749645.973 7   -579692.35549  20449035.03749
  21506121.865 6  -7978432.930 6  -6180997.58248  21506120.99448
  21289882.490 6  -1510906.484 6  -1172817.41447  21289879.45547
  22909123.756 6   2634021.008 6   2042134.23047  22909124.03747
 18  5 30  0 45 34.9980000  0  9G03G14G16G22G23G26G27G31G32          0.000384426
  23452454.756 5   -157109.715 5  -1129174.63347  23452454.71747
  20564331.037 6    118370.363 6     93322.26648  20564328.27948
  20079592.303 7  -3236091.551 7  -2505499.67648  20079588.74848
  23496301.522 5    -33668.426 5   -362948.97746  23496296.27546
  23206495.975 5  -7750855.660 5  -5997881.64547  23206492.34247
  20448786.654 7   -750952.641 7   -580710.55149  20448786.40449
  21501518.326 6  -8002625.125 6  -6199848.62948  21501517.74448
  21289079.014 6  -1515131.094 6  -1176109.31347  21289075.22147
  22910915.397 6   2643433.445 6   2049468.57447  22910915.40847
 18  5 30  0 45 39.9980000  0  9G03G14G16G22G23G26G27G31G32          0.000379522
  23451880.482 4   -160125.617 4  -1131524.69147  23451880.54547
  20564817.443 6    120923.309 6     95311.55948  20564814.65448
  20078000.584 7  -3244457.445 7  -2512018.56348  20077996.73248
  23496197.139 5    -34218.648 5   -363377.74246  23496191.66246
  23201980.568 5  -7774583.391 5  -6016370.78547  23201976.97147
  20448539.131 7   -752253.590 7   -581724.28149  20448538.99049
  21496916.232 6  -8026809.473 6  -6218693.58248  21496915.46748
  21288275.639 6  -1519351.703 6  -1179398.11747  21288271.93647
  22912706.693 6   2652851.613 6   2056807.36747  22912707.85447
 18  5 30  0 45 44.9980000  0  9G03G14G16G22G23G26G27G31G32          0.000374620
  23451308.162 4   -163131.609 4  -1133867.04747  23451308.10747
  20565305.639 6    123489.527 6     97311.20348  20565302.63548
  20076410.670 7  -3252812.379 7  -2518528.90248  20076406.71748
  23496092.787 5    -34763.867 5   -363802.60546  23496087.83446
  23197467.029 5  -7798305.148 5  -6034855.25047  23197462.97147
  20448292.631 7   -753548.637 7   -582733.41049  20448292.79549
  21492315.701 6  -8050985.816 6  -6237532.28948  21492314.70148
  21287473.443 7  -1523568.199 7  -1182683.70747  21287469.42847
  22914501.467 6   2662275.695 6   2064150.79747  22914501.18947
 18  5 30  0 45 49.9980000  0  9G03G14G16G22G23G26G27G31G32          0.000369719
  23450738.287 5   -166127.723 5  -1136201.68047  23450737.52547
  20565796.420 6    126069.090 6     99321.25448  20565793.20148
  20074822.842 7  -3261156.250 7  -2525030.62948  20074818.81148
  23495990.037 5    -35304.008 5   -364223.49646  23495984.17446
  23192954.420 6  -7822020.867 6  -6053335.02747  23192950.22147
  20448047.506 7   -754837.719 7   -583737.89149  20448047.27249
  21487716.162 6  -8075154.039 6  -6256364.66848  21487715.25248
  21286671.897 6  -1527780.504 6  -1185966.01647  21286667.65047
  22916295.631 6   2671705.730 6   2071498.85547  22916295.49447
 18  5 30  0 45 54.9980000  0  9G03G14G16G22G23G26G27G31G32          0.000364817
  23450170.725 5   -169113.988 5  -1138528.64847  23450168.97547
  20566290.084 6    128661.895 6    101341.61748  20566286.73648
  20073237.295 7  -3269489.227 7  -2531523.85549  20073233.03349
  23495887.982 5    -35839.219 5   -364640.58246  23495882.33846
  23188442.084 5  -7845730.633 5  -6071810.16447  23188437.80747
  20447803.397 7   -756120.906 7   -584737.77349  20447803.11149
  21483118.943 6  -8099314.219 6  -6275190.78548  21483117.68248
  21285871.045 6  -1531988.652 6  -1189245.10247  21285866.81147
  22918090.967 6   2681141.594 6   2078851.46147  22918091.15047
 18  5 30  0 45 59.9980000  0  9G03G14G16G22G23G26G27G31G32          0.000359915
  23449603.389 5   -172090.719 5  -1140848.17647  23449602.31447
  20566785.451 6    131267.781 6    103372.18048  20566782.63548
  20071653.553 7  -3277811.457 7  -2538008.71148  20071649.19348
  23495788.014 5    -36369.684 5   -365053.92646  23495780.83846
  23183931.217 5  -7869434.586 5  -6090280.76647  23183927.13547
  20447560.178 7   -757398.469 7   -585733.29349  20447559.77549
  21478522.928 6  -8123466.617 6  -6294010.84048  21478522.04548
  21285071.373 6  -1536192.910 6  -1192521.15247  21285066.81147
  22919887.162 6   2690583.066 6   2086208.43047  22919887.69347
 18  5 30  0 46  4.9980000  0  9G03G14G16G22G23G26G27G31G32          0.000355011
  23449039.053 5   -175057.836 5  -1143160.22347  23449038.20947
  20567283.897 6    133886.641 6    105412.84848  20567280.95148
  20070072.201 7  -3286123.020 7  -2544485.26249  20070067.86549
  23495687.795 5    -36895.492 5   -365463.66446  23495680.44346
  23179421.818 5  -7893132.793 5  -6108746.89847  23179417.64747
  20447317.998 7   -758670.402 7   -586724.41449  20447318.47149
  21473928.014 6  -8147611.188 6  -6312824.79748  21473927.35448
  21284271.857 6  -1540393.313 6  -1195794.19547  21284267.89347
  22921685.467 6   2700030.160 6   2093569.78547  22921685.47547
 18  5 30  0 46  9.9980000  0  9G03G14G16G22G23G26G27G31G32          0.000350109
  23448476.740 5   -178015.234 5  -1145464.70747  23448475.63947
  20567785.014 6    136518.711 6    107463.80148  20567781.65448
  20068492.553 7  -3294423.699 7  -2550953.32049  20068487.90849
  23495588.420 5    -37416.367 5   -365869.54346  23495581.81446
  23174913.272 5  -7916825.020 5  -6127208.37947  23174908.93247
  20447077.178 7   -759936.504 7   -587710.98449  20447076.85049
  21469335.178 6  -8171747.688 6  -6331632.46948  21469334.87348
  21283473.287 6  -1544589.559 6  -1199063.99647  21283469.60747
  22923484.248 6   2709483.059 6   2100935.65647  22923484.56847
 18  5 30  0 46 14.9980000  0  9G03G14G16G22G23G26G27G31G32          0.000345207
  23447916.311 5   -180962.664 5  -1147761.40247  23447915.33847
  20568288.537 6    139164.211 6    109525.22348  20568284.74448
  20066915.225 7  -3302713.293 7  -2557412.75049  20066910.76849
  23495489.600 5    -37932.219 5   -366271.50046  23495483.72946
  23170406.193 5  -7940510.996 5  -6145665.00447  23170401.56147
  20446837.436 7   -761196.602 7   -588692.88349  20446837.21749
  21464743.842 6  -8195875.918 6  -6350433.69148  21464743.22148
  21282675.615 6  -1548781.484 6  -1202330.41847  21282671.65447
  22925283.631 6   2718941.938 6   2108306.19147  22925284.53347
 18  5 30  0 46 19.9980000  0  9G03G14G16G22G23G26G27G31G32          0.000340305
  23447357.373 5   -183900.477 5  -1150050.64847  23447356.54147
  20568794.232 6    141822.699 6    111596.76648  20568790.80348
  20065339.522 7  -3310992.207 7  -2563863.85249  20065335.21349
  23495392.498 5    -38443.301 5   -366669.78546  23495386.24846
  23165900.123 5  -7964191.164 5  -6164117.09447  23165895.68247
  20446598.545 7   -762451.074 7   -589670.36749  20446598.39349
  21460153.256 6  -8219996.281 6  -6369228.77348  21460153.65448
  21281878.904 7  -1552969.477 7  -1205593.80147  21281875.06147
  22927085.475 6   2728406.375 6   2115681.02747  22927085.21347
 18  5 30  0 46 24.9980000  0  9G03G14G16G22G23G26G27G31G32          0.000335403
  23446800.350 5   -186828.641 5  -1152332.32847  23446799.18947
  20569302.607 6    144494.359 6    113678.57448  20569299.40848
  20063766.459 7  -3319260.313 7  -2570306.53149  20063761.66649
  23495296.342 5    -38949.602 5   -367064.26246  23495290.23646
  23161394.857 5  -7987865.285 5  -6182564.43847  23161389.89347
  20446360.787 7   -763699.781 7   -590643.40249  20446360.36949
  21455564.342 6  -8244108.582 6  -6388017.55948  21455565.65848
  21281082.568 7  -1557153.383 7  -1208854.00048  21281078.99848
  22928886.795 6   2737876.602 6   2123060.42647  22928888.12747
 18  5 30  0 46 29.9980000  0  9G03G14G16G22G23G26G27G31G32          0.000330502
  23446243.865 5   -189747.199 5  -1154606.52347  23446244.59247
  20569813.232 6    147179.066 6    115770.55148  20569810.24048
  20062195.100 7  -3327517.656 7  -2576740.83249  20062190.33449
  23495200.803 5    -39451.148 5   -367455.08246  23495194.11546
  23156890.693 5  -8011533.469 5  -6201007.18847  23156885.96747
  20446124.506 7   -764942.832 7   -591612.01649  20446124.11949
  21450977.873 6  -8268212.855 6  -6406800.10948  21450978.54948
  21280287.147 7  -1561333.285 7  -1212111.07048  21280283.39348
  22930690.857 6   2747352.406 6   2130444.12547  22930691.32647
 18  5 30  0 46 34.9980000  0  9G03G14G16G22G23G26G27G31G32          0.000325602
  23445691.029 5   -192656.094 5  -1156873.18847  23445690.39747
  20570326.795 6    149876.953 6    117872.78948  20570323.35448
  20060625.631 7  -3335764.242 7  -2583166.74249  20060621.17449
  23495106.139 5    -39947.875 5   -367842.15646  23495099.27546
  23152388.022 5  -8035195.633 5  -6219445.21547  23152383.17447
  20445889.061 7   -766180.160 7   -592576.16849  20445888.45949
  21446392.998 6  -8292309.125 6  -6425576.42248  21446393.52948
  21279492.295 7  -1565509.109 7  -1215364.94948  21279489.14348
  22932494.772 6   2756833.918 6   2137832.30547  22932495.10447
 18  5 30  0 46 39.9980000  0  9G03G14G16G22G23G26G27G31G32          0.000320700
  23445139.686 5   -195555.262 5  -1159132.28947  23445138.72147
  20570842.803 6    152588.004 6    119985.29348  20570839.29948
  20059058.529 7  -3343999.977 7  -2589584.19549  20059054.50649
  23495012.522 5    -40439.832 5   -368225.50846  23495006.06846
  23147886.740 5  -8058851.754 5  -6237878.56347  23147881.60447
  20445654.779 7   -767411.742 7   -593535.84049  20445654.36549
  21441808.912 6  -8316397.219 6  -6444346.36748  21441809.50248
  21278698.545 6  -1569680.770 6  -1218615.59847  21278695.46347
  22934300.092 6   2766321.160 6   2145224.93447  22934300.98647
 18  5 30  0 46 44.9980000  0  9G03G14G16G22G23G26G27G31G32          0.000315798
  23444589.865 6   -198444.789 6  -1161383.86347  23444588.48247
  20571361.389 6    155312.164 6    122108.00448  20571358.03348
  20057493.772 7  -3352224.934 7  -2595993.25049  20057489.18249
  23494919.201 5    -40927.043 5   -368605.15646  23494913.31146
  23143386.584 5  -8082501.832 5  -6256307.18047  23143381.62747
  20445421.357 7   -768637.582 7   -594491.04749  20445421.05349
  21437226.756 5  -8340477.227 5  -6463110.02048  21437227.42448
  21277905.428 7  -1573848.328 7  -1221863.04747  21277902.36547
  22936106.725 6   2775814.055 6   2152621.99247  22936107.60447
 18  5 30  0 46 49.9980000  0  9G03G14G16G22G23G26G27G31G32          0.000310896
  23444041.811 6   -201324.742 6  -1163627.96947  23444040.02247
  20571882.412 6    158049.402 6    124240.91848  20571878.85048
  20055930.490 7  -3360439.148 7  -2602393.93849  20055926.01049
  23494828.100 5    -41409.531 5   -368981.16046  23494821.45546
  23138886.647 5  -8106145.898 5  -6274731.12947  23138882.02247
  20445188.975 7   -769857.750 7   -595441.83249  20445188.56149
  21432645.381 6  -8364549.145 6  -6481867.34848  21432646.63948
  21277113.436 7  -1578011.836 7  -1225107.34447  21277109.98247
  22937913.982 6   2785312.613 6   2160023.43047  22937915.22147
 18  5 30  0 46 54.9980000  0  9G03G14G16G22G23G26G27G31G32          0.000305996
  23443495.279 5   -204195.145 5  -1165864.66447  23443494.01447
  20572405.779 6    160799.617 6    126383.94148  20572402.70548
  20054369.170 7  -3368642.664 7  -2608786.29349  20054365.23649
  23494737.154 5    -41887.477 5   -369353.55546  23494730.03346
  23134389.115 5  -8129783.996 5  -6293150.43847  23134383.83047
  20444957.850 7   -771072.348 7   -596388.28149  20444957.66649
  21428066.412 5  -8388613.055 5  -6500618.44148  21428067.03748
  21276321.951 7  -1582171.313 7  -1228348.49648  21276318.81448
  22939722.615 6   2794816.691 6   2167429.18447  22939723.43247
 18  5 30  0 46 59.9980000  0  9G03G14G16G22G23G26G27G31G32          0.000301094
  23442950.639 5   -207055.801 5  -1168093.73447  23442949.62747
  20572931.240 6    163563.047 6    128537.25848  20572928.08848
  20052810.240 7  -3376835.285 7  -2615170.15649  20052806.34649
  23494646.529 5    -42360.531 5   -369722.15646  23494640.26046
  23129892.014 5  -8153415.836 5  -6311564.84047  23129887.10047
  20444728.303 7   -772281.141 7   -597330.22349  20444727.41249
  21423488.975 6  -8412668.648 6  -6519363.07048  21423489.36548
  21275530.881 7  -1586326.559 7  -1231586.35248  21275527.81148
  22941532.490 6   2804326.523 6   2174839.43447  22941533.59247
 18  5 30  0 47  4.9980000  0  9G03G14G16G22G23G26G27G31G32          0.000296194
  23442408.818 5   -209906.863 5  -1170315.33647  23442407.13547
  20573459.498 6    166339.574 6    130700.77748  20573456.86548
  20051253.225 7  -3385017.117 7  -2621545.60949  20051249.61149
  23494557.873 5    -42828.914 5   -370087.14846  23494551.19746
  23125396.217 5  -8177041.586 5  -6329974.53547  23125391.26047
  20444498.928 7   -773484.234 7   -598267.70749  20444498.78749
  21418913.084 6  -8436716.113 6  -6538101.35248  21418913.45148
  21274741.162 7  -1590477.645 7  -1234820.97347  21274738.13947
  22943342.803 6   2813842.004 6   2182254.07447  22943344.04547
 18  5 30  0 47  9.9980000  0  9G03G14G16G22G23G26G27G31G32          0.000291292
  23441868.139 5   -212748.391 5  -1172529.52047  23441866.52947
  20573990.639 6    169129.102 6    132874.43848  20573987.87748
  20049698.170 7  -3393188.285 7  -2627912.75049  20049694.43949
  23494470.068 5    -43292.586 5   -370448.44946  23494462.95546
  23120901.623 5  -8200661.324 5  -6348379.54747  23120896.90047
  20444271.115 7   -774681.738 7   -599200.83649  20444270.97149
  21414337.670 5  -8460755.520 5  -6556833.35548  21414338.58048
  21273951.803 6  -1594624.727 6  -1238052.46947  21273948.75247
  22945154.545 6   2823363.047 6   2189673.04347  22945156.23647
 18  5 30  0 47 14.9980000  0  9G03G14G16G22G23G26G27G31G32          0.000286390
  23441328.490 6   -215580.309 6  -1174736.22347  23441327.46747
  20574523.951 6    171931.676 6    135058.25048  20574520.60048
  20048145.490 7  -3401348.691 7  -2634271.51649  20048141.27249
  23494382.615 5    -43751.637 5   -370806.15646  23494376.08046
  23116407.912 5  -8224274.941 5  -6366779.75847  23116403.35047
  20444044.154 7   -775873.543 7   -600129.52049  20444043.76449
  21409765.498 6  -8484786.691 6  -6575558.93048  21409765.77248
  21273163.467 6  -1598767.629 6  -1241280.68448  21273160.34648
  22946967.607 6   2832889.695 6   2197096.36747  22946968.65047
 18  5 30  0 47 19.9980000  0  9G03G14G16G22G23G26G27G31G32          0.000281490
  23440791.904 5   -218402.695 5  -1176935.47347  23440791.18947
  20575059.420 7    174747.352 7    137252.26648  20575056.69348
  20046594.154 7  -3409498.391 7  -2640621.93849  20046590.58449
  23494296.139 5    -44205.984 5   -371160.19546  23494289.94746
  23111915.162 5  -8247882.461 5  -6385175.23847  23111910.65847
  20443818.717 7   -777059.723 7   -601053.84049  20443818.57649
  21405193.584 6  -8508809.680 6  -6594278.13748  21405194.26048
  21272376.115 6  -1602906.426 6  -1244505.73047  21272372.88147
  22948781.037 6   2842421.922 6   2204524.05547  22948782.62747
 18  5 30  0 47 24.9980000  0  9G03G14G16G22G23G26G27G31G32          0.000276590
  23440256.287 5   -221215.504 5  -1179127.27047  23440255.94747
  20575597.787 7    177576.105 7    139456.50048  20575595.05348
  20045045.662 7  -3417637.301 7  -2646963.95349  20045042.09249
  23494210.014 5    -44655.688 5   -371510.60246  23494204.95946
  23107424.311 5  -8271483.832 5  -6403565.91447  23107419.43947
  20443594.076 7   -778240.203 7   -601973.69149  20443593.88149
  21400623.272 6  -8532824.438 6  -6612990.93848  21400624.72948
  21271589.014 6  -1607040.961 6  -1247727.43847  21271585.72547
  22950596.178 6   2851959.727 6   2211956.10547  22950597.18247
 18  5 30  0 47 29.9980000  0  9G03G14G16G22G23G26G27G31G32          0.000271688
  23439722.342 5   -224018.605 5  -1181311.52347  23439722.96747
  20576138.654 7    180418.051 7    141670.99648  20576135.74848
  20043499.022 7  -3425765.387 7  -2653297.52749  20043495.04149
  23494125.732 5    -45100.609 5   -371857.29346  23494120.29146
  23102934.475 5  -8295078.898 5  -6421951.67247  23102929.31147
  20443370.607 7   -779414.910 7   -602889.03949  20443370.42849
  21396055.982 6  -8556830.855 6  -6631697.24248  21396056.86548
  21270803.147 6  -1611171.258 6  -1250945.85947  21270799.68247
  22952413.381 6   2861503.234 6   2219392.56347  22952414.16247
 18  5 30  0 47 34.9980000  0  9G03G14G16G22G23G26G27G31G32          0.000266788
  23439190.850 5   -226812.270 5  -1183488.40647  23439191.38547
  20576682.295 7    183272.965 7    143895.59448  20576678.87748
  20041954.131 7  -3433882.809 7  -2659622.78549  20041950.28349
  23494041.779 5    -45541.020 5   -372200.46146  23494036.63946
  23098445.529 5  -8318667.867 5  -6440332.68047  23098440.64347
  20443148.022 7   -780584.086 7   -603800.09049  20443147.78349
  21391487.975 6  -8580829.121 6  -6650397.18048  21391489.11948
  21270017.897 6  -1615297.520 6  -1254161.14547  21270014.41247
  22954228.975 6   2871052.188 6   2226833.29747  22954230.33047
 18  5 30  0 47 39.9980000  0  9G03G14G16G22G23G26G27G31G32          0.000261889
  23438661.381 5   -229596.453 5  -1185657.88747  23438661.88947
  20577227.943 7    186140.902 7    146130.35548  20577224.72148
  20040411.537 7  -3441989.563 7  -2665939.73849  20040407.84649
  23493958.623 5    -45976.789 5   -372540.04346  23493953.84646
  23093958.186 6  -8342250.688 6  -6458708.88747  23093952.63547
  20442926.397 7   -781747.641 7   -604706.75449  20442926.34649
  21386923.592 6  -8604819.145 6  -6669090.69548  21386923.79148
  21269233.232 6  -1619419.609 6  -1257373.16047  21269230.36547
  22956047.225 6   2880606.727 6   2234278.37147  22956048.70547
 18  5 30  0 47 44.9980000  0  9G03G14G16G22G23G26G27G31G32          0.000256989
  23438132.553 4   -232370.744 4  -1187819.68647  23438133.69747
  20577775.982 7    189022.246 7    148375.54748  20577772.72948
  20038871.084 7  -3450085.238 7  -2672248.05549  20038867.43949
  23493877.662 5    -46407.570 5   -372875.71146  23493872.50646
  23089471.397 5  -8365826.945 5  -6477079.99247  23089466.46747
  20442706.029 7   -782905.254 7   -605608.78949  20442705.92449
  21382360.139 6  -8628800.520 6  -6687777.48448  21382360.05748
  21268449.850 6  -1623537.211 6  -1260581.68047  21268446.72947
  22957866.967 6   2890167.117 6   2241727.99647  22957867.90847
 18  5 30  0 47 49.9980000  0  9G03G14G16G22G23G26G27G31G32          0.000252089
  23437606.178 3   -235135.570 3  -1189974.10247  23437608.09647
  20578327.162 7    191916.551 7    150630.85248  20578323.86948
  20037332.139 7  -3458170.277 7  -2678548.07849  20037328.54149
  23493795.912 4    -46833.762 4   -373207.82046  23493791.54546
  23084986.576 5  -8389397.027 5  -6495446.28947  23084981.43247
  20442486.842 7   -784057.316 7   -606506.49649  20442486.71749
  21377798.061 6  -8652773.676 6  -6706457.85948  21377798.24848
  21267667.272 6  -1627650.770 6  -1263787.05547  21267664.26847
  22959687.264 6   2899732.984 6   2249181.91047  22959687.79147
 18  5 30  0 47 54.9980000  0  9G03G14G16G22G23G26G27G31G32          0.000247189
  23437082.451 3   -237890.930 3  -1192121.12147  23437083.29147
  20578880.381 7    194823.809 7    152896.23848  20578877.32248
  20035795.568 7  -3466244.695 7  -2684839.84849  20035791.82649
  23493716.326 5    -47255.434 5   -373536.40646  23493710.39746
  23080502.303 6  -8412960.988 6  -6513807.81347  23080497.74047
  20442269.068 7   -785203.875 7   -607399.91849  20442268.90049
  21373237.693 6  -8676738.629 6  -6725131.84848  21373237.99848
  21266885.092 6  -1631760.203 6  -1266989.23047  21266881.37347
  22961508.506 6   2909304.320 6   2256640.04747  22961509.26847
 18  5 30  0 47 59.9980000  0  9G03G14G16G22G23G26G27G31G32          0.000242289
  23436559.553 3   -240636.855 3  -1194260.81347  23436560.60747
  20579436.123 7    197744.094 7    155171.79348  20579432.78748
  20034261.553 7  -3474308.383 7  -2691123.24249  20034257.53349
  23493636.107 5    -47672.512 5   -373861.42246  23493630.29946
  23076018.795 5  -8436518.637 5  -6532164.40647  23076014.91647
  20442051.748 7   -786344.777 7   -608288.93049  20442051.60049
  21368678.826 6  -8700695.250 6  -6743799.35948  21368680.00648
  21266103.912 6  -1635865.453 6  -1270188.13747  21266100.37747
  22963331.475 6   2918881.184 6   2264102.53547  22963332.10047
 18  5 30  0 48  4.9980000  0  9G03G14G16G22G23G26G27G31G32          0.000237389
  23436039.748 4   -243373.133 4  -1196393.02347  23436039.92047
  20579994.232 7    200677.402 7    157457.48448  20579991.31848
  20032729.240 7  -3482361.398 7  -2697398.30949  20032725.04149
  23493558.045 5    -48084.973 5   -374182.82846  23493551.94746
  23071537.647 5  -8460070.078 5  -6550516.15247  23071533.26047
  20441835.404 7   -787480.117 7   -609173.62949  20441835.36949
  21364122.264 6  -8724643.469 6  -6762460.30148  21364121.39748
  21265323.670 6  -1639966.535 6  -1273383.77047  21265319.74447
  22965155.014 6   2928463.516 6   2271569.27347  22965155.20947
 18  5 30  0 48  9.9980000  0  9G03G14G16G22G23G26G27G31G32          0.000232489
  23435520.537 4   -246100.125 4  -1198517.93447  23435521.20547
  20580554.631 7    203623.691 7    159753.28948  20580551.78748
  20031198.412 7  -3490403.727 7  -2703665.05949  20031194.45549
  23493479.631 4    -48492.934 4   -374500.73446  23493474.35446
  23067057.217 5  -8483615.234 5  -6568863.02047  23067052.67047
  20441620.592 7   -788609.895 7   -610053.96549  20441620.02549
  21359566.631 6  -8748583.398 6  -6781114.77748  21359565.74448
  21264544.561 6  -1644063.402 6  -1276576.13747  21264539.89347
  22966979.357 6   2938051.328 6   2279040.27347  22966979.90847
 18  5 30  0 48 14.9980000  0  9G03G14G16G22G23G26G27G31G32          0.000227591
  23435003.193 5   -248817.676 5  -1200635.50447  23435003.92047
  20581117.318 6    206582.902 6    162059.16048  20581114.92848
  20029670.201 7  -3498435.426 7  -2709923.52349  20029665.81149
  23493402.295 4    -48896.488 4   -374815.19546  23493397.26446
  23062577.420 6  -8507154.215 6  -6587205.06647  23062572.98247
  20441406.850 7   -789734.176 7   -610930.02749  20441406.28749
  21355012.818 6  -8772515.059 6  -6799762.84048  21355011.63148
  21263765.037 6  -1648156.172 6  -1279765.30147  21263760.71747
  22968805.100 6   2947644.555 6   2286515.48847  22968805.59647
 18  5 30  0 48 19.9980000  0  9G03G14G16G22G23G26G27G31G32          0.000222691
  23434487.389 5   -251525.809 5  -1202745.74647  23434488.82647
  20581683.420 7    209555.082 7    164375.14848  20581680.43948
  20028143.779 7  -3506456.504 7  -2716173.71949  20028139.82649
  23493326.748 3    -49295.480 3   -375126.12146  23493321.86946
  23058099.217 6  -8530686.938 6  -6605542.25447  23058095.22947
  20441193.982 7   -790852.941 7   -611801.79349  20441193.35749
  21350460.404 6  -8796438.352 6  -6818404.35548  21350458.83848
  21262987.193 6  -1652244.793 6  -1282951.24647  21262982.72147
  22970631.701 6   2957243.211 6   2293994.93047  22970632.06847
 18  5 30  0 48 24.9980000  0  9G03G14G16G22G23G26G27G31G32          0.000217791
  23433974.131 4   -254224.391 4  -1204848.55947  23433975.18247
  20582251.037 7    212540.352 7    166701.32448  20582248.58448
  20026619.600 7  -3514466.805 7  -2722415.50849  20026615.37349
  23493252.232 3    -49689.832 3   -375433.40646  23493246.27546
  23053623.045 6  -8554213.293 6  -6623874.46947  23053618.61547
  20440981.865 7   -791966.039 7   -612669.14549  20440981.84649
  21345909.826 6  -8820353.168 6  -6837039.27748  21345908.29548
  21262209.865 6  -1656329.117 6  -1286133.84047  21262205.28747
  22972459.498 6   2966847.418 6   2301478.71547  22972459.93247
 18  5 30  0 48 29.9980000  0  9G03G14G16G22G23G26G27G31G32          0.000212891
  23433462.248 4   -256913.313 4  -1206943.82447  23433463.09647
  20582821.912 6    215538.750 6    169037.73048  20582819.25248
  20025096.998 7  -3522466.313 7  -2728648.89549  20025092.79549
  23493178.514 4    -50079.527 4   -375737.11346  23493171.68246
  23049146.592 5  -8577733.164 5  -6642201.62947  23049142.73247
  20440771.178 7   -793073.422 7   -613532.05149  20440771.04149
  21341360.748 6  -8844259.402 6  -6855667.50848  21341358.97148
  21261433.545 6  -1660409.051 6  -1289313.00447  21261428.83447
  22974288.350 6   2976457.223 6   2308966.85547  22974288.49847
 18  5 30  0 48 34.9980000  0  9G03G14G16G22G23G26G27G31G32          0.000207993
  23432952.779 4   -259592.957 4  -1209031.87147  23432953.12347
  20583395.193 7    218550.039 7    171384.18048  20583392.99048
  20023577.045 7  -3530455.273 7  -2734874.06349  20023572.73649
  23493104.467 4    -50464.785 4   -376037.30146  23493098.70546
  23044671.772 5  -8601246.762 5  -6660523.90647  23044668.18947
  20440561.350 7   -794175.379 7   -614390.72349  20440561.16249
  21336813.420 6  -8868157.309 6  -6874289.25448  21336811.62348
  21260658.006 6  -1664484.910 6  -1292488.99647  21260653.43247
  22976118.068 6   2986072.395 6   2316459.16447  22976118.12747
 18  5 30  0 48 39.9980000  0  9G03G14G16G22G23G26G27G31G32          0.000203093
  23432443.936 4   -262263.297 4  -1211112.67247  23432445.06147
  20583970.732 6    221574.195 6    173740.66048  20583967.72948
  20022058.670 7  -3538433.684 7  -2741091.00848  20022054.82648
  23493031.381 3    -50845.633 3   -376334.09046  23493026.33046
  23040198.701 6  -8624754.172 6  -6678841.36347  23040194.93947
  20440353.068 7   -795271.930 7   -615245.18049  20440352.61549
  21332267.131 6  -8892046.891 6  -6892904.50048  21332265.66248
  21259883.287 7  -1668556.656 7  -1295661.79347  21259878.96747
  22977948.826 6   2995692.883 6   2323955.63347  22977949.16247
 18  5 30  0 48 44.9980000  0  9G03G14G16G22G23G26G27G31G32          0.000198195
  23431938.334 4   -264924.344 4  -1213186.23047  23431938.73247
  20584548.178 7    224611.148 7    176107.11348  20584545.62748
  20020542.350 6  -3546401.637 6  -2747299.80548  20020538.48248
  23492960.068 3    -51222.254 3   -376627.55946  23492954.78346
  23035726.654 6  -8648255.402 6  -6697154.00847  23035722.28347
  20440145.045 7   -796363.094 7   -616095.45749  20440144.69349
  21327722.482 6  -8915928.188 6  -6911513.30548  21327720.99848
  21259109.607 6  -1672624.328 6  -1298831.39847  21259104.60447
  22979780.568 6   3005318.629 6   2331456.19147  22979780.52247
 18  5 30  0 48 49.9980000  0  9G03G14G16G22G23G26G27G31G32          0.000193295
  23431433.053 4   -267575.852 4  -1215252.36747  23431434.13147
  20585128.615 7    227661.195 7    178483.77048  20585126.11948
  20019028.264 7  -3554358.773 7  -2753500.17248  20019023.98248
  23492890.256 3    -51594.230 3   -376917.44946  23492884.24046
  23031255.342 6  -8671750.133 6  -6715461.58247  23031251.75247
  20439938.787 7   -797448.578 7   -616941.29349  20439938.48249
  21323179.693 6  -8939800.895 6  -6930115.41448  21323178.14348
  21258335.990 6  -1676687.598 6  -1301997.59047  21258331.53747
  22981613.397 6   3014949.934 6   2338961.07847  22981613.25647
 18  5 30  0 48 54.9980000  0  9G03G14G16G22G23G26G27G31G32          0.000188396
  23430930.873 5   -270217.930 5  -1217311.12547  23430931.30747
  20585712.170 7    230724.285 7    180870.58248  20585709.16648
  20017516.123 7  -3562305.199 7  -2759692.19149  20017511.72149
  23492820.162 3    -51961.617 3   -377203.71946  23492813.90446
  23026785.959 5  -8695238.406 5  -6733764.13347  23026782.06447
  20439733.350 7   -798528.496 7   -617782.79349  20439732.81149
  21318638.772 6  -8963664.980 6  -6948710.80148  21318637.06848
  21257564.029 6  -1680746.535 6  -1305160.41047  21257559.32647
  22983447.107 6   3024586.719 6   2346470.24247  22983446.94347
 18  5 30  0 48 59.9980000  0  9G03G14G16G22G23G26G27G31G32          0.000183498
  23430429.240 4   -272850.594 4  -1219362.55547  23430430.68247
  20586297.147 6    233800.328 6    183267.48848  20586294.09248
  20016005.889 6  -3570241.031 6  -2765875.95748  20016001.59248
  23492751.201 4    -52324.566 4   -377486.55546  23492745.04946
  23022316.857 5  -8718720.313 5  -6752061.71547  23022313.42447
  20439528.295 7   -799602.898 7   -618620.00049  20439528.49849
  21314098.967 6  -8987520.609 6  -6967299.59048  21314097.51848
  21256792.022 6  -1684801.289 6  -1308319.95747  21256788.08047
  22985282.045 6   3034228.867 6   2353983.57847  22985282.27547
 18  5 30  0 49  4.9980000  0  9G03G14G16G22G23G26G27G31G32          0.000178598
  23429930.678 4   -275473.928 4  -1221406.73547  23429931.04947
  20586884.897 6    236889.207 6    185674.40248  20586881.46348
  20014497.959 7  -3578166.301 7  -2772051.49648  20014493.65848
  23492683.334 4    -52683.148 4   -377765.96946  23492676.55346
  23017849.904 5  -8742195.863 5  -6770354.34447  23017845.92847
  20439325.209 7   -800671.871 7   -619452.96949  20439325.11149
  21309561.014 6  -9011367.793 6  -6985881.80548  21309559.60448
  21256021.670 6  -1688851.816 6  -1311476.22347  21256017.59647
  22987117.459 6   3043876.348 6   2361501.07447  22987117.70147
 18  5 30  0 49  9.9980000  0  9G03G14G16G22G23G26G27G31G32          0.000173700
  23429433.131 4   -278088.070 4  -1223443.75047  23429433.62347
  20587475.443 7    239990.938 7    188091.34048  20587472.24048
  20012991.475 6  -3586081.063 6  -2778218.83648  20012987.41648
  23492616.045 4    -53037.426 4   -378042.05146  23492608.62346
  23013383.764 5  -8765665.082 5  -6788642.04747  23013380.25247
  20439122.826 7   -801735.438 7   -620281.73449  20439122.33049
  21305024.451 6  -9035206.523 6  -7004457.44948  21305023.83448
  21255251.217 6  -1692898.160 6  -1314629.21947  21255247.36547
  22988955.193 6   3053529.094 6   2369022.66847  22988955.10047
 18  5 30  0 49 14.9980000  0  9G03G14G16G22G23G26G27G31G32          0.000168802
  23428937.553 4   -280692.699 4  -1225473.35247  23428938.06447
  20588067.600 7    243105.691 7    190518.40648  20588064.35448
  20011487.787 7  -3593985.094 7  -2784377.82048  20011483.73648
  23492549.045 4    -53387.098 4   -378314.53946  23492542.16246
  23008918.889 5  -8789127.758 5  -6806924.66047  23008915.56847
  20438921.670 7   -802793.387 7   -621106.10549  20438921.76049
  21300490.162 6  -9059036.609 6  -7023026.33648  21300489.15448
  21254481.889 6  -1696940.141 6  -1317778.81347  21254478.14747
  22990792.545 5   3063187.304 5   2376548.52947  22990792.94347
 18  5 30  0 49 19.9980000  0  9G03G14G16G22G23G26G27G31G32          0.000163902
  23428444.529 5   -283288.008 5  -1227495.66847  23428444.40447
  20588662.732 6    246233.348 6    192955.54748  20588659.95948
  20009985.311 7  -3601878.523 7  -2790528.54748  20009981.38548
  23492483.217 4    -53732.391 4   -378583.60246  23492476.22146
  23004455.006 5  -8812583.973 5  -6825202.22347  23004451.87347
  20438721.287 7   -803845.879 7   -621926.23449  20438721.08849
  21295956.092 6  -9082858.145 6  -7041588.55948  21295956.21748
  21253713.701 6  -1700977.883 6  -1320925.09847  21253710.04947
  22992631.084 5   3072850.883 5   2384078.55547  22992632.15047
 18  5 30  0 49 24.9980000  0  9G03G14G16G22G23G26G27G31G32          0.000159006
  23427951.982 5   -285874.031 5  -1229510.76247  23427952.15047
  20589260.311 6    249373.883 6    195402.71148  20589257.02948
  20008485.381 7  -3609761.441 7  -2796671.07449  20008481.10449
  23492418.928 5    -54073.352 5   -378849.28546  23492411.69346
  22999993.139 5  -8836033.789 5  -6843474.81347  22999989.94747
  20438521.990 7   -804892.926 7   -622742.11349  20438521.80349
  21291424.717 6  -9106671.145 6  -7060144.13748  21291424.56848
  21252946.061 6  -1705011.426 6  -1324068.13747  21252942.61947
  22994470.975 5   3082519.723 5   2391612.69147  22994472.08847
 18  5 30  0 49 29.9980000  0  9G03G14G16G22G23G26G27G31G32          0.000154106
  23427461.623 5   -288450.816 5  -1231518.64547  23427461.70547
  20589860.709 7    252527.246 7    197859.87148  20589857.56148
  20006987.186 7  -3617633.828 7  -2802805.40649  20006982.77949
  23492354.170 5    -54409.949 5   -379111.60246  23492347.36946
  22995532.178 5  -8859477.211 5  -6861742.41447  22995528.49447
  20438323.842 7   -805934.617 7   -623553.82449  20438323.77949
  21286894.654 6  -9130475.617 6  -7078693.07048  21286894.55748
  21252178.818 6  -1709040.793 6  -1327207.90247  21252175.04947
  22996311.514 5   3092193.840 5   2399150.95747  22996313.36947
 18  5 30  0 49 34.9980000  0  9G03G14G16G22G23G26G27G31G32          0.000149210
  23426972.342 5   -291018.383 5  -1233519.35247  23426972.90847
  20590462.772 7    255693.414 7    200327.01648  20590459.74448
  20005491.248 7  -3625495.766 7  -2808931.58648  20005487.27548
  23492290.662 5    -54742.309 5   -379370.59446  23492285.00646
  22991072.053 6  -8882914.219 6  -6880005.01647  22991068.76847
  20438126.365 7   -806970.965 7   -624361.37149  20438126.33049
  21282366.279 6  -9154271.609 6  -7097235.40648  21282366.12748
  21251413.264 6  -1713065.996 6  -1330344.43847  21251409.46747
  22998153.061 5   3101873.105 5   2406693.20747  22998155.60747
 18  5 30  0 49 39.9980000  0  9G03G14G16G22G23G26G27G31G32          0.000144310
  23426486.115 5   -293576.742 5  -1235512.89547  23426485.98247
  20591068.248 6    258872.379 6    202804.12948  20591065.04948
  20003997.311 7  -3633347.195 7  -2815049.58648  20003992.83048
  23492229.115 5    -55070.410 5   -379626.24246  23492223.29946
  22986613.311 5  -8906344.836 5  -6898262.65247  22986609.81847
  20437930.404 7   -808001.949 7   -625164.73049  20437930.15449
  21277839.240 6  -9178059.090 6  -7115771.09848  21277839.58448
  21250648.217 6  -1717086.941 6  -1333477.66847  21250644.35047
  22999996.053 5   3111557.660 5   2414239.61347  22999998.38947
 18  5 30  0 49 44.9980000  0  9G03G14G16G22G23G26G27G31G32          0.000139414
  23426001.475 5   -296125.785 5  -1237499.14847  23426000.76447
  20591675.061 6    262064.230 6    205291.28548  20591672.18948
  20002505.357 7  -3641188.059 7  -2821159.35248  20002501.03748
  23492167.139 5    -55394.098 5   -379878.47746  23492162.31446
  22982156.092 5  -8929768.898 5  -6916515.15647  22982152.89747
  20437735.522 7   -809027.520 7   -625963.86749  20437735.01449
  21273315.147 6  -9201837.898 6  -7134300.05148  21273314.82248
  21249883.225 6  -1721103.594 6  -1336607.53547  21249879.53747
  23001839.850 5   3121247.453 5   2421790.08647  23001842.54947
 18  5 30  0 49 49.9980000  0  9G03G14G16G22G23G26G27G31G32          0.000134514
  23425518.068 5   -298665.723 5  -1239478.32047  23425517.31147
  20592285.225 6    265268.758 6    207788.31648  20592282.08048
  20001015.006 7  -3649018.523 7  -2827261.01248  20001011.06448
  23492107.022 5    -55713.656 5   -380127.49646  23492101.04146
  22977699.654 5  -8953186.645 5  -6934762.74647  22977696.40047
  20437541.178 7   -810047.820 7   -626758.91849  20437540.98249
  21268790.967 6  -9225608.273 6  -7152822.40248  21268791.41248
  21249120.022 6  -1725116.125 6  -1339734.15647  21249116.24847
  23003684.272 4   3130942.383 4   2429344.52347  23003687.52547
 18  5 30  0 49 54.9980000  0  9G03G14G16G22G23G26G27G31G32          0.000129618
  23425036.568 5   -301196.379 5  -1241450.23847  23425035.37347
  20592897.686 6    268486.234 6    210295.43448  20592894.53348
  19999527.240 7  -3656838.406 7  -2833354.43048  19999523.40048
  23492047.311 5    -56028.852 5   -380373.11747  23492041.60447
  22973244.373 5  -8976597.809 5  -6953005.21147  22973240.65847
  20437347.772 7   -811062.672 7   -627549.71949  20437347.76049
  21264269.897 6  -9249369.977 6  -7171338.01648  21264269.91648
  21248357.420 6  -1729124.332 6  -1342857.47347  21248353.58047
  23005531.537 5   3140642.590 5   2436903.12147  23005532.88947
 18  5 30  0 49 59.9980000  0  9G03G14G16G22G23G26G27G31G32          0.000124718
  23424556.873 5   -303717.836 5  -1243414.99647  23424554.94747
  20593512.272 6    271716.523 6    212812.53548  20593509.55748
  19998040.615 7  -3664647.742 7  -2839439.62548  19998037.23648
  23491987.553 5    -56339.813 5   -380615.41446  23491982.18946
  22968791.397 5  -9000002.457 5  -6971242.60547  22968787.40847
  20437155.920 7   -812072.152 7   -628336.33649  20437155.98249
  21259749.311 6  -9273123.000 6  -7189846.87948  21259749.43248
  21247595.381 6  -1733128.258 6  -1345977.42247  21247591.43947
  23007377.576 5   3150348.012 5   2444465.78947  23007380.02947
 18  5 30  0 50  4.9980000  0  9G03G14G16G22G23G26G27G31G32          0.000119822
  23424079.209 5   -306230.059 5  -1245372.55547  23424077.02947
  20594129.115 7    274959.637 7    215339.63348  20594126.15848
  19996556.482 7  -3672446.559 7  -2845516.62148  19996552.77948
  23491928.998 5    -56646.406 5   -380854.31646  23491923.71746
  22964338.654 5  -9023400.547 5  -6989474.88747  22964335.02547
  20436964.732 7   -813076.281 7   -629118.78149  20436964.44749
  21255231.529 6  -9296867.355 6  -7208348.98448  21255231.21748
  21246833.951 6  -1737127.859 6  -1349094.04747  21246830.72947
  23009225.506 5   3160058.703 5   2452032.53547  23009228.11147
 18  5 30  0 50  9.9980000  0  9G03G14G16G22G23G26G27G31G32          0.000114923
  23423602.647 5   -308733.035 5  -1247322.92247  23423600.40047
  20594748.693 6    278215.609 6    217876.74648  20594745.64748
  19995074.545 7  -3680234.867 7  -2851585.43448  19995071.18648
  23491871.498 5    -56948.699 5   -381089.89547  23491866.74847
  22959888.154 5  -9046792.094 5  -7007702.04747  22959883.22147
  20436774.889 7   -814075.004 7   -629897.00449  20436774.58449
  21250714.717 6  -9320603.004 6  -7226844.29748  21250714.68248
  21246073.881 6  -1741123.125 6  -1352207.23848  21246070.65048
  23011074.170 5   3169774.563 5   2459603.31647  23011076.52947
 18  5 30  0 50 14.9980000  0  9G03G14G16G22G23G26G27G31G32          0.000110027
  23423128.084 5   -311226.906 5  -1249266.19147  23423125.55347
  20595371.576 7    281484.238 7    220423.73048  20595368.00648
  19993594.881 7  -3688012.832 7  -2857646.19548  19993590.56848
  23491814.631 4    -57246.883 4   -381322.24646  23491809.76846
  22955438.193 6  -9070177.246 6  -7025924.26247  22955432.72547
  20436585.795 7   -815068.480 7   -630671.14149  20436585.66249
  21246199.248 6  -9344330.141 6  -7245332.97348  21246200.05348
  21245314.506 6  -1745114.266 6  -1355317.20347  21245311.02547
  23012924.670 4   3179495.527 4   2467178.06347  23012926.29947
 18  5 30  0 50 19.9980000  0  9G03G14G16G22G23G26G27G31G32          0.000105129
  23422655.170 5   -313711.496 5  -1251202.25047  23422653.38547
  20595995.693 6    284765.797 6    222980.78148  20595992.45148
  19992116.529 7  -3695780.152 7  -2863698.65249  19992112.69349
  23491758.037 4    -57540.656 4   -381551.17646  23491754.43946
  22950989.740 5  -9093555.715 5  -7044141.24247  22950983.94747
  20436397.615 7   -816056.477 7   -631441.01249  20436397.42849
  21241685.881 6  -9368048.391 6  -7263814.73048  21241686.82248
  21244555.967 6  -1749100.949 6  -1358423.71547  21244552.11947
  23014775.272 4   3189221.773 4   2474756.96547  23014777.06147
 18  5 30  0 50 24.9980000  0  9G03G14G16G22G23G26G27G31G32          0.000100233
  23422184.029 5   -316186.469 5  -1253130.76647  23422182.16647
  20596622.982 7    288060.609 7    225548.16448  20596619.19348
  19990640.732 7  -3703536.574 7  -2869742.62549  19990637.18249
  23491703.100 4    -57829.852 4   -381776.52046  23491698.67846
  22946542.014 6  -9116927.129 6  -7062352.72347  22946536.27547
  20436210.764 7   -817038.719 7   -632206.40249  20436210.55749
  21237174.381 6  -9391757.555 6  -7282289.39548  21237174.99048
  21243798.498 6  -1753082.898 6  -1361526.53547  21243794.68247
  23016626.740 5   3198953.668 5   2482340.23447  23016628.92847
 18  5 30  0 50 29.9980000  0  9G03G14G16G22G23G26G27G31G32          0.000095335
  23421714.709 5   -318652.344 5  -1255052.23847  23421713.19747
  20597251.928 7    291368.160 7    228125.46948  20597248.16248
  19989166.381 7  -3711282.586 7  -2875778.47349  19989162.69349
  23491648.873 3    -58114.828 3   -381998.56346  23491644.37346
  22942096.443 6  -9140292.027 6  -7080559.15247  22942089.95147
  20436024.889 7   -818015.672 7   -632967.67649  20436024.76049
  21232664.936 6  -9415458.004 6  -7300757.28148  21232664.87748
  21243041.670 6  -1757060.617 6  -1364626.07448  21243037.59648
  23018479.600 4   3208690.641 4   2489927.44947  23018481.61947
 18  5 30  0 50 34.9980000  0  9G03G14G16G22G23G26G27G31G32          0.000090439
  23421247.186 5   -321108.996 5  -1256966.51647  23421246.41647
  20597883.897 7    294688.500 7    230712.73848  20597880.51448
  19987694.162 7  -3719018.086 7  -2881806.14149  19987690.71349
  23491596.131 3    -58395.582 3   -382217.39546  23491591.33446
  22937651.381 6  -9163650.281 6  -7098760.38347  22937645.23247
  20435839.943 7   -818987.281 7   -633724.77349  20435840.05349
  21228156.389 6  -9439149.703 6  -7319218.35248  21228156.22148
  21242285.256 7  -1761034.000 7  -1367722.22748  21242281.24448
  23020333.154 4   3218432.828 4   2497518.77346  23020335.33846
 18  5 30  0 50 39.9980000  0  9G03G14G16G22G23G26G27G31G32          0.000085541
  23420780.865 5   -323556.578 5  -1258873.72347  23420781.04147
  20598518.615 7    298021.594 7    233309.94548  20598515.17848
  19986224.701 7  -3726743.152 7  -2887825.67249  19986221.06849
  23491543.475 3    -58672.199 3   -382432.93846  23491538.16246
  22933207.803 6  -9187001.961 6  -7116956.48847  22933201.63147
  20435655.928 7   -819953.609 7   -634477.75449  20435656.07249
  21223649.834 6  -9462832.684 6  -7337672.61748  21223649.76448
  21241530.287 6  -1765003.125 6  -1370815.06347  21241525.96747
  23022188.178 5   3228180.063 5   2505113.98046  23022190.16646
 18  5 30  0 50 44.9980000  0  9G03G14G16G22G23G26G27G31G32          0.000080647
  23420317.217 5   -325994.969 5  -1260773.77746  23420317.19746
  20599154.678 7    301367.465 7    235917.11748  20599151.42048
  19984756.568 7  -3734457.738 7  -2893837.03949  19984753.02949
  23491491.428 4    -58944.660 4   -382645.23046  23491486.26046
  22928765.412 6  -9210347.012 6  -7135147.44547  22928759.06847
  20435473.084 7   -820914.625 7   -635226.60549  20435472.79149
  21219144.764 6  -9486506.875 6  -7356120.04348  21219144.82248
  21240775.662 7  -1768967.926 7  -1373904.54348  21240771.26048
  23024043.178 4   3237932.484 4   2512713.24246  23024045.98246
 18  5 30  0 50 49.9980000  0  9G03G14G16G22G23G26G27G31G32          0.000075748
  23419854.678 4   -328424.351 4  -1262666.82447  23419854.96747
  20599794.225 7    304726.074 7    238534.21148  20599790.81148
  19983290.545 7  -3742161.898 7  -2899840.28549  19983287.03749
  23491440.201 4    -59213.004 4   -382854.35246  23491435.64346
  22924324.311 6  -9233685.449 6  -7153333.22747  22924318.08047
  20435291.545 7   -821870.352 7   -635971.32049  20435291.17049
  21214641.459 6  -9510172.293 6  -7374560.63348  21214641.19748
  21240022.107 6  -1772928.398 6  -1376990.63748  21240017.66248
  23025899.506 3   3247689.996 3   2520316.50846  23025902.69346
 18  5 30  0 50 54.9980000  0  9G03G14G16G22G23G26G27G31G32          0.000070852
  23419393.365 4   -330844.461 4  -1264552.63747  23419394.67847
  20600435.662 6    308097.473 6    241161.27048  20600432.42848
  19981826.490 7  -3749855.625 7  -2905835.39549  19981822.67849
  23491389.389 3    -59477.105 3   -383060.16046  23491384.71346
  22919884.232 6  -9257017.195 6  -7171513.80147  22919877.76047
  20435110.232 7   -822820.785 7   -636711.93049  20435110.58049
  21210139.193 6  -9533828.926 6  -7392994.37148  21210139.67048
  21239269.248 6  -1776884.563 6  -1380073.37148  21239265.40048
  23027756.943 3   3257452.574 3   2527923.67246  23027759.90446
 18  5 30  0 50 59.9980000  0  9G03G14G16G22G23G26G27G31G32          0.000065956
  23418934.600 4   -333255.652 4  -1266431.49647  23418935.88947
  20601079.600 7    311481.512 7    243798.17648  20601076.51848
  19980364.537 7  -3757538.977 7  -2911822.42649  19980360.68949
  23491340.920 4    -59737.129 4   -383262.77746  23491335.69346
  22915446.022 6  -9280342.367 6  -7189689.25847  22915438.83447
  20434930.607 7   -823766.031 7   -637448.48849  20434930.78749
  21205639.482 6  -9557476.824 6  -7411421.30148  21205639.25248
  21238517.162 6  -1780836.477 6  -1383152.79348  21238513.20148
  23029616.889 4   3267220.188 4   2535534.77746  23029618.79946
 18  5 30  0 51  4.9980000  0  9G03G14G16G22G23G26G27G31G32          0.000061060
  23418477.279 3   -335657.625 3  -1268303.16447  23418479.41247
  20601725.982 7    314878.383 7    246445.08648  20601722.86148
  19978904.326 7  -3765211.840 7  -2917801.28548  19978900.35748
  23491292.561 4    -59992.926 4   -383462.12546  23491287.33846
  22911008.576 6  -9303660.777 6  -7207859.44547  22911001.44747
  20434751.670 7   -824705.902 7   -638180.85249  20434751.75249
  21201141.053 6  -9581115.797 6  -7429841.27748  21201140.83048
  21237765.920 6  -1784783.949 6  -1386228.76248  21237762.11548
  23031476.647 4   3276992.969 4   2543149.96147  23031478.48647
 18  5 30  0 51  9.9980000  0  9G03G14G16G22G23G26G27G31G32          0.000056162
  23418022.162 4   -338050.594 4  -1270167.80147  23418023.87747
  20602374.881 6    318288.047 6    249101.96948  20602372.14348
  19977446.225 7  -3772874.293 7  -2923772.02348  19977442.17848
  23491243.732 3    -60244.574 3   -383658.20746  23491239.09246
  22906572.787 6  -9326972.453 6  -7226024.39847  22906565.50647
  20434574.068 7   -825640.469 7   -638909.09049  20434574.29549
  21196644.365 6  -9604745.918 6  -7448254.34448  21196644.52248
  21237015.623 6  -1788727.059 6  -1389301.33248  21237012.03348
  23033336.350 3   3286770.844 3   2550769.04346  23033339.08046
 18  5 30  0 51 14.9980000  0  9G03G14G16G22G23G26G27G31G32          0.000051268
  23417568.131 3   -340434.387 3  -1272025.30946  23417570.28746
  20603026.232 7    321710.441 7    251768.75848  20603023.41248
  19975989.982 7  -3780526.270 7  -2929734.60948  19975986.11148
  23491197.154 4    -60492.102 4   -383851.11746  23491191.95546
  22902138.029 6  -9350277.406 6  -7244184.10547  22902130.87747
  20434396.967 7   -826569.734 7   -639633.18849  20434397.40049
  21192149.295 6  -9628367.156 6  -7466660.50848  21192149.64748
  21236265.889 6  -1792665.785 6  -1392370.46548  21236262.77548
  23035199.404 4   3296553.859 4   2558392.14846  23035200.83046
 18  5 30  0 51 19.9980000  0  9G03G14G16G22G23G26G27G31G32          0.000046370
  23417115.936 4   -342809.082 4  -1273875.76246  23417118.20546
  20603679.693 7    325145.535 7    254445.44948  20603676.56848
  19974536.178 7  -3788167.840 7  -2935689.07048  19974532.06148
  23491151.623 4    -60735.512 4   -384040.78146  23491145.70546
  22897704.459 6  -9373575.582 6  -7262338.53147  22897697.25647
  20434221.006 7   -827493.762 7   -640353.20749  20434221.38949
  21187656.443 6  -9651979.508 6  -7485059.73848  21187656.67448
  21235517.186 6  -1796600.160 6  -1395436.22748  21235513.97548
  23037061.701 4   3306341.914 4   2566019.19946  23037063.77246
 18  5 30  0 51 24.9980000  0  9G03G14G16G22G23G26G27G31G32          0.000041475
  23416665.787 3   -345174.816 3  -1275719.19946  23416667.88946
  20604336.053 6    328593.336 6    257132.03148  20604333.06848
  19973083.897 7  -3795799.059 7  -2941635.48048  19973080.31448
  23491105.061 3    -60974.879 3   -384227.26646  23491099.22546
  22893272.084 6  -9396867.051 6  -7280487.70747  22893265.54947
  20434046.029 7   -828412.574 7   -641069.15649  20434046.22149
  21183164.381 6  -9675583.008 6  -7503452.06648  21183164.59248
  21234769.162 6  -1800530.230 6  -1398498.61748  21234765.95948
  23038926.139 5   3316134.914 5   2573650.09447  23038927.45147
 18  5 30  0 51 29.9980000  0  9G03G14G16G22G23G26G27G31G32          0.000036579
  23416217.225 3   -347531.426 3  -1277555.50046  23416219.74846
  20604994.100 6    332053.887 6    259828.57048  20604990.94748
  19971633.740 7  -3803419.805 7  -2947573.71948  19971630.31848
  23491060.279 4    -61210.117 4   -384410.56646  23491055.39746
  22888840.350 6  -9420151.641 6  -7298631.56347  22888834.50647
  20433872.279 7   -829326.102 7   -641781.00049  20433872.94349
  21178674.459 6  -9699177.535 6  -7521837.40648  21178674.49048
  21234022.193 6  -1804455.824 6  -1401557.53148  21234018.55348
  23040790.881 5   3325933.145 5   2581285.04747  23040792.32647
 18  5 30  0 51 34.9980000  0  9G03G14G16G22G23G26G27G31G32          0.000031685
  23415770.248 3   -349878.926 3  -1279384.74247  23415773.42047
  20605655.318 6    335527.199 6    262535.04348  20605652.28748
  19970185.217 7  -3811030.113 7  -2953503.84049  19970182.03349
  23491015.717 4    -61441.121 4   -384590.60546  23491010.84246
  22884411.029 6  -9443429.422 6  -7316770.07047  22884404.69747
  20433699.498 7   -830234.270 7   -642488.68049  20433700.16649
  21174186.678 6  -9722763.078 6  -7540215.73848  21174186.42048
  21233276.139 6  -1808376.984 6  -1404612.97348  21233272.38148
  23042657.303 5   3335736.367 5   2588923.92247  23042658.07647
 18  5 30  0 51 39.9980000  0  9G03G14G16G22G23G26G27G31G32          0.000026789
  23415325.889 3   -352217.410 3  -1281206.96147  23415328.08847
  20606318.279 6    339013.172 6    265251.37148  20606315.63948
  19968739.256 7  -3818630.113 7  -2959425.91848  19968735.89348
  23490972.998 4    -61668.145 4   -384767.49246  23490967.69346
  22879982.193 6  -9466700.492 6  -7334903.37147  22879976.31847
  20433527.584 7   -831137.297 7   -643192.33649  20433527.98249
  21169700.107 6  -9746339.727 6  -7558587.13748  21169699.88548
  21232530.967 6  -1812293.805 6  -1407665.04748  21232527.22148
  23044523.615 5   3345544.621 5   2596566.68047  23044524.72147
 18  5 30  0 51 44.9980000  0  9G03G14G16G22G23G26G27G31G32          0.000021894
  23414883.811 4   -354546.867 4  -1283022.16047  23414884.88147
  20606984.232 6    342511.785 6    267977.55148  20606981.60048
  19967294.756 7  -3826219.723 7  -2965339.90248  19967291.08848
  23490930.264 4    -61891.148 4   -384941.28946  23490925.76446
  22875555.107 6  -9489964.785 6  -7353031.39547  22875549.61947
  20433356.701 7   -832035.098 7   -643891.92249  20433357.28749
  21165215.022 6  -9769907.434 6  -7576951.60248  21165215.41248
  21231786.811 6  -1816206.242 6  -1410713.69148  21231783.02948
  23046390.147 5   3355357.820 5   2604213.30547  23046392.22147
 18  5 30  0 51 49.9980000  0  9G03G14G16G22G23G26G27G31G32          0.000016996
  23414440.873 3   -356867.430 3  -1284830.39547  23414442.76447
  20607652.061 6    346022.980 6    270713.53548  20607649.57648
  19965852.615 7  -3833799.059 7  -2971245.88348  19965848.64348
  23490888.865 4    -62110.160 4   -385111.93946  23490884.71346
  22871129.217 6  -9513222.352 6  -7371154.16447  22871124.26047
  20433186.584 7   -832927.820 7   -644587.55549  20433187.04149
  21160732.162 6  -9793466.258 6  -7595309.12148  21160731.75648
  21231042.998 7  -1820114.328 7  -1413758.96148  21231038.78348
  23048258.881 5   3365175.949 5   2611863.77747  23048260.75647
 18  5 30  0 51 54.9980000  0  9G03G14G16G22G23G26G27G31G32          0.000012102
  23414001.623 4   -359179.145 4  -1286631.73047  23414002.66647
  20608322.865 6    349546.770 6    273459.34448  20608320.19748
  19964412.311 7  -3841368.125 7  -2977143.85548  19964408.23648
  23490848.357 4    -62325.262 4   -385279.55146  23490843.00246
  22866704.764 6  -9536473.227 6  -7389271.70747  22866699.41247
  20433017.881 7   -833815.395 7   -645279.18049  20433018.41249
  21156250.459 6  -9817016.195 6  -7613659.72348  21156250.13148
  21230299.787 7  -1824018.148 7  -1416800.90648  21230296.04548
  23050128.287 5   3374998.984 5   2619518.05547  23050129.58447
 18  5 30  0 51 59.9980000  0  9G03G14G16G22G23G26G27G31G32          0.000007208
  23413563.701 4   -361481.578 4  -1288425.83646  23413564.56146
  20608996.287 6    353083.570 6    276215.28948  20608993.56848
  19962973.811 7  -3848926.504 7  -2983033.48848  19962970.38948
  23490807.522 4    -62536.039 4   -385443.83646  23490802.76846
  22862281.186 6  -9559716.914 6  -7407383.64547  22862276.02947
  20432849.670 7   -834697.383 7   -645966.40649  20432850.22549
  21151771.256 6  -9840556.859 6  -7632003.08648  21151769.98648
  21229557.670 7  -1827917.191 7  -1419839.14148  21229554.31148
  23051998.162 5   3384827.281 5   2627176.43047  23051999.75647
 18  5 30  0 52  4.9980000  0  9G03G14G16G22G23G26G27G31G32          0.000002314
  23413125.693 2   -363774.973 2  -1290212.87946  23413128.51846
  20609671.420 6    356632.996 6    278981.07448  20609668.74448
  19961537.740 6  -3856474.574 6  -2988915.11748  19961533.82648
  23490769.772 5    -62742.797 5   -385604.97746  23490763.56446
  22857859.709 6  -9582953.820 6  -7425490.36347  22857853.93947
  20432683.272 7   -835574.281 7   -646649.71549  20432683.69749
  21147293.068 6  -9864088.520 6  -7650339.44548  21147291.89348
  21228816.959 7  -1831811.938 7  -1422873.97748  21228812.98248
  23053870.154 5   3394660.523 5   2634838.68847  23053870.76047
 18  5 30  0 52  9.9980000  0  9G03G14G16G22G23G26G27G31G32         -0.000002583
  23412692.576 3   -366059.559 3  -1291993.09046  23412693.22946
  20610349.701 6    360194.973 6    281756.62148  20610346.80348
  19960102.967 6  -3864012.352 6  -2994788.70748  19960099.08848
  23490730.014 5    -62945.750 5   -385763.09846  23490724.40846
  22853439.647 6  -9606183.957 6  -7443591.76647  22853433.42047
  20432516.904 7   -836446.078 7   -647329.03949  20432517.62349
  21142817.053 6  -9887611.199 6  -7668668.81648  21142815.94748
  21228076.748 7  -1835702.328 7  -1425905.46948  21228072.58048
  23055741.850 5   3404498.664 5   2642504.72747  23055743.11147
 18  5 30  0 52 14.9980000  0  9G03G14G16G22G23G26G27G31G32         -0.000007477
  23412258.443 3   -368335.156 3  -1293766.32446  23412259.65846
  20611029.584 6    363769.547 6    284542.01248  20611026.78748
  19958670.576 6  -3871539.828 6  -3000654.28148  19958666.77948
  23490692.006 5    -63144.660 5   -385918.12946  23490686.37746
  22849020.115 6  -9629407.270 6  -7461687.84447  22849015.04947
  20432352.834 7   -837312.738 7   -648004.38349  20432352.74449
  21138342.318 6  -9911124.930 6  -7686991.20348  21138341.92448
  21227336.537 7  -1839588.363 7  -1428933.52348  21227333.14748
  23057615.076 5   3414341.688 5   2650174.59847  23057616.04547
 18  5 30  0 52 19.9980000  0  9G03G14G16G22G23G26G27G31G32         -0.000012371
  23411827.522 3   -370601.910 3  -1295532.61746  23411828.70146
  20611711.912 6    367356.691 6    287337.18448  20611709.26448
  19957239.803 6  -3879057.047 6  -3006511.85948  19957236.04948
  23490655.998 5    -63339.660 5   -386070.08646  23490649.06146
  22844602.022 6  -9652623.707 6  -7479778.58647  22844596.97147
  20432188.303 7   -838174.297 7   -648675.72349  20432188.61549
  21133869.904 6  -9934629.625 6  -7705306.56648  21133868.74848
  21226598.154 7  -1843470.023 7  -1431958.23048  21226594.47948
  23059489.670 5   3424189.586 5   2657848.25447  23059490.48647
 18  5 30  0 52 24.9980000  0  9G03G14G16G22G23G26G27G31G32         -0.000017265
  23411397.662 3   -372859.613 3  -1297291.87146  23411398.90046
  20612397.084 6    370956.633 6    290142.32848  20612394.49848
  19955811.787 6  -3886563.805 6  -3012361.28148  19955807.84648
  23490619.178 4    -63530.648 4   -386218.91446  23490612.85446
  22840185.068 6  -9675833.113 6  -7497863.81347  22840180.07247
  20432025.623 7   -839030.527 7   -649342.91849  20432025.81449
  21129398.272 6  -9958125.137 6  -7723614.73448  21129398.08448
  21225860.522 7  -1847347.094 7  -1434979.32848  21225856.03348
  23061364.553 6   3434042.582 6   2665525.88747  23061365.43647
 18  5 30  0 52 29.9980000  0  9G03G14G16G22G23G26G27G31G32         -0.000022160
  23410970.850 4   -375108.266 4  -1299044.08247  23410971.24447
  20613084.459 6    374569.316 6    292957.40248  20613081.80348
  19954384.873 6  -3894060.105 6  -3018202.55948  19954380.89748
  23490583.475 4    -63717.527 4   -386364.55947  23490577.97547
  22835769.537 6  -9699035.500 6  -7515943.60247  22835765.14347
  20431863.693 7   -839881.527 7   -650006.04349  20431863.95149
  21124929.264 6  -9981611.477 6  -7741915.77748  21124928.70148
  21225123.443 7  -1851219.629 7  -1437996.90648  21225119.77948
  23063239.639 5   3443900.563 5   2673207.39547  23063241.29547
 18  5 30  0 52 34.9980000  0  9G03G14G16G22G23G26G27G31G32         -0.000027054
  23410545.436 4   -377347.949 4  -1300789.30546  23410544.90046
  20613774.545 6    378194.621 6    295782.30948  20613771.98248
  19952960.553 6  -3901546.090 6  -3024035.79348  19952956.70148
  23490548.990 5    -63900.445 5   -386507.09846  23490542.97546
  22831355.412 5  -9722230.945 5  -7534017.95747  22831351.13547
  20431702.647 7   -840727.371 7   -650665.13749  20431702.93249
  21120461.334 6 -10005088.688 6  -7760209.71548  21120461.15848
  21224387.865 7  -1855087.758 7  -1441011.05148  21224383.97148
  23065116.654 5   3453763.434 5   2680892.73047  23065118.18247
 18  5 30  0 52 39.9980000  0  9G03G14G16G22G23G26G27G31G32         -0.000031948
  23410120.490 5   -379578.879 5  -1302527.68047  23410120.40847
  20614467.272 6    381832.430 6    298616.96148  20614464.30348
  19951537.850 6  -3909021.863 6  -3029861.07448  19951533.71748
  23490513.951 4    -64079.555 4   -386646.66046  23490509.05746
  22826942.311 5  -9745419.586 5  -7552087.03547  22826938.50647
  20431542.576 7   -841568.188 7   -651320.32849  20431542.83849
  21115995.279 6 -10028556.934 6  -7778496.64148  21115995.11548
  21223652.357 7  -1858951.527 7  -1444021.78148  21223648.74448
  23066994.936 5   3463631.094 5   2688581.79347  23066995.88947
 18  5 30  0 52 44.9980000  0  9G03G14G16G22G23G26G27G31G32         -0.000036842
  23409698.428 5   -381800.875 5  -1304259.10547  23409697.64747
  20615161.381 6    385482.918 6    301461.49248  20615158.67848
  19950117.131 6  -3916487.270 6  -3035678.27748  19950113.27548
  23490481.107 5    -64254.582 5   -386783.07046  23490475.18946
  22822531.717 5  -9768601.156 5  -7570150.60547  22822527.74447
  20431383.779 7   -842403.813 7   -651971.45749  20431383.63949
  21111531.428 6 -10052015.953 6  -7796776.42248  21111531.39748
  21222917.936 7  -1862810.742 7  -1447028.96548  21222914.64348
  23068873.342 5   3473503.715 5   2696274.71947  23068874.65047
 18  5 30  0 52 49.9980000  0  9G03G14G16G22G23G26G27G31G32         -0.000041737
  23409277.256 5   -384014.078 5  -1305983.67647  23409276.93947
  20615858.412 6    389145.914 6    304315.77048  20615855.77548
  19948698.826 6  -3923942.477 6  -3041487.53148  19948694.62348
  23490448.857 5    -64425.863 5   -386916.51646  23490442.53346
  22818121.475 5  -9791775.902 5  -7588208.84847  22818117.99447
  20431225.639 7   -843234.391 7   -652618.65249  20431225.67849
  21107069.803 6 -10075465.941 6  -7815049.12548  21107068.49448
  21222184.537 7  -1866665.617 7  -1450032.78148  21222181.04548
  23070753.709 5   3483381.105 5   2703971.36347  23070754.38147
 18  5 30  0 52 54.9980000  0  9G03G14G16G22G23G26G27G31G32         -0.000046629
  23408858.022 5   -386218.309 5  -1307701.25447  23408857.33847
  20616558.022 6    392821.555 6    307179.90248  20616555.35048
  19947281.975 7  -3931387.359 7  -3047288.74648  19947278.10048
  23490417.186 5    -64593.145 5   -387046.88746  23490410.52946
  22813711.967 5  -9814943.555 5  -7606261.56347  22813709.13547
  20431068.772 7   -844059.797 7   -653261.83249  20431068.83449
  21102608.920 6 -10098906.715 6  -7833314.65248  21102607.70548
  21221451.693 7  -1870515.949 7  -1453033.02748  21221448.72148
  23072634.162 5   3493263.414 5   2711671.84847  23072635.56847
 18  5 30  0 52 59.9980000  0  9G03G14G16G22G23G26G27G31G32         -0.000051523
  23408440.068 5   -388413.625 5  -1309411.90647  23408439.92047
  20617259.615 6    396509.863 6    310053.89848  20617257.18248
  19945867.436 6  -3938821.898 6  -3053081.90248  19945863.81148
  23490386.178 5    -64756.523 5   -387174.18846  23490379.38146
  22809305.467 5  -9838104.145 5  -7624308.77047  22809302.18647
  20430912.576 7   -844880.051 7   -653900.98849  20430912.44349
  21098149.537 6 -10122338.238 6  -7851572.97748  21098148.58848
  21220720.045 7  -1874361.727 7  -1456029.73848  21220716.94348
  23074515.654 5   3503150.645 5   2719376.15247  23074516.71347
 18  5 30  0 53  4.9980000  0  9G03G14G16G22G23G26G27G31G32         -0.000056416
  23408023.818 5   -390600.063 5  -1311115.61747  23408023.76847
  20617964.217 6    400210.770 6    312937.71948  20617961.33448
  19944454.412 6  -3946246.148 6  -3058867.03148  19944450.63148
  23490355.123 5    -64916.004 5   -387298.46146  23490349.36146
  22804899.131 5  -9861257.715 5  -7642350.52347  22804895.77947
  20430757.264 7   -845695.184 7   -654536.17249  20430757.08049
  21093692.451 6 -10145760.582 6  -7869824.14848  21093692.01448
  21219989.201 7  -1878203.027 7  -1459022.97348  21219986.17448
  23076397.779 5   3513042.703 5   2727084.23447  23076398.90847
 18  5 30  0 53  9.9980000  0  9G03G14G16G22G23G26G27G31G32         -0.000061310
  23407609.662 5   -392777.582 5  -1312812.36347  23407609.59647
  20618670.811 6    403924.332 6    315831.39548  20618667.73248
  19943043.670 6  -3953660.008 6  -3064644.05548  19943039.88148
  23490325.615 4    -65071.551 4   -387419.66046  23490319.81446
  22800493.990 5  -9884404.230 5  -7660386.77347  22800491.08847
  20430603.467 7   -846505.102 7   -655167.27349  20430602.97949
  21089237.357 6 -10169173.637 6  -7888068.09048  21089236.91648
  21219258.881 7  -1882039.754 7  -1462012.62548  21219255.91648
  23078281.256 6   3522939.695 6   2734796.16447  23078282.36547
 18  5 30  0 53 14.9980000  0  9G03G14G16G22G23G26G27G31G32         -0.000066202
  23407196.998 5   -394946.355 5  -1314502.32447  23407197.00247
  20619379.709 6    407650.348 6    318734.78548  20619376.79948
  19941634.850 7  -3961063.723 7  -3070413.18048  19941630.97148
  23490297.006 4    -65223.348 4   -387537.97346  23490291.59246
  22796091.584 5  -9907543.820 5  -7678417.61747  22796087.99447
  20430450.053 7   -847310.035 7   -655794.48049  20430450.09249
  21084783.537 6 -10192577.543 6  -7906304.91048  21084783.17848
  21218529.522 7  -1885872.121 7  -1464998.89548  21218526.43648
  23080165.514 5   3532841.367 5   2742511.72747  23080166.90447
 18  5 30  0 53 19.9980000  0  9G03G14G16G22G23G26G27G31G32         -0.000071096
  23406785.670 6   -397106.246 6  -1316185.35547  23406785.66647
  20620091.170 6    411388.992 6    321648.01248  20620087.81848
  19940227.936 7  -3968457.098 7  -3076174.25848  19940223.98248
  23490268.522 4    -65371.172 4   -387653.15246  23490263.35446
  22791689.123 5  -9930676.227 5  -7696442.88347  22791686.03347
  20430297.826 7   -848109.813 7   -656417.69149  20430297.60049
  21080331.514 6 -10215972.176 6  -7924534.48448  21080331.20948
  21217801.139 7  -1889699.922 7  -1467981.59848  21217797.88148
  23082050.732 5   3542747.992 5   2750231.14547  23082051.33447
 18  5 30  0 53 24.9980000  0  9G03G14G16G22G23G26G27G31G32         -0.000075989
  23406376.295 5   -399257.379 5  -1317861.57847  23406376.11947
  20620805.209 6    415140.078 6    324570.93048  20620801.98648
  19938822.537 7  -3975840.273 7  -3081927.38748  19938818.89348
  23490240.732 4    -65515.289 4   -387765.48846  23490236.74446
  22787288.482 5  -9953801.680 5  -7714462.71547  22787285.48647
  20430146.850 7   -848904.598 7   -657037.01649  20430146.68649
  21075881.334 6 -10239357.617 6  -7942756.90248  21075881.56848
  21217073.631 7  -1893523.297 7  -1470960.84848  21217070.44748
  23083936.920 5   3552659.332 5   2757954.23847  23083937.79547
 18  5 30  0 53 29.9980000  0  9G03G14G16G22G23G26G27G31G32         -0.000080883
  23405968.982 5   -401399.574 5  -1319530.82047  23405969.01447
  20621521.537 6    418903.852 6    327503.72748  20621518.52548
  19937420.123 7  -3983213.086 7  -3087672.43048  19937416.00248
  23490214.404 3    -65655.418 3   -387874.69146  23490209.95546
  22782889.662 5  -9976919.918 5  -7732476.92647  22782885.99847
  20429996.193 7   -849694.176 7   -657652.27049  20429996.41649
  21071432.951 6 -10262733.688 6  -7960972.01248  21071433.73248
  21216346.982 7  -1897342.016 7  -1473936.47748  21216343.31448
  23085823.357 5   3562575.555 5   2765681.14147  23085824.47547
 18  5 30  0 53 34.9980000  0  9G03G14G16G22G23G26G27G31G32         -0.000085775
  23405563.365 6   -403533.047 6  -1321193.26247  23405563.02547
  20622240.272 6    422680.121 6    330446.26648  20622237.05348
  19936018.943 7  -3990575.691 7  -3093409.52048  19936014.89348
  23490188.709 3    -65791.773 3   -387980.95346  23490184.04946
  22778492.326 5 -10000031.090 5  -7750485.63747  22778488.17847
  20429847.209 7   -850478.727 7   -658263.60249  20429847.18949
  21066986.459 6 -10286100.508 6  -7979179.92248  21066986.77248
  21215621.076 7  -1901156.289 7  -1476908.64848  21215617.35448
  23087711.084 5   3572496.551 5   2773411.75447  23087712.84647
 18  5 30  0 53 39.9980000  0  9G03G14G16G22G23G26G27G31G32         -0.000090668
  23405158.662 5   -405657.695 5  -1322848.83247  23405158.76847
  20622961.154 6    426468.957 6    333398.59848  20622957.54548
  19934619.865 7  -3997928.023 7  -3099138.61348  19934615.79548
  23490163.701 3    -65924.277 3   -388084.21946  23490158.55346
  22774095.389 5 -10023135.145 5  -7768488.80147  22774091.49047
  20429698.920 7   -851258.199 7   -658870.97349  20429698.72149
  21062541.834 6 -10309458.023 6  -7997380.57848  21062542.05748
  21214896.217 7  -1904966.008 7  -1479877.27048  21214892.43648
  23089600.068 5   3582422.305 5   2781146.07847  23089601.79147
 18  5 30  0 53 44.9980000  0  9G03G14G16G22G23G26G27G31G32         -0.000095560
  23404755.686 5   -407773.539 5  -1324497.55147  23404756.32247
  20623684.639 6    430270.348 6    336360.70748  20623680.81148
  19933222.623 7  -4005270.102 7  -3104859.71948  19933218.53348
  23490139.068 4    -66052.922 4   -388184.49646  23490133.77246
  22769700.287 5 -10046232.055 5  -7786486.39147  22769696.46347
  20429551.615 7   -852032.609 7   -659474.40249  20429551.82249
  21058098.779 6 -10332806.160 6  -8015573.94148  21058098.74048
  21214171.897 7  -1908771.188 7  -1482842.34448  21214168.20948
  23091489.287 5   3592352.898 5   2788884.17647  23091491.53747
 18  5 30  0 53 49.9980000  0  9G03G14G16G22G23G26G27G31G32         -0.000100452
  23404354.811 5   -409880.707 5  -1326139.50847  23404355.10047
  20624410.318 6    434084.133 6    339332.48048  20624406.35048
  19931827.264 6  -4012602.121 6  -3110572.97348  19931822.94748
  23490115.568 4    -66177.980 4   -388281.95346  23490109.81146
  22765306.404 5 -10069322.004 5  -7804478.55947  22765302.61947
  20429405.287 7   -852802.105 7   -660074.02049  20429405.33049
  21053657.842 6 -10356145.172 6  -8033760.18048  21053657.74048
  21213448.686 7  -1912571.965 7  -1485803.98848  21213444.82648
  23093379.951 5   3602288.059 5   2796625.84447  23093381.47547
 18  5 30  0 53 54.9980000  0  9G03G14G16G22G23G26G27G31G32         -0.000105345
  23403955.029 5   -411979.199 5  -1327774.73047  23403955.74447
  20625138.389 6    437910.332 6    342313.93048  20625135.42048
  19930433.662 6  -4019923.957 6  -3116278.30548  19930430.11548
  23490092.686 3    -66299.379 3   -388376.54346  23490086.28346
  22760914.420 5 -10092404.832 5  -7822465.19547  22760909.70147
  20429259.631 7   -853566.645 7   -660669.76249  20429259.67449
  21049218.248 6 -10379474.875 6  -8051939.17648  21049217.93648
  21212726.537 7  -1916368.285 7  -1488762.16048  21212722.73648
  23095271.209 4   3612227.867 4   2804371.12946  23095273.04146
 18  5 30  0 53 59.9980000  0  9G03G14G16G22G23G26G27G31G32         -0.000110237
  23403557.881 5   -414068.965 5  -1329403.11747  23403558.06447
  20625869.115 6    441749.082 6    345305.15648  20625865.81448
  19929042.732 7  -4027235.566 7  -3121975.66848  19929039.02548
  23490070.029 3    -66417.059 3   -388468.25046  23490063.95146
  22756522.811 5 -10115480.512 5  -7840446.25447  22756518.72547
  20429115.475 7   -854326.172 7   -661261.61349  20429115.49449
  21044780.279 6 -10402795.242 6  -8070110.89548  21044780.49448
  21212004.686 7  -1920160.051 7  -1491716.78949  21212001.05749
  23097164.053 4   3622172.453 4   2812120.13346  23097165.40846
 18  5 30  0 54  4.9980000  0  9G03G14G16G22G23G26G27G31G32         -0.000115129
  23403161.451 5   -416150.066 5  -1331024.77347  23403162.15847
  20626601.615 6    445600.262 6    348306.05948  20626598.63948
  19927653.514 7  -4034537.063 7  -3127665.13749  19927649.25649
  23490047.561 2    -66531.066 2   -388557.06346  23490041.92046
  22752132.928 5 -10138549.078 5  -7858421.76647  22752128.82247
  20428971.803 7   -855080.750 7   -661849.59849  20428971.46349
  21040344.381 6 -10426106.285 6  -8088275.34048  21040344.29548
  21211284.029 7  -1923947.371 7  -1494667.95348  21211280.35748
  23099056.522 4   3632121.652 4   2819872.71946  23099058.36146
 18  5 30  0 54  9.9980000  0  9G03G14G16G22G23G26G27G31G32         -0.000120022
  23402767.295 5   -418222.473 5  -1332639.63747  23402768.05747
  20627336.920 6    449463.848 6    351316.64148  20627333.86948
  19926265.889 7  -4041828.387 7  -3133346.69549  19926262.16249
  23490026.670 2    -66641.336 2   -388643.03146  23490020.56446
  22747744.795 5 -10161610.469 5  -7876391.68847  22747740.51847
  20428828.998 7   -855830.332 7   -662433.69549  20428828.75649
  21035910.436 6 -10449408.020 6  -8106432.53548  21035910.26048
  21210564.459 7  -1927730.156 7  -1497615.59049  21210560.45949
  23100950.701 4   3642075.527 4   2827628.98846  23100952.31446
 18  5 30  0 54 14.9980000  0  9G03G14G16G22G23G26G27G31G32         -0.000124912
  23402373.928 5   -420286.148 5  -1334247.71547  23402375.24847
  20628074.256 6    453340.031 6    354337.03148  20628071.13548
  19924880.639 7  -4049109.535 7  -3139020.32049  19924876.29549
  23490006.787 2    -66747.809 2   -388725.98446  23489999.99846
  22743357.522 6 -10184664.668 6  -7894355.98847  22743353.40447
  20428687.490 7   -856574.879 7   -663013.85949  20428687.01449
  21031477.740 6 -10472700.324 6  -8124582.38748  21031477.94348
  21209845.404 7  -1931508.371 7  -1500559.65249  21209841.34249
  23102845.670 4   3652034.082 4   2835388.89546  23102847.40846
 18  5 30  0 54 19.9980000  0  9G03G14G16G22G23G26G27G31G32         -0.000129807
  23401983.084 5   -422341.035 5  -1335848.94547  23401984.68647
  20628814.201 6    457228.660 6    357367.12548  20628811.42048
  19923496.865 7  -4056380.484 7  -3144685.99649  19923492.81849
  23489987.779 2    -66850.602 2   -388806.09846  23489980.18946
  22738972.068 6 -10207711.625 6  -7912314.65647  22738967.34647
  20428546.537 7   -857314.426 7   -663590.13349  20428546.57649
  21027047.100 6 -10495983.207 6  -8142724.88348  21027047.76048
  21209127.248 7  -1935281.969 7  -1503500.12549  21209123.53349
  23104741.412 4   3661997.398 4   2843152.48846  23104743.18946
 18  5 30  0 54 24.9980000  0  9G03G14G16G22G23G26G27G31G32         -0.000134697
  23401593.631 5   -424387.195 5  -1337443.35547  23401594.89347
  20629557.092 6    461129.840 6    360406.99648  20629553.86548
  19922115.553 7  -4063641.172 7  -3150343.67649  19922111.60049
  23489968.029 3    -66949.508 3   -388883.18046  23489961.89746
  22734588.256 6 -10230751.266 6  -7930267.61347  22734583.33847
  20428406.936 7   -858048.855 7   -664162.41449  20428407.14749
  21022618.451 6 -10519256.559 6  -8160859.95748  21022618.67448
  21208410.303 7  -1939050.918 7  -1506436.96149  21208406.52249
  23106638.022 4   3671965.445 4   2850919.79346  23106639.37746
 18  5 30  0 54 29.9980000  0  9G03G14G16G22G23G26G27G31G32         -0.000139589
  23401205.576 5   -426424.664 5  -1339031.00447  23401207.41247
  20630301.334 6    465043.488 6    363456.59048  20630298.51448
  19920735.725 7  -4070891.660 7  -3155993.40249  19920731.83849
  23489950.201 3    -67044.727 3   -388957.39146  23489943.97946
  22730204.748 6 -10253783.660 6  -7948214.93847  22730200.15447
  20428267.936 7   -858778.305 7   -664730.80949  20428268.43949
  21018191.873 6 -10542520.469 6  -8178987.68048  21018191.69348
  21207693.795 7  -1942815.270 7  -1509370.23449  21207689.86949
  23108536.068 4   3681938.227 4   2858690.75446  23108537.43246
 18  5 30  0 54 34.9980000  0  9G03G14G16G22G23G26G27G31G32         -0.000144480
  23400820.170 5   -428453.371 5  -1340611.80947  23400821.15847
  20631048.748 6    468969.676 6    366515.94948  20631045.77248
  19919358.053 7  -4078131.902 7  -3161635.14849  19919354.08449
  23489932.326 3    -67136.188 3   -389028.65646  23489927.09246
  22725823.920 6 -10276808.703 6  -7966156.52347  22725818.83447
  20428129.975 7   -859502.699 7   -665295.27349  20428130.61549
  21013765.928 6 -10565774.824 6  -8197107.96548  21013766.86148
  21206978.373 7  -1946574.949 7  -1512299.84849  21206974.86949
  23110434.990 4   3691915.699 4   2866465.37946  23110436.07246
 18  5 30  0 54 39.9980000  0  9G03G14G16G22G23G26G27G31G32         -0.000149372
  23400435.459 5   -430473.488 5  -1342185.94947  23400436.86147
  20631798.350 6    472908.184 6    369584.91448  20631794.81148
  19917982.068 7  -4085362.117 7  -3167269.09049  19917977.65849
  23489916.295 3    -67224.090 3   -389097.15646  23489910.02546
  22721443.889 6 -10299826.609 6  -7984092.54347  22721438.35047
  20427992.912 7   -860222.242 7   -665855.95349  20427993.51049
  21009343.147 6 -10589019.832 6  -8215220.94148  21009343.15848
  21206263.584 7  -1950330.180 7  -1515226.00049  21206260.36949
  23112335.615 5   3701897.727 5   2874243.56346  23112335.54546
 18  5 30  0 54 44.9980000  0  9G03G14G16G22G23G26G27G31G32         -0.000154263
  23400052.545 5   -432484.871 5  -1343753.26247  23400054.26847
  20632550.123 6    476859.258 6    372663.66448  20632547.00648
  19916608.037 7  -4092582.066 7  -3172895.02049  19916604.58049
  23489900.029 4    -67308.230 4   -389162.75046  23489894.10446
  22717064.967 6 -10322837.133 6  -8002022.81647  22717059.45147
  20427857.404 7   -860936.695 7   -666412.65649  20427857.82249
  21004921.600 6 -10612255.266 6  -8233326.46948  21004921.78348
  21205549.748 7  -1954080.703 7  -1518148.48049  21205546.63549
  23114235.967 5   3711884.512 5   2882025.43847  23114236.25247
 18  5 30  0 54 49.9980000  0  9G03G14G16G22G23G26G27G31G32         -0.000159155
  23399671.553 5   -434487.680 5  -1345313.91047  23399672.71347
  20633304.170 6    480822.660 6    375752.04348  20633300.99448
  19915235.787 7  -4099791.875 7  -3178513.05548  19915231.72148
  23489885.436 4    -67388.805 4   -389225.55546  23489879.18946
  22712687.006 6 -10345840.465 6  -8019947.46547  22712682.14747
  20427721.912 7   -861646.281 7   -666965.57049  20427722.43249
  21000502.022 6 -10635481.285 6  -8251424.67248  21000502.19348
  21204837.154 7  -1957826.734 7  -1521067.46949  21204834.08849
  23116137.225 5   3721875.828 5   2889810.84847  23116137.88547
 18  5 30  0 54 54.9980000  0  9G03G14G16G22G23G26G27G31G32         -0.000164043
  23399291.928 5   -436481.953 5  -1346867.89547  23399293.58047
  20634060.951 6    484798.418 6    378850.02348  20634057.22148
  19913866.232 7  -4106991.625 7  -3184123.26248  19913861.75648
  23489870.850 3    -67465.781 3   -389285.54346  23489865.14346
  22708312.139 6 -10368836.531 6  -8037866.46947  22708306.15447
  20427587.842 7   -862351.008 7   -667514.71949  20427588.28349
  20996084.037 6 -10658697.848 6  -8269515.51248  20996084.49048
  21204125.115 7  -1961568.219 7  -1523982.89849  21204122.18249
  23118039.678 5   3731871.672 5   2897599.77747  23118039.99447
 18  5 30  0 54 59.9980000  0  9G03G14G16G22G23G26G27G31G32         -0.000168936
  23398914.365 5   -438467.617 5  -1348415.15647  23398915.41247
  20634819.678 6    488786.551 6    381957.64848  20634816.39348
  19912497.834 7  -4114181.293 7  -3189725.59848  19912493.49848
  23489855.881 3    -67539.242 3   -389342.78946  23489850.77246
  22703936.826 6 -10391825.387 6  -8055779.85547  22703931.55747
  20427454.764 7   -863050.848 7   -668060.03949  20427455.15449
  20991667.311 6 -10681904.945 6  -8287598.96148  20991668.35048
  21203413.881 8  -1965305.160 8  -1526894.82849  21203410.83849
  23119941.639 5   3741872.070 5   2905392.26247  23119943.13547
 18  5 30  0 55  4.9980000  0  9G03G14G16G22G23G26G27G31G32         -0.000173826
  23398538.100 5   -440444.707 5  -1349955.74647  23398538.40447
  20635580.686 6    492787.090 6    385074.95348  20635578.04148
  19911131.623 7  -4121360.875 7  -3195320.08248  19911127.43948
  23489843.365 5    -67609.063 5   -389397.18046  23489837.10046
  22699563.725 6 -10414806.934 6  -8073687.55547  22699558.04547
  20427322.537 7   -863745.773 7   -668601.56349  20427322.71349
  20987253.240 6 -10705102.504 6  -8305674.96148  20987253.10048
  21202703.772 7  -1969037.488 7  -1529803.13349  21202701.11949
  23121846.279 6   3751877.039 6   2913188.31347  23121846.56447
 18  5 30  0 55  9.9980000  0  9G03G14G16G22G23G26G27G31G32         -0.000178717
  23398163.779 5   -442413.301 5  -1351489.72747  23398163.58047
  20636344.865 6    496799.922 6    388201.82448  20636341.20548
  19909766.897 7  -4128530.434 7  -3200906.75048  19909762.55748
  23489830.967 5    -67675.434 5   -389448.93846  23489824.56446
  22695191.467 6 -10437781.223 6  -8091589.60247  22695186.78347
  20427191.186 7   -864435.855 7   -669139.28949  20427191.49849
  20982840.725 6 -10728290.605 6  -8323743.61348  20982840.56848
  21201994.225 7  -1972765.316 7  -1532707.91849  21201991.23649
  23123750.897 6   3761886.500 6   2920987.87946  23123751.88946
 18  5 30  0 55 14.9980000  0  9G03G14G16G22G23G26G27G31G32         -0.000183605
  23397790.693 5   -444373.215 5  -1353016.94547  23397790.43247
  20637110.842 6    500825.242 6    391338.42648  20637107.01448
  19908404.740 7  -4135689.840 7  -3206485.51248  19908400.30348
  23489819.068 5    -67738.137 5   -389497.78546  23489812.82246
  22690821.154 6 -10460748.066 6  -8109485.82847  22690815.51047
  20427061.201 7   -865120.984 7   -669673.16049  20427061.30749
  20978429.522 6 -10751469.070 6  -8341804.74248  20978430.10048
  21201285.529 7  -1976488.473 7  -1535609.07049  21201282.96749
  23125657.061 6   3771900.602 6   2928791.02346  23125657.63946
 18  5 30  0 55 19.9980000  0  9G03G14G16G22G23G26G27G31G32         -0.000188498
  23397419.873 5   -446324.703 5  -1354537.59047  23397418.67047
  20637878.709 6    504862.766 6    394484.53948  20637875.26048
  19907043.732 7  -4142839.281 7  -3212056.51248  19907039.69348
  23489807.068 5    -67797.348 5   -389543.91446  23489801.56446
  22686451.912 6 -10483707.648 6  -8127376.38347  22686446.96347
  20426931.404 7   -865801.344 7   -670203.31649  20426931.86149
  20974021.311 6 -10774638.125 6  -8359858.54748  20974020.71748
  21200578.107 7  -1980207.121 7  -1538506.73449  21200575.40449
  23127563.357 6   3781919.102 6   2936597.63346  23127564.37346
 18  5 30  0 55 24.9980000  0  9G03G14G16G22G23G26G27G31G32         -0.000193386
  23397049.639 5   -448267.609 5  -1356051.55147  23397049.36947
  20638649.334 6    508912.664 6    397640.29748  20638646.64748
  19905685.490 7  -4149978.645 7  -3217619.65648  19905681.36548
  23489796.959 5    -67853.027 5   -389587.32846  23489790.99046
  22682084.123 6 -10506659.824 6  -8145261.20747  22682078.95147
  20426802.881 7   -866476.773 7   -670729.62549  20426803.14749
  20969613.951 6 -10797797.535 6  -8377904.84048  20969613.44748
  21199871.303 7  -1983921.129 7  -1541400.77049  21199868.16649
  23129470.764 6   3791942.164 6   2944407.78547  23129471.77547
 18  5 30  0 55 29.9980000  0  9G03G14G16G22G23G26G27G31G32         -0.000198278
  23396681.053 5   -450202.012 5  -1357558.88747  23396681.97947
  20639422.545 6    512974.922 6    400805.68848  20639418.95148
  19904329.162 7  -4157107.926 7  -3223174.94148  19904324.31848
  23489786.357 5    -67905.133 5   -389627.93046  23489781.38546
  22677718.225 6 -10529604.672 6  -8163140.30947  22677712.72147
  20426675.303 7   -867147.336 7   -671252.15649  20426675.61149
  20965208.178 6 -10820947.363 6  -8395943.66448  20965208.35748
  21199165.295 7  -1987630.523 7  -1544291.21949  21199162.02549
  23131379.186 6   3801969.738 6   2952221.45347  23131379.80347
 18  5 30  0 55 34.9980000  0  9G03G14G16G22G23G26G27G31G32         -0.000203167
  23396313.990 5   -452127.688 5  -1359059.41047  23396314.65847
  20640197.943 6    517049.684 6    403980.83248  20640194.81448
  19902974.412 7  -4164227.039 7  -3228722.30148  19902969.91648
  23489778.014 4    -67953.609 4   -389665.72746  23489773.09646
  22673353.201 6 -10552542.078 6  -8181013.60947  22673347.54547
  20426548.529 7   -867812.941 7   -671770.82449  20426549.04149
  20960804.701 6 -10844087.461 6  -8413974.91448  20960805.15848
  21198460.686 7  -1991335.137 7  -1547177.93449  21198457.36949
  23133288.670 6   3812001.977 6   2960038.77347  23133288.69347
 18  5 30  0 55 39.9980000  0  9G03G14G16G22G23G26G27G31G32         -0.000208057
  23395950.615 5   -454044.922 5  -1360553.38347  23395950.04147
  20640975.576 6    521136.672 6    407165.49248  20640972.74848
  19901621.475 7  -4171336.160 7  -3234261.89148  19901617.22548
  23489768.600 4    -67998.598 4   -389700.77746  23489764.36146
  22668989.303 6 -10575472.094 6  -8198881.18447  22668983.93947
  20426422.904 7   -868473.684 7   -672285.68049  20426423.35049
  20956402.943 6 -10867218.000 6  -8431998.69948  20956403.20548
  21197756.436 7  -1995035.160 7  -1550061.08249  21197753.08049
  23135198.170 6   3822038.656 6   2967859.52347  23135199.15047
 18  5 30  0 55 44.9980000  0  9G03G14G16G22G23G26G27G31G32         -0.000212946
  23395588.037 6   -455953.691 6  -1362040.73847  23395586.84647
  20641755.764 6    525235.961 6    410359.74248  20641752.94748
  19900270.826 7  -4178435.242 7  -3239793.64548  19900266.11948
  23489761.404 5    -68040.109 5   -389733.15646  23489756.83446
  22664627.967 6 -10598394.738 6  -8216742.97747  22664622.17047
  20426298.022 7   -869129.609 7   -672796.78549  20426298.22549
  20952003.459 6 -10890338.906 6  -8450015.00448  20952003.24448
  21197053.365 7  -1998730.578 7  -1552940.62949  21197049.75649
  23137109.365 6   3832079.789 6   2975683.76247  23137109.26047
 18  5 30  0 55 49.9980000  0  9G03G14G16G22G23G26G27G31G32         -0.000217836
  23395225.967 6   -457854.094 6  -1363521.57047  23395224.78347
  20642537.943 6    529347.422 6    413563.47748  20642535.52948
  19898921.889 7  -4185524.398 7  -3245317.66048  19898917.38948
  23489753.811 5    -68078.328 5   -389762.94146  23489749.63546
  22660267.506 6 -10621310.051 6  -8234599.05147  22660261.29147
  20426174.006 7   -869780.820 7   -673304.22349  20426174.42449
  20947605.592 6 -10913450.332 6  -8468023.89848  20947605.19348
  21196351.022 7  -2002421.398 7  -1555816.60249  21196347.47949
  23139021.295 6   3842125.262 6   2983511.38747  23139021.50247
 18  5 30  0 55 54.9980000  0  9G03G14G16G22G23G26G27G31G32         -0.000222725
  23394866.092 6   -459745.984 6  -1364995.76647  23394864.74447
  20643322.990 6    533471.313 6    416776.88348  20643320.43248
  19897574.529 7  -4192603.461 7  -3250833.81649  19897570.22149
  23489747.568 5    -68112.961 5   -389789.93846  23489743.05746
  22655907.842 6 -10644217.863 6  -8252449.29347  22655902.36547
  20426051.240 7   -870427.117 7   -673807.83249  20426051.50649
  20943209.998 6 -10936552.016 6  -8486025.22748  20943208.77248
  21195649.436 7  -2006107.527 7  -1558688.89149  21195646.08849
  23140933.662 6   3852175.230 6   2991342.50847  23140934.62347
 18  5 30  0 55 59.9980000  0  9G03G14G16G22G23G26G27G31G32         -0.000227615
  23394508.115 6   -461629.063 6  -1366463.10247  23394506.33447
  20644109.897 6    537607.809 6    420000.12148  20644107.36548
  19896229.451 7  -4199672.191 7  -3256341.91849  19896225.09249
  23489741.459 5    -68143.887 5   -389814.04346  23489737.20546
  22651549.686 6 -10667117.961 6  -8270293.53147  22651544.10747
  20425928.857 7   -871068.340 7   -674307.48049  20425929.04149
  20938815.373 6 -10959643.742 6  -8504018.77748  20938814.60748
  21194949.381 7  -2009788.770 7  -1561557.40249  21194945.57649
  23142846.897 6   3862229.973 6   2999177.34847  23142847.95947
 18  5 30  0 56  4.9980000  0  9G03G14G16G22G23G26G27G31G32         -0.000232502
  23394151.272 6   -463503.699 6  -1367923.85947  23394149.76847
  20644899.217 6    541756.637 6    423232.96148  20644896.82248
  19894886.248 7  -4206730.926 7  -3261842.22749  19894881.80349
  23489736.318 5    -68171.316 5   -389835.42246  23489732.27546
  22647193.748 6 -10690010.602 6  -8288131.95747  22647187.85747
  20425808.225 7   -871704.711 7   -674803.35549  20425808.29549
  20934422.662 6 -10982725.754 6  -8522004.75448  20934422.28748
  21194249.537 7  -2013465.359 7  -1564422.28949  21194245.79949
  23144759.998 6   3872289.152 6   3007015.62547  23144762.67047
 18  5 30  0 56  9.9980000  0  9G03G14G16G22G23G26G27G31G32         -0.000237392
  23393796.389 6   -465370.223 6  -1369378.29347  23393795.09647
  20645691.162 6    545917.387 6    426475.10948  20645688.90448
  19893544.654 7  -4213779.973 7  -3267334.99649  19893540.45949
  23489731.623 5    -68195.613 5   -389854.36346  23489727.85446
  22642838.764 6 -10712895.996 6  -8305964.71947  22642832.61147
  20425687.756 7   -872336.598 7   -675295.74249  20425687.52249
  20930032.826 6 -11005798.426 6  -8539983.45348  20930031.59648
  21193550.678 7  -2017137.645 7  -1567283.81349  21193547.18649
  23146675.053 6   3882352.406 6   3014857.12147  23146677.79947
 18  5 30  0 56 14.9980000  0  9G03G14G16G22G23G26G27G31G32         -0.000242281
  23393442.678 6   -467228.055 6  -1370825.96547  23393441.11547
  20646485.459 6    550090.645 6    429726.98448  20646483.06848
  19892205.436 7  -4220818.789 7  -3272819.79349  19892201.03749
  23489727.584 5    -68216.277 5   -389870.44546  23489723.63546
  22638485.068 6 -10735773.676 6  -8323791.46947  22638478.99047
  20425568.787 7   -872963.492 7   -675784.22749  20425568.54949
  20925643.803 6 -11028861.156 6  -8557954.39548  20925642.94348
  21192852.678 7  -2020805.078 7  -1570141.55949  21192849.10049
  23148591.389 6   3892420.305 6   3022702.19547  23148593.67847
 18  5 30  0 56 19.9980000  0  9G03G14G16G22G23G26G27G31G32         -0.000247169
  23393090.350 6   -469077.484 6  -1372267.07047  23393089.36147
  20647282.303 6    554276.152 6    432988.40648  20647280.01048
  19890867.889 7  -4227847.613 7  -3278296.80149  19890863.51849
  23489723.678 5    -68233.504 5   -389883.87546  23489720.19346
  22634133.084 6 -10758643.844 6  -8341612.37147  22634127.16647
  20425450.561 7   -873585.578 7   -676268.97749  20425450.15049
  20921257.303 6 -11051914.145 6  -8575917.77048  20921256.32648
  21192155.811 7  -2024467.832 7  -1572995.64549  21192152.12749
  23150508.006 6   3902492.609 6   3030550.71947  23150510.20947
 18  5 30  0 56 24.9980000  0  9G03G14G16G22G23G26G27G31G32         -0.000252058
  23392739.490 5   -470918.457 5  -1373701.58647  23392738.96347
  20648081.014 6    558473.988 6    436259.43848  20648078.60748
  19889532.053 7  -4234866.410 7  -3283765.99649  19889528.37749
  23489721.443 5    -68247.270 5   -389894.57446  23489717.26846
  22629783.186 6 -10781506.426 6  -8359427.38347  22629776.40447
  20425332.756 7   -874202.816 7   -676749.93449  20425332.49049
  20916872.326 6 -11074957.367 6  -8593873.51648  20916870.86148
  21191459.615 7  -2028125.879 7  -1575846.07449  21191456.37749
  23152425.100 6   3912569.375 6   3038402.72347  23152428.10447
 18  5 30  0 56 29.9980000  0  9G03G14G16G22G23G26G27G31G32         -0.000256947
  23392390.670 5   -472750.996 5  -1375129.53947  23392390.42847
  20648882.107 6    562684.133 6    439540.05948  20648879.73248
  19888198.357 7  -4241875.145 7  -3289227.34449  19888194.45949
  23489719.350 5    -68257.535 5   -389902.59846  23489714.93646
  22625433.256 6 -10804361.473 6  -8377236.48447  22625427.24447
  20425216.334 7   -874815.227 7   -677227.13749  20425216.15449
  20912489.443 6 -11097990.734 6  -8611821.59048  20912487.84648
  21190764.287 7  -2031779.172 7  -1578692.80149  21190761.15049
  23154343.561 6   3922650.578 6   3046258.18847  23154346.05347
 18  5 30  0 56 34.9980000  0  9G03G14G16G22G23G26G27G31G32         -0.000261835
  23392043.811 5   -474575.254 5  -1376551.03147  23392043.92847
  20649685.568 7    566906.355 7    442830.09848  20649683.15448
  19886866.459 7  -4248874.078 7  -3294681.07449  19886862.29549
  23489718.959 4    -68264.672 4   -389908.13746  23489713.49046
  22621085.623 6 -10827209.145 6  -8395039.86747  22621079.47547
  20425100.490 7   -875423.043 7   -677700.76649  20425100.48249
  20908107.803 6 -11121014.531 6  -8629762.21148  20908106.65848
  21190070.232 7  -2035427.934 7  -1581536.00049  21190066.95149
  23156262.607 6   3932735.977 6   3054116.90647  23156265.76047
 18  5 30  0 56 39.9980000  0  9G03G14G16G22G23G26G27G31G32         -0.000266724
  23391698.490 6   -476391.195 6  -1377966.03947  23391698.47547
  20650491.709 6    571140.746 6    446129.61348  20650489.33448
  19885536.842 7  -4255863.074 7  -3300127.03549  19885532.85749
  23489717.576 4    -68268.438 4   -389911.09446  23489712.69746
  22616739.209 6 -10850049.324 6  -8412837.41847  22616732.85047
  20424986.022 7   -876026.125 7   -678170.71949  20424985.90449
  20903728.834 6 -11144028.570 6  -8647695.21948  20903727.29948
  21189376.584 7  -2039072.047 7  -1584375.55949  21189373.50249
  23158182.873 6   3942825.719 6   3061979.01247  23158185.76047
 18  5 30  0 56 44.9980000  0  9G03G14G16G22G23G26G27G31G32         -0.000271612
  23391354.178 5   -478198.609 5  -1379374.43447  23391354.44347
  20651299.436 6    575387.430 6    449438.70348  20651297.22148
  19884208.545 7  -4262841.988 7  -3305565.15249  19884204.70549
  23489717.154 4    -68268.746 4   -389911.35546  23489712.70946
  22612394.725 6 -10872881.797 6  -8430628.94947  22612388.46347
  20424871.865 7   -876624.371 7   -678636.90249  20424871.54149
  20899351.014 6 -11167032.699 6  -8665620.51648  20899349.55348
  21188684.147 7  -2042711.379 7  -1587211.40649  21188680.67049
  23160103.834 6   3952919.918 6   3069844.61747  23160106.46347
 18  5 30  0 56 49.9980000  0  9G03G14G16G22G23G26G27G31G32         -0.000276501
  23391012.365 5   -479997.711 5  -1380776.32047  23391012.23247
  20652109.951 7    579646.332 7    452757.32448  20652107.54948
  19882882.459 7  -4269810.953 7  -3310995.52349  19882878.17449
  23489718.443 4    -68265.695 4   -389908.96946  23489713.49846
  22608051.115 6 -10895706.711 6  -8448414.58647  22608044.74447
  20424759.365 7   -877217.855 7   -679099.35949  20424758.54549
  20894975.568 6 -11190027.016 6  -8683538.16048  20894973.91248
  21187992.248 7  -2046346.000 7  -1590043.57849  21187989.35449
  23162024.717 6   3963018.422 6   3077713.55147  23162028.23647
