     2.10           OBSERVATION DATA    GPS(GPS)            RINEX VERSION / TYPE
cnvtToRINEX 2.50.0  convertToRINEX OPR  30-May-18 13:32 UTC PGM / RUN BY / DATE 
----------------------------------------------------------- COMMENT             
TC08                                                        MARKER NAME         
TC08                                                        MARKER NUMBER       
GNSS Observer       Trimble                                 OBSERVER / AGENCY   
0220324777          5700                2.32                REC # / TYPE / VERS 
                    TRM39105.00                             ANT # / TYPE        
 -2967124.0941  5005001.5140  2604572.5154                  APPROX POSITION XYZ 
        0.1030        0.0000        0.0000                  ANTENNA: DELTA H/E/N
     1     1     0                                          WAVELENGTH FACT L1/2
     4    C1    L1    L2    P2                              # / TYPES OF OBSERV 
  2018     5    30     0    23   20.0000000     GPS         TIME OF FIRST OBS   
  2018     5    30     1    35   55.0000000     GPS         TIME OF LAST OBS    
     0                                                      RCV CLOCK OFFS APPL 
    17                                                      LEAP SECONDS        
    12                                                      # OF SATELLITES     
   G03   861   861   861   861                              PRN / # OF OBS      
   G08   440   439   438   438                              PRN / # OF OBS      
   G14   872   872   872   872                              PRN / # OF OBS      
   G16   872   872   872   872                              PRN / # OF OBS      
   G21   545   545   543   543                              PRN / # OF OBS      
   G22   770   770   768   768                              PRN / # OF OBS      
   G23   872   872   872   872                              PRN / # OF OBS      
   G26   872   872   872   872                              PRN / # OF OBS      
   G27   872   872   872   872                              PRN / # OF OBS      
   G29   354   354   354   354                              PRN / # OF OBS      
   G31   872   872   872   872                              PRN / # OF OBS      
   G32   619   615   526   526                              PRN / # OF OBS      
CARRIER PHASE MEASUREMENTS: PHASE SHIFTS REMOVED            COMMENT             
                                                            END OF HEADER       
 18  5 30  0 23 20.0000000  0 10G03G14G16G22G23G26G27G29G31G32      -0.000322674
  23673101.01615     -3148.02715     -1661.89557  23673102.10957
  20521760.21116     31644.32816     19802.46158  20521757.57458
  20577039.39116    -48456.37516    -32363.86758  20577035.89158
  23559489.09415     29779.57415     15345.98457  23559484.05957
  24439945.39115   -136089.14115    -69631.23056  24439941.69556
  20554368.43817     21841.48417     13515.10559  20554368.73859
  22769364.47715    -94339.73815    -54133.05957  22769364.66457
  23526985.10915     72607.08215     45500.85556  23526983.46156
  21522522.27317      4070.18817      2257.09458  21522518.43058
  22472039.27316    123607.79716     84439.81358  22472039.60958
 18  5 30  0 23 25.0000000  0 10G03G14G16G22G23G26G27G29G31G32      -0.000324099
  23673016.250 5     -3593.508 5     -2009.01246  23673017.40246
  20522588.148 6     35995.105 6     23192.67648  20522585.46148
  20575904.523 7    -54420.430 7    -37011.18848  20575900.87948
  23560105.734 5     33020.512 5     17871.37547  23560100.50447
  24436262.219 5   -155445.801 5    -84714.35546  24436257.91046
  20554815.328 7     24189.176 7     15344.47749  20554815.79349
  22765506.180 5   -114615.719 5    -69932.51647  22765506.23047
  23528898.047 6     82660.453 6     53334.64847  23528896.32047
  21522592.039 7      4436.074 7      2542.19148  21522588.68048
  22474511.688 6    136602.441 6     94565.50448  22474512.46148
 18  5 30  0 23 30.0000000  0 10G03G14G16G22G23G26G27G29G31G32      -0.000325542
  23672928.844 5     -4054.527 5     -2368.25846  23672929.64146
  20523413.367 6     40332.727 6     26572.63748  20523410.87148
  20574766.617 7    -60399.816 7    -41670.44548  20574762.73048
  23560719.555 6     36241.738 6     20381.44147  23560713.77747
  24432573.602 5   -174827.414 5    -99816.88746  24432569.57446
  20555258.445 7     26517.375 7     17158.65249  20555258.90249
  22761642.539 5   -134915.234 5    -85750.30147  22761643.08247
  23530808.313 5     92697.633 5     61155.82847  23530806.55147
  21522657.281 7      4777.211 7      2808.02348  21522653.34048
  22476980.961 6    149578.035 6    104676.35247  22476981.64547
 18  5 30  0 23 35.0000000  0 10G03G14G16G22G23G26G27G29G31G32      -0.000327000
  23672838.203 5     -4527.727 5     -2736.99246  23672839.49246
  20524237.391 6     44660.480 6     29944.91048  20524234.31348
  20573626.383 6    -66391.137 6    -46339.01248  20573623.02048
  23561328.875 6     39446.633 6     22878.73447  23561324.11747
  24428881.609 5   -194230.539 5   -114936.22746  24428877.48446
  20555698.445 7     28829.418 7     18960.23849  20555698.52049
  22757776.328 5   -155234.930 5   -101583.83247  22757776.76647
  23532715.586 5    102722.074 5     68967.06346  23532714.03546
  21522717.977 7      5097.008 7      3057.20348  21522713.90248
  22479447.109 6    162538.000 6    114775.00848  22479447.76648
 18  5 30  0 23 40.0000000  0 10G03G14G16G22G23G26G27G29G31G32      -0.000328472
  23672745.805 5     -5012.648 5     -3114.85246  23672746.62546
  20525058.883 6     48978.805 6     33309.83248  20525056.24248
  20572483.969 7    -72393.996 7    -51016.56648  20572480.56648
  23561934.945 5     42635.563 5     25363.61346  23561931.55146
  24425185.383 5   -213654.793 5   -130071.97746  24425181.12546
  20556135.500 7     31125.773 7     20749.60249  20556135.51649
  22753906.180 5   -175574.289 5   -117432.68047  22753906.11747
  23534620.617 5    112734.152 5     76768.66846  23534619.46946
  21522774.703 7      5395.840 7      3290.05148  21522771.19148
  22481910.422 6    175482.746 6    124861.81647  22481911.46547
 18  5 30  0 23 45.0000000  0 10G03G14G16G22G23G26G27G29G31G32      -0.000329960
  23672651.672 5     -5508.891 5     -3501.54746  23672652.23846
  20525878.727 6     53288.145 6     36667.74648  20525876.05548
  20571339.703 7    -78407.934 7    -55702.76248  20571336.64148
  23562539.570 5     45808.930 5     27836.34446  23562534.92646
  24421484.844 5   -233099.695 5   -145223.84046  24421481.24646
  20556569.578 7     33406.855 7     22527.07049  20556569.59449
  22750030.703 5   -195932.902 5   -133296.52747  22750031.94947
  23536523.352 5    122734.383 5     84561.05546  23536522.48046
  21522827.703 7      5674.262 7      3506.99648  21522824.36348
  22484370.820 6    188412.680 6    134937.06648  22484371.25448
 18  5 30  0 23 50.0000000  0 10G03G14G16G22G23G26G27G29G31G32      -0.000331461
  23672555.539 5     -6013.711 5     -3894.90246  23672556.30546
  20526697.773 6     57591.270 6     40020.82848  20526695.01648
  20570193.930 6    -84430.219 6    -60395.44948  20570190.60248
  23563140.523 5     48969.563 5     30299.17646  23563136.40246
  24417781.320 5   -252562.488 5   -160389.65246  24417777.34046
  20557001.016 7     35675.422 7     24294.78549  20557001.50049
  22746154.008 5   -216308.023 5   -149173.24647  22746154.85547
  23538425.344 6    132725.395 6     92346.23846  23538423.16046
  21522877.078 7      5934.930 7      3710.10948  21522874.02348
  22486829.203 6    201330.563 6    145002.94548  22486829.84848
 18  5 30  0 23 55.0000000  0 10G03G14G16G22G23G26G27G29G31G32      -0.000332977
  23672457.969 5     -6529.363 5     -4296.73046  23672458.03546
  20527514.641 6     61885.863 6     43367.26248  20527512.48848
  20569045.805 6    -90463.164 6    -65096.45348  20569042.43048
  23563740.039 6     52115.160 6     32750.26647  23563735.09447
  24414074.008 5   -272045.465 5   -175571.19946  24414069.41446
  20557429.766 7     37929.145 7     26050.93049  20557430.21549
  22742273.313 5   -236701.863 5   -165064.54347  22742273.93047
  23540323.727 5    142704.965 5    100122.52046  23540322.45346
  21522923.336 7      6175.586 7      3897.63348  21522919.28148
  22489284.352 6    214234.074 6    155057.60948  22489285.47348
 18  5 30  0 24  0.0000000  0 10G03G14G16G22G23G26G27G29G31G32      -0.000334503
  23672358.641 5     -7052.078 5     -4704.03546  23672358.89146
  20528331.219 6     66175.781 6     46710.04748  20528328.57848
  20567896.625 7    -96502.934 7    -69802.76248  20567893.22348
  23564335.844 5     55249.465 5     35192.58646  23564331.41446
  24410363.523 5   -291544.770 5   -190765.46946  24410359.28546
  20557856.586 7     40171.887 7     27798.52349  20557857.13349
  22738389.617 5   -257110.594 5   -180967.44947  22738390.52747
  23542222.047 5    152676.887 5    107892.84046  23542219.55146
  21522966.133 7      6400.121 7      4072.59448  21522962.34448
  22491738.078 6    227127.090 6    165104.11748  22491739.26648
 18  5 30  0 24  5.0000000  0 10G03G14G16G22G23G26G27G29G31G32      -0.000336042
  23672257.672 3     -7581.305 3     -5116.42246  23672257.80946
  20529146.398 7     70461.188 7     50049.31648  20529144.10948
  20566746.063 6   -102549.293 6    -74514.21148  20566742.99248
  23564931.242 3     58373.074 3     37626.54746  23564925.93846
  24406649.922 5   -311060.223 5   -205972.30546  24406646.15246
  20558281.281 7     42403.809 7     29537.67649  20558281.79749
  22734504.148 4   -277534.070 4   -196881.82446  22734504.62546
  23544118.945 6    162641.266 6    115657.28946  23544116.21946
  21523006.219 7      6608.621 7      4235.05148  21523001.51648
  22494189.742 6    240009.688 6    175142.46947  22494190.77747
 18  5 30  0 24 10.0000000  0 10G03G14G16G22G23G26G27G29G31G32      -0.000337595
  23672154.60915     -8118.75415     -5534.95356  23672155.99656
  20529961.039 6     74740.332 6     53383.71148  20529958.50848
  20565593.680 7   -108604.016 7    -79232.18048  20565590.73448
  23565522.85216     61482.21916                
  24402932.789 5   -330593.352 5   -221192.93446  24402929.05146
  20558704.023 7     44623.215 7     31267.07849  20558703.92649
  22730614.273 5   -297974.430 5   -212809.54347  22730613.94947
  23546012.492 5    172596.563 5    123414.65646  23546010.75446
  21523042.125 7      6799.488 7      4383.77348  21523038.75848
  22496638.617 6    252880.289 6    185171.52047  22496639.94547
 18  5 30  0 24 15.0000000  0 10G03G14G16G22G23G26G27G29G31G32      -0.000339159
  23672051.508 5     -8662.891 5     -5958.99646  23672052.12146
  20530774.664 6     79015.785 6     56715.23048  20530772.11748
  20564440.094 6   -114664.551 6    -83954.67248  20564437.29348
  23566112.266 6     64582.410 6     38400.76657  23566107.26657
  24399212.414 5   -350141.855 5   -236425.55546  24399208.80946
  20559124.141 7     46832.543 7     32988.62549  20559124.27749
  22726721.53115   -318428.64515   -228747.94957  22726721.98857
  23547905.609 6    182545.102 6    131166.77046  23547903.59446
  21523075.672 7      6975.227 7      4520.70748  21523072.00048
  22499086.023 6    265741.328 6    195193.09047  22499087.08247
 18  5 30  0 24 20.0000000  0 10G03G14G16G22G23G26G27G29G31G32      -0.000340734
  23671946.609 6     -9214.449 6     -6388.79347  23671947.07447
  20531587.258 6     83286.211 6     60042.82048  20531584.84448
  20563286.180 7   -120732.230 7    -88682.74248  20563282.50848
  23566699.680 5     67670.984 5     40807.43847  23566695.19547
  24395490.320 5   -369706.867 5   -251671.01246  24395485.87946
  20559542.297 7     49030.520 7     34701.34849  20559542.84049
  22722827.094 5   -338897.531 5   -244697.72747  22722826.91447
  23549796.922 6    192485.703 6    138912.68447  23549795.91447
  21523105.422 7      7134.430 7      4644.76248  21523102.35548
  22501531.305 6    278591.469 6    205206.16847  22501532.63347
 18  5 30  0 24 25.0000000  0 10G03G14G16G22G23G26G27G29G31G32      -0.000342323
  23671840.375 5     -9774.391 5     -6825.12546  23671840.71546
  20532398.563 6     87550.563 6     63365.69148  20532396.10948
  20562129.273 6   -126808.094 6    -93417.18048  20562126.58248
  23567284.859 5     70746.941 5     43204.28147  23567280.96147
  24391763.797 5   -389289.508 5   -266930.21546  24391759.13746
  20559958.250 7     51216.133 7     36404.42649  20559958.55949
  22718928.313 6   -359382.609 6   -260660.12947  22718928.56647
  23551686.672 5    202417.270 5    146651.55947  23551685.89547
  21523132.656 7      7276.094 7      4755.14548  21523129.35248
  22503974.656 6    291429.660 6    215209.93447  22503975.57447
 18  5 30  0 24 30.0000000  0 10G03G14G16G22G23G26G27G29G31G32      -0.000343925
  23671731.414 5    -10341.281 5     -7266.83647  23671732.59847
  20533209.195 6     91810.398 6     66685.04348  20533206.82848
  20560972.172 7   -132890.570 7    -98156.77748  20560968.85948
  23567868.805 5     73811.766 5     45592.43047  23567864.05147
  24388033.609 5   -408888.246 5   -282201.95346  24388030.00446
  20560371.945 7     53390.863 7     38099.01249  20560372.52749
  22715027.078 5   -379882.313 5   -276633.91047  22715027.34847
  23553574.742 5    212341.258 5    154384.52046  23553574.52746
  21523156.547 7      7401.840 7      4853.13748  21523153.18048
  22506415.602 6    304257.461 6    225205.61747  22506415.77347
 18  5 30  0 24 35.0000000  0 10G03G14G16G22G23G26G27G29G31G32      -0.000345535
  23671622.711 5    -10913.473 5     -7712.70746  23671623.62946
  20534019.523 6     96067.258 6     70002.06648  20534017.01648
  20559813.609 7   -138978.164 7   -102900.36748  20559810.80548
  23568450.250 5     76867.051 5     47973.19147  23568445.41447
  24384300.930 5   -428501.527 5   -297485.03146  24384297.44146
  20560783.859 7     55556.254 7     39786.32449  20560784.21949
  22711124.227 6   -400395.125 6   -292617.91447  22711124.21147
  23555462.523 5    222259.199 5    162112.76647  23555461.81647
  21523177.922 7      7513.148 7      4939.85248  21523174.60948
  22508855.164 6    317076.371 6    235194.36747  22508855.55547
 18  5 30  0 24 40.0000000  0 10G03G14G16G22G23G26G27G29G31G32      -0.000347160
  23671512.539 5    -11492.000 5     -8163.51647  23671513.70747
  20534828.602 6    100320.145 6     73316.00048  20534826.40248
  20558653.820 7   -145071.855 7   -107648.69948  20558650.71948
  23569029.336 5     79911.789 5     50345.69147  23569025.19547
  24380565.852 5   -448130.262 5   -312780.13746  24380562.38746
  20561193.695 7     57711.340 7     41465.61749  20561194.71549
  22707218.234 6   -420921.922 6   -308612.82047  22707218.45747
  23557348.727 5    232170.172 5    169835.59446  23557347.69546
  21523195.836 7      7609.070 7      5014.59048  21523192.62948
  22511292.836 6    329885.438 6    245175.44147  22511292.89847
 18  5 30  0 24 45.0000000  0 10G03G14G16G22G23G26G27G29G31G32      -0.000348793
  23671401.891 5    -12076.500 5     -8618.96147  23671402.69947
  20535637.773 6    104569.426 6     76627.12148  20535634.67648
  20557493.258 7   -151171.270 7   -112401.49248  20557489.96948
  23569606.672 6     82946.285 6     52710.22746  23569602.92246
  24376828.141 5   -467774.066 5   -328086.97346  24376824.34446
  20561602.414 7     59856.441 7     43137.11749  20561602.81649
  22703309.438 6   -441462.402 6   -324618.39147  22703309.48447
  23559233.445 6    242074.484 6    177553.23447  23559232.24247
  21523211.258 7      7689.980 7      5077.62548  21523208.24248
  22513727.914 6    342685.016 6    255149.12948  22513728.91448
 18  5 30  0 24 50.0000000  0 10G03G14G16G22G23G26G27G29G31G32      -0.000350439
  23671289.297 5    -12666.160 5     -9078.45747  23671290.46947
  20536444.961 6    108815.973 6     79936.10948  20536443.18848
  20556331.594 7   -157275.563 7   -117158.08248  20556328.56348
  23570182.313 6     85971.406 6     55067.45746  23570178.52046
  24373087.172 5   -487432.184 5   -343404.98846  24373083.80946
  20562008.836 7     61992.453 7     44801.53949  20562009.15649
  22699398.328 6   -462015.695 6   -340633.93847  22699398.40647
  23561117.008 6    251972.980 6    185266.35247  23561116.03147
  21523224.078 7      7756.707 7      5129.62148  21523220.59048
  22516161.984 6    355475.902 6    265116.03948  22516162.77748
 18  5 30  0 24 55.0000000  0 10G03G14G16G22G23G26G27G29G31G32      -0.000352095
  23671176.672 5    -13259.379 5     -9540.71147  23671177.68447
  20537252.977 6    113061.324 6     83244.17648  20537250.80148
  20555169.461 6   -163383.152 6   -121917.23848  20555166.26648
  23570757.516 6     88988.742 6     57418.62946  23570752.61346
  24369344.164 5   -507102.887 5   -358732.80946  24369340.91846
  20562413.898 7     64120.918 7     46460.07449  20562414.60549
  22695484.930 6   -482580.168 6   -356658.20347  22695484.57447
  23562999.836 6    261867.313 6    192976.22746  23562998.13346
  21523234.281 7      7810.934 7      5171.86748  21523231.14548
  22518595.047 6    368259.730 6    275077.44947  22518595.53547
 18  5 30  0 25  0.0000000  0 10G03G14G16G22G23G26G27G29G31G32      -0.000353760
  23671062.563 5    -13857.375 5    -10006.69547  23671064.03547
  20538060.594 6    117304.258 6     86550.34848  20538058.16048
  20554006.234 7   -169495.313 7   -126679.96948  20554003.25448
  23571329.391 6     91997.027 6     59762.73047  23571324.76247
  24365597.648 4   -526787.492 4   -374071.47746  24365594.62546
  20562816.922 7     66240.578 7     48111.75849  20562817.71549
  22691569.328 5   -503157.098 5   -372692.18047  22691569.26647
  23564882.234 6    271756.133 6    200681.77747  23564880.26247
  21523242.242 7      7851.344 7      5203.35248  21523238.76648
  22521025.781 6    381035.199 6    285032.34848  22521026.51248
 18  5 30  0 25  5.0000000  0 10G03G14G16G22G23G26G27G29G31G32      -0.000355436
  23670948.469 5    -14459.371 5    -10475.80947  23670950.13347
  20538867.242 6    121545.617 6     89855.30548  20538865.31348
  20552842.656 6   -175611.191 6   -131445.59448  20552839.69148
  23571900.078 6     94997.035 6     62100.39847  23571895.87147
  24361849.125 4   -546485.133 4   -389420.26246  24361846.31346
  20563218.953 7     68352.227 7     49757.20349  20563219.35949
  22687650.695 5   -523745.625 5   -388735.18447  22687651.21547
  23566762.891 6    281640.273 6    208383.70346  23566761.35946
  21523247.164 7      7878.742 7      5224.70348  21523244.21148
  22523456.055 6    393803.148 6    294981.38747  22523456.42247
 18  5 30  0 25 10.0000000  0 10G03G14G16G22G23G26G27G29G31G32      -0.000357121
  23670833.094 5    -15064.320 5    -10947.19147  23670834.97347
  20539674.609 6    125786.398 6     93159.80148  20539672.45748
  20551678.375 7   -181729.758 7   -136213.30148  20551674.85948
  23572469.266 5     97989.891 5     64432.47347  23572465.59047
  24358099.109 4   -566194.684 4   -404778.32046  24358096.02046
  20563619.563 7     70456.969 7     51397.25448  20563620.28948
  22683731.156 6   -544344.648 6   -404786.37947  22683731.23047
  23568642.906 6    291520.828 6    216082.82847  23568641.69547
  21523250.492 7      7894.199 7      5236.74648  21523247.26248
  22525884.492 6    406564.625 6    304925.38747  22525884.75047
 18  5 30  0 25 15.0000000  0 10G03G14G16G22G23G26G27G29G31G32      -0.000358816
  23670717.406 5    -15672.984 5    -11421.49246  23670718.68846
  20540481.172 6    130025.879 6     96463.29348  20540479.08248
  20550513.430 7   -187851.762 7   -140983.69148  20550510.18448
  23573037.391 5    100974.727 5     66758.30547  23573033.75047
  24354345.633 5   -585916.941 5   -420146.32446  24354342.78546
  20564018.484 7     72554.004 7     53031.30549  20564019.28549
  22679808.852 5   -564954.934 5   -420846.34847  22679809.54347
  23570522.797 6    301396.977 6    223778.51647  23570521.74247
  21523251.000 7      7896.984 7      5238.91448  21523247.47348
  22528311.156 6    419318.836 6    314863.72347  22528312.09447
 18  5 30  0 25 20.0000000  0 10G03G14G16G22G23G26G27G29G31G32      -0.000360521
  23670600.602 5    -16285.996 5    -11899.15647  23670601.92247
  20541287.875 6    134263.434 6     99765.27048  20541285.43048
  20549347.320 7   -193977.840 7   -145757.26648  20549344.25048
  23573604.484 5    103950.941 5     69077.42246  23573599.91846
  24350590.367 4   -605652.566 4   -435524.72346  24350587.48846
  20564415.969 7     74642.691 7     54658.85549  20564416.35949
  22675885.125 6   -585577.129 6   -436915.60547  22675885.30147
  23572400.922 6    311268.102 6    231470.29747  23572399.80147
  21523248.633 7      7886.441 7      5230.69548  21523245.37948
  22530736.789 6    432065.125 6    324795.87547  22530737.60247
 18  5 30  0 25 25.0000000  0 10G03G14G16G22G23G26G27G29G31G32      -0.000362236
  23670482.258 5    -16902.480 5    -12379.54747  23670485.10947
  20542093.875 6    138499.957 6    103066.44948  20542091.63348
  20548180.867 6   -200107.090 6   -150533.30548  20548177.99248
  23574169.445 6    106919.410 6     71390.49646  23574164.37146
  24346831.344 4   -625400.582 4   -450912.78146  24346829.23446
  20564812.141 7     76723.949 7     56280.60249  20564812.79749
  22671958.234 5   -606210.281 5   -452993.37947  22671959.26247
  23574278.156 6    321135.113 6    239158.85247  23574277.32047
  21523244.703 7      7863.508 7      5212.82848  21523241.06348
  22533161.125 6    444804.457 6    334722.62148  22533161.82448
 18  5 30  0 25 30.0000000  0 10G03G14G16G22G23G26G27G29G31G32      -0.000363962
  23670365.250 5    -17521.742 5    -12862.10547  23670367.27047
  20542899.898 6    142736.098 6    106367.33248  20542897.91848
  20547014.430 6   -206238.859 6   -155311.31648  20547011.17648
  23574732.109 5    109880.789 5     73698.06646  23574727.86346
  24343072.609 5   -645160.453 5   -466310.07446  24343068.78146
  20565206.750 7     78798.367 7     57897.02349  20565207.72349
  22668030.453 5   -626853.727 5   -469079.18447  22668030.46147
  23576156.305 6    330998.633 6    246844.71946  23576153.75446
  21523238.234 7      7828.867 7      5185.83248  21523234.81348
  22535583.359 6    457537.430 6    344644.40247  22535584.82847
 18  5 30  0 25 35.0000000  0 10G03G14G16G22G23G26G27G29G31G32      -0.000365694
  23670247.305 5    -18142.352 5    -13345.69147  23670249.03147
  20543706.313 6    146973.344 6    109669.08248  20543703.75848
  20545847.227 6   -212371.680 6   -160090.14148  20545844.14548
  23575295.102 5    112836.598 5     76001.28546  23575290.73046
  24339309.727 5   -664930.500 5   -481715.30546  24339307.07846
  20565600.563 7     80867.504 7     59509.34049  20565601.11349
  22664099.891 5   -647505.922 5   -485171.80547  22664100.30547
  23578031.789 6    340860.141 6    254529.02046  23578030.07046
  21523229.711 7      7784.000 7      5150.86748  21523226.35548
  22538005.648 6    470265.535 6    354562.39547  22538006.73047
 18  5 30  0 25 40.0000000  0 10G03G14G16G22G23G26G27G29G31G32      -0.000367435
  23670129.320 5    -18764.230 5    -13830.27347  23670130.57047
  20544512.750 6    151211.727 6    112971.70748  20544510.48848
  20544680.227 7   -218505.551 7   -164869.77748  20544676.68448
  23575856.781 5    115786.793 5     78300.12547  23575851.80947
  24335545.641 5   -684710.789 5   -497128.52046  24335542.56646
  20565993.344 7     82931.336 7     61117.51649  20565993.93849
  22660168.258 5   -668166.867 5   -501271.24247  22660169.07047
  23579908.320 6    350719.711 6    262211.78947  23579906.27347
  21523218.938 7      7728.879 7      5107.90648  21523215.28548
  22540427.070 6    482988.805 6    364476.61747  22540427.83247
 18  5 30  0 25 45.0000000  0 10G03G14G16G22G23G26G27G29G31G32      -0.000369184
  23670010.258 5    -19387.496 5    -14315.95747  23670011.99647
  20545319.859 6    155451.172 6    116275.16048  20545317.45748
  20543513.102 6   -224640.465 6   -169650.24248  20543509.51648
  23576416.969 5    118731.352 5     80594.59046  23576412.42246
  24331779.180 5   -704501.336 5   -512549.72746  24331776.64846
  20566384.984 7     84989.789 7     62721.50049  20566385.80149
  22656235.086 5   -688836.605 5   -517377.52747  22656235.82047
  23581783.836 6    360577.191 6    269892.94146  23581781.95746
  21523206.289 7      7663.527 7      5056.97748  21523203.12948
  22542847.422 6    495707.137 6    374386.99647  22542848.35247
 18  5 30  0 25 50.0000000  0 10G03G14G16G22G23G26G27G29G31G32      -0.000370941
  23669891.656 5    -20012.227 5    -14802.75447  23669893.55547
  20546126.406 6    159691.570 6    119579.36748  20546124.40648
  20542344.805 6   -230776.543 6   -174431.59848  20542341.53148
  23576976.016 5    121670.145 5     82884.55146  23576971.27346
  24328011.609 4   -724302.211 4   -527978.97346  24328008.53946
  20566775.586 7     87042.758 7     64321.21949  20566776.21149
  22652300.695 5   -709515.172 5   -533490.69547  22652300.39547
  23583659.320 6    370432.516 6    277572.41446  23583657.59446
  21523192.438 7      7587.789 7      4997.94948  21523188.61748
  22545266.578 6    508420.453 6    384293.46947  22545267.95347
 18  5 30  0 25 55.0000000  0 10G03G14G16G22G23G26G27G29G31G32      -0.000372707
  23669773.273 5    -20638.285 5    -15290.59447  23669774.10247
  20546933.859 6    163933.090 6    122884.44548  20546931.39148
  20541176.852 6   -236913.648 6   -179213.75448  20541173.52748
  23577534.211 5    124603.375 5     85170.17246  23577528.99646
  24324241.711 5   -744113.277 5   -543416.15646  24324238.48046
  20567164.688 7     89090.449 7     65916.82049  20567166.18049
  22648363.555 5   -730202.488 5   -549610.69147  22648363.76247
  23585534.805 5    380285.820 5    285250.29346  23585532.14846
  21523175.344 7      7501.801 7      4930.94548  21523172.23048
  22547684.859 6    521128.867 6    394196.11347  22547685.91047
 18  5 30  0 26  0.0000000  0 10G03G14G16G22G23G26G27G29G31G32      -0.000374483
  23669653.953 5    -21266.914 5    -15780.43446  23669654.38346
  20547740.742 6    168174.488 6    126189.43448  20547738.33648
  20540009.203 7   -243053.031 7   -183997.69948  20540005.84448
  23578091.047 5    127529.730 5     87450.45746  23578085.68846
  24320469.805 5   -763935.793 5   -558862.28946  24320466.52746
  20567553.805 7     91131.520 7     67507.25849  20567554.51649
  22644424.914 5   -750899.719 5   -565738.38347  22644424.80947
  23587408.820 6    390135.824 6    292925.61746  23587406.70346
  21523157.242 7      7404.379 7      4855.03548  21523153.93048
  22550101.875 6    533831.148 6    404093.98047  22550103.28547
 18  5 30  0 26  5.0000000  0 10G03G14G16G22G23G26G27G29G31G32      -0.000376266
  23669533.227 5    -21897.254 5    -16271.60246  23669534.61346
  20548548.313 6    172416.660 6    129495.00848  20548545.82048
  20538840.469 7   -249193.824 7   -188782.73848  20538837.05548
  23578646.742 6    130450.102 6     89726.06346  23578641.68046
  24316696.016 5   -783768.855 5   -574316.62946  24316692.17246
  20567940.656 7     93166.883 7     69093.25849  20567941.30149
  22640484.633 5   -771605.977 5   -581873.12547  22640485.15647
  23589283.461 6    399983.445 6    300599.08646  23589280.85246
  21523136.453 7      7296.410 7      4770.89548  21523133.21948
  22552518.344 6    546528.172 6    413987.75847  22552519.53147
 18  5 30  0 26 10.0000000  0 10G03G14G16G22G23G26G27G29G31G32      -0.000378059
  23669413.438 5    -22528.300 5    -16763.35046  23669414.38346
  20549355.602 6    176660.563 6    132801.93448  20549353.66448
  20537671.570 7   -255335.055 7   -193568.11748  20537668.18848
  23579201.242 6    133365.398 6     91997.71947  23579196.68847
  24312919.242 5   -803611.395 5   -589778.32046  24312916.98846
  20568327.773 7     95197.504 7     70675.54349  20568328.15249
  22636542.891 5   -792320.211 5   -598014.09047  22636543.71547
  23591156.438 6    409829.625 6    308271.42646  23591154.61746
  21523114.414 7      7178.828 7      4679.26248  21523110.82048
  22554933.563 6    559220.879 6    423878.16047  22554935.17647
 18  5 30  0 26 15.0000000  0 10G03G14G16G22G23G26G27G29G31G32      -0.000379858
  23669293.430 5    -23160.043 5    -17255.62146  23669293.96946
  20550163.727 6    180906.230 6    136110.25448  20550161.27048
  20536502.664 7   -261476.609 7   -198353.74648  20536499.80548
  23579755.195 5    136275.785 5     94265.53146  23579750.70746
  24309142.430 5   -823463.426 5   -605247.44146  24309139.40246
  20568712.695 7     97223.449 7     72254.21149  20568713.43049
  22632599.281 6   -813042.469 6   -614161.29747  22632599.71147
  23593029.984 6    419674.418 6    315942.69146  23593028.09846
  21523089.742 7      7051.758 7      4580.24248  21523086.96948
  22557347.586 6    571909.375 6    433765.28547  22557349.02747
 18  5 30  0 26 20.0000000  0 10G03G14G16G22G23G26G27G29G31G32      -0.000381666
  23669172.219 5    -23792.824 5    -17748.70346  23669173.27346
  20550971.727 6    185153.379 6    139419.70348  20550969.41448
  20535334.094 7   -267618.898 7   -203139.93848  20535330.91848
  23580307.859 6    139180.816 6     96529.19946  23580303.56646
  24305362.813 5   -843325.289 5   -620724.20346  24305359.70346
  20569097.328 7     99244.320 7     73828.91049  20569098.28949
  22628654.617 5   -833773.063 5   -630315.01647  22628655.05947
  23594902.523 5    429517.430 5    323612.56346  23594901.05546
  21523063.984 7      6914.813 7      4473.52348  21523060.62148
  22559761.844 6    584593.199 6    443648.77047  22559763.14847
 18  5 30  0 26 25.0000000  0 10G03G14G16G22G23G26G27G29G31G32      -0.000383482
  23669052.250 5    -24425.578 5    -18241.75446  23669052.92246
  20551780.219 6    189403.063 6    142731.14548  20551778.16448
  20534165.195 7   -273760.816 7   -207925.84848  20534162.14148
  23580859.805 6    142081.598 6     98789.53146  23580854.83646
  24301580.977 5   -863195.770 5   -636207.71146  24301578.00846
  20569481.203 7    101261.281 7     75400.57449  20569482.06349
  22624708.953 5   -854510.828 5   -646474.30147  22624708.56647
  23596775.320 5    439359.805 5    331281.93846  23596773.86746
  21523036.531 7      6769.133 7      4360.00448  21523033.20348
  22562174.922 6    597273.574 6    453529.57048  22562175.98448
 18  5 30  0 26 30.0000000  0 10G03G14G16G22G23G26G27G29G31G32      -0.000385303
  23668931.695 5    -25058.441 5    -18734.89546  23668932.41046
  20552589.281 6    193655.063 6    146044.39148  20552587.10248
  20532996.555 7   -279902.547 7   -212711.61748  20532993.32048
  23581411.398 6    144977.910 6    101046.40247  23581405.88347
  24297799.422 5   -883075.082 5   -651698.11746  24297795.14546
  20569864.250 7    103274.086 7     76968.98849  20569865.18049
  22620760.063 5   -875255.969 5   -662639.34047  22620761.40647
  23598648.508 5    449201.320 5    338950.63346  23598646.66046
  21523007.031 7      6614.500 7      4239.50848  21523003.71948
  22564587.281 6    609950.195 6    463407.43447  22564588.04347
 18  5 30  0 26 35.0000000  0 10G03G14G16G22G23G26G27G29G31G32      -0.000387133
  23668811.570 5    -25690.965 5    -19227.77747  23668811.76647
  20553398.992 6    197909.871 6    149359.81648  20553396.86348
  20531827.930 6   -286043.645 6   -217496.88748  20531824.64848
  23581961.781 6    147870.230 6    103300.14546  23581956.07046
  24294013.609 5   -902962.852 5   -667195.08646  24294010.50446
  20570246.750 7    105283.176 7     78534.50449  20570247.27049
  22616812.008 6   -896008.004 6   -678809.75847  22616812.64147
  23600521.914 6    459042.410 6    346619.00447  23600519.94147
  21522976.445 7      6451.441 7      4112.44148  21522972.47348
  22566998.992 6    622623.551 6    473282.76647  22567000.03947
 18  5 30  0 26 40.0000000  0 10G03G14G16G22G23G26G27G29G31G32      -0.000388971
  23668691.648 6    -26324.223 6    -19721.24247  23668691.53547
  20554209.453 6    202166.402 6    152676.59048  20554206.97748
  20530659.188 6   -292185.152 6   -222282.48448  20530656.14148
  23582510.547 5    150757.504 5    105549.97747  23582505.80547
  24290227.461 5   -922859.996 5   -682699.37546  24290224.35546
  20570628.281 7    107287.543 7     80096.34849  20570629.20349
  22612861.797 6   -916767.918 6   -694986.30947  22612861.59847
  23602394.172 6    468882.063 6    354286.25847  23602392.38747
  21522943.141 7      6278.887 7      3977.98448  21522939.79348
  22569410.063 6    635292.629 6    483154.75847  22569410.60247
 18  5 30  0 26 45.0000000  0 10G03G14G16G22G23G26G27G29G31G32      -0.000390816
  23668571.031 5    -26956.430 5    -20213.88347  23668570.98447
  20555019.648 6    206426.473 6    155996.12148  20555017.30948
  20529491.008 7   -298325.305 7   -227067.01648  20529487.57448
  23583059.898 6    153641.504 6    107797.22347  23583053.99247
  24286439.180 5   -942764.793 5   -698209.60546  24286436.57046
  20571008.906 7    109288.941 7     81655.87149  20571009.60249
  22608909.914 5   -937533.957 5   -711167.65647  22608910.29347
  23604266.688 6    478722.078 6    361953.81646  23604264.85546
  21522908.836 7      6098.625 7      3837.50848  21522905.49248
  22571820.242 6    647959.156 6    493024.76648  22571820.94948
 18  5 30  0 26 50.0000000  0 10G03G14G16G22G23G26G27G29G31G32      -0.000392668
  23668450.414 5    -27588.582 5    -20706.46947  23668450.99647
  20555831.117 6    210689.051 6    159317.61348  20555828.87948
  20528322.820 7   -304465.047 7   -231851.23448  20528319.57048
  23583608.672 6    156521.234 6    110041.16446  23583602.15246
  24282651.008 5   -962678.141 5   -713726.50046  24282646.91446
  20571389.164 7    111286.387 7     83212.32049  20571389.69149
  22604956.500 5   -958307.063 5   -727354.47747  22604957.24247
  23606139.195 6    488561.383 6    369620.79346  23606137.16446
  21522872.398 7      5909.645 7      3690.26248  21522869.27748
  22574230.102 6    660622.160 6    502892.03548  22574230.68448
 18  5 30  0 26 55.0000000  0 10G03G14G16G22G23G26G27G29G31G32      -0.000394527
  23668330.039 5    -28221.430 5    -21199.58647  23668330.39847
  20556642.523 6    214953.480 6    162640.53548  20556640.38348
  20527154.391 7   -310605.152 7   -236635.73848  20527150.89148
  23584155.070 5    159395.941 5    112281.21146  23584149.65246
  24278858.898 5   -982600.832 5   -729250.67246  24278855.97746
  20571768.313 7    113279.133 7     84765.10948  20571768.87548
  22601001.992 5   -979087.953 5   -743547.37147  22601002.22347
  23608010.602 6    498399.273 6    377286.68047  23608009.52747
  21522834.898 7      5711.254 7      3535.66448  21522831.48048
  22576638.508 6    673280.906 6    512755.98047  22576639.13347
 18  5 30  0 27  0.0000000  0 10G03G14G16G22G23G26G27G29G31G32      -0.000396393
  23668209.344 5    -28853.086 5    -21691.79747  23668210.44147
  20557454.898 6    219221.594 6    165966.34048  20557452.53548
  20525986.305 7   -316743.730 7   -241419.04748  20525982.66048
  23584701.156 5    162267.531 5    114518.79746  23584696.56646
  24275066.539 5  -1002530.906 5   -744780.63746  24275062.99246
  20572147.125 7    115269.023 7     86315.67249  20572147.64549
  22597045.844 5   -999874.789 5   -759744.90647  22597046.94547
  23609882.883 6    508237.641 6    384952.92247  23609881.82447
  21522796.039 7      5505.352 7      3375.21148  21522792.80548
  22579046.859 6    685937.188 6    522618.00447  22579047.98847
 18  5 30  0 27  5.0000000  0 10G03G14G16G22G23G26G27G29G31G32      -0.000398268
  23668088.750 5    -29484.883 5    -22184.11747  23668090.56647
  20558267.805 6    223492.066 6    169293.97348  20558265.43448
  20524817.539 6   -322882.148 6   -246202.23048  20524814.60548
  23585247.414 6    165134.582 6    116752.86346  23585242.05546
  24271272.789 5  -1022469.773 5   -760317.40646  24271269.14146
  20572524.758 7    117254.734 7     87862.98048  20572525.17648
  22593089.531 5  -1020668.848 5   -775948.06347  22593089.67247
  23611755.117 5    518075.148 5    392618.51646  23611753.89146
  21522754.445 7      5290.555 7      3207.84448  21522751.55148
  22581454.578 6    698589.770 6    532477.15247  22581455.72347
 18  5 30  0 27 10.0000000  0 10G03G14G16G22G23G26G27G29G31G32      -0.000400148
  23667968.867 5    -30116.273 5    -22676.10247  23667969.77047
  20559080.539 6    227765.500 6    172623.91848  20559078.16048
  20523649.719 7   -329019.781 7   -250984.80948  20523646.84448
  23585791.922 6    167997.730 6    118983.88346  23585787.12546
  24267477.133 5  -1042416.785 5   -775860.53146  24267473.56346
  20572902.125 7    119236.855 7     89407.48449  20572902.97749
  22589131.703 5  -1041469.547 5   -792156.39547  22589131.37147
  23613626.898 6    527912.285 6    400283.81346  23613625.13746
  21522712.609 7      5067.480 7      3034.01248  21522709.09448
  22583861.828 6    711239.172 6    542333.81647  22583862.74647
 18  5 30  0 27 15.0000000  0 10G03G14G16G22G23G26G27G29G31G32      -0.000402035
  23667849.391 5    -30745.516 5    -23166.43047  23667850.29347
  20559894.828 6    232043.578 6    175957.48048  20559892.35248
  20522482.539 7   -335154.910 7   -255765.43048  20522479.24248
  23586336.320 6    170858.668 6    121213.17246  23586331.68846
  24263679.195 4  -1062370.195 4   -791408.65246  24263675.82446
  20573278.750 7    121217.078 7     90950.51649  20573279.50849
  22585172.148 5  -1062275.078 5   -808368.50447  22585172.04747
  23615498.938 6    537750.836 6    407950.22746  23615497.00046
  21522668.313 7      4837.805 7      2855.03548  21522665.46948
  22586268.945 6    723887.098 6    552189.32847  22586269.68847
 18  5 30  0 27 20.0000000  0 10G03G14G16G22G23G26G27G29G31G32      -0.000403929
  23667730.789 5    -31372.508 5    -23655.00047  23667730.92647
  20560709.938 6    236326.395 6    179294.73048  20560707.27348
  20521315.234 7   -341287.461 7   -260544.03948  20521312.68448
  23586880.516 6    173717.512 6    123440.82847  23586875.79747
  24259881.438 5  -1082329.895 5   -806961.66846  24259877.84046
  20573655.320 7    123195.547 7     92492.17649  20573655.80949
  22581212.039 5  -1083085.410 5   -824584.34847  22581212.08647
  23617371.828 6    547590.898 6    415617.77046  23617369.14546
  21522623.797 7      4601.680 7      2671.02348  21522620.58248
  22588675.531 6    736533.672 6    562043.79747  22588676.17647
 18  5 30  0 27 25.0000000  0 10G03G14G16G22G23G26G27G29G31G32      -0.000405828
  23667611.008 5    -31997.336 5    -24141.87947  23667612.26247
  20561525.664 6    240613.898 6    182635.63748  20561522.86348
  20520148.898 6   -347417.488 6   -265320.68848  20520145.53948
  23587423.859 6    176574.152 6    125666.79747  23587419.14547
  24256081.953 5  -1102295.953 5   -822519.61746  24256078.29346
  20574031.430 7    125172.117 7     94032.35949  20574032.21149
  22577250.688 5  -1103900.594 5   -840803.96547  22577251.09847
  23619244.352 6    557432.309 6    423286.43846  23619241.52746
  21522577.117 7      4359.078 7      2481.98448  21522574.11748
  22591081.570 6    749178.801 6    571897.12147  22591082.47347
 18  5 30  0 27 30.0000000  0 10G03G14G16G22G23G26G27G29G31G32      -0.000407732
  23667492.992 5    -32619.934 5    -24627.03147  23667494.28947
  20562342.297 6    244906.215 6    185980.29348  20562339.55948
  20518982.844 6   -353544.867 6   -270095.27348  20518979.34448
  23587966.867 6    179428.730 6    127891.12546  23587962.23446
  24252281.594 5  -1122268.195 5   -838082.41846  24252278.17246
  20574407.406 7    127146.945 7     95571.18048  20574407.60548
  22573288.813 5  -1124720.434 5   -857027.21547  22573289.62147
  23621117.313 6    567275.277 6    430956.27746  23621115.03946
  21522530.289 7      4110.105 7      2287.97348  21522527.05948
  22593487.602 6    761822.594 6    581749.42247  22593488.81347
 18  5 30  0 27 35.0000000  0 10G03G14G16G22G23G26G27G29G31G32      -0.000409643
  23667374.594 5    -33240.621 5    -25110.67646  23667375.84046
  20563160.219 6    249202.969 6    189328.41448  20563157.94948
  20517817.180 6   -359670.016 6   -274868.10548  20517814.21148
  23588509.922 6    182280.828 6    130113.53146  23588504.97746
  24248479.164 5  -1142247.039 5   -853650.34846  24248476.39546
  20574783.352 7    129119.680 7     97108.37548  20574782.99248
  22569326.875 5  -1145545.328 5   -873254.39147  22569326.69147
  23622990.867 5    577119.355 5    438626.98046  23622988.60246
  21522481.766 7      3854.371 7      2088.70348  21522478.08648
  22595893.258 6    774464.656 6    591600.36347  22595894.18447
 18  5 30  0 27 40.0000000  0 10G03G14G16G22G23G26G27G29G31G32      -0.000411562
  23667256.430 5    -33860.348 5    -25593.58647  23667257.83247
  20563978.516 6    253503.242 6    192679.27348  20563976.19548
  20516652.039 7   -365793.836 7   -279639.92248  20516649.16448
  23589051.719 6    185129.516 6    132333.28147  23589046.77047
  24244676.711 5  -1162233.387 5   -869224.12146  24244673.35246
  20575157.453 7    131089.270 7     98643.12149  20575157.99249
  22565362.594 5  -1166376.164 5   -889486.22347  22565362.62947
  23624863.648 5    586963.637 5    446297.81347  23624862.21947
  21522431.461 7      3590.938 7      1883.43848  21522428.08248
  22598298.102 6    787104.102 6    601449.26247  22598299.28947
 18  5 30  0 27 45.0000000  0 10G03G14G16G22G23G26G27G29G31G32      -0.000413486
  23667139.070 5    -34478.348 5    -26075.14547  23667140.17647
  20564797.805 6    257807.746 6    196033.43048  20564795.36748
  20515486.797 7   -371915.574 7   -284410.10948  20515483.33248
  23589593.031 5    187975.555 5    134550.98846  23589588.55146
  24240871.914 5  -1182226.430 5   -884803.11346  24240868.90246
  20575532.195 7    133056.570 7    100176.07848  20575532.53948
  22561397.227 5  -1187212.191 5   -905722.08647  22561397.28147
  23626737.477 6    596808.867 6    453969.39846  23626735.91446
  21522379.945 7      3320.602 7      1672.78148  21522376.75448
  22600703.438 6    799741.633 6    611296.67247  22600704.25847
 18  5 30  0 27 50.0000000  0 10G03G14G16G22G23G26G27G29G31G32      -0.000415417
  23667021.727 5    -35094.391 5    -26555.17646  23667023.09046
  20565617.680 6    262116.805 6    199391.12948  20565615.07048
  20514322.281 6   -378034.992 6   -289178.48848  20514319.32848
  23590134.484 6    190819.234 6    136766.82846  23590129.65246
  24237066.094 5  -1202225.980 5   -900387.17646  24237062.90646
  20575905.922 7    135021.832 7    101707.44549  20575906.45349
  22557431.633 6  -1208053.117 6   -921961.77047  22557431.56647
  23628610.813 6    606655.344 6    461641.96146  23628609.72346
  21522327.203 7      3043.598 7      1456.93848  21522324.43048
  22603107.578 6    812377.504 6    621142.79347  22603108.83647
 18  5 30  0 27 55.0000000  0 10G03G14G16G22G23G26G27G29G31G32      -0.000417353
  23666904.492 5    -35708.371 5    -27033.60947  23666906.27047
  20566438.500 6    266430.488 6    202752.43848  20566436.02348
  20513158.469 7   -384151.965 7   -293944.96148  20513155.50048
  23590674.906 6    193660.559 6    138980.83246  23590670.30946
  24233259.164 5  -1222231.754 5   -915976.09046  24233255.39146
  20576279.414 7    136985.102 7    103237.26648  20576279.87548
  22553464.281 5  -1228898.848 5   -938205.18847  22553464.66447
  23630485.789 6    616503.070 6    469315.52046  23630483.72346
  21522273.422 7      2760.086 7      1236.01248  21522270.12548
  22605511.883 6    825011.836 6    630987.72347  22605513.20347
 18  5 30  0 28  0.0000000  0 10G03G14G16G22G23G26G27G29G31G32      -0.000419296
  23666788.148 5    -36321.980 5    -27511.74246  23666788.87146
  20567260.109 6    270747.055 6    206115.99648  20567257.68048
  20511994.836 7   -390268.191 7   -298710.85948  20511991.30148
  23591214.461 6    196497.930 6    141191.77346  23591210.46946
  24229450.992 5  -1242245.582 5   -931571.25046  24229447.01246
  20576652.570 7    138944.715 7    104764.23449  20576653.07449
  22549496.250 5  -1249751.043 5   -954453.65247  22549496.74247
  23632359.781 6    626350.410 6    476988.75446  23632357.41046
  21522217.930 7      2468.328 7      1008.66848  21522214.87148
  22607915.852 6    837642.883 6    640830.08647  22607916.98047
 18  5 30  0 28  5.0000000  0 10G03G14G16G22G23G26G27G29G31G32      -0.000421247
  23666672.102 5    -36934.211 5    -27988.82047  23666672.28547
  20568082.578 6    275067.578 6    209482.62948  20568079.38748
  20510831.477 7   -396382.699 7   -303475.41448  20510827.66848
  23591754.531 6    199332.258 6    143400.32447  23591749.70347
  24225640.406 5  -1262266.398 5   -947171.88346  24225637.21546
  20577024.438 7    140901.668 7    106289.12948  20577025.05148
  22545527.172 5  -1270608.676 5   -970706.34447  22545527.72347
  23634233.625 6    636198.344 6    484662.48046  23634231.23446
  21522160.781 7      2169.348 7       775.69948  21522157.61748
  22610318.953 6    850271.703 6    650670.71547  22610320.12547
 18  5 30  0 28 10.0000000  0 10G03G14G16G22G23G26G27G29G31G32      -0.000423204
  23666554.844 5    -37545.598 5    -28465.21946  23666555.78946
  20568904.805 6    279391.523 6    212851.93448  20568902.80548
  20509668.008 7   -402495.977 7   -308239.01248  20509664.55548
  23592293.602 6    202163.105 6    145606.18047  23592288.38347
  24221829.172 5  -1282294.699 5   -962778.34846  24221826.22746
  20577396.469 7    142855.445 7    107811.55149  20577396.90649
  22541557.133 6  -1291472.191 6   -986963.64847  22541557.96947
  23636107.484 6    646046.379 6    492336.27746  23636105.62946
  21522102.914 7      1862.672 7       536.71548  21522099.64148
  22612721.813 6    862897.758 6    660509.18047  22612722.81347
 18  5 30  0 28 15.0000000  0 10G03G14G16G22G23G26G27G29G31G32      -0.000425167
  23666439.453 5    -38155.414 5    -28940.42247  23666439.76247
  20569728.406 6    283719.578 6    216224.43848  20569726.18448
  20508505.344 7   -408607.324 7   -313001.09448  20508501.92648
  23592831.133 6    204991.125 6    147809.82446  23592826.55546
  24218016.313 5  -1302329.762 5   -978390.10246  24218013.60546
  20577767.398 7    144806.734 7    109332.04348  20577767.85948
  22537586.508 6  -1312340.922 6  -1003224.98447  22537586.41447
  23637981.625 6    655895.199 6    500010.68446  23637979.16846
  21522042.695 7      1549.004 7       292.30548  21522039.66848
  22615124.016 6    875521.734 6    670346.02747  22615125.01647
 18  5 30  0 28 20.0000000  0 10G03G14G16G22G23G26G27G29G31G32      -0.000427135
  23666323.656 5    -38762.359 5    -29413.37147  23666324.08647
  20570553.188 6    288053.059 6    219601.17648  20570550.75048
  20507342.109 6   -414715.406 6   -317760.65248  20507339.30148
  23593369.250 5    207817.617 5    150012.27046  23593364.23846
  24214203.195 5  -1322370.238 5   -994006.05146  24214199.68846
  20578138.688 7    146756.855 7    110851.60948  20578139.49248
  22533613.719 5  -1333213.531 5  -1019489.36347  22533614.23847
  23639855.695 6    665746.117 6    507686.72746  23639853.83246
  21521982.039 7      1229.695 7        43.48448  21521979.08248
  22617525.914 6    888144.977 6    680182.29747  22617527.34847
 18  5 30  0 28 25.0000000  0 10G03G14G16G22G23G26G27G29G31G32      -0.000429110
  23666208.484 5    -39365.980 5    -29883.72347  23666208.99647
  20571378.852 6    292392.438 6    222982.50448  20571376.48848
  20506180.875 7   -420819.758 7   -322517.28148  20506177.76648
  23593906.750 5    210643.035 5    152213.88747  23593902.69547
  24210388.422 5  -1342415.656 5  -1009625.83246  24210385.20346
  20578509.820 7    148706.301 7    112370.65649  20578510.45349
  22529641.969 5  -1354089.527 5  -1035756.36347  22529641.66447
  23641730.961 6    675599.578 6    515364.73447  23641729.32047
  21521920.336 7       905.156 7      -209.40648  21521917.07848
  22619928.070 6    900767.895 6    690018.32447  22619929.08647
 18  5 30  0 28 30.0000000  0 10G03G14G16G22G23G26G27G29G31G32      -0.000431089
  23666094.703 5    -39967.469 5    -30352.41046  23666094.66046
  20572205.422 6    296736.559 6    226367.52348  20572203.48048
  20505019.727 7   -426921.570 7   -327271.94148  20505016.57848
  23594444.023 5    213466.203 5    154413.74647  23594439.82447
  24206573.867 5  -1362467.203 5  -1025250.41446  24206569.20346
  20578880.547 7    150653.789 7    113888.16848  20578881.00448
  22525667.758 5  -1374970.113 5  -1052026.94947  22525668.91047
  23643606.586 6    685454.367 6    523043.77347  23643604.73047
  21521857.328 7       574.250 7      -467.26648  21521854.29748
  22622330.063 6    913389.266 6    699853.14847  22622331.37147
 18  5 30  0 28 35.0000000  0 10G03G14G16G22G23G26G27G29G31G32      -0.000433075
  23665980.852 5    -40566.152 5    -30818.94547  23665980.96547
  20573032.922 6    301086.102 6    229756.77348  20573030.94148
  20503859.102 7   -433020.152 7   -332024.08648  20503855.65648
  23594981.805 6    216287.793 6    156612.38347  23594977.09847
  24202756.289 5  -1382524.207 5  -1040879.27046  24202753.18846
  20579250.617 7    152600.090 7    115404.76648  20579251.27048
  22521694.313 6  -1395854.512 6  -1068300.49647  22521694.52047
  23645482.641 6    695311.188 6    530724.40247  23645480.64547
  21521793.102 7       237.664 7      -729.54748  21521790.07048
  22624731.469 6    926009.875 6    709687.37547  22624731.93447
 18  5 30  0 28 40.0000000  0 10G03G14G16G22G23G26G27G29G31G32      -0.000435066
  23665867.516 5    -41162.254 5    -31283.41847  23665867.31647
  20573861.891 6    305440.809 6    233150.05148  20573859.82448
  20502699.227 7   -439115.742 7   -336773.89848  20502695.84448
  23595517.758 5    219107.535 5    158809.58247  23595513.68847
  24198938.656 5  -1402586.863 5  -1056512.48846  24198934.52746
  20579620.656 7    154544.875 7    116920.18448  20579621.45748
  22517719.375 6  -1416743.051 6  -1084577.28147  22517718.96947
  23647358.125 6    705169.719 6    538406.34846  23647356.98046
  21521728.008 7      -104.859 7      -996.44148  21521725.21148
  22627133.164 6    938629.359 6    719520.72747  22627133.97347
 18  5 30  0 28 45.0000000  0 10G03G14G16G22G23G26G27G29G31G32      -0.000437061
  23665754.609 5    -41755.055 5    -31745.35247  23665754.65647
  20574692.063 6    309801.438 6    236547.94548  20574689.58648
  20501540.172 6   -445207.613 6   -341520.82048  20501536.73048
  23596053.984 6    221926.234 6    161005.96147  23596049.57847
  24195119.844 5  -1422654.406 5  -1072149.55146  24195116.38346
  20579990.688 7    156488.938 7    118435.03548  20579991.42248
  22513743.453 5  -1437634.867 5  -1100856.62147  22513743.64847
  23649234.945 6    715030.758 6    546090.26246  23649233.00046
  21521661.938 7      -452.547 7     -1267.37148  21521658.82448
  22629534.664 6    951248.547 6    729353.84447  22629535.41047
 18  5 30  0 28 50.0000000  0 10G03G14G16G22G23G26G27G29G31G32      -0.000439062
  23665642.469 5    -42344.598 5    -32204.75047  23665643.14547
  20575522.688 6    314167.949 6    239950.41048  20575520.29348
  20500381.563 7   -451295.836 7   -346264.88748  20500378.31648
  23596589.938 6    224743.797 6    163201.45746  23596586.31646
  24191300.742 5  -1442726.875 5  -1087790.42646  24191296.94946
  20580360.305 7    158432.227 7    119949.28148  20580361.39148
  22509766.859 5  -1458530.047 5  -1117138.57847  22509767.49647
  23651111.266 6    724894.223 6    553776.09047  23651109.85247
  21521594.836 7      -805.426 7     -1542.34848  21521591.86748
  22631936.172 6    963867.344 6    739186.66047  22631936.49247
 18  5 30  0 28 55.0000000  0 10G03G14G16G22G23G26G27G29G31G32      -0.000441071
  23665530.109 5    -42932.059 5    -32662.50047  23665530.82847
  20576354.398 6    318539.148 6    243356.53548  20576352.32448
  20499223.578 7   -457381.551 7   -351007.00848  20499220.28548
  23597125.414 6    227559.000 6    165395.11346  23597122.41046
  24187479.180 5  -1462805.414 5  -1103436.03146  24187476.00846
  20580729.789 7    160373.551 7    121462.00448  20580730.49648
  22505789.617 5  -1479429.723 5  -1133424.03947  22505790.30547
  23652987.852 6    734759.000 6    561462.90246  23652986.75846
  21521526.406 7     -1164.664 7     -1822.27748  21521523.48048
  22634337.273 6    976484.574 6    749018.25447  22634337.45347
 18  5 30  0 29  0.0000000  0 10G03G14G16G22G23G26G27G29G31G32      -0.000443085
  23665419.445 5    -43517.781 5    -33118.91047  23665419.58647
  20577186.977 6    322914.719 6    246766.06348  20577184.75848
  20498066.008 6   -463465.125 6   -355747.45748  20498062.32448
  23597660.805 6    230371.574 6    167586.73047  23597657.10247
  24183657.766 5  -1482890.316 5  -1119086.59446  24183653.85946
  20581099.000 7    162312.605 7    122972.94548  20581099.58648
  22501812.477 5  -1500334.207 5  -1149713.24647  22501812.39847
  23654866.430 6    744624.719 6    569150.48446  23654863.90246
  21521456.492 7     -1530.648 7     -2107.46948  21521453.37548
  22636737.711 6    989099.898 6    758848.36347  22636738.33247
 18  5 30  0 29  5.0000000  0 10G03G14G16G22G23G26G27G29G31G32      -0.000445103
  23665307.867 5    -44100.293 5    -33572.83247  23665309.09847
  20578021.008 6    327296.066 6    250180.10548  20578018.55148
  20496908.828 6   -469545.043 6   -360485.05548  20496905.55548
  23598196.258 5    233182.910 5    169777.37547  23598192.55547
  24179835.789 5  -1502980.121 5  -1134740.99646  24179831.05946
  20581467.734 7    164250.805 7    124483.22348  20581468.27048
  22497833.703 5  -1521242.023 5  -1166005.04747  22497833.74247
  23656743.000 5    754492.867 5    576839.94546  23656741.91446
  21521385.734 7     -1901.836 7     -2396.70348  21521383.18048
  22639137.813 6   1001714.777 6    768678.12947  22639138.72747
 18  5 30  0 29 10.0000000  0 10G03G14G16G22G23G26G27G29G31G32      -0.000447126
  23665198.109 5    -44679.435 5    -34024.10847  23665198.62147
  20578856.039 6    331683.363 6    253598.77348  20578853.66848
  20495752.813 7   -475621.211 7   -365219.73448  20495749.32448
  23598730.758 5    235993.238 5    171967.23847  23598727.07447
  24176010.820 5  -1523074.738 5  -1150399.15246  24176006.76646
  20581836.742 7    166188.297 7    125992.95348  20581837.08648
  22493854.719 5  -1542153.004 5  -1182299.32047  22493854.86747
  23658622.477 5    764363.590 5    584531.40646  23658620.30546
  21521315.156 7     -2278.094 7     -2689.89848  21521311.54748
  22641538.203 6   1014329.352 6    778507.65647  22641539.39847
 18  5 30  0 29 15.0000000  0 10G03G14G16G22G23G26G27G29G31G32      -0.000449156
  23665087.727 5    -45255.680 5    -34473.14147  23665089.30147
  20579692.063 6    336076.309 6    257021.84048  20579689.58648
  20494596.969 6   -481694.023 6   -369951.79348  20494593.55948
  23599265.797 6    238802.098 6    174155.95746  23599261.69546
  24172186.031 5  -1543174.441 5  -1166061.25446  24172181.94546
  20582204.852 7    168124.688 7    127501.83248  20582205.88348
  22489873.930 5  -1563067.543 5  -1198596.34847  22489874.75847
  23660501.047 6    774236.359 6    592224.47746  23660498.96546
  21521241.523 7     -2659.871 7     -2987.39848  21521239.26648
  22643938.414 6   1026943.219 6    788336.63347  22643939.65247
 18  5 30  0 29 20.0000000  0 10G03G14G16G22G23G26G27G29G31G32      -0.000451191
  23664979.156 5    -45828.582 5    -34919.55547  23664980.53947
  20580528.828 6    340475.152 6    260449.49248  20580526.65648
  20493441.711 6   -487763.074 6   -374680.93048  20493438.64148
  23599799.594 6    241609.859 6    176343.80547  23599795.86347
  24168360.000 4  -1563278.898 4  -1181727.05546  24168356.88346
  20582573.102 7    170060.363 7    129010.14848  20582573.97348
  22485893.758 5  -1583985.230 5  -1214895.84847  22485894.30147
  23662380.172 6    784111.750 6    599919.55946  23662378.59846
  21521168.305 7     -3046.648 7     -3288.78548  21521165.17648
  22646338.992 6   1039556.762 6    798165.35947  22646339.80947
 18  5 30  0 29 25.0000000  0 10G03G14G16G22G23G26G27G29G31G32      -0.000453232
  23664871.055 5    -46398.289 5    -35363.50047  23664872.10547
  20581367.273 6    344879.859 6    263881.73048  20581365.03148
  20492288.195 6   -493828.480 6   -379407.22748  20492284.37948
  23600334.063 6    244416.363 6    178530.68046  23600329.56646
  24164532.859 4  -1583388.211 4  -1197396.62146  24164529.99646
  20582941.625 7    171995.188 7    130517.80548  20582942.26648
  22481912.258 5  -1604906.195 5  -1231197.87547  22481912.92647
  23664259.781 6    793989.410 6    607616.44946  23664257.92246
  21521093.586 7     -3438.684 7     -3594.26648  21521090.91048
  22648739.305 6   1052169.809 6    807993.69147  22648740.10947
 18  5 30  0 29 30.0000000  0 10G03G14G16G22G23G26G27G29G31G32      -0.000455276
  23664762.750 5    -46965.008 5    -35805.09046  23664764.15646
  20582206.211 6    349290.141 6    267318.31348  20582204.25848
  20491134.547 6   -499890.527 6   -384130.90248  20491131.02748
  23600867.328 6    247221.328 6    180716.37547  23600863.11747
  24160705.680 5  -1603502.703 5  -1213070.25046  24160701.67646
  20583309.391 7    173928.895 7    132024.58648  20583310.28148
  22477931.180 5  -1625830.602 5  -1247502.62547  22477931.10947
  23666140.305 6    803869.203 6    615314.99646  23666137.57046
  21521017.633 7     -3836.121 7     -3903.96148  21521015.10248
  22651138.969 6   1064782.152 6    817821.47747  22651139.91447
 18  5 30  0 29 35.0000000  0 10G03G14G16G22G23G26G27G29G31G32      -0.000457327
  23664655.617 5    -47528.297 5    -36244.02347  23664657.16447
  20583046.977 6    353706.508 6    270759.63748  20583044.54348
  20489981.609 6   -505948.660 6   -388851.52348  20489977.97348
  23601401.648 6    250025.387 6    182901.35546  23601396.37146
  24156876.617 5  -1623621.625 5  -1228747.33646  24156873.08246
  20583677.547 7    175862.027 7    133530.90648  20583678.10248
  22473948.813 5  -1646757.949 5  -1263809.64147  22473949.02747
  23668020.484 6    813751.715 6    623015.64146  23668018.49246
  21520941.234 7     -4238.457 7     -4217.48048  21520938.86748
  22653539.117 6   1077394.313 6    827649.12147  22653540.07047
 18  5 30  0 29 40.0000000  0 10G03G14G16G22G23G26G27G29G31G32      -0.000459383
  23664548.992 5    -48088.625 5    -36680.66047  23664550.61747
  20583888.453 6    358128.477 6    274205.32448  20583885.93448
  20488828.844 7   -512003.406 7   -393569.50848  20488825.46548
  23601934.133 6    252827.934 6    185085.14546  23601929.80146
  24153046.617 5  -1643745.621 5  -1244428.36346  24153044.10546
  20584045.086 7    177794.027 7    135036.36348  20584046.01248
  22469965.758 5  -1667688.754 5  -1280119.36347  22469966.00047
  23669901.531 5    823636.348 5    630717.94546  23669899.34846
  21520864.070 7     -4646.203 7     -4535.20748  21520860.78148
  22655939.000 6   1090005.727 6    837476.18047  22655940.18047
 18  5 30  0 29 45.0000000  0 10G03G14G16G22G23G26G27G29G31G32      -0.000461443
  23664442.539 5    -48645.277 5    -37114.41847  23664444.69147
  20584730.922 6    362556.820 6    277655.96948  20584728.70348
  20487677.852 7   -518054.031 7   -398284.28548  20487674.38348
  23602467.578 6    255629.715 6    187268.34846  23602462.95346
  24149216.813 5  -1663873.848 5  -1260112.71146  24149213.93446
  20584412.820 7    179725.695 7    136541.55549  20584413.41449
  22465982.148 5  -1688622.203 5  -1296431.14547  22465982.27047
  23671783.305 6    833523.836 6    638422.48446  23671781.03946
  21520785.695 7     -5058.559 7     -4856.52748  21520782.60948
  22658338.688 6   1102617.195 6    847303.27047  22658340.10547
 18  5 30  0 29 50.0000000  0 10G03G14G16G22G23G26G27G29G31G32      -0.000463509
  23664337.555 5    -49198.168 5    -37545.25447  23664339.30547
  20585574.680 6    366991.539 6    281111.59448  20585572.14148
  20486527.344 6   -524100.469 6   -402995.80148  20486523.69148
  23603000.539 6    258430.797 6    189451.00846  23602996.14546
  24145386.828 5  -1684006.270 5  -1275800.30546  24145382.80546
  20584780.164 7    181657.023 7    138046.48849  20584781.14549
  22461998.336 5  -1709558.266 5  -1312744.94547  22461998.52047
  23673665.719 6    843414.219 6    646129.25046  23673662.86346
  21520705.711 7     -5475.465 7     -5181.38748  21520703.19548
  22660738.125 6   1115228.723 6    857130.42247  22660739.93447
 18  5 30  0 29 55.0000000  0 10G03G14G16G22G23G26G27G29G31G32      -0.000465580
  23664233.516 5    -49747.441 5    -37973.26246  23664234.91046
  20586419.672 6    371432.543 6    284572.11348  20586417.46948
  20485377.516 6   -530142.832 6   -407704.14548  20485374.20748
  23603533.359 6    261231.105 6    191633.06346  23603529.03146
  24141554.938 5  -1704142.957 5  -1291491.22746  24141550.19146
  20585147.961 7    183587.961 7    139551.10948  20585148.64148
  22458013.117 5  -1730497.020 5  -1329060.85247  22458013.83247
  23675548.883 6    853307.371 6    653838.21946  23675545.86746
  21520626.016 7     -5897.055 7     -5509.89848  21520623.00448
  22663138.563 6   1127840.105 6    866957.45747  22663140.00847
 18  5 30  0 30  0.0000000  0 10G03G14G16G22G23G26G27G29G31G32      -0.000467655
  23664129.445 5    -50293.773 5    -38398.99647  23664130.90247
  20587266.125 6    375879.199 6    288037.04348  20587263.50848
  20484228.352 6   -536181.773 6   -412409.80548  20484225.11748
  23604066.117 6    264029.926 6    193813.95746  23604061.74646
  24137721.227 5  -1724284.629 5  -1307186.02346  24137717.34846
  20585515.102 7    185517.809 7    141054.88348  20585515.75848
  22454028.508 5  -1751439.090 5  -1345379.35247  22454029.19947
  23677431.422 6    863202.664 6    661548.85246  23677428.97746
  21520544.500 7     -6323.965 7     -5842.55148  21520541.68848
  22665538.219 6   1140450.875 6    876784.01247  22665539.15647
 18  5 30  0 30  5.0000000  0 10G03G14G16G22G23G26G27G29G31G32      -0.000469734
  23664026.734 5    -50834.871 5    -38820.63347  23664027.48847
  20588113.813 6    380333.691 6    291508.06348  20588111.17648
  20483080.141 6   -542215.090 6   -417111.09848  20483076.91848
  23604598.883 6    266829.508 6    195995.43846  23604594.63746
  24133887.938 5  -1744428.969 5  -1322882.91846  24133884.32046
  20585882.500 7    187448.781 7    142559.53548  20585883.11348
  22450042.938 5  -1772382.246 5  -1361698.68447  22450043.84847
  23679315.359 6    873102.277 6    669262.83646  23679312.91446
  21520462.477 7     -6753.980 7     -6177.64148  21520459.91848
  22667938.852 6   1153063.145 6    886611.74247  22667939.62547
 18  5 30  0 30 10.0000000  0 10G03G14G16G22G23G26G27G29G31G32      -0.000471819
  23663924.273 5    -51371.563 5    -39238.84047  23663925.70347
  20588962.789 6    384795.301 6    294984.63748  20588960.02748
  20481933.063 6   -548243.469 6   -421808.53948  20481929.65648
  23605131.211 5    269629.102 5    198176.93446  23605127.14146
  24130054.359 5  -1764576.703 5  -1338582.43446  24130050.42246
  20586250.141 7    189380.133 7    144064.48049  20586251.00849
  22446057.313 5  -1793327.191 5  -1378019.42647  22446058.01647
  23681198.492 6    883005.465 6    676979.60546  23681197.12146
  21520380.266 7     -7187.813 7     -6515.68848  21520377.47748
  22670339.211 6   1165676.184 6    896440.07447  22670339.60947
 18  5 30  0 30 15.0000000  0 10G03G14G16G22G23G26G27G29G31G32      -0.000473907
  23663823.555 5    -51904.203 5    -39653.89547  23663824.29347
  20589813.320 6    389263.641 6    298466.46548  20589810.73848
  20480786.773 6   -554267.348 6   -426502.46148  20480783.54748
  23605663.945 5    272428.277 5    200358.10546  23605659.82846
  24126219.570 5  -1784728.246 5  -1354284.94946  24126215.32446
  20586617.477 7    191311.488 7    145569.42248  20586618.84848
  22442071.500 5  -1814274.297 5  -1394341.84447  22442071.57847
  23683083.867 6    892911.887 6    684698.88346  23683082.22346
  21520296.266 7     -7625.855 7     -6857.02048  21520294.02048
  22672739.328 6   1178289.602 6    906268.69947  22672739.94547
 18  5 30  0 30 20.0000000  0 10G03G14G16G22G23G26G27G29G31G32      -0.000476000
  23663722.664 5    -52431.668 5    -40064.91846  23663723.53146
  20590664.492 6    393739.793 6    301954.37148  20590662.60248
  20479641.469 7   -560285.629 7   -431192.03548  20479638.19948
  23606197.180 5    275228.098 5    202539.76646  23606192.50446
  24122383.461 5  -1804882.512 5  -1369989.58246  24122380.14146
  20586985.445 7    193243.922 7    147075.21548  20586986.30948
  22438084.367 5  -1835222.527 5  -1410665.13347  22438085.32447
  23684969.625 5    902822.555 5    692421.46146  23684968.25046
  21520212.680 7     -8067.027 7     -7200.79348  21520210.22748
  22675139.867 6   1190904.449 6    916098.43847  22675140.46147
 18  5 30  0 30 25.0000000  0 10G03G14G16G22G23G26G27G29G31G32      -0.000478098
  23663623.867 5    -52954.234 5    -40472.10947  23663624.61747
  20591517.820 6    398223.516 6    305448.18048  20591515.37148
  20478497.234 6   -566298.508 6   -435877.39848  20478494.19948
  23606730.008 5    278028.414 5    204721.82046  23606725.49246
  24118548.055 5  -1825039.691 5  -1385696.44546  24118544.56346
  20587352.898 7    195177.180 7    148581.64849  20587353.95349
  22434098.570 5  -1856172.012 5  -1426989.39547  22434098.88747
  23686857.320 5    912737.328 5    700147.25846  23686854.47346
  21520128.406 7     -8511.520 7     -7547.15648  21520125.52348
  22677540.172 6   1203520.543 6    925929.14547  22677541.24247
 18  5 30  0 30 30.0000000  0 10G03G14G16G22G23G26G27G29G31G32      -0.000480198
  23663525.188 5    -53472.449 5    -40875.93047  23663526.03947
  20592372.555 6    402714.344 6    308947.52048  20592369.94948
  20477354.266 7   -572306.539 7   -440558.98848  20477350.62548
  23607262.852 5    280828.641 5    206903.80946  23607258.30946
  24114712.156 5  -1845200.320 5  -1401406.02746  24114708.33246
  20587720.977 7    197110.777 7    150088.34848  20587721.83248
  22430111.336 5  -1877123.250 5  -1443315.03547  22430112.19947
  23688744.500 5    922655.598 5    707875.73846  23688741.98446
  21520042.555 7     -8959.887 7     -7896.53548  21520040.19948
  22679941.414 6   1216137.297 6    935760.36747  22679942.24247
 18  5 30  0 30 35.0000000  0 10G03G14G16G22G23G26G27G29G31G32      -0.000482304
  23663427.414 5    -53986.047 5    -41276.14847  23663427.85247
  20593228.344 6    407212.473 6    312452.55548  20593225.99648
  20476211.500 6   -578309.484 6   -445236.60248  20476208.59848
  23607795.273 5    283629.012 5    209085.91846  23607791.39146
  24110875.672 5  -1865364.090 5  -1417118.05146  24110871.78946
  20588089.180 7    199044.914 7    151595.46549  20588089.96549
  22426124.250 5  -1898076.012 5  -1459641.87147  22426124.72347
  23690632.578 6    932577.598 6    715607.17246  23690630.34046
  21519957.289 7     -9411.848 7     -8248.72348  21519953.79748
  22682341.914 6   1228755.020 6    945592.33647  22682343.16847
 18  5 30  0 30 40.0000000  0 10G03G14G16G22G23G26G27G29G31G32      -0.000484415
  23663329.805 5    -54495.555 5    -41673.15647  23663330.85247
  20594085.648 6    411717.398 6    315962.88748  20594083.62948
  20475070.219 6   -584307.906 6   -449910.69548  20475067.39148
  23608327.883 5    286429.016 5    211267.71946  23608324.31346
  24107037.281 5  -1885531.535 5  -1432832.93446  24107034.06646
  20588457.023 7    200979.070 7    153102.59448  20588458.27748
  22422136.695 5  -1919030.859 5  -1475970.31647  22422136.78147
  23692521.859 6    942502.832 6    723341.11346  23692519.25046
  21519870.266 7     -9867.977 7     -8604.14848  21519867.57448
  22684743.461 6   1241373.047 6    955424.55947  22684744.22747
 18  5 30  0 30 45.0000000  0 10G03G14G16G22G23G26G27G29G31G32      -0.000486528
  23663234.070 5    -54999.563 5    -42065.91046  23663235.13346
  20594944.828 7    416230.582 7    319479.63748  20594942.32448
  20473929.977 7   -590300.273 7   -454580.07448  20473926.74648
  23608860.953 5    289230.109 5    213450.38746  23608857.37146
  24103198.805 5  -1905701.214 5  -1448549.57646  24103195.59446
  20588825.445 7    202914.715 7    154610.88748  20588826.57448
  22418149.008 5  -1939986.188 5  -1492299.14147  22418149.27047
  23694411.578 6    952432.746 6    731078.71946  23694409.23446
  21519782.656 7    -10326.703 7     -8961.60548  21519780.08648
  22687144.922 6   1253992.980 6    965258.25447  22687146.16447
 18  5 30  0 30 50.0000000  0 10G03G14G16G22G23G26G27G29G31G32      -0.000488646
  23663139.375 5    -55498.426 5    -42454.62547  23663140.09047
  20595805.227 6    420751.590 6    323002.51248  20595802.54748
  20472790.391 6   -596287.055 6   -459245.10248  20472787.63748
  23609394.234 5    292031.773 5    215633.50046  23609390.32046
  24099360.078 5  -1925873.406 5  -1464268.16446  24099356.98446
  20589193.953 7    204851.418 7    156119.99648  20589195.10248
  22414161.336 5  -1960942.527 5  -1508628.75447  22414161.59447
  23696301.266 6    962366.867 6    738819.60546  23696299.11746
  21519694.672 7    -10788.555 7     -9321.48048  21519692.02348
  22689547.141 6   1266614.316 6    975093.05147  22689547.87547
 18  5 30  0 30 55.0000000  0 10G03G14G16G22G23G26G27G29G31G32      -0.000490768
  23663045.078 5    -55992.969 5    -42839.96546  23663045.97346
  20596666.523 6    425279.652 6    326530.86748  20596664.38748
  20471652.133 6   -602269.000 6   -463906.35548  20471649.44148
  23609927.773 5    294833.352 5    217816.53546  23609923.57446
  24095521.641 5  -1946048.961 5  -1479989.39146  24095517.47746
  20589562.359 7    206788.402 7    157629.32848  20589563.28148
  22410173.250 5  -1981900.539 5  -1524959.66047  22410173.64847
  23698191.563 6    972304.480 6    746563.19146  23698189.97746
  21519606.273 7    -11254.164 7     -9684.30148  21519603.62948
  22691948.703 6   1279236.285 6    984928.34047  22691949.31347
 18  5 30  0 31  0.0000000  0 10G03G14G16G22G23G26G27G29G31G32      -0.000492895
  23662952.375 5    -56483.043 5    -43221.85947  23662952.62547
  20597529.305 7    429814.863 7    330064.78148  20597527.32448
  20470515.078 6   -608246.004 6   -468563.76648  20470511.42648
  23610461.000 5    297634.836 5    219999.50446  23610456.17646
  24091681.680 5  -1966227.738 5  -1495713.10546  24091677.46146
  20589931.164 7    208725.770 7    159138.96548  20589931.82848
  22406184.133 5  -2002860.125 5  -1541291.80547  22406185.08647
  23700083.445 5    982245.664 5    754309.55146  23700082.05146
  21519517.336 7    -11723.484 7    -10050.00448  21519514.39148
  22694350.758 6   1291859.020 6    994764.21147  22694351.83647
 18  5 30  0 31  5.0000000  0 10G03G14G16G22G23G26G27G29G31G32      -0.000495024
  23662859.492 5    -56967.594 5    -43599.42247  23662861.03147
  20598394.188 6    434358.359 6    333605.18048  20598391.71548
  20469378.578 6   -614216.961 6   -473216.45748  20469375.44548
  23610993.469 5    300437.398 5    222183.31346  23610990.02346
  24087841.031 5  -1986408.656 5  -1511438.50446  24087836.82446
  20590300.352 7    210664.602 7    160649.73449  20590300.88349
  22402195.594 5  -2023820.191 5  -1557624.30947  22402196.57047
  23701976.117 5    992191.488 5    762059.55146  23701974.37546
  21519426.914 7    -12195.418 7    -10417.75448  21519424.40648
  22696753.023 6   1304483.578 6   1004601.52047  22696754.05547
 18  5 30  0 31 10.0000000  0 10G03G14G16G22G23G26G27G29G31G32      -0.000497160
  23662768.680 5    -57448.316 5    -43974.03946  23662769.06346
  20599259.828 6    438908.391 6    337150.64548  20599257.88348
  20468243.305 6   -620183.602 6   -477865.78948  20468240.02048
  23611527.281 5    303239.328 5    224366.61346  23611523.38346
  24084000.469 5  -2006593.359 5  -1527166.81346  24083996.01246
  20590668.891 7    212603.203 7    162160.34048  20590669.69148
  22398206.977 5  -2044782.410 5  -1573958.50047  22398207.62147
  23703870.297 5   1002140.297 5    769811.82846  23703867.53146
  21519336.594 7    -12671.676 7    -10788.87548  21519333.96148
  22699155.125 6   1317108.242 6   1014438.89147  22699156.71947
 18  5 30  0 31 15.0000000  0 10G03G14G16G22G23G26G27G29G31G32      -0.000499298
  23662677.406 5    -57924.984 5    -44345.44547  23662678.52347
  20600127.094 6    443465.262 6    340701.44948  20600124.98848
  20467108.602 6   -626145.652 6   -482511.54748  20467105.08248
  23612060.188 5    306040.820 5    226549.59846  23612056.47346
  24080158.570 5  -2026781.527 5  -1542897.87546  24080154.05946
  20591037.453 7    214541.813 7    163670.94148  20591038.51648
  22394217.414 5  -2065746.480 5  -1590294.12947  22394218.50047
  23705764.266 6   1012092.285 6    777566.64146  23705761.73046
  21519244.906 7    -13151.922 7    -11163.09448  21519242.29348
  22701558.672 6   1329733.297 6   1024276.57847  22701559.09847
 18  5 30  0 31 19.9990000  0 10G03G14G16G22G23G26G27G29G31G32       0.000498558
  23662587.956 5    -58396.723 5    -44713.03547  23662588.51947
  20600995.839 6    448028.730 6    344257.39848  20600993.54648
  20465974.612 6   -632101.227 6   -487152.25448  20465972.17948
  23612593.105 5    308842.023 5    228732.35246  23612589.18346
  24076316.347 5  -2046968.520 5  -1558627.97346  24076313.25346
  20591406.628 7    216480.742 7    165181.79748  20591407.63648
  22390228.690 5  -2086707.512 5  -1606627.39847  22390229.31947
  23707658.503 6   1022046.152 6    785322.88346  23707655.70246
  21519153.003 7    -13635.398 7    -11539.83648  21519150.10548
  22703960.026 6   1342356.887 6   1034113.13347  22703960.98347
 18  5 30  0 31 24.9990000  0 10G03G14G16G22G23G26G27G29G31G32       0.000496410
  23662499.730 5    -58863.234 5    -45076.57047  23662499.52247
  20601865.870 6    452601.207 6    347820.36348  20601863.53448
  20464842.753 6   -638052.117 6   -491789.32048  20464839.66748
  23613125.964 5    311644.664 5    230916.21546  23613122.56946
  24072474.050 5  -2067161.703 5  -1574362.90246  24072470.49546
  20591776.159 7    218421.395 7    166693.99648  20591776.76948
  22386239.659 5  -2107673.281 5  -1622964.36347  22386239.81947
  23709553.823 6   1032006.492 6    793084.18846  23709551.90146
  21519060.628 7    -14121.703 7    -11918.77748  21519057.90548
  22706362.886 6   1354984.645 6   1043952.92247  22706364.96847
 18  5 30  0 31 29.9990000  0 10G03G14G16G22G23G26G27G29G31G32       0.000494259
  23662410.925 5    -59325.043 5    -45436.39847  23662411.31947
  20602737.362 6    457181.129 6    351389.12948  20602735.03448
  20463711.769 6   -643997.809 6   -496422.32048  20463708.33148
  23613660.581 5    314447.492 5    233100.22346  23613655.96846
  24068631.370 5  -2087357.727 5  -1590100.06646  24068627.42946
  20592145.675 7    220362.641 7    168206.64548  20592145.90548
  22382249.448 6  -2128640.242 6  -1639302.25847  22382249.78447
  23711448.878 6   1041970.680 6    800848.47346  23711447.87846
  21518967.745 7    -14611.383 7    -12300.34448  21518964.60848
  22708766.019 6   1367613.395 6   1053793.50047  22708767.37047
 18  5 30  0 31 34.9990000  0 10G03G14G16G22G23G26G27G29G31G32       0.000492104
  23662323.542 5    -59783.137 5    -45793.35947  23662324.69047
  20603610.300 6    461767.535 6    354962.94148  20603608.10548
  20462581.011 6   -649939.203 6   -501051.98448  20462577.83548
  23614193.659 5    317249.609 5    235283.69546  23614189.09346
  24064787.261 5  -2107557.539 5  -1605840.19946  24064783.31546
  20592515.089 7    222303.605 7    169719.07448  20592515.42548
  22378259.542 6  -2149609.316 6  -1655641.80147  22378259.49147
  23713345.519 6   1051937.688 6    808614.98446  23713344.35146
  21518873.839 7    -15105.348 7    -12685.25448  21518871.02648
  22711169.284 6   1380242.164 6   1063634.09447  22711170.47247
 18  5 30  0 31 39.9990000  0 10G03G14G16G22G23G26G27G29G31G32       0.000489943
  23662237.901 5    -60236.305 5    -46146.47747  23662238.10547
  20604484.440 6    466361.508 6    358542.66048  20604482.10148
  20461451.558 6   -655875.273 6   -505677.50048  20461448.45648
  23614726.894 5    320052.039 5    237467.40246  23614722.12846
  24060942.612 5  -2127760.039 5  -1621582.39546  24060938.83146
  20592884.253 7    224245.316 7    171232.09448  20592885.05048
  22374268.542 5  -2170579.406 5  -1671982.11347  22374268.81547
  23715243.042 5   1061908.652 5    816384.54746  23715241.65546
  21518778.659 7    -15602.578 7    -13072.70348  21518776.37048
  22713572.011 6   1392872.039 6   1073475.54347  22713573.81247
 18  5 30  0 31 44.9990000  0 10G03G14G16G22G23G26G27G29G31G32       0.000487780
  23662152.206 5    -60683.516 5    -46494.95347  23662152.60847
  20605360.214 7    470964.316 7    362129.26648  20605357.84348
  20460323.058 6   -661804.762 6   -510297.87148  20460320.02648
  23615260.190 5    322855.984 5    239652.28146  23615255.70246
  24057098.019 5  -2147964.031 5  -1637325.75846  24057094.27646
  20593254.456 7    226189.000 7    172746.65648  20593255.08948
  22370278.370 5  -2191549.266 5  -1688322.27047  22370278.23047
  23717141.245 5   1071884.801 5    824158.12946  23717140.49546
  21518683.519 7    -16101.781 7    -13461.69148  21518681.17948
  22715976.472 6   1405504.277 6   1083318.83247  22715977.76947
 18  5 30  0 31 49.9990000  0 10G03G14G16G22G23G26G27G29G31G32       0.000485613
  23662068.511 5    -61124.805 5    -46838.84047  23662069.38247
  20606237.808 6    475575.730 6    365722.56648  20606235.55848
  20459195.745 6   -667727.910 6   -514913.30548  20459192.33548
  23615793.917 5    325661.297 5    241838.24246  23615789.58146
  24053253.980 5  -2168169.535 5  -1653070.31646  24053249.27246
  20593624.495 7    228134.453 7    174262.58648  20593625.40148
  22366287.464 5  -2212519.051 5  -1704662.35947  22366287.93347
  23719040.183 5   1081865.840 5    831935.57846  23719039.52646
  21518588.315 7    -16603.176 7    -13852.39548  21518585.95248
  22718380.823 6   1418138.621 6   1093163.76247  22718382.06947
 18  5 30  0 31 54.9990000  0 10G03G14G16G22G23G26G27G29G31G32       0.000483442
  23661985.651 5    -61561.336 5    -47178.98447  23661986.09347
  20607116.808 6    480194.695 6    369321.75848  20607114.62448
  20458069.917 6   -673645.699 6   -519524.57448  20458066.25748
  23616328.722 5    328466.895 5    244024.41846  23616323.18746
  24049408.300 5  -2188377.719 5  -1668816.95346  24049403.41346
  20593994.565 7    230080.688 7    175779.13748  20593995.27648
  22362297.167 5  -2233489.793 5  -1721003.19547  22362296.96847
  23720940.901 5   1091850.840 5    839716.07846  23720939.30046
  21518492.034 7    -17107.750 7    -14245.57048  21518489.56948
  22720785.222 6   1430774.047 6   1103009.53947  22720786.55447
 18  5 30  0 31 59.9990000  0 10G03G14G16G22G23G26G27G29G31G32       0.000481266
  23661903.097 5    -61992.828 5    -47515.23447  23661904.65947
  20607997.151 6    484821.516 6    372927.07048  20607994.70248
  20456944.433 6   -679557.953 6   -524131.53148  20456941.27648
  23616862.269 5    331273.031 5    246211.01646  23616857.56246
  24045561.605 5  -2208588.281 5  -1684565.44946  24045557.81246
  20594365.105 7    232027.879 7    177296.42648  20594365.75348
  22358306.347 5  -2254461.258 5  -1737344.60247  22358306.36247
  23722841.565 6   1101839.984 6    847499.80546  23722839.61646
  21518396.105 7    -17615.281 7    -14641.05148  21518393.23348
  22723190.206 6   1443410.789 6   1112856.32847  22723191.23047
 18  5 30  0 32  4.9990000  0 10G03G14G16G22G23G26G27G29G31G32       0.000479088
  23661822.315 5    -62419.684 5    -47847.85247  23661823.07747
  20608879.112 6    489455.715 6    376538.13348  20608876.74548
  20455820.480 6   -685465.027 6   -528734.44548  20455817.27248
  23617396.378 5    334079.320 5    248397.72746  23617391.33546
  24041714.605 5  -2228801.613 5  -1700316.09446  24041711.89446
  20594735.940 7    233975.625 7    178814.14548  20594736.49948
  22354315.628 5  -2275433.852 5  -1753686.87147  22354315.71447
  23724743.737 6   1111832.836 6    855286.47346  23724741.07746
  21518298.440 7    -18126.227 7    -15039.19548  21518295.87048
  22725594.933 6   1456048.449 6   1122703.83647  22725596.01147
 18  5 30  0 32  9.9990000  0 10G03G14G16G22G23G26G27G29G31G32       0.000476906
  23661742.292 5    -62841.297 5    -48176.37547  23661742.85547
  20609762.440 6    494097.945 6    380155.44148  20609760.13648
  20454697.534 6   -691366.297 6   -533332.84048  20454694.24548
  23617930.019 5    336886.316 5    250584.98446  23617925.83146
  24037867.073 5  -2249017.156 5  -1716068.44546  24037864.59346
  20595106.745 7    235924.551 7    180332.78548  20595107.30848
  22350324.136 5  -2296406.859 5  -1770029.46547  22350324.63247
  23726646.433 6   1121830.039 6    863076.50046  23726642.69446
  21518200.862 7    -18639.863 7    -15439.43048  21518198.25748
  22728000.175 6   1468687.598 6   1132552.50047  22728001.37847
 18  5 30  0 32 14.9990000  0 10G03G14G16G22G23G26G27G29G31G32       0.000474718
  23661662.151 5    -63258.030 5    -48501.11547  23661663.76147
  20610647.089 6    498747.844 6    383778.73848  20610644.88648
  20453575.753 6   -697262.145 6   -537927.01248  20453572.49148
  23618464.823 5    339693.691 5    252772.53946  23618460.42546
  24034020.581 5  -2269235.113 5  -1731822.70346  24034017.64446
  20595478.206 7    237874.301 7    181852.06348  20595478.36248
  22346333.073 5  -2317380.699 5  -1786372.72347  22346333.56947
  23728549.144 6   1131831.156 6    870869.59046  23728546.49546
  21518102.323 7    -19156.602 7    -15842.09448  21518100.00348
  22730405.269 6   1481327.926 6   1142402.08647  22730406.43747
 18  5 30  0 32 19.9990000  0 10G03G14G16G22G23G26G27G29G31G32       0.000472527
  23661584.550 5    -63670.313 5    -48822.38347  23661585.03847
  20611533.409 6    503404.980 6    387407.68048  20611531.06948
  20452454.253 6   -703153.023 6   -542517.30148  20452451.07348
  23619000.065 6    342500.930 6    254959.99246  23618994.69846
  24030173.175 5  -2289456.008 5  -1747579.22746  24030169.45246
  20595849.159 7    239824.391 7    183371.60548  20595849.73348
  22342341.870 5  -2338355.770 5  -1802716.93847  22342341.77247
  23730452.831 6   1141835.762 6    878665.35546  23730450.74146
  21518003.276 7    -19676.863 7    -16247.49648  21518000.87048
  22732810.839 6   1493968.879 6   1152252.16447  22732811.83147
 18  5 30  0 32 24.9990000  0 10G03G14G16G22G23G26G27G29G31G32       0.000470333
  23661507.448 5    -64075.160 5    -49137.84047  23661508.03047
  20612421.589 6    508072.277 6    391044.52348  20612419.45648
  20451335.222 6   -709035.922 6   -547101.38748  20451331.44048
  23619534.144 5    345311.066 5    257149.69147  23619529.34747
  24026325.284 5  -2309676.773 5  -1763335.65646  24026321.90946
  20596220.644 7    241777.828 7    184893.76248  20596221.33948
  22338350.878 5  -2359329.047 5  -1819059.75047  22338350.85147
  23732357.612 6   1151846.883 6    886466.23846  23732355.89746
  21517904.362 7    -20197.621 7    -16653.28948  21517901.88648
  22735216.839 6   1506613.582 6   1162105.18047  22735218.20647
 18  5 30  0 32 29.9990000  0 10G03G14G16G22G23G26G27G29G31G32       0.000468136
  23661431.597 5    -64475.188 5    -49449.57847  23661431.99947
  20613311.315 6    512747.238 6    394687.34848  20613309.10148
  20450216.503 6   -714913.418 6   -551681.25448  20450213.47648
  23620068.667 5    348121.484 5    259339.62146  23620064.23046
  24022476.940 5  -2329900.020 5  -1779094.03947  24022473.39747
  20596592.683 7    243732.063 7    186416.54748  20596593.22648
  22334359.198 5  -2380303.051 5  -1835403.12947  22334359.92947
  23734263.573 6   1161861.996 6    894270.20746  23734262.09746
  21517804.558 6    -20721.434 6    -17061.45348  21517801.89748
  22737623.464 6   1519259.367 6   1171959.02347  22737624.55447
 18  5 30  0 32 34.9990000  0 10G03G14G16G22G23G26G27G29G31G32       0.000465935
  23661356.675 5    -64869.590 5    -49756.90247  23661356.75347
  20614202.511 6    517430.594 6    398336.71548  20614200.43348
  20449099.222 6   -720784.805 6   -556256.36348  20449095.74948
  23620602.972 5    350932.949 5    261530.36346  23620598.86646
  24018627.940 5  -2350124.969 5  -1794853.73446  24018624.87446
  20596964.558 7    245687.801 7    187940.49648  20596965.33548
  22330369.261 5  -2401277.082 5  -1851746.51647  22330368.64047
  23736170.761 6   1171881.727 6    902077.77047  23736169.34347
  21517704.745 7    -21247.594 7    -17471.46548  21517702.14748
  22740030.284 6   1531907.027 6   1181814.32847  22740031.46447
 18  5 30  0 32 39.9990000  0 10G03G14G16G22G23G26G27G29G31G32       0.000463732
  23661282.237 5    -65258.394 5    -50059.87147  23661282.91747
  20615094.667 6    522122.461 6    401992.70748  20615093.18348
  20447982.839 6   -726649.910 6   -560826.57448  20447979.82348
  23621138.386 5    353745.648 5    263722.06646  23621134.92946
  24014778.839 5  -2370351.480 5  -1810614.68046  24014775.66746
  20597337.175 7    247645.191 7    189465.73448  20597337.99948
  22326376.644 5  -2422250.980 5  -1868089.80147  22326377.49947
  23738076.987 5   1181906.266 5    909889.07846  23738077.35546
  21517603.769 7    -21775.953 7    -17883.17648  21517601.18348
  22742437.823 6   1544556.641 6   1191671.15647  22742438.66747
 18  5 30  0 32 44.9990000  0 10G03G14G16G22G23G26G27G29G31G32       0.000461523
  23661209.597 5    -65641.621 5    -50358.50847  23661209.83147
  20615989.440 6    526822.648 6    405655.18848  20615987.26948
  20446868.534 6   -732508.969 6   -565392.06648  20446865.13248
  23621673.605 5    356559.207 5    265914.44946  23621669.92546
  24010929.737 5  -2390579.781 5  -1826376.97746  24010926.09746
  20597709.808 7    249603.977 7    190992.05148  20597710.65148
  22322385.675 5  -2443224.930 5  -1884433.13747  22322385.99147
  23739987.089 6   1191935.332 6    917703.89846  23739985.49546
  21517503.190 6    -22306.699 6    -18296.75048  21517500.83948
  22744845.159 6   1557207.977 6   1201529.32447  22744845.85547
 18  5 30  0 32 49.9990000  0 10G03G14G16G22G23G26G27G29G31G32       0.000459311
  23661138.011 5    -66019.863 5    -50653.24247  23661138.05447
  20616885.550 6    531530.641 6    409323.75048  20616883.26148
  20445754.355 6   -738362.449 6   -569953.22348  20445751.24548
  23622209.058 5    359373.266 5    268107.21546  23622205.72646
  24007079.823 5  -2410810.262 5  -1842140.97346  24007076.30846
  20598083.370 7    251563.703 7    192519.10248  20598083.94048
  22318394.706 5  -2464199.406 5  -1900776.90247  22318395.46847
  23741895.300 5   1201968.469 5    925521.91846  23741894.99546
  21517401.331 6    -22840.348 6    -18712.57848  21517398.83148
  22747252.628 6   1569860.574 6   1211388.46147  22747253.81247
 18  5 30  0 32 54.9990000  0 10G03G14G16G22G23G26G27G29G31G32       0.000457096
  23661066.378 5    -66393.406 5    -50944.33647  23661066.80447
  20617782.870 6    536246.152 6    412998.16448  20617780.67948
  20444641.909 6   -744210.660 6   -574510.26648  20444638.06248
  23622745.112 5    362187.488 5    270300.09846  23622740.62446
  24003229.964 5  -2431043.250 5  -1857906.92646  24003226.30846
  20598456.230 7    253524.051 7    194046.64148  20598456.61648
  22314402.862 5  -2485174.660 5  -1917121.23847  22314403.52647
  23743806.237 6   1212005.422 6    933342.89846  23743804.42546
  21517299.089 6    -23377.145 6    -19130.87148  21517296.56548
  22749660.870 6   1582514.141 6   1221248.38347  22749661.98347
 18  5 30  0 32 59.9990000  0 10G03G14G16G22G23G26G27G29G31G32       0.000454876
  23660996.464 5    -66761.516 5    -51231.18047  23660996.90947
  20618681.675 6    540969.977 6    416679.06348  20618678.86648
  20443529.605 6   -750052.879 6   -579062.64548  20443526.63248
  23623280.815 5    365002.605 5    272493.69946  23623276.21046
  23999379.331 5  -2451277.977 5  -1873674.27046  23999375.98046
  20598829.511 7    255485.781 7    195575.26248  20598830.06248
  22310411.214 5  -2506149.957 5  -1933465.62547  22310411.86647
  23745715.644 5   1222046.828 5    941167.39146  23745714.65946
  21517196.667 6    -23916.336 6    -19551.02748  21517194.08948
  22752069.167 6   1595169.383 6   1231109.59847  22752070.14747
 18  5 30  0 33  4.9990000  0 10G03G14G16G22G23G26G27G29G31G32       0.000452652
  23660927.315 5    -67124.391 5    -51513.93847  23660927.96847
  20619582.347 6    545701.836 6    420366.21548  20619579.73048
  20442419.081 6   -755889.285 6   -583610.49248  20442415.86248
  23623816.823 5    367818.375 5    274687.80946  23623811.91746
  23995529.370 5  -2471514.621 5  -1889443.08246  23995524.88246
  20599203.315 7    257448.648 7    197104.77048  20599203.29648
  22306420.058 5  -2527125.480 5  -1949810.19547  22306419.97647
  23747628.339 5   1232092.457 5    948995.14546  23747626.03046
  21517093.394 6    -24458.137 6    -19973.21148  21517090.93348
  22754477.440 6   1607826.117 6   1240971.97747  22754478.44847
 18  5 30  0 33  9.9990000  0 10G03G14G16G22G23G26G27G29G31G32       0.000450426
  23660859.847 5    -67481.957 5    -51792.57847  23660860.31547
  20620484.261 6    550441.855 6    424059.73448  20620482.16348
  20441309.815 7   -761719.805 7   -588153.75448  20441306.77248
  23624352.308 5    370634.859 5    276882.48046  23624347.92546
  23991677.862 5  -2491753.102 5  -1905213.31646  23991673.79646
  20599576.823 7    259412.762 7    198635.25048  20599577.60848
  22302428.425 5  -2548101.105 5  -1966154.81647  22302428.80447
  23749541.050 5   1242142.434 5    956826.30146  23749538.71446
  21516990.128 7    -25002.348 7    -20397.27348  21516987.28848
  22756886.339 6   1620484.383 6   1250835.54747  22756886.97647
 18  5 30  0 33 14.9990000  0 10G03G14G16G22G23G26G27G29G31G32       0.000448196
  23660793.011 5    -67833.223 5    -52066.29746  23660793.42146
  20621388.245 6    555190.996 6    427760.35548  20621385.56948
  20440201.456 6   -767543.426 6   -592691.64148  20440198.34348
  23624888.855 5    373453.168 5    279078.54346  23624884.30846
  23987826.261 5  -2511992.348 5  -1920984.15647  23987822.42547
  20599950.683 7    261379.105 7    200167.47348  20599951.52248
  22298437.198 5  -2569075.816 5  -1982498.76247  22298437.32347
  23751454.464 5   1252197.832 5    964661.65246  23751451.56546
  21516885.651 7    -25548.059 7    -20822.50048  21516883.61248
  22759295.495 6   1633145.207 6   1260701.11347  22759296.28047
 18  5 30  0 33 19.9990000  0 10G03G14G16G22G23G26G27G29G31G32       0.000445963
  23660726.308 5    -68178.902 5    -52335.65246  23660727.55846
  20622293.440 6    559948.531 6    431467.52348  20622290.85548
  20439095.050 6   -773360.914 6   -597224.75448  20439091.41348
  23625425.308 5    376272.473 5    281275.39146  23625420.80046
  23983974.245 5  -2532233.148 5  -1936756.20746  23983970.39046
  20600325.120 7    263346.980 7    201700.87548  20600326.10848
  22294445.831 5  -2590050.379 5  -1998842.56347  22294446.17547
  23753369.386 6   1262257.813 6    972500.60946  23753366.34746
  21516781.933 7    -26096.066 7    -21249.53148  21516779.42548
  22761705.370 6   1645807.855 6   1270568.09447  22761706.33947
 18  5 30  0 33 24.9990000  0 10G03G14G16G22G23G26G27G29G31G32       0.000443726
  23660662.440 5    -68518.645 5    -52600.41047  23660662.32747
  20623200.175 6    564714.828 6    435181.52048  20623198.03848
  20437988.620 6   -779171.887 6   -601752.78548  20437985.71048
  23625962.026 5    379093.191 5    283473.35546  23625957.54246
  23980122.151 5  -2552475.023 5  -1952529.07846  23980119.26546
  20600700.105 7    265316.688 7    203235.70349  20600700.72649
  22290454.433 5  -2611024.340 5  -2015185.90247  22290454.98747
  23755284.011 6   1272322.770 6    980343.43046  23755281.60546
  21516677.292 7    -26645.941 7    -21678.01248  21516674.43348
  22764115.425 6   1658472.680 6   1280436.77347  22764116.33147
 18  5 30  0 33 29.9990000  0 10G03G14G16G22G23G26G27G29G31G32       0.000441486
  23660598.448 5    -68853.051 5    -52860.96947  23660598.80447
  20624108.714 6    569489.352 6    438901.91848  20624106.40548
  20436884.034 6   -784976.879 6   -606276.16048  20436880.97248
  23626499.769 5    381914.688 5    285671.89846  23626494.90546
  23976270.573 5  -2572718.539 5  -1968303.25447  23976266.24947
  20601075.214 7    267287.707 7    204771.55548  20601075.96048
  22286463.206 5  -2631998.289 5  -2031529.23447  22286463.42947
  23757200.565 6   1282392.207 6    988189.73846  23757197.65546
  21516571.964 6    -27198.227 6    -22108.37148  21516569.40948
  22766525.581 6   1671139.086 6   1290306.67247  22766527.01547
 18  5 30  0 33 34.9990000  0 10G03G14G16G22G23G26G27G29G31G32       0.000439243
  23660536.019 5    -69181.938 5    -53117.27746  23660536.58946
  20625018.769 6    574272.227 6    442628.84048  20625016.55848
  20435780.355 6   -790775.789 6   -610794.78948  20435777.10148
  23627037.003 5    384737.086 5    287871.16446  23627032.07346
  23972418.097 5  -2592963.648 5  -1984078.65247  23972413.90147
  20601450.644 7    269260.121 7    206308.50048  20601451.58148
  22282472.097 5  -2652972.035 5  -2047872.41447  22282472.41347
  23759116.503 6   1292466.184 6    996039.59446  23759114.71046
  21516466.706 7    -27752.902 7    -22540.59448  21516464.03448
  22768936.183 6   1683807.242 6   1300177.95747  22768937.44447
 18  5 30  0 33 39.9990000  0 10G03G14G16G22G23G26G27G29G31G32       0.000436996
  23660474.237 5    -69504.750 5    -53368.80947  23660475.28447
  20625930.628 6    579064.035 6    446362.70748  20625928.20248
  20434678.464 6   -796568.000 6   -615308.19148  20434675.11648
  23627573.730 5    387561.016 5    290071.62947  23627569.25347
  23968565.339 5  -2613209.715 5  -1999854.80547  23968561.59747
  20601826.409 7    271234.551 7    207847.02348  20601826.90548
  22278481.128 5  -2673945.016 5  -2064214.99647  22278481.15147
  23761034.370 6   1302545.246 6   1003893.38746  23761033.12446
  21516359.956 7    -28309.215 7    -22974.09848  21516357.96848
  22771347.058 6   1696477.699 6   1310051.02047  22771348.65547
 18  5 30  0 33 44.9990000  0 10G03G14G16G22G23G26G27G29G31G32       0.000434744
  23660413.456 5    -69822.676 5    -53616.53947  23660414.75347
  20626843.956 6    583863.648 6    450102.65648  20626841.72248
  20433577.206 6   -802354.680 6   -619817.30148  20433574.16748
  23628111.355 5    390385.297 5    292272.35546  23628106.42546
  23964712.370 6  -2633457.863 6  -2015632.54746  23964708.42946
  20602202.534 7    273209.816 7    209386.18448  20602202.83548
  22274490.073 5  -2694918.324 5  -2080557.82847  22274490.27647
  23762953.628 5   1312628.273 5   1011750.30946  23762952.08146
  21516254.605 7    -28868.336 7    -23409.78148  21516251.71848
  22773758.769 6   1709149.324 6   1319924.99647  22773759.94847
 18  5 30  0 33 49.9990000  0 10G03G14G16G22G23G26G27G29G31G32       0.000432491
  23660354.347 5    -70135.375 5    -53860.20346  23660354.82746
  20627759.128 6    588671.336 6    453848.90648  20627756.85548
  20432477.448 6   -808135.551 6   -624321.86748  20432474.05848
  23628648.886 6    393210.223 6    294473.59446  23628644.09346
  23960858.909 5  -2653707.770 5  -2031411.69946  23960854.62046
  20602578.190 7    275186.246 7    210926.26648  20602579.58548
  22270498.667 5  -2715891.684 5  -2096900.70347  22270499.79247
  23764873.480 5   1322715.645 5   1019610.58246  23764871.25346
  21516147.323 7    -29429.906 7    -23847.37548  21516144.77248
  22776170.253 6   1721822.406 6   1329800.10547  22776171.46847
 18  5 30  0 33 54.9990000  0 10G03G14G16G22G23G26G27G29G31G32       0.000430233
  23660295.737 5    -70441.883 5    -54099.02746  23660296.44046
  20628675.651 6    593488.051 6    457602.19548  20628673.19848
  20431377.909 6   -813909.652 6   -628821.16848  20431375.71448
  23629186.948 5    396036.719 5    296676.05546  23629182.19446
  23957004.855 5  -2673958.484 5  -2047191.46146  23957001.16746
  20602954.628 7    277164.793 7    212467.99248  20602955.80048
  22266508.003 5  -2736864.051 5  -2113242.79347  22266508.46447
  23766794.284 6   1332808.152 6   1027474.86746  23766792.02646
  21516040.558 6    -29992.965 6    -24286.12548  21516038.04648
  22778582.323 6   1734497.875 6   1339677.07447  22778583.49947
 18  5 30  0 33 59.9990000  0 10G03G14G16G22G23G26G27G29G31G32       0.000427973
  23660238.675 5    -70742.105 5    -54332.99247  23660239.14047
  20629593.784 6    598313.902 6    461362.59048  20629591.69448
  20430280.706 6   -819676.844 6   -633315.08648  20430277.95648
  23629724.659 6    398864.898 6    298879.81646  23629720.29246
  23953150.401 5  -2694209.859 5  -2062971.74646  23953147.24146
  20603331.534 7    279145.512 7    214011.39849  20603332.60549
  22262517.292 5  -2757835.414 5  -2129584.11747  22262517.40147
  23768715.823 6   1342905.953 6   1035343.27746  23768713.41346
  21515932.667 6    -30557.504 6    -24726.03148  21515930.35148
  22780993.769 6   1747175.828 6   1349555.99247  22780996.19847
 18  5 30  0 34  4.9990000  0 10G03G14G16G22G23G26G27G29G31G32       0.000425709
  23660182.456 5    -71037.055 5    -54562.80547  23660182.48747
  20630513.987 6    603148.000 6    465129.41848  20630511.52248
  20429184.183 6   -825438.121 6   -637804.39548  20429181.67148
  23630263.105 6    401693.793 6    301084.16046  23630259.04246
  23949296.276 5  -2714462.832 5  -2078753.27746  23949292.75746
  20603708.847 7    281127.461 7    215555.76648  20603709.71448
  22258526.339 5  -2778806.578 5  -2145925.28147  22258527.14047
  23770637.651 6   1353008.090 6   1043215.06346  23770635.76146
  21515825.362 6    -31124.391 6    -25167.77048  21515822.91748
  22783407.315 6   1759855.316 6   1359436.09447  22783409.09747
 18  5 30  0 34  9.9990000  0 10G03G14G16G22G23G26G27G29G31G32       0.000423441
  23660126.862 5    -71325.730 5    -54787.76247  23660127.61647
  20631435.753 6    607991.199 6    468903.33648  20631433.01548
  20428089.480 6   -831192.547 6   -642288.36348  20428086.56548
  23630801.620 5    404524.402 5    303289.81346  23630797.58546
  23945443.065 5  -2734716.480 5  -2094535.33646  23945439.10846
  20604086.495 7    283111.570 7    217101.82048  20604087.37848
  22254535.980 5  -2799776.676 5  -2162265.62947  22254536.19447
  23772560.808 6   1363115.465 6   1051090.96146  23772559.56946
  21515716.800 7    -31692.711 7    -25610.61748  21515714.45248
  22785821.198 6   1772537.258 6   1369318.11747  22785822.50747
 18  5 30  0 34 14.9990000  0 10G03G14G16G22G23G26G27G29G31G32       0.000421171
  23660073.808 5    -71608.742 5    -55008.30146  23660073.79246
  20632359.011 6    612843.039 6    472683.98048  20632356.41748
  20426995.769 6   -836940.590 6   -646767.36348  20426992.89048
  23631340.831 5    407356.137 5    305496.35246  23631336.25746
  23941588.487 5  -2754971.246 5  -2110318.26246  23941584.18346
  20604464.269 7    285097.352 7    218649.17648  20604465.06248
  22250545.753 5  -2820746.207 5  -2178605.51647  22250546.09347
  23774485.409 5   1373227.641 5   1058970.53146  23774483.94446
  21515608.237 6    -32262.926 6    -26054.94148  21515605.59748
  22788234.230 6   1785221.160 6   1379201.65647  22788235.95247
 18  5 30  0 34 19.9990000  0 10G03G14G16G22G23G26G27G29G31G32       0.000418898
  23660020.894 5    -71885.336 5    -55223.81347  23660021.28847
  20633283.714 6    617704.086 6    476471.81348  20633281.38648
  20425903.222 6   -842681.668 6   -651240.93048  20425900.10548
  23631879.011 5    410189.621 5    307704.26246  23631875.01946
  23937734.167 5  -2775226.453 5  -2126101.53946  23937729.94046
  20604842.667 7    287085.418 7    220198.31648  20604843.27248
  22246555.730 5  -2841714.418 5  -2194944.38347  22246556.20647
  23776410.511 5   1383345.172 5   1066854.33246  23776408.89746
  21515500.003 6    -32834.426 6    -26500.26648  21515497.44048
  22790649.144 6   1797907.656 6   1389087.21547  22790650.19047
 18  5 30  0 34 24.9990000  0 10G03G14G16G22G23G26G27G29G31G32       0.000416620
  23659969.644 5    -72156.891 5    -55435.43446  23659969.29646
  20634210.565 6    622573.098 6    480265.84048  20634207.82748
  20424811.534 6   -848417.043 6   -655710.05548  20424808.44048
  23632418.456 5    413023.586 5    309912.54346  23632414.14446
  23933879.425 5  -2795483.500 5  -2141886.24646  23933875.10146
  20605221.214 7    289074.445 7    221748.21148  20605222.15148
  22242565.456 5  -2862682.707 5  -2211283.30147  22242566.10547
  23778335.847 5   1393466.809 5   1074741.29746  23778335.34346
  21515390.206 7    -33408.488 7    -26947.60248  21515387.83148
  22793063.089 6   1810595.418 6   1398973.77347  22793064.79647
 18  5 30  0 34 29.9990000  0 10G03G14G16G22G23G26G27G29G31G32       0.000414341
  23659918.972 5    -72421.516 5    -55641.62947  23659919.51947
  20635138.675 6    627451.934 6    484067.52748  20635136.48048
  20423721.456 6   -854144.887 6   -660173.30548  20423718.51148
  23632958.362 5    415859.883 5    312122.65246  23632953.20646
  23930024.636 5  -2815740.469 5  -2157670.89146  23930020.04646
  20605599.956 7    291066.332 7    223300.32848  20605601.16748
  22238576.026 5  -2883649.090 5  -2227620.74647  22238575.84347
  23780264.362 5   1403594.367 5   1082632.87146  23780262.14046
  21515280.800 6    -33983.266 6    -27395.47748  21515278.80848
  22795478.355 6   1823286.336 6   1408862.77347  22795479.86647
 18  5 30  0 34 34.9990000  0 10G03G14G16G22G23G26G27G29G31G32       0.000412060
  23659869.823 5    -72679.355 5    -55842.53947  23659870.15147
  20636069.190 6    632340.465 6    487876.77048  20636066.56548
  20422633.401 6   -859865.305 6   -664630.77748  20422630.16348
  23633499.175 5    418698.355 5    314334.43446  23633493.81946
  23926170.151 5  -2835997.430 5  -2173455.53546  23926166.03446
  20605979.331 7    293060.949 7    224854.57048  20605980.51948
  22234586.105 5  -2904613.746 5  -2243956.83247  22234586.90147
  23782192.050 5   1413727.749 5   1090529.02946  23782190.36646
  21515171.065 7    -34558.859 7    -27844.00048  21515169.18348
  22797893.870 6   1835980.258 6   1418754.12547  22797894.81947
 18  5 30  0 34 39.9990000  0 10G03G14G16G22G23G26G27G29G31G32       0.000409773
  23659822.370 5    -72930.918 5    -56038.57047  23659822.42547
  20637001.073 6    637238.152 6    491693.14848  20636998.69448
  20421545.878 6   -865578.836 6   -669082.87948  20421543.05848
  23634039.409 5    421538.504 5    316547.53146  23634034.34746
  23922315.097 5  -2856254.855 5  -2189240.55146  23922310.94446
  20606359.558 7    295057.777 7    226410.52748  20606360.66348
  22230597.151 5  -2925577.102 5  -2260291.90647  22230597.33547
  23784121.472 6   1423866.328 6   1098429.19946  23784119.26946
  21515061.745 6    -35135.754 6    -28293.53148  21515059.14048
  22800310.526 6   1848676.656 6   1428647.41447  22800310.96447
 18  5 30  0 34 44.9990000  0 10G03G14G16G22G23G26G27G29G31G32       0.000407486
  23659775.714 5    -73175.832 5    -56229.41047  23659776.28447
  20637934.683 6    642145.438 6    495517.00448  20637932.58948
  20420460.073 6   -871285.051 6   -673529.28148  20420457.31248
  23634580.136 5    424380.676 5    318762.22346  23634574.83946
  23918460.526 6  -2876512.352 6  -2205025.59047  23918456.26947
  20606740.112 7    297057.191 7    227968.50448  20606740.93748
  22226608.050 5  -2946538.836 5  -2276625.72747  22226608.74147
  23786052.050 6   1434010.602 6   1106333.80946  23786049.68746
  21514951.730 6    -35713.598 6    -28743.80548  21514949.32748
  22802726.761 6   1861375.883 6   1438542.89847  22802727.84747
 18  5 30  0 34 49.9990000  0 10G03G14G16G22G23G26G27G29G31G32       0.000405195
  23659730.276 5    -73414.938 5    -56415.73047  23659730.61647
  20638870.339 6    647061.484 6    499347.68048  20638867.72648
  20419375.284 6   -876984.813 6   -677970.66448  20419372.72248
  23635121.550 5    427224.070 5    320977.85246  23635116.35146
  23914605.331 6  -2896770.727 6  -2220811.35246  23914600.76146
  20607121.019 7    299058.324 7    229527.82848  20607121.91348
  22222619.722 5  -2967499.676 5  -2292958.83647  22222620.05047
  23787983.698 6   1444159.754 6   1114242.21946  23787981.41746
  21514841.784 6    -36293.141 6    -29195.40248  21514839.02648
  22805143.690 6   1874077.207 6   1448440.01647  22805145.06947
 18  5 30  0 34 54.9990000  0 10G03G14G16G22G23G26G27G29G31G32       0.000402901
  23659685.276 5    -73648.078 5    -56597.39147  23659686.12047
  20639807.808 6    651986.391 6    503185.26648  20639804.84748
  20418292.112 6   -882677.938 6   -682406.85548  20418288.76148
  23635662.706 6    430068.820 6    323194.53946  23635658.08146
  23910749.862 5  -2917029.883 5  -2236597.72346  23910745.56946
  20607501.901 7    301061.332 7    231088.61348  20607503.16348
  22218630.909 5  -2988459.504 5  -2309291.16447  22218631.06547
  23789916.737 6   1454313.836 6   1122154.47746  23789913.64446
  21514730.815 6    -36874.285 6    -29648.23448  21514728.62848
  22807560.831 6   1886780.637 6   1458338.78547  22807562.49147
 18  5 30  0 34 59.9990000  0 10G03G14G16G22G23G26G27G29G31G32       0.000400604
  23659642.730 5    -73875.012 5    -56774.22747  23659642.82347
  20640746.550 6    656920.387 6    507029.93448  20640744.08548
  20417210.011 6   -888364.281 6   -686837.77748  20417206.99148
  23636204.409 6    432915.172 6    325412.47346  23636199.68746
  23906894.987 6  -2937289.539 6  -2252384.45346  23906890.39746
  20607883.425 7    303066.449 7    232651.03548  20607884.92148
  22214643.151 6  -3009418.113 6  -2325622.54747  22214642.98747
  23791848.675 6   1464473.090 6   1130070.78546  23791846.90546
  21514619.589 7    -37456.797 7    -30102.15648  21514617.55448
  22809978.815 6   1899486.457 6   1468239.40647  22809980.34747
 18  5 30  0 35  4.9990000  0 10G03G14G16G22G23G26G27G29G31G32       0.000398304
  23659600.480 5    -74095.387 5    -56945.94547  23659601.15547
  20641687.159 6    661863.926 6    510882.03148  20641684.72648
  20416129.464 6   -894043.375 6   -691263.04348  20416126.48048
  23636745.433 6    435763.438 6    327631.90646  23636741.73746
  23903039.339 5  -2957549.238 5  -2268171.23847  23903034.67147
  20608265.948 7    305074.105 7    234215.44148  20608266.69448
  22210655.276 6  -3030375.012 6  -2341952.59447  22210655.70647
  23793783.745 6   1474637.938 6   1137991.43446  23793781.23046
  21514509.034 7    -38040.207 7    -30556.76248  21514506.58148
  22812397.534 6   1912195.113 6   1478142.23447  22812398.36647
 18  5 30  0 35  9.9990000  0 10G03G14G16G22G23G26G27G29G31G32       0.000396002
  23659559.722 5    -74308.688 5    -57112.16447  23659560.61247
  20642629.808 6    666817.445 6    514741.91448  20642627.57748
  20415050.019 6   -899714.664 6   -695682.22748  20415046.88648
  23637287.456 5    438614.219 5    329853.27746  23637284.34746
  23899184.378 5  -2977808.559 5  -2283957.73046  23899179.89746
  20608647.917 7    307084.746 7    235782.18048  20608649.10848
  22206667.253 5  -3051329.711 5  -2358280.92647  22206667.71847
  23795718.237 5   1484808.871 5   1145916.84046  23795716.69846
  21514397.933 6    -38624.043 6    -31011.70748  21514395.77648
  22814816.425 6   1924907.004 6   1488047.59047  22814817.58147
 18  5 30  0 35 14.9990000  0 10G03G14G16G22G23G26G27G29G31G32       0.000393696
  23659520.308 5    -74515.672 5    -57273.46547  23659521.27647
  20643573.784 6    671780.199 6    518608.99648  20643571.53048
  20413972.011 6   -905379.051 6   -700096.03548  20413969.04248
  23637831.284 5    441466.688 5    332075.96146  23637826.98046
  23895328.550 5  -2998068.191 5  -2299744.43446  23895324.72646
  20609030.948 7    309097.609 7    237350.64548  20609032.31548
  22202679.901 6  -3072282.941 6  -2374608.11347  22202680.63247
  23797654.901 6   1494985.129 6   1153846.36346  23797653.33546
  21514286.542 6    -39209.063 6    -31467.57048  21514284.29248
  22817235.370 6   1937621.414 6   1497954.91047  22817236.85147
 18  5 30  0 35 19.9990000  0 10G03G14G16G22G23G26G27G29G31G32       0.000391390
  23659482.558 5    -74714.828 5    -57428.64147  23659483.26547
  20644520.347 6    676753.684 6    522484.43848  20644518.00748
  20412895.800 6   -911034.938 6   -704503.22348  20412892.31948
  23638374.776 5    444322.387 5    334301.18446  23638370.74146
  23891473.769 5  -3018326.551 5  -2315530.16446  23891469.74946
  20609415.050 7    311114.262 7    238922.04748  20609415.96848
  22198692.972 5  -3093233.184 5  -2390932.97347  22198693.78447
  23799592.597 6   1505168.207 6   1161781.25046  23799591.62046
  21514175.394 7    -39793.777 7    -31923.20348  21514172.91748
  22819656.026 6   1950339.832 6   1507865.34847  22819656.63647
 18  5 30  0 35 24.9990000  0 10G03G14G16G22G23G26G27G29G31G32       0.000389080
  23659446.042 5    -74907.008 5    -57578.40647  23659446.81547
  20645468.440 6    681737.113 6    526367.62548  20645466.23048
  20411821.487 6   -916683.133 6   -708904.41448  20411817.74148
  23638918.417 5    447180.484 5    336528.25446  23638913.92946
  23887619.300 5  -3038584.500 5  -2331315.56346  23887614.86646
  20609799.620 7    313133.820 7    240495.72348  20609800.26548
  22194707.394 6  -3114181.203 6  -2407256.10248  22194707.54648
  23801531.894 6   1515357.305 6   1169720.78546  23801530.51146
  21514064.042 7    -40378.926 7    -32379.16448  21514061.49948
  22822076.620 6   1963061.469 6   1517778.30147  22822077.66347
 18  5 30  0 35 29.9990000  0 10G03G14G16G22G23G26G27G29G31G32       0.000386768
  23659411.159 5    -75092.043 5    -57722.60947  23659411.86647
  20646419.073 6    686730.602 6    530258.64548  20646416.87048
  20410748.230 6   -922323.590 6   -713299.58248  20410744.85548
  23639462.331 5    450041.063 5    338757.27346  23639457.93746
  23883764.253 5  -3058841.957 5  -2347100.60247  23883760.40947
  20610184.394 7    315156.414 7    242071.76648  20610184.89748
  22190721.222 6  -3135126.910 6  -2423577.43447  22190721.67147
  23803472.276 6   1525552.434 6   1177665.02346  23803470.52246
  21513952.214 6    -40964.496 6    -32835.44948  21513950.06248
  22824498.190 6   1975786.391 6   1527693.80947  22824499.33147
 18  5 30  0 35 34.9990000  0 10G03G14G16G22G23G26G27G29G31G32       0.000384453
  23659377.612 5    -75270.941 5    -57862.00847  23659377.51147
  20647371.269 6    691733.223 6    534156.78948  20647368.90548
  20409675.480 6   -927957.184 6   -717689.38748  20409672.17148
  23640007.503 5    452903.148 5    340987.45746  23640002.60846
  23879909.378 5  -3079099.762 5  -2362885.89547  23879905.21447
  20610569.776 7    317181.086 7    243649.42648  20610570.22248
  22186735.855 6  -3156071.223 6  -2439897.66047  22186736.42547
  23805412.722 5   1535752.797 5   1185613.39146  23805411.10546
  21513840.917 6    -41551.320 6    -33292.73048  21513838.40548
  22826920.581 6   1988513.676 6   1537611.16847  22826921.60547
 18  5 30  0 35 39.9990000  0 10G03G14G16G22G23G26G27G29G31G32       0.000382135
  23659343.980 5    -75443.980 5    -57996.87547  23659344.70247
  20648324.800 6    696744.629 6    538061.77748  20648322.40548
  20408605.058 6   -933584.273 6   -722074.14548  20408601.75748
  23640552.644 5    455766.438 5    343218.57846  23640547.73046
  23876053.761 5  -3099358.293 5  -2378671.75846  23876049.81246
  20610955.323 7    319207.516 7    245228.46548  20610955.53848
  22182750.558 6  -3177014.449 6  -2456217.05947  22182750.93347
  23807354.925 5   1545957.969 5   1193565.46946  23807352.99546
  21513729.159 7    -42139.754 7    -33751.25048  21513726.54648
  22829342.323 6   2001242.969 6   1547530.07847  22829343.61247
 18  5 30  0 35 44.9990000  0 10G03G14G16G22G23G26G27G29G31G32       0.000379814
  23659312.065 5    -75610.145 5    -58126.33647  23659313.13647
  20649280.378 6    701765.902 6    541974.44948  20649278.09348
  20407535.698 6   -939203.766 6   -726452.96148  20407532.42548
  23641097.612 5    458631.980 5    345451.47346  23641092.76946
  23872199.026 5  -3119616.395 5  -2394457.28947  23872194.65947
  20611341.378 7    321236.785 7    246809.70748  20611342.20248
  22178765.401 5  -3197955.434 5  -2472534.70747  22178765.60147
  23809297.644 5   1556168.961 5   1201522.08246  23809296.09346
  21513617.011 6    -42728.680 6    -34210.16048  21513615.06248
  22831764.706 5   2013975.367 5   1557451.41047  22831766.78047
 18  5 30  0 35 49.9990000  0 10G03G14G16G22G23G26G27G29G31G32       0.000377491
  23659281.964 5    -75769.500 5    -58250.51647  23659282.85547
  20650237.565 6    706796.984 6    545894.76648  20650235.64448
  20406467.308 6   -944815.773 6   -730825.96948  20406464.26548
  23641643.956 6    461499.590 6    347685.98446  23641638.26146
  23868343.651 5  -3139874.160 5  -2410242.55547  23868339.78447
  20611728.190 7    323268.777 7    248393.08248  20611728.58948
  22174780.628 5  -3218894.340 5  -2488850.73448  22174781.26548
  23811242.464 5   1566385.734 5   1209483.19146  23811239.74146
  21513504.534 6    -43318.176 6    -34669.52048  21513502.07348
  22834188.745 5   2026710.773 5   1567375.07847  22834190.66347
 18  5 30  0 35 54.9990000  0 10G03G14G16G22G23G26G27G29G31G32       0.000375166
  23659253.800 5    -75922.621 5    -58369.84447  23659253.33547
  20651196.487 6    711837.211 6    549822.21148  20651194.33148
  20405401.081 6   -950420.824 6   -735193.54348  20405397.76948
  23642189.909 5    464368.742 5    349921.69946  23642184.84746
  23864488.980 5  -3160132.188 5  -2426028.01647  23864485.12447
  20612115.284 7    325302.918 7    249978.11748  20612115.73048
  22170795.980 6  -3239831.699 6  -2505165.55547  22170796.68347
  23813186.847 5   1576607.672 5   1217448.32446  23813185.19846
  21513392.440 7    -43908.887 7    -35129.80948  21513389.87048
  22836613.237 5   2039448.559 5   1577300.59847  22836614.20247
 18  5 30  0 35 59.9990000  0 10G03G14G16G22G23G26G27G29G31G32       0.000372837
  23659225.183 5    -76069.195 5    -58484.05547  23659225.80447
  20652157.706 6    716887.008 6    553757.11348  20652155.46848
  20404335.386 6   -956018.637 6   -739555.47348  20404332.07748
  23642735.034 5    467239.930 5    352158.97746  23642731.55446
  23860634.136 5  -3180390.129 5  -2441813.42646  23860629.87446
  20612503.026 7    327339.555 7    251565.10548  20612503.11648
  22166812.847 6  -3260767.102 6  -2521478.84847  22166812.91347
  23815133.511 5   1586835.176 5   1225417.77746  23815131.87446
  21513280.276 7    -44500.375 7    -35590.71148  21513277.65948
  22839037.151 5   2052189.129 5   1587228.29347  22839038.51547
 18  5 30  0 36  4.9990000  0 10G03G14G16G22G23G26G27G29G31G32       0.000370506
  23659198.526 5    -76209.227 5    -58593.19146  23659198.89446
  20653120.597 6    721946.336 6    557699.44548  20653118.42948
  20403272.198 6   -961609.254 6   -743911.80548  20403268.68348
  23643282.433 5    470112.953 5    354397.70346  23643278.54246
  23856779.214 6  -3200647.941 6  -2457598.72347  23856775.14047
  20612890.839 7    329378.637 7    253153.99648  20612890.92148
  22162829.636 6  -3281700.629 6  -2537790.68447  22162829.72247
  23817080.933 6   1597068.152 6   1233391.51246  23817079.56546
  21513166.628 6    -45092.723 6    -36052.28148  21513164.93348
  22841461.573 5   2064932.395 5   1597158.09447  22841463.64047
 18  5 30  0 36  9.9990000  0 10G03G14G16G22G23G26G27G29G31G32       0.000368172
  23659173.065 5    -76342.848 5    -58697.29747  23659173.29647
  20654084.980 6    727015.082 6    561649.10948  20654083.05048
  20402209.323 6   -967192.715 6   -748262.54748  20402206.14048
  23643828.792 5    472987.816 5    356637.83246  23643825.55046
  23852924.401 5  -3220905.664 5  -2473383.94547  23852920.30047
  20613279.159 7    331420.086 7    254744.73048  20613279.82748
  22158846.565 6  -3302632.297 6  -2554101.06647  22158846.15147
  23819028.886 5   1607306.531 5   1241369.46146  23819027.95646
  21513054.269 7    -45685.961 7    -36514.55148  21513051.74148
  22843887.690 5   2077678.238 5   1607089.91047  22843888.46447
 18  5 30  0 36 14.9990000  0 10G03G14G16G22G23G26G27G29G31G32       0.000365837
  23659149.222 5    -76468.707 5    -58795.36747  23659149.81247
  20655051.901 6    732094.566 6    565607.14548  20655049.45248
  20401148.464 6   -972767.723 6   -752606.70748  20401145.51948
  23644377.378 5    475865.871 5    358880.46146  23644373.30046
  23849069.440 6  -3241162.004 6  -2489168.08247  23849065.37847
  20613668.815 7    333465.246 7    256338.35248  20613668.60848
  22154863.167 6  -3323560.758 6  -2570408.95747  22154863.71847
  23820978.823 5   1617551.656 5   1249352.64546  23820977.40546
  21512941.362 6    -46278.766 6    -36976.48048  21512938.98348
  22846313.901 6   2090428.031 6   1617024.80947  22846315.12847
 18  5 30  0 36 19.9990000  0 10G03G14G16G22G23G26G27G29G31G32       0.000363499
  23659125.730 5    -76588.344 5    -58888.58647  23659127.06547
  20656020.058 6    737183.270 6    569572.36748  20656018.22248
  20400088.855 6   -978335.797 6   -756945.46948  20400085.73748
  23644924.878 5    478745.434 5    361124.26246  23644921.35846
  23845214.511 5  -3261418.496 5  -2504952.37547  23845210.65547
  20614058.644 7    335512.516 7    257933.62548  20614058.52648
  22150880.683 6  -3344487.574 6  -2586715.56347  22150881.37847
  23822928.925 6   1627801.930 6   1257339.85246  23822927.94846
  21512827.870 6    -46872.707 6    -37439.30148  21512825.71848
  22848740.878 5   2103180.250 5   1626961.57447  22848742.06947
 18  5 30  0 36 24.9990000  0 10G03G14G16G22G23G26G27G29G31G32       0.000361156
  23659104.261 5    -76702.016 5    -58977.16846  23659105.06246
  20656990.034 6    742280.926 6    573544.55148  20656987.89748
  20399030.550 6   -983897.152 6   -761278.99648  20399027.56248
  23645473.464 5    481626.348 5    363369.11346  23645469.60146
  23841359.651 5  -3281675.367 5  -2520736.95347  23841355.81947
  20614448.753 7    337561.684 7    259530.37948  20614448.65948
  22146899.105 6  -3365412.941 6  -2603021.03947  22146899.63647
  23824880.987 6   1638057.160 6   1265330.92646  23824879.69846
  21512714.558 6    -47468.016 6    -37903.18448  21512712.46448
  22851167.378 5   2115934.578 5   1636899.98847  22851169.19847
 18  5 30  0 36 29.9990000  0 10G03G14G16G22G23G26G27G29G31G32       0.000358810
  23659084.175 5    -76809.438 5    -59060.89546  23659084.78046
  20657962.073 6    747387.824 6    577523.94948  20657959.55848
  20397973.815 6   -989451.559 6   -765607.10548  20397970.53448
  23646021.667 5    484508.828 5    365615.21146  23646017.57746
  23837504.730 5  -3301932.266 5  -2536521.53547  23837501.08547
  20614838.331 7    339613.059 7    261128.85548  20614838.81948
  22142917.261 6  -3386336.520 6  -2619325.13347  22142917.85547
  23826833.136 6   1648317.547 6   1273326.02746  23826831.52246
  21512601.722 6    -48064.270 6    -38367.80148  21512599.49148
  22853594.675 5   2128691.363 5   1646840.32047  22853596.70647
 18  5 30  0 36 34.9990000  0 10G03G14G16G22G23G26G27G29G31G32       0.000356464
  23659065.128 5    -76910.523 5    -59139.65246  23659065.36646
  20658935.683 6    752504.063 6    581510.62948  20658933.26148
  20396918.081 6   -994998.973 6   -769929.77048  20396914.94448
  23646571.292 5    487392.930 5    367862.53946  23646566.58546
  23833651.300 6  -3322189.129 6  -2552306.12147  23833646.48047
  20615228.815 7    341666.660 7    262729.06348  20615229.60148
  22138936.433 6  -3407258.332 6  -2635627.83247  22138936.58947
  23828786.690 5   1658583.090 5   1281325.15246  23828785.13246
  21512488.026 6    -48661.449 6    -38833.14548  21512485.44448
  22856023.644 6   2141450.621 6   1656782.56347  22856024.96847
 18  5 30  0 36 39.9990000  0 10G03G14G16G22G23G26G27G29G31G32       0.000354113
  23659046.964 5    -77005.652 5    -59213.78947  23659047.11647
  20659910.636 6    757629.289 6    585504.30148  20659908.42148
  20395863.761 6  -1000539.660 6   -774247.18848  20395860.64448
  23647121.011 6    490278.379 6    370110.93846  23647115.64746
  23829795.964 6  -3342446.281 6  -2568090.93047  23829791.66347
  20615620.487 7    343722.199 7    264330.77348  20615620.60848
  22134955.175 6  -3428178.523 6  -2651929.28147  22134955.69847
  23830741.480 5   1668853.660 5   1289328.16446  23830739.56546
  21512374.144 6    -49259.922 6    -39299.49248  21512371.68348
  22858451.940 6   2154212.039 6   1666726.50447  22858453.31947
 18  5 30  0 36 44.9990000  0 10G03G14G16G22G23G26G27G29G31G32       0.000351761
  23659029.628 5    -77093.078 5    -59281.91847  23659030.62847
  20660888.144 6    762765.195 6    589506.29748  20660885.73048
  20394810.776 6  -1006071.992 6   -778558.09848  20394807.86648
  23647669.745 5    493166.836 5    372361.66846  23647664.78446
  23825941.183 6  -3362701.969 6  -2583874.57847  23825936.88247
  20616012.019 7    345781.320 7    265935.28548  20616012.40548
  22130975.097 6  -3449095.543 6  -2668228.25447  22130975.19847
  23832696.714 6   1679130.824 6   1297336.37946  23832694.40946
  21512259.855 7    -49857.934 7    -39765.48048  21512257.74148
  22860880.636 6   2166977.289 6   1676673.43847  22860882.04247
 18  5 30  0 36 49.9990000  0 10G03G14G16G22G23G26G27G29G31G32       0.000349407
  23659014.862 6    -77173.383 6    -59344.49647  23659015.33947
  20661867.323 6    767911.266 6    593516.22348  20661864.94448
  20393759.776 7  -1011596.422 7   -782862.84448  20393756.41348
  23648219.651 5    496057.781 5    374614.37946  23648214.92546
  23822087.339 6  -3382956.730 6  -2599657.46947  23822083.24547
  20616404.808 7    347843.543 7    267542.19548  20616405.05848
  22126995.034 6  -3470009.785 6  -2684525.06647  22126995.43347
  23834653.644 6   1689414.168 6   1305349.35546  23834651.27646
  21512146.370 7    -50456.008 7    -40231.51648  21512143.92148
  22863311.394 6   2179745.863 6   1686622.95747  22863311.78047
 18  5 30  0 36 54.9990000  0 10G03G14G16G22G23G26G27G29G31G32       0.000347050
  23659001.105 5    -77246.641 5    -59401.57847  23659002.14047
  20662848.526 6    773067.414 6    597533.99248  20662846.26948
  20392709.925 6  -1017113.113 6   -787161.55948  20392707.01948
  23648769.675 5    498951.105 5    376868.91046  23648765.00346
  23818232.870 6  -3403210.637 6  -2615439.75447  23818228.55447
  20616798.042 7    349908.723 7    269151.42648  20616798.55848
  22123015.347 6  -3490921.383 6  -2700819.81347  22123016.57347
  23836611.761 6   1699703.496 6   1313367.01246  23836609.75746
  21512032.190 6    -51054.355 6    -40697.77348  21512030.37048
  22865741.605 6   2192517.633 6   1696574.96947  22865742.84347
 18  5 30  0 36 59.9990000  0 10G03G14G16G22G23G26G27G29G31G32       0.000344690
  23658987.355 5    -77313.820 5    -59453.92247  23658988.63647
  20663831.440 6    778232.637 6    601558.83648  20663829.46848
  20391661.417 6  -1022622.977 6   -791454.96548  20391658.35848
  23649320.480 5    501845.871 5    379124.57446  23649315.83146
  23814378.175 5  -3423464.652 5  -2631222.07847  23814374.62047
  20617191.237 7    351975.922 7    270762.22348  20617191.45248
  22119036.753 6  -3511831.199 6  -2717113.17247  22119037.42547
  23838570.855 6   1709997.871 6   1321388.60246  23838568.73746
  21511918.378 6    -51653.824 6    -41164.89548  21511916.07348
  22868171.659 6   2205291.648 6   1706528.73447  22868172.89747
 18  5 30  0 37  4.9990000  0 10G03G14G16G22G23G26G27G29G31G32       0.000342329
  23658976.792 5    -77374.328 5    -59501.07847  23658977.01147
  20664816.690 6    783407.559 6    605591.23848  20664813.85548
  20390614.628 6  -1028125.457 6   -795742.60948  20390611.40948
  23649872.269 5    504742.609 5    381381.75846  23649867.14046
  23810524.440 6  -3443718.207 6  -2647004.05947  23810520.44847
  20617584.940 7    354045.703 7    272375.05148  20617585.21048
  22115058.011 6  -3532738.770 6  -2733404.78547  22115058.59347
  23840531.761 6   1720297.809 6   1329414.51646  23840528.27246
  21511804.347 7    -52253.891 7    -41632.48848  21511801.44048
  22870603.292 6   2218068.504 6   1716484.70347  22870604.34347
 18  5 30  0 37  9.9990000  0 10G03G14G16G22G23G26G27G29G31G32       0.000339964
  23658967.112 5    -77428.176 5    -59543.05547  23658967.33147
  20665802.628 6    788592.207 6    609631.21148  20665800.53448
  20389568.503 6  -1033620.535 6   -800024.49648  20389565.59748
  23650423.417 5    507641.402 5    383640.56646  23650419.15146
  23806670.269 6  -3463971.191 6  -2662785.59846  23806666.25346
  20617979.315 7    356118.105 7    273989.90648  20617979.69848
  22111079.917 5  -3553643.922 5  -2749694.50447  22111080.23047
  23842491.972 6   1730603.359 6   1337444.82046  23842489.49146
  21511689.823 7    -52854.496 7    -42100.49248  21511687.59748
  22873035.401 6   2230848.195 6   1726442.88747  22873036.88647
 18  5 30  0 37 14.9990000  0 10G03G14G16G22G23G26G27G29G31G32       0.000337597
  23658957.097 5    -77475.637 5    -59580.02747  23658957.92547
  20666790.956 6    793786.234 6    613678.50848  20666789.05848
  20388524.636 6  -1039108.500 6   -804300.83248  20388521.23348
  23650975.761 5    510541.844 5    385900.62546  23650970.93746
  23802817.042 6  -3484223.883 6  -2678566.92646  23802812.16746
  20618373.870 7    358192.820 7    275606.57048  20618374.73048
  22107102.175 6  -3574547.016 6  -2765982.62547  22107102.56547
  23844454.245 6   1740914.230 6   1345479.22346  23844452.08546
  21511575.589 7    -53455.930 7    -42569.14848  21511572.98348
  22875467.605 6   2243630.430 6   1736403.04347  22875468.97247
 18  5 30  0 37 19.9990000  0 10G03G14G16G22G23G26G27G29G31G32       0.000335226
  23658950.651 5    -77515.926 5    -59611.43447  23658950.42547
  20667781.589 6    798990.520 6    617733.78148  20667779.26548
  20387481.644 6  -1044588.508 6   -808570.96148  20387478.98748
  23651528.417 5    513444.785 5    388162.64846  23651523.96046
  23798962.909 6  -3504475.484 6  -2694347.41047  23798957.74147
  20618769.198 7    360270.637 7    277225.63348  20618770.06248
  22103125.089 6  -3595447.148 6  -2782268.43847  22103125.71047
  23846417.394 6   1751231.199 6   1353518.41046  23846415.72246
  21511460.940 7    -54057.363 7    -43037.80548  21511458.77248
  22877900.565 5   2256416.000 5   1746365.80547  22877902.33547
 18  5 30  0 37 24.9990000  0 10G03G14G16G22G23G26G27G29G31G32       0.000332855
  23658943.362 5    -77549.387 5    -59637.50046  23658944.06946
  20668773.940 6    804204.629 6    621796.71548  20668771.90148
  20386440.222 6  -1050060.953 6   -812835.21148  20386437.33148
  23652081.480 5    516349.820 5    390426.30546  23652077.31546
  23795109.409 6  -3524726.328 6  -2710127.28547  23795104.09747
  20619164.909 7    362351.227 7    278846.86348  20619165.53048
  22099148.370 6  -3616344.734 6  -2798552.27747  22099148.81247
  23848381.417 6   1761553.953 6   1361562.12946  23848380.28446
  21511346.183 7    -54659.129 7    -43506.71548  21511343.91748
  22880334.097 6   2269204.559 6   1756330.90247  22880335.67547
 18  5 30  0 37 29.9990000  0 10G03G14G16G22G23G26G27G29G31G32       0.000330481
  23658938.784 5    -77575.387 5    -59657.76247  23658939.12447
  20669767.605 6    809429.285 6    625867.87548  20669765.44048
  20385400.198 6  -1055525.137 6   -817093.01648  20385397.24948
  23652634.683 5    519257.719 5    392692.21546  23652630.88246
  23791255.839 6  -3544975.770 6  -2725906.07846  23791250.58546
  20619561.995 7    364435.246 7    280470.76248  20619562.42548
  22095172.690 6  -3637239.020 6  -2814833.54347  22095172.62047
  23850346.714 6   1771883.137 6   1369610.82046  23850345.51146
  21511232.144 6    -55260.492 6    -43975.31648  21511229.55048
  22882769.198 6   2281996.746 6   1766298.82847  22882769.90547
 18  5 30  0 37 34.9990000  0 10G03G14G16G22G23G26G27G29G31G32       0.000328104
  23658935.487 5    -77594.957 5    -59673.01247  23658935.00747
  20670764.269 6    814663.391 6    629946.39148  20670761.89048
  20384361.808 6  -1060982.199 6   -821345.27048  20384358.77248
  23653188.823 5    522167.289 5    394959.39546  23653184.49146
  23787401.917 6  -3565224.844 6  -2741684.57047  23787398.42947
  20619959.276 7    366521.578 7    282096.46948  20619959.59348
  22091196.495 6  -3658131.148 6  -2831113.11747  22091196.96447
  23852313.534 6   1782217.648 6   1377663.68046  23852311.70646
  21511117.620 6    -55862.602 6    -44444.49248  21511114.87448
  22885203.472 6   2294791.512 6   1776268.76247  22885204.37447
 18  5 30  0 37 39.9990000  0 10G03G14G16G22G23G26G27G29G31G32       0.000325726
  23658932.526 5    -77607.773 5    -59683.02347  23658932.47647
  20671762.394 6    819907.313 6    634032.55548  20671759.75748
  20383325.019 6  -1066431.734 6   -825591.66448  20383321.73748
  23653742.308 5    525078.949 5    397228.21546  23653738.63246
  23783549.128 5  -3585473.211 5  -2757462.49646  23783544.91746
  20620356.440 7    368610.578 7    283724.27348  20620356.81548
  22087221.628 6  -3679020.688 6  -2847390.68047  22087221.64747
  23854281.456 5   1792557.793 5   1385720.96146  23854279.13246
  21511002.847 6    -56465.055 6    -44913.94148  21511000.05848
  22887638.987 6   2307589.145 6   1786240.91047  22887639.84747
 18  5 30  0 37 44.9990000  0 10G03G14G16G22G23G26G27G29G31G32       0.000323343
  23658931.550 5    -77613.043 5    -59687.11347  23658931.58147
  20672761.284 6    825161.867 6    638127.01248  20672759.52248
  20382289.745 6  -1071872.938 6   -829831.57048  20382286.46448
  23654296.886 5    527993.469 5    399499.26646  23654292.85546
  23779696.355 6  -3605720.016 6  -2773239.22746  23779692.33946
  20620754.230 7    370703.078 7    285354.80148  20620755.38648
  22083246.620 6  -3699906.781 6  -2863665.55547  22083247.37447
  23856250.722 6   1802904.488 6   1393783.30546  23856248.42946
  21510887.815 6    -57067.055 6    -45383.03148  21510885.54648
  22890074.636 6   2320390.512 6   1796215.99247  22890075.71047
 18  5 30  0 37 49.9990000  0 10G03G14G16G22G23G26G27G29G31G32       0.000320961
  23658931.651 5    -77611.379 5    -59685.83647  23658931.44447
  20673763.925 6    830426.406 6    642229.24648  20673761.55848
  20381255.503 6  -1077306.410 6   -834065.43848  20381252.26548
  23654852.206 5    530910.273 5    401772.09446  23654847.94446
  23775844.261 5  -3625965.859 5  -2789015.21946  23775839.66746
  20621153.050 7    372798.492 7    286987.59048  20621154.30048
  22079273.026 6  -3720790.070 6  -2879938.24247  22079273.62447
  23858219.894 6   1813257.023 6   1401850.23846  23858217.83946
  21510773.831 6    -57669.176 6    -45852.21948  21510771.17948
  22892510.628 5   2333194.973 5   1806193.48447  22892512.65547
 18  5 30  0 37 54.9990000  0 10G03G14G16G22G23G26G27G29G31G32       0.000318575
  23658932.792 5    -77602.840 5    -59679.19547  23658933.38247
  20674767.565 6    835700.871 6    646339.21948  20674764.96048
  20380222.987 6  -1082732.297 6   -838293.41448  20380219.79648
  23655407.487 5    533829.199 5    404046.57446  23655402.99146
  23771991.230 5  -3646210.754 5  -2804790.46947  23771986.78847
  20621552.487 7    374896.664 7    288622.52048  20621553.08148
  22075299.940 6  -3741670.609 6  -2896208.78947  22075300.25747
  23860191.800 6   1823615.320 6   1409921.60246  23860189.12046
  21510659.542 6    -58271.535 6    -46321.59848  21510656.43348
  22894948.901 6   2346002.434 6   1816173.28547  22894949.15147
 18  5 30  0 37 59.9990000  0 10G03G14G16G22G23G26G27G29G31G32       0.000316187
  23658935.940 5    -77587.703 5    -59667.39846  23658936.53846
  20675773.026 6    840985.035 6    650456.73448  20675770.40148
  20379191.894 6  -1088150.762 6   -842515.58248  20379188.86648
  23655963.011 5    536750.094 5    406322.59046  23655958.83146
  23768139.190 5  -3666454.957 5  -2820565.16047  23768134.40147
  20621952.159 7    376997.406 7    290259.44948  20621953.25348
  22071326.925 5  -3762548.594 5  -2912477.34447  22071327.02647
  23862164.089 6   1833979.188 6   1417997.37546  23862161.11246
  21510544.378 6    -58874.266 6    -46791.26648  21510542.27648
  22897386.206 5   2358812.656 5   1826155.27047  22897387.30047
 18  5 30  0 38  4.9990000  0 10G03G14G16G22G23G26G27G29G31G32       0.000313797
  23658940.167 5    -77565.469 5    -59650.07846  23658940.53046
  20676780.573 6    846279.324 6    654582.14848  20676778.15148
  20378162.300 6  -1093561.441 6   -846731.70348  20378158.96848
  23656519.315 5    539673.313 5    408600.41846  23656514.64446
  23764286.847 6  -3686698.020 6  -2836338.97746  23764282.37046
  20622352.487 7    379101.141 7    291898.71148  20622353.57348
  22067353.769 5  -3783423.563 5  -2928743.54747  22067354.69447
  23864136.620 5   1844348.961 5   1426077.68046  23864134.93346
  21510429.800 6    -59477.027 6    -47260.94948  21510427.33948
  22899824.206 5   2371626.086 5   1836139.73447  22899825.55047
 18  5 30  0 38  9.9990000  0 10G03G14G16G22G23G26G27G29G31G32       0.000311403
  23658945.980 5    -77536.398 5    -59627.41446  23658946.19046
  20677789.628 6    851583.570 6    658715.32048  20677787.18748
  20377133.995 6  -1098964.418 6   -850941.81648  20377130.80848
  23657075.933 5    542598.738 5    410879.97346  23657071.53046
  23760434.980 6  -3706940.016 6  -2852111.95746  23760430.26546
  20622753.511 7    381207.711 7    293540.18848  20622754.24548
  22063382.581 6  -3804295.703 6  -2945007.53947  22063382.89047
  23866111.480 6   1854724.578 6   1434162.57846  23866109.53046
  21510315.081 6    -60079.914 6    -47730.73048  21510312.51948
  22902263.253 5   2384442.543 5   1846126.56647  22902264.71847
 18  5 30  0 38 14.9990000  0 10G03G14G16G22G23G26G27G29G31G32       0.000309008
  23658952.605 5    -77500.352 5    -59599.33247  23658953.17547
  20678801.073 6    856897.840 6    662856.31348  20678798.67148
  20376107.769 6  -1104359.652 6   -855145.89548  20376104.40148
  23657633.636 5    545526.410 5    413161.27046  23657628.78046
  23756583.440 6  -3727180.973 6  -2867884.13747  23756578.47647
  20623155.112 7    383317.168 7    295183.91848  20623155.54248
  22059410.940 6  -3825164.879 6  -2961269.23447  22059411.77247
  23868086.386 6   1865106.035 6   1442252.02046  23868085.26546
  21510200.472 6    -60682.855 6    -48200.55548  21510198.10548
  22904702.886 6   2397262.066 6   1856115.79746  22904704.20646
 18  5 30  0 38 19.9990000  0 10G03G14G16G22G23G26G27G29G31G32       0.000306612
  23658960.487 5    -77457.320 5    -59565.79747  23658961.49147
  20679814.269 6    862222.215 6    667005.16048  20679812.16748
  20375082.089 6  -1109747.086 6   -859343.89548  20375078.84348
  23658191.308 5    548456.410 5    415444.35946  23658186.27646
  23752731.464 5  -3747420.723 5  -2883655.37547  23752726.94847
  20623557.253 7    385429.555 7    296829.93848  20623557.65948
  22055440.058 5  -3846031.070 5  -2977528.60247  22055441.04647
  23870064.120 6   1875493.375 6   1450346.02746  23870062.07346
  21510085.792 7    -61285.793 7    -48670.37548  21510083.03448
  22907143.065 5   2410084.766 5   1866107.49646  22907144.42146
 18  5 30  0 38 24.9990000  0 10G03G14G16G22G23G26G27G29G31G32       0.000304213
  23658970.472 5    -77406.600 5    -59526.28547  23658971.36247
  20680829.128 6    867557.410 6    671162.45748  20680827.14748
  20374058.800 6  -1115126.059 6   -863535.30948  20374055.75348
  23658749.269 5    551389.375 5    417729.80546  23658744.13646
  23748880.487 6  -3767658.570 6  -2899425.11746  23748875.95246
  20623959.753 7    387545.594 7    298478.80148  20623960.47648
  22051470.526 6  -3866893.457 6  -2993784.99647  22051471.05047
  23872041.417 6   1885887.340 6   1458445.21146  23872040.40146
  21509970.964 7    -61887.996 7    -49139.62948  21509968.87848
  22909583.026 6   2422911.262 6   1876102.16446  22909585.39046
 18  5 30  0 38 29.9990000  0 10G03G14G16G22G23G26G27G29G31G32       0.000301811
  23658981.487 5    -77347.977 5    -59480.60547  23658982.47647
  20681846.808 6    872903.586 6    675328.29748  20681844.41748
  20373036.823 6  -1120496.320 6   -867719.92648  20373033.65548
  23659308.347 6    554325.535 6    420017.71546  23659303.42146
  23745029.526 5  -3787894.336 5  -2915193.23447  23745025.29647
  20624362.964 7    389665.445 7    300130.62548  20624363.89048
  22047501.269 5  -3887751.953 5  -3010038.36747  22047501.42147
  23874020.433 6   1896288.109 6   1466549.69946  23874019.68746
  21509856.862 7    -62489.266 7    -49608.15248  21509854.19048
  22912025.394 5   2435741.824 5   1886100.00046  22912026.62846
 18  5 30  0 38 34.9990000  0 10G03G14G16G22G23G26G27G29G31G32       0.000299408
  23658993.808 5    -77282.109 5    -59429.28547  23658995.53047
  20682866.042 6    878260.078 6    679502.18848  20682864.10848
  20372016.315 6  -1125858.578 6   -871898.30948  20372013.10548
  23659868.151 6    557264.113 6    422307.50846  23659862.46446
  23741178.987 6  -3808128.680 6  -2930960.25447  23741175.02647
  20624767.151 7    391788.484 7    301784.93848  20624768.08948
  22043532.714 6  -3908607.098 6  -3026289.12947  22043532.88647
  23876000.901 6   1906694.977 6   1474658.91846  23876000.51546
  21509741.730 6    -63090.313 6    -50076.50448  21509739.89748
  22914467.112 5   2448575.707 5   1896100.39847  22914468.78847
 18  5 30  0 38 39.9990000  0 10G03G14G16G22G23G26G27G29G31G32       0.000297005
  23659008.394 5    -77209.363 5    -59372.61347  23659009.17547
  20683887.581 6    883626.590 6    683683.87548  20683884.85548
  20370997.409 7  -1131213.109 7   -876070.68048  20370994.28448
  23660427.651 6    560204.934 6    424599.06346  23660422.10546
  23737329.011 5  -3828361.855 5  -2946726.33646  23737324.74546
  20625171.573 7    393914.344 7    303441.44548  20625172.30848
  22039564.659 6  -3929459.219 6  -3042537.53947  22039564.72647
  23877981.644 5   1917107.652 5   1482772.69946  23877981.13246
  21509627.644 6    -63691.363 6    -50544.84848  21509625.41348
  22916910.058 5   2461412.668 5   1906103.21547  22916911.67147
 18  5 30  0 38 44.9990000  0 10G03G14G16G22G23G26G27G29G31G32       0.000294598
  23659022.987 5    -77128.449 5    -59309.55147  23659024.42147
  20684910.347 6    889004.383 6    687874.35548  20684908.48748
  20369980.347 6  -1136558.648 6   -880236.03148  20369976.86248
  23660986.995 6    563149.207 6    426893.29346  23660982.18346
  23733479.464 6  -3848592.566 6  -2962490.52747  23733474.81547
  20625576.644 7    396044.344 7    305101.19148  20625577.64048
  22035597.151 6  -3950307.027 6  -3058782.57447  22035597.91347
  23879964.597 5   1927527.488 5   1490892.02346  23879963.81546
  21509513.792 7    -64291.137 7    -51012.20748  21509511.00748
  22919354.112 5   2474253.926 5   1916109.35946  22919355.29246
 18  5 30  0 38 49.9990000  0 10G03G14G16G22G23G26G27G29G31G32       0.000292189
  23659039.784 5    -77040.766 5    -59241.25047  23659041.42547
  20685936.237 6    894392.035 6    692072.52348  20685933.90548
  20368964.573 6  -1141896.656 6   -884395.52048  20368961.07748
  23661547.894 5    566095.492 5    429189.08646  23661543.22646
  23729630.144 6  -3868822.289 6  -2978253.95347  23729625.36247
  20625982.987 7    398177.016 7    306762.99648  20625983.19848
  22031630.433 6  -3971151.938 6  -3075025.36747  22031631.08147
  23881949.144 5   1937952.820 5   1499015.63746  23881947.89746
  21509399.769 7    -64891.098 7    -51479.71148  21509396.84748
  22921798.339 5   2487098.039 5   1926117.74246  22921799.75346
 18  5 30  0 38 54.9990000  0 10G03G14G16G22G23G26G27G29G31G32       0.000289778
  23659057.995 5    -76945.895 5    -59167.32047  23659059.11247
  20686963.323 6    899790.031 6    696278.75048  20686961.08148
  20367950.362 6  -1147226.633 6   -888548.74648  20367946.31548
  23662107.855 5    569044.313 5    431486.87946  23662103.96846
  23725780.612 6  -3889050.473 6  -2994016.18047  23725775.71847
  20626389.519 7    400312.844 7    308427.27748  20626389.94848
  22027664.558 6  -3991993.465 6  -3091265.51247  22027665.11647
  23883934.862 5   1948384.324 5   1507144.08246  23883933.09346
  21509285.151 7    -65490.719 7    -51946.95748  21509282.92148
  22924242.331 5   2499945.547 5   1936128.76646  22924244.35846
 18  5 30  0 38 59.9990000  0 10G03G14G16G22G23G26G27G29G31G32       0.000287365
  23659077.300 5    -76843.703 5    -59087.70347  23659078.64747
  20687991.917 6    905198.418 6    700493.07048  20687990.74548
  20366937.683 7  -1152548.457 7   -892695.62948  20366934.03848
  23662670.651 5    571995.688 5    433786.62546  23662665.96846
  23721931.081 6  -3909277.059 6  -3009777.15247  23721926.80847
  20626796.362 7    402451.895 7    310094.07048  20626796.97248
  22023699.206 6  -4012831.473 6  -3107502.92247  22023699.90947
  23885920.355 5   1958821.953 5   1515277.29746  23885918.83146
  21509171.308 7    -66089.941 7    -52413.88748  21509168.58148
  22926688.417 5   2512796.445 5   1946142.43047  22926689.83547
 18  5 30  0 39  4.9990000  0 10G03G14G16G22G23G26G27G29G31G32       0.000284950
  23659098.378 5    -76733.215 5    -59001.61347  23659099.19047
  20689023.550 6    910618.281 6    704716.33248  20689021.69048
  20365926.542 6  -1157861.141 6   -896835.38748  20365923.24148
  23663232.472 5    574950.668 5    436089.19946  23663228.42946
  23718082.534 6  -3929500.996 6  -3025536.07047  23718078.18747
  20627203.769 7    404595.238 7    311764.21148  20627204.89048
  22019735.112 6  -4033664.934 6  -3123736.78547  22019735.06547
  23887908.612 6   1969266.809 6   1523416.14546  23887906.33146
  21509057.612 6    -66687.723 6    -52879.69148  21509054.82348
  22929134.472 5   2525651.777 5   1956159.54746  22929136.26146
 18  5 30  0 39  9.9990000  0 10G03G14G16G22G23G26G27G29G31G32       0.000282536
  23659120.940 5    -76615.258 5    -58909.69146  23659121.77646
  20690056.980 6    916048.723 6    708947.83648  20690055.06948
  20364917.495 6  -1163165.559 6   -900968.69548  20364913.50348
  23663795.105 5    577908.375 5    438393.92646  23663790.80046
  23714234.425 6  -3949723.078 6  -3041293.52747  23714230.39747
  20627612.745 7    406741.980 7    313436.98048  20627613.54648
  22015771.042 6  -4054494.676 6  -3139967.74647  22015771.43347
  23889897.362 5   1979718.055 5   1531559.96546  23889895.47246
  21508944.526 7    -67284.898 7    -53345.02348  21508941.35148
  22931582.136 5   2538510.699 5   1966179.46546  22931583.76546
 18  5 30  0 39 14.9990000  0 10G03G14G16G22G23G26G27G29G31G32       0.000280117
  23659145.448 6    -76489.207 6    -58811.48446  23659145.66746
  20691092.261 6    921490.406 6    713188.10948  20691090.35848
  20363909.667 6  -1168461.047 6   -905095.05148  20363905.74548
  23664358.722 5    580869.469 5    440701.25446  23664354.04246
  23710387.167 6  -3969942.641 6  -3057049.00447  23710383.00747
  20628022.362 7    408892.773 7    315112.92248  20628022.61648
  22011808.237 6  -4075320.039 6  -3156195.30947  22011808.24147
  23891887.558 5   1990176.250 5   1539709.20746  23891885.46846
  21508830.448 7    -67880.785 7    -53809.35248  21508827.84348
  22934029.573 5   2551373.859 5   1976202.69547  22934030.93347
 18  5 30  0 39 19.9990000  0 10G03G14G16G22G23G26G27G29G31G32       0.000277697
  23659169.925 5    -76357.289 5    -58708.69146  23659170.98346
  20692129.878 6    926941.082 6    717435.38748  20692127.64748
  20362903.159 7  -1173749.871 7   -909216.22748  20362899.37848
  23664922.909 5    583831.684 5    443009.48046  23664917.51546
  23706540.222 6  -3990161.934 6  -3072804.32047  23706535.26147
  20628431.761 7    411045.348 7    316790.25448  20628431.98348
  22007846.230 6  -4096143.215 6  -3172421.16047  22007845.99947
  23893879.026 6   2000639.164 6   1547862.10246  23893876.71446
  21508717.019 6    -68477.684 6    -54274.47348  21508714.47648
  22936477.776 5   2564239.012 5   1986227.47347  22936478.92947
 18  5 30  0 39 24.9990000  0 10G03G14G16G22G23G26G27G29G31G32       0.000275274
  23659195.987 5    -76218.664 5    -58600.67646  23659197.42946
  20693169.081 6    932401.633 6    721690.35948  20693166.78848
  20361898.394 7  -1179031.156 7   -913331.50848  20361894.87448
  23665488.011 5    586795.863 5    445319.21946  23665481.93346
  23702692.886 6  -4010380.094 6  -3088558.72747  23702687.33547
  20628841.847 7    413200.602 7    318469.67648  20628842.38648
  22003883.651 6  -4116963.402 6  -3188644.68047  22003884.27247
  23895870.628 5   2011107.645 5   1556019.37546  23895868.76146
  21508602.995 6    -69074.742 6    -54739.71148  21508600.81248
  22938926.675 5   2577106.965 5   1996254.43047  22938927.86647
 18  5 30  0 39 29.9990000  0 10G03G14G16G22G23G26G27G29G31G32       0.000272850
  23659223.706 5    -76073.020 5    -58487.19946  23659224.71846
  20694210.065 6    937872.367 6    725953.26248  20694207.83948
  20360894.519 6  -1184304.605 6   -917440.69148  20360890.91348
  23666051.573 6    589762.320 6    447630.74646  23666046.55046
  23698845.698 6  -4030596.797 6  -3104312.00047  23698840.62447
  20629252.425 7    415358.809 7    320151.39848  20629252.90948
  21999922.519 6  -4137780.223 6  -3204865.57047  21999923.06247
  23897863.644 5   2021582.066 5   1564181.24246  23897861.85546
  21508489.675 7    -69671.582 7    -55204.77748  21508487.06548
  22941376.011 6   2589978.039 6   2006283.80546  22941376.83146
 18  5 30  0 39 34.9990000  0 10G03G14G16G22G23G26G27G29G31G32       0.000270424
  23659253.972 5    -75920.027 5    -58368.00046  23659254.11246
  20695252.862 6    943353.613 6    730224.35548  20695250.99148
  20359892.855 6  -1189569.871 6   -921543.50048  20359889.33148
  23666616.417 6    592731.410 6    449944.31346  23666611.78446
  23694998.753 6  -4050811.594 6  -3120063.79347  23694993.79247
  20629663.636 7    417520.352 7    321835.69548  20629664.19048
  21995961.761 6  -4158593.266 6  -3221083.52747  21995962.50347
  23899858.394 6   2032062.719 6   1572347.98446  23899856.58946
  21508376.698 6    -70267.816 6    -55669.38348  21508373.76548
  22943825.800 6   2602852.641 6   2016315.95746  22943826.56946
 18  5 30  0 39 39.9990000  0 10G03G14G16G22G23G26G27G29G31G32       0.000267996
  23659284.011 5    -75758.832 5    -58242.40247  23659285.01947
  20696298.214 6    948846.184 6    734504.27348  20696295.87448
  20358892.511 6  -1194826.141 6   -925639.29348  20358889.08548
  23667182.597 6    595703.965 6    452260.60547  23667177.70647
  23691152.456 6  -4071023.723 6  -3135813.48446  23691147.78446
  20630075.894 7    419686.012 7    323523.22348  20630075.99148
  21992001.784 6  -4179401.719 6  -3237297.89147  21992002.66747
  23901852.948 5   2042550.469 5   1580520.26646  23901852.12846
  21508263.144 6    -70862.629 6    -56132.87548  21508260.33148
  22946276.261 6   2615731.523 6   2026351.43046  22946277.55846
 18  5 30  0 39 44.9990000  0 10G03G14G16G22G23G26G27G29G31G32       0.000265564
  23659316.284 5    -75590.438 5    -58111.18047  23659317.04247
  20697345.847 6    954349.098 6    738792.25048  20697343.11648
  20357893.972 6  -1200074.344 6   -929728.79748  20357890.38648
  23667748.948 6    598678.957 6    454578.75447  23667743.85847
  23687306.722 5  -4091234.078 5  -3151561.82847  23687301.89047
  20630488.706 7    421854.867 7    325213.23848  20630489.12848
  21988042.933 6  -4200206.523 6  -3253509.43047  21988043.35147
  23903850.425 5   2053044.293 5   1588697.26246  23903849.55846
  21508150.065 6    -71457.000 6    -56596.02748  21508147.56548
  22948727.433 6   2628613.746 6   2036389.51246  22948729.09746
 18  5 30  0 39 49.9990000  0 10G03G14G16G22G23G26G27G29G31G32       0.000263132
  23659350.089 5    -75414.973 5    -57974.46947  23659350.44847
  20698394.847 6    959862.242 6    743088.20348  20698392.56548
  20356896.347 6  -1205314.629 6   -933812.14148  20356893.00748
  23668314.855 6    601656.285 6    456898.75446  23668310.61646
  23683460.714 6  -4111442.832 6  -3167308.89847  23683455.79247
  20630902.105 7    424026.723 7    326905.59448  20630902.34748
  21984085.120 6  -4221007.855 6  -3269718.25047  21984084.78047
  23905847.972 5   2063544.008 5   1596878.85946  23905847.75346
  21508037.065 6    -72051.086 6    -57058.96148  21508033.96848
  22951179.542 5   2641499.145 5   2046430.05146  22951181.55846
 18  5 30  0 39 54.9990000  0 10G03G14G16G22G23G26G27G29G31G32       0.000260698
  23659384.401 5    -75232.391 5    -57832.19946  23659385.24946
  20699445.776 6    965385.688 6    747392.18448  20699443.49148
  20355900.964 6  -1210546.906 6   -937889.24648  20355897.17548
  23668881.948 6    604635.969 6    459220.57847  23668877.35147
  23679615.370 6  -4131649.875 6  -3183054.64547  23679611.11247
  20631315.698 7    426201.656 7    328600.34048  20631315.90948
  21980127.159 6  -4241805.559 6  -3285924.25847  21980127.33947
  23907847.214 5   2074049.719 5   1605065.11346  23907846.74546
  21507924.573 7    -72644.738 7    -57521.55548  21507920.94448
  22953632.019 5   2654387.785 5   2056473.14846  22953634.09346
 18  5 30  0 39 59.9990000  0 10G03G14G16G22G23G26G27G29G31G32       0.000258263
  23659420.761 5    -75042.723 5    -57684.41447  23659421.45647
  20700498.628 6    970919.371 6    751704.14148  20700496.40548
  20354906.636 6  -1215771.230 6   -941960.14848  20354903.33148
  23669449.581 5    607617.988 5    461544.22347  23669444.95247
  23675770.081 5  -4151855.230 5  -3198799.09047  23675765.62047
  20631730.339 7    428379.602 7    330297.43848  20631730.48748
  21976170.073 6  -4262599.730 6  -3302127.50447  21976170.46847
  23909847.370 5   2084561.363 5   1613255.99646  23909847.63646
  21507811.456 7    -73238.066 7    -57983.89148  21507808.20248
  22956085.558 5   2667279.590 5   2066518.66846  22956086.81546
 18  5 30  0 40  4.9990000  0 10G03G14G16G22G23G26G27G29G31G32       0.000255823
  23659457.276 5    -74847.309 5    -57532.14147  23659458.51547
  20701553.753 6    976462.051 6    756023.10548  20701551.23048
  20353913.815 7  -1220988.902 7   -946025.87148  20353910.87848
  23670017.323 5    610601.055 5    463868.68846  23670013.05446
  23671926.159 6  -4172060.172 6  -3214543.19147  23671921.21047
  20632144.808 7    430559.305 7    331995.91848  20632145.40548
  21972213.612 6  -4283391.555 6  -3318328.91847  21972213.67147
  23911848.628 5   2095077.656 5   1621450.49646  23911848.24546
  21507698.081 7    -73832.289 7    -58446.92248  21507695.24548
  22958539.605 5   2680173.332 5   2076565.73846  22958540.92546
 18  5 30  0 40  9.9990000  0 10G03G14G16G22G23G26G27G29G31G32       0.000253382
  23659495.761 5    -74645.102 5    -57374.57446  23659496.98346
  20702610.167 6    982014.637 6    760349.78548  20702608.34348
  20352922.401 6  -1226198.969 6   -950085.66048  20352919.01548
  23670584.230 5    613586.094 5    466194.68447  23670580.22647
  23668081.105 6  -4192263.758 6  -3230286.25847  23668076.38247
  20632559.917 7    432741.688 7    333696.47348  20632560.99948
  21968257.487 6  -4304180.133 6  -3334527.81647  21968257.62847
  23913851.136 5   2105599.453 5   1629649.27346  23913850.28046
  21507585.401 7    -74426.480 7    -58909.92248  21507582.47648
  22960993.620 5   2693069.902 5   2086614.98846  22960994.61246
 18  5 30  0 40 14.9990000  0 10G03G14G16G22G23G26G27G29G31G32       0.000250938
  23659536.972 5    -74434.867 5    -57210.76247  23659536.87847
  20703669.026 6    987578.488 6    764685.25448  20703666.66348
  20351932.589 7  -1231400.020 7   -954138.42648  20351929.45648
  23671153.198 5    616574.453 5    468523.27746  23671149.57346
  23664237.105 6  -4212464.621 6  -3246027.20747  23664232.41347
  20632976.292 7    434928.113 7    335400.18448  20632976.74948
  21964302.214 5  -4324964.039 5  -3350723.06647  21964302.60547
  23915854.401 5   2116128.246 5   1637853.51646  23915854.14046
  21507472.378 7    -75019.289 7    -59371.85948  21507468.87848
  22963448.933 6   2705970.641 6   2096667.48846  22963449.76546
 18  5 30  0 40 19.9990000  0 10G03G14G16G22G23G26G27G29G31G32       0.000248495
  23659578.355 6    -74216.672 6    -57040.73846  23659578.80046
  20704729.980 6    993153.449 6    769029.37148  20704727.39048
  20350944.605 7  -1236592.266 7   -958184.34048  20350941.07748
  23671723.050 5    619565.973 5    470854.32846  23671718.91346
  23660392.730 5  -4232662.840 5  -3261766.07047  23660388.99147
  20633392.940 7    437118.477 7    337106.95348  20633393.81948
  21960348.159 6  -4345743.441 6  -3366914.80947  21960348.25347
  23917859.433 5   2126663.855 5   1646063.07046  23917858.87446
  21507359.909 7    -75610.809 7    -59832.78948  21507356.87048
  22965904.300 5   2718875.465 5   2106723.19947  22965905.58547
 18  5 30  0 40 24.9990000  0 10G03G14G16G22G23G26G27G29G31G32       0.000246048
  23659621.042 6    -73991.688 6    -56865.43447  23659621.24147
  20705792.558 6    998738.422 6    773381.29748  20705790.27648
  20349958.206 6  -1241776.855 6   -962224.28148  20349954.80048
  23672292.495 5    622559.570 5    473186.99247  23672288.31247
  23656549.550 5  -4252859.617 5  -3277503.83247  23656545.33547
  20633810.065 7    439311.547 7    338815.84448  20633811.05048
  21956394.558 5  -4366519.418 5  -3383103.87147  21956395.03447
  23919865.644 5   2137205.047 5   1654276.98046  23919864.00746
  21507246.987 7    -76202.207 7    -60293.62548  21507244.42548
  22968360.315 5   2731783.141 5   2116781.10946  22968361.67946
 18  5 30  0 40 29.9990000  0 10G03G14G16G22G23G26G27G29G31G32       0.000243599
  23659664.940 5    -73759.406 5    -56684.43847  23659665.28447
  20706857.511 6   1004333.871 6    777741.38348  20706855.34348
  20348973.026 6  -1246953.336 6   -966257.90648  20348969.83548
  23672863.019 5    625555.684 5    475521.61347  23672858.80847
  23652706.370 5  -4273054.367 5  -3293240.00047  23652702.73347
  20634228.144 7    441507.891 7    340527.27048  20634229.22648
  21952441.542 5  -4387291.465 5  -3399289.88747  21952442.24947
  23921872.675 5   2147752.441 5   1662495.73846  23921871.32346
  21507134.565 7    -76792.938 7    -60753.93048  21507131.49148
  22970816.417 5   2744694.238 5   2126841.68846  22970818.94846
 18  5 30  0 40 34.9990000  0 10G03G14G16G22G23G26G27G29G31G32       0.000241148
  23659710.245 6    -73520.273 6    -56498.10247  23659710.88647
  20707923.948 6   1009939.320 6    782109.25448  20707921.71848
  20347989.448 7  -1252122.078 7   -970285.49648  20347986.57748
  23673433.542 5    628553.883 5    477857.88346  23673429.09746
  23648863.917 5  -4293247.590 5  -3308974.98047  23648860.49547
  20634647.214 7    443707.012 7    342240.85948  20634647.60848
  21948489.503 5  -4408060.043 5  -3415473.18447  21948489.85547
  23923880.972 5   2158305.465 5   1670718.86746  23923879.40546
  21507022.644 7    -77383.465 7    -61214.07848  21507019.56248
  22973274.409 5   2757608.262 5   2136904.53546  22973277.01946
 18  5 30  0 40 39.9990000  0 10G03G14G16G22G23G26G27G29G31G32       0.000238697
  23659756.737 5    -73274.184 5    -56306.37147  23659757.84747
  20708992.667 6   1015554.930 6    786485.05548  20708990.44048
  20347007.581 6  -1257282.941 6   -974306.94548  20347004.11248
  23674004.800 6    631554.305 6    480195.85247  23674000.32747
  23645021.276 5  -4313439.059 5  -3324708.59047  23645017.44847
  20635065.933 7    445909.082 7    343956.76248  20635066.49148
  21944538.097 5  -4428824.957 5  -3431653.63347  21944538.58947
  23925890.659 5   2168864.410 5   1678946.61246  23925888.81546
  21506910.042 7    -77973.590 7    -61673.92248  21506906.98348
  22975732.784 5   2770525.344 5   2146969.77346  22975734.30446
 18  5 30  0 40 44.9990000  0 10G03G14G16G22G23G26G27G29G31G32       0.000236240
  23659804.120 5    -73021.926 5    -56109.80147  23659805.68347
  20710062.987 6   1021179.891 6    790868.13348  20710060.82348
  20346026.698 6  -1262436.727 6   -978322.88348  20346023.08548
  23674575.253 6    634556.094 6    482534.89547  23674571.34347
  23641179.480 5  -4333629.480 5  -3340441.36347  23641175.76547
  20635485.034 7    448113.266 7    345674.31648  20635485.44448
  21940587.308 5  -4449586.965 5  -3447831.82447  21940587.46847
  23927900.394 5   2179428.277 5   1687178.19946  23927899.12046
  21506797.753 7    -78564.145 7    -62134.09048  21506794.97248
  22978190.769 5   2783444.758 5   2157036.82846  22978193.18746
 18  5 30  0 40 49.9990000  0 10G03G14G16G22G23G26G27G29G31G32       0.000233784
  23659854.222 5    -72763.637 5    -55908.54347  23659855.43747
  20711135.355 6   1026814.070 6    795258.39848  20711132.94448
  20345047.409 6  -1267583.617 6   -982333.44948  20345043.99948
  23675147.448 6    637559.191 6    484874.98047  23675142.55047
  23637337.573 5  -4353819.137 5  -3356173.54747  23637333.60847
  20635904.597 7    450319.449 7    347393.42648  20635905.60548
  21936636.784 5  -4470346.176 5  -3464007.80947  21936637.52247
  23929911.909 5   2189997.098 5   1695413.62546  23929910.49146
  21506685.222 7    -79155.250 7    -62594.69148  21506682.65948
  22980650.839 5   2796366.270 5   2167105.50046  22980651.77246
 18  5 30  0 40 54.9990000  0 10G03G14G16G22G23G26G27G29G31G32       0.000231323
  23659905.112 5    -72497.734 5    -55701.35547  23659905.74147
  20712209.394 6   1032459.078 6    799657.10248  20712207.05448
  20344069.933 6  -1272722.008 6   -986337.39148  20344066.19848
  23675719.581 5    640565.078 5    487217.23047  23675715.02247
  23633496.683 5  -4374006.367 5  -3371903.84846  23633491.85546
  20636325.206 7    452529.227 7    349115.31348  20636326.35848
  21932687.167 6  -4491101.078 6  -3480180.46547  21932688.02647
  23931924.901 5   2200572.328 5   1703654.04746  23931923.16746
  21506572.980 7    -79745.313 7    -63054.48448  21506569.90948
  22983109.511 5   2809291.477 5   2177177.09046  22983111.05846
 18  5 30  0 40 59.9990000  0 10G03G14G16G22G23G26G27G29G31G32       0.000228863
  23659956.472 5    -72224.141 5    -55488.17647  23659957.82347
  20713285.823 6   1038114.996 6    804064.31348  20713283.35548
  20343093.300 6  -1277851.824 6   -990334.64848  20343090.02248
  23676291.917 5    643573.914 5    489561.77346  23676287.67946
  23629654.925 5  -4394190.996 5  -3387632.12147  23629650.71047
  20636746.620 7    454742.645 7    350840.04748  20636747.34348
  21928738.362 5  -4511851.488 5  -3496349.61347  21928739.27247
  23933937.831 5   2211154.105 5   1711899.60246  23933936.81946
  21506461.151 7    -80334.238 7    -63513.38348  21506457.97248
  22985569.714 5   2822220.465 5   2187251.60246  22985571.34346
 18  5 30  0 41  4.9990000  0 10G03G14G16G22G23G26G27G29G31G32       0.000226400
  23660010.284 5    -71943.305 5    -55269.34047  23660011.40947
  20714363.745 6   1043781.414 6    808479.69548  20714362.10848
  20342118.558 6  -1282973.504 6   -994325.56648  20342115.44848
  23676864.425 6    646585.195 6    491908.22747  23676860.45247
  23625813.839 5  -4414373.492 5  -3403358.74647  23625809.81547
  20637168.651 7    456959.289 7    352567.29348  20637169.37048
  21924790.862 5  -4532597.816 5  -3512515.57847  21924791.61647
  23935952.862 5   2221742.000 5   1720149.87146  23935951.70246
  21506349.480 7    -80922.449 7    -63971.73848  21506346.12448
  22988030.409 5   2835152.824 5   2197328.75046  22988031.82346
 18  5 30  0 41  9.9990000  0 10G03G14G16G22G23G26G27G29G31G32       0.000223934
  23660064.089 5    -71655.355 5    -55044.97747  23660066.69047
  20715444.394 6   1049458.164 6    812903.13348  20715441.92948
  20341145.597 6  -1288087.188 6   -998310.25848  20341141.98048
  23677437.339 6    649598.840 6    494256.50447  23677434.06947
  23621974.237 5  -4434554.020 5  -3419083.81646  23621969.69046
  20637591.183 7    459179.000 7    354296.93848  20637591.90948
  21920843.448 5  -4553340.258 5  -3528678.51647  21920844.02647
  23937968.440 5   2232335.805 5   1728404.78546  23937968.08546
  21506237.105 7    -81510.070 7    -64429.62148  21506234.35848
  22990492.183 5   2848088.359 5   2207408.37546  22990493.98046
 18  5 30  0 41 14.9990000  0 10G03G14G16G22G23G26G27G29G31G32       0.000221468
  23660120.745 5    -71359.703 5    -54814.59446  23660122.66346
  20716526.831 6   1055145.859 6    817335.08648  20716524.30448
  20340173.980 6  -1293192.273 6  -1002288.25048  20340170.33148
  23678011.308 5    652615.406 5    496607.08646  23678007.99146
  23618134.198 5  -4454731.852 5  -3434806.78547  23618130.10547
  20638014.300 7    461402.398 7    356029.44148  20638014.70648
  21916897.519 6  -4574078.105 6  -3544837.86347  21916897.98747
  23939985.026 5   2242936.094 5   1736664.74646  23939985.34746
  21506125.792 7    -82096.484 7    -64886.58248  21506122.82348
  22992954.886 5   2861027.738 5   2217490.98046  22992956.25346
 18  5 30  0 41 19.9990000  0 10G03G14G16G22G23G26G27G29G31G32       0.000219000
  23660179.050 5    -71055.984 5    -54577.95346  23660180.54246
  20717610.808 6   1060844.832 6    821775.84848  20717608.88648
  20339204.151 6  -1298288.430 6  -1006259.28948  20339200.79248
  23678586.026 5    655635.219 5    498960.14846  23678582.44846
  23614294.792 6  -4474906.711 6  -3450527.48047  23614291.13247
  20638438.144 7    463629.770 7    357765.07048  20638438.99148
  21912952.503 6  -4594811.020 6  -3560993.39147  21912952.34747
  23942003.964 5   2253543.305 5   1744930.09046  23942003.53046
  21506014.183 7    -82681.320 7    -65342.30148  21506011.30848
  22995418.151 5   2873971.188 5   2227576.76246  22995419.17546
 18  5 30  0 41 24.9990000  0 10G03G14G16G22G23G26G27G29G31G32       0.000216532
  23660237.831 5    -70744.836 5    -54335.52346  23660239.56546
  20718697.651 6   1066554.492 6    826224.93048  20718695.23748
  20338236.245 6  -1303376.180 6  -1010223.76648  20338232.63248
  23679161.581 5    658657.742 5    501315.35946  23679158.10846
  23610457.347 5  -4495079.180 5  -3466246.29746  23610452.72646
  20638862.269 7    465860.594 7    359503.37948  20638863.49548
  21909008.136 6  -4615539.602 6  -3577145.52747  21909008.07747
  23944023.769 5   2264156.855 5   1753200.37946  23944023.12846
  21505903.003 7    -83265.188 7    -65797.26248  21505899.75348
  22997881.605 5   2886918.223 5   2237665.33646  22997883.36246
 18  5 30  0 41 29.9990000  0 10G03G14G16G22G23G26G27G29G31G32       0.000214060
  23660297.690 5    -70427.270 5    -54088.05546  23660299.38246
  20719786.097 6   1072273.816 6    830681.53948  20719783.93348
  20337269.456 7  -1308456.590 7  -1014182.53548  20337265.86248
  23679737.261 5    661681.879 5    503671.82846  23679732.89746
  23606618.464 6  -4515250.215 6  -3481963.95347  23606614.30847
  20639287.065 7    468093.797 7    361243.53148  20639288.42148
  21905064.417 6  -4636264.840 6  -3593295.07047  21905063.90147
  23946044.245 5   2274775.594 5   1761474.73846  23946043.12046
  21505791.894 7    -83849.090 7    -66252.24648  21505789.10148
  23000346.198 5   2899867.758 5   2247755.85246  23000347.47246
 18  5 30  0 41 34.9990000  0 10G03G14G16G22G23G26G27G29G31G32       0.000211586
  23660360.386 5    -70102.348 5    -53834.88346  23660361.11246
  20720875.753 6   1078003.730 6    835146.40648  20720873.70648
  20336304.292 6  -1313528.699 6  -1018134.82848  20336300.48348
  23680313.019 5    664708.629 5    506030.32046  23680308.77646
  23602780.495 6  -4535418.895 6  -3497679.84046  23602776.14746
  20639712.815 7    470330.391 7    362986.31648  20639714.01948
  21901121.370 6  -4656985.727 6  -3609441.21147  21901120.87047
  23948065.776 5   2285400.543 5   1769753.93446  23948064.59346
  21505681.065 7    -84432.113 7    -66706.55148  21505678.54248
  23002811.097 5   2912820.770 5   2257849.09046  23002812.61646
 18  5 30  0 41 39.9990000  0 10G03G14G16G22G23G26G27G29G31G32       0.000209110
  23660423.550 5    -69770.160 5    -53576.03946  23660424.39446
  20721968.573 6   1083744.125 6    839619.43848  20721966.51548
  20335340.448 7  -1318592.652 7  -1022080.77048  20335336.99548
  23680889.948 5    667737.828 5    508390.71546  23680885.20646
  23598943.480 6  -4555585.246 6  -3513393.86347  23598938.36647
  20640139.511 7    472570.168 7    364731.58648  20640140.23748
  21897178.222 6  -4677702.414 6  -3625584.09447  21897178.90947
  23950088.667 5   2296031.566 5   1778037.83246  23950087.61246
  21505570.667 7    -85014.328 7    -67160.22748  21505567.40148
  23005277.480 6   2925777.090 6   2267944.91046  23005278.00746
 18  5 30  0 41 44.9990000  0 10G03G14G16G22G23G26G27G29G31G32       0.000206633
  23660488.206 5    -69430.980 5    -53311.74246  23660488.57346
  20723063.167 6   1089494.793 6    844100.47348  20723060.60548
  20334378.394 7  -1323648.699 7  -1026020.54748  20334374.93748
  23681466.581 5    670769.254 5    510752.87547  23681462.42147
  23595105.823 5  -4575749.543 5  -3529106.28146  23595101.80846
  20640566.362 7    474812.941 7    366479.19948  20640567.14448
  21893237.026 6  -4698415.113 6  -3641723.84047  21893237.59347
  23952113.737 5   2306668.426 5   1786326.27046  23952111.71846
  21505459.698 7    -85595.961 7    -67613.45348  21505456.65548
  23007742.573 5   2938736.496 5   2278043.14546  23007744.29646
 18  5 30  0 41 49.9990000  0 10G03G14G16G22G23G26G27G29G31G32       0.000204153
  23660554.120 5    -69084.605 5    -53041.85946  23660554.33946
  20724159.386 6   1095255.840 6    848589.59048  20724156.99948
  20333417.550 7  -1328696.582 7  -1029953.96148  20333414.35848
  23682044.667 5    673803.051 5    513116.87147  23682039.95247
  23591269.362 6  -4595911.645 6  -3544817.00447  23591264.87447
  20640993.628 7    477058.848 7    368229.25848  20640994.53848
  21889295.730 6  -4719123.543 6  -3657860.28547  21889296.87047
  23954138.565 5   2317311.262 5   1794619.41846  23954137.25746
  21505349.159 7    -86176.805 7    -68066.05548  21505345.85548
  23010209.003 5   2951699.168 5   2288143.90246  23010210.53446
 18  5 30  0 41 54.9990000  0 10G03G14G16G22G23G26G27G29G31G32       0.000201672
  23660621.300 5    -68730.871 5    -52766.21546  23660621.89046
  20725257.690 6   1101027.508 6    853086.99648  20725255.32348
  20332458.948 7  -1333736.160 7  -1033880.91448  20332455.38248
  23682621.628 5    676839.430 5    515482.87946  23682617.28046
  23587432.870 5  -4616071.266 5  -3560525.81646  23587428.16746
  20641421.948 7    479308.125 7    369981.94148  20641422.64448
  21885356.401 6  -4739827.633 6  -3673993.34447  21885356.98747
  23956164.526 5   2327960.305 5   1802917.34446  23956163.92946
  21505238.886 7    -86756.664 7    -68517.89848  21505235.85148
  23012676.612 5   2964665.320 5   2298247.39146  23012678.31546
 18  5 30  0 41 59.9990000  0 10G03G14G16G22G23G26G27G29G31G32       0.000199190
  23660689.808 5    -68369.574 5    -52484.69946  23660690.60846
  20726357.925 6   1106810.059 6    857592.88348  20726355.71048
  20331501.456 7  -1338767.242 7  -1037801.23048  20331497.70248
  23683200.237 6    679878.582 6    517851.04346  23683195.94846
  23583596.870 5  -4636228.203 5  -3576232.53546  23583592.36246
  20641850.206 7    481560.934 7    371737.37948  20641850.54248
  21881417.495 6  -4760527.051 6  -3690122.75447  21881417.89447
  23958193.386 5   2338615.691 5   1811220.23046  23958191.98346
  21505128.847 7    -87335.348 7    -68968.81648  21505125.89748
  23015144.269 5   2977635.133 5   2308353.71946  23015145.88246
 18  5 30  0 42  4.9990000  0 10G03G14G16G22G23G26G27G29G31G32       0.000196705
  23660760.136 5    -68000.598 5    -52197.18046  23660760.75346
  20727460.105 6   1112603.535 6    862107.27748  20727458.06548
  20330545.753 7  -1343789.664 7  -1041714.82048  20330542.08148
  23683779.612 6    682920.594 6    520221.43846  23683774.34346
  23579761.276 5  -4656382.277 5  -3591936.98846  23579757.45246
  20642279.862 7    483817.398 7    373495.67248  20642280.44448
  21877479.355 6  -4781221.691 6  -3706248.44947  21877479.51547
  23960221.769 5   2349277.547 5   1819528.14846  23960220.65546
  21505018.870 7    -87912.668 7    -69418.68048  21505015.64748
  23017613.370 5   2990608.664 5   2318462.94146  23017615.37846
 18  5 30  0 42  9.9990000  0 10G03G14G16G22G23G26G27G29G31G32       0.000194220
  23660831.261 5    -67624.762 5    -51904.30947  23660832.36647
  20728565.167 6   1118407.168 6    866629.57448  20728562.52248
  20329591.612 7  -1348804.285 7  -1045622.31348  20329587.98348
  23684357.659 5    685964.691 5    522593.45347  23684353.85147
  23575926.487 5  -4676534.324 5  -3607639.87147  23575922.71047
  20642709.355 7    486076.727 7    375256.19148  20642710.68748
  21873541.831 6  -4801912.363 6  -3722371.05147  21873542.61647
  23962251.698 5   2359945.148 5   1827840.56646  23962250.57746
  21504909.190 7    -88489.508 7    -69868.16448  21504906.51548
  23020083.323 5   3003585.176 5   2328574.48846  23020084.27246
 18  5 30  0 42 14.9990000  0 10G03G14G16G22G23G26G27G29G31G32       0.000191730
  23660904.698 5    -67241.895 5    -51605.96946  23660905.31946
  20729671.050 6   1124221.121 6    871159.92248  20729668.98048
  20328638.511 7  -1353810.914 7  -1049523.57848  20328635.10848
  23684938.073 5    689011.027 5    524967.22746  23684933.60146
  23572092.612 5  -4696684.262 5  -3623341.12146  23572088.33946
  20643140.003 7    488339.047 7    377019.02048  20643141.11648
  21869605.667 6  -4822598.840 6  -3738490.39147  21869606.31247
  23964283.870 5   2370618.555 5   1836157.48846  23964281.80446
  21504799.362 7    -89065.629 7    -70317.09448  21504796.34748
  23022553.636 5   3016564.797 5   2338688.44946  23022555.16746
 18  5 30  0 42 19.9990000  0 10G03G14G16G22G23G26G27G29G31G32       0.000189241
  23660979.237 5    -66850.969 5    -51301.37147  23660979.59747
  20730779.698 6   1130046.352 6    875699.05948  20730777.63648
  20327687.683 6  -1358808.578 6  -1053417.87148  20327684.03048
  23685517.558 5    692060.574 5    527343.47346  23685513.95646
  23568259.558 5  -4716830.867 5  -3639039.75446  23568254.51546
  20643571.823 7    490605.414 7    378785.01648  20643572.71448
  21865670.425 6  -4843280.129 6  -3754605.66447  21865670.47647
  23966314.753 5   2381298.781 5   1844479.75046  23966314.08946
  21504689.948 7    -89640.043 7    -70764.68848  21504686.67548
  23025023.823 5   3029548.508 5   2348805.59846  23025025.15146
 18  5 30  0 42 24.9990000  0 10G03G14G16G22G23G26G27G29G31G32       0.000186750
  23661054.995 5    -66453.500 5    -50991.64547  23661055.93347
  20731890.386 6   1135881.465 6    880245.89548  20731887.90548
  20326737.933 7  -1363798.703 7  -1057306.27748  20326734.29648
  23686098.597 5    695111.883 5    529721.10546  23686094.58946
  23564425.847 5  -4736975.648 5  -3654736.98446  23564421.10546
  20644003.565 7    492874.340 7    380553.00848  20644003.80448
  21861735.214 6  -4863957.617 6  -3770718.00047  21861735.38647
  23968348.956 5   2391984.461 5   1852806.23046  23968347.41746
  21504580.933 7    -90214.176 7    -71212.06348  21504578.01148
  23027494.815 5   3042534.879 5   2358924.82846  23027496.52646
 18  5 30  0 42 29.9990000  0 10G03G14G16G22G23G26G27G29G31G32       0.000184258
  23661131.917 5    -66047.961 5    -50675.63347  23661133.03447
  20733002.425 6   1141727.961 6    884801.60248  20733000.35848
  20325790.315 7  -1368779.820 7  -1061187.66448  20325786.79648
  23686680.144 5    698166.445 5    532101.29347  23686675.78447
  23560591.565 5  -4757117.207 5  -3670431.68846  23560588.46846
  20644435.612 7    495147.293 7    382324.14548  20644436.44048
  21857801.714 6  -4884629.883 6  -3786826.24647  21857802.03047
  23970383.159 5   2402676.934 5   1861138.05546  23970382.11246
  21504472.190 7    -90786.590 7    -71658.10948  21504469.18348
  23029966.503 5   3055525.391 5   2369047.29346  23029968.68746
 18  5 30  0 42 34.9990000  0 10G03G14G16G22G23G26G27G29G31G32       0.000181763
  23661210.964 5    -65634.918 5    -50353.78947  23661211.87447
  20734116.753 6   1147585.215 6    889365.69948  20734114.63248
  20324844.190 6  -1373752.434 6  -1065062.42648  20324840.84748
  23687261.628 5    701223.719 5    534483.57047  23687257.65147
  23556759.565 5  -4777255.969 5  -3686124.22346  23556755.56946
  20644868.940 7    497423.734 7    384097.99248  20644869.78848
  21853868.308 6  -4905297.395 6  -3802930.80947  21853868.79647
  23972419.339 5   2413375.738 5   1869474.75446  23972417.65146
  21504363.269 7    -91357.785 7    -72103.19548  21504360.50748
  23032439.237 5   3068519.461 5   2379172.51246  23032440.72646
 18  5 30  0 42 39.9990000  0 10G03G14G16G22G23G26G27G29G31G32       0.000179266
  23661291.128 6    -65214.574 6    -50026.26247  23661291.62447
  20735234.433 6   1153453.051 6    893938.02748  20735231.72648
  20323899.448 6  -1378716.809 6  -1068930.77748  20323895.45248
  23687844.183 5    704283.418 5    536867.75046  23687840.14046
  23552928.636 5  -4797392.148 5  -3701814.75446  23552923.60146
  20645303.019 7    499703.445 7    385874.39148  20645303.24548
  21849936.401 6  -4925960.371 6  -3819031.81347  21849936.76147
  23974456.980 5   2424080.602 5   1877816.17246  23974454.87846
  21504254.878 7    -91927.945 7    -72547.47348  21504251.99948
  23034912.815 5   3081516.906 5   2389300.39146  23034914.11646
 18  5 30  0 42 44.9990000  0 10G03G14G16G22G23G26G27G29G31G32       0.000176769
  23661372.050 5    -64786.414 5    -49692.63347  23661373.49147
  20736352.878 6   1159332.047 6    898519.05148  20736349.96448
  20322956.526 6  -1383672.402 6  -1072792.27748  20322952.80048
  23688426.800 5    707346.168 5    539254.31647  23688422.55047
  23549097.269 5  -4817525.191 5  -3717502.84046  23549092.43346
  20645737.081 7    501986.965 7    387653.75848  20645737.92148
  21846004.995 6  -4946618.191 6  -3835128.82047  21846005.99147
  23976494.956 5   2434792.082 5   1886162.80946  23976493.47646
  21504146.042 7    -92496.551 7    -72990.54748  21504143.64048
  23037386.855 5   3094518.219 5   2399431.25846  23037388.18346
 18  5 30  0 42 49.9990000  0 10G03G14G16G22G23G26G27G29G31G32       0.000174269
  23661455.011 5    -64352.086 5    -49354.19547  23661456.35847
  20737472.651 6   1165220.453 6    903107.42248  20737470.90948
  20322014.831 7  -1388620.848 7  -1076648.21548  20322010.85848
  23689010.222 5    710410.242 5    541641.88746  23689006.03046
  23545266.456 5  -4837656.664 5  -3733189.68446  23545262.17946
  20646171.925 7    504272.629 7    389434.79748  20646173.14748
  21842075.011 6  -4967272.566 6  -3851223.13747  21842075.31247
  23978533.956 5   2445508.527 5   1894513.30146  23978533.17946
  21504038.495 7    -93065.191 7    -73433.65248  21504035.80848
  23039861.401 5   3107521.820 5   2409563.92246  23039862.21046
 18  5 30  0 42 54.9990000  0 10G03G14G16G22G23G26G27G29G31G32       0.000171768
  23661539.097 5    -63910.262 5    -49009.93847  23661540.28447
  20738595.917 6   1171119.715 6    907704.25048  20738593.17948
  20321074.667 7  -1393560.777 7  -1080497.51248  20321070.87048
  23689593.003 5    713477.035 5    544031.59447  23689589.34347
  23541435.901 5  -4857785.273 5  -3748874.30947  23541431.85147
  20646607.690 7    506561.848 7    391218.59448  20646608.37048
  21838145.190 6  -4987922.070 6  -3867313.66447  21838145.73347
  23980574.714 5   2456231.336 5   1902868.72346  23980573.73346
  21503930.292 7    -93632.531 7    -73875.73448  21503927.68348
  23042336.065 5   3120528.977 5   2419699.34446  23042338.08146
 18  5 30  0 42 59.9990000  0 10G03G14G16G22G23G26G27G29G31G32       0.000169264
  23661624.534 5    -63460.941 5    -48659.82047  23661625.61647
  20739720.565 6   1177029.773 6    912309.47748  20739717.93348
  20320136.206 7  -1398492.242 7  -1084340.21548  20320132.58148
  23690177.151 5    716546.496 5    546423.37546  23690173.81546
  23537606.472 5  -4877911.039 5  -3764556.72747  23537601.70247
  20647043.940 7    508854.547 7    393005.10248  20647044.74548
  21834217.058 6  -5008566.742 6  -3883400.41047  21834216.92947
  23982616.589 5   2466960.414 5   1911229.04746  23982615.20646
  21503822.894 7    -94198.605 7    -74316.83248  21503819.76948
  23044812.308 5   3133539.703 5   2429837.55546  23044813.83146
 18  5 30  0 43  4.9990000  0 10G03G14G16G22G23G26G27G29G31G32       0.000166759
  23661711.722 5    -63004.816 5    -48304.41847  23661712.87047
  20740846.683 6   1182949.887 6    916922.55948  20740844.93748
  20319198.901 7  -1403415.945 7  -1088176.85948  20319195.52248
  23690762.081 5    719617.930 5    548816.68046  23690758.12446
  23533776.511 5  -4898034.645 5  -3780237.49646  23533772.77646
  20647480.972 7    511149.984 7    394793.75448  20647481.72248
  21830288.878 6  -5029207.262 6  -3899483.92247  21830289.64747
  23984658.394 5   2477695.055 5   1919593.72346  23984658.24146
  21503715.433 7    -94764.105 7    -74757.48048  21503712.45248
  23047288.636 5   3146553.262 5   2439977.94946  23047290.28846
 18  5 30  0 43  9.9990000  0 10G03G14G16G22G23G26G27G29G31G32       0.000164253
  23661799.339 5    -62541.363 5    -47943.27747  23661800.26147
  20741975.112 6   1188880.652 6    921543.93048  20741973.04648
  20318263.761 7  -1408331.316 7  -1092007.02348  20318260.17148
  23691347.276 5    722691.883 5    551211.94946  23691343.54246
  23529947.745 5  -4918155.496 5  -3795916.06346  23529943.25746
  20647918.042 7    513448.801 7    396585.03548  20647919.30048
  21826361.925 6  -5049842.977 6  -3915563.69547  21826362.93747
  23986703.714 5   2488435.836 5   1927963.12546  23986702.31946
  21503607.417 7    -95328.402 7    -75197.19948  21503604.79648
  23049765.730 5   3159570.258 5   2450121.07446  23049767.75746
 18  5 30  0 43 14.9990000  0 10G03G14G16G22G23G26G27G29G31G32       0.000161745
  23661889.362 5    -62070.313 5    -47576.21147  23661890.35547
  20743106.401 6   1194822.313 6    926173.80148  20743103.63648
  20317330.042 7  -1413238.098 7  -1095830.50048  20317326.59348
  23691932.737 5    725768.605 5    553609.39546  23691928.80446
  23526118.456 5  -4938273.313 5  -3811592.30546  23526115.01146
  20648356.237 7    515751.172 7    398379.09048  20648357.12848
  21822436.565 6  -5070473.719 6  -3931639.57847  21822436.72247
  23988746.456 4   2499182.969 4   1936337.50846  23988747.30846
  21503500.815 7    -95891.273 7    -75635.81348  21503498.14048
  23052243.980 5   3172590.852 5   2460266.98446  23052245.19446
 18  5 30  0 43 19.9990000  0 10G03G14G16G22G23G26G27G29G31G32       0.000159235
  23661980.464 5    -61592.141 5    -47203.61747  23661981.51547
  20744238.909 6   1200774.465 6    930811.83248  20744236.22248
  20316398.253 7  -1418136.746 7  -1099647.62548  20316394.39748
  23692517.519 5    728847.594 5    556008.60546  23692514.07746
  23522291.839 5  -4958388.453 5  -3827266.45346  23522286.92546
  20648794.839 7    518056.711 7    400175.61348  20648796.24948
  21818511.839 6  -5091099.781 6  -3947711.84047  21818511.99147
  23990793.894 4   2509936.023 4   1944716.47346  23990793.22646
  21503393.808 7    -96453.160 7    -76073.64848  21503391.12848
  23054722.503 5   3185614.730 5   2470415.39846  23054723.86646
 18  5 30  0 43 24.9990000  0 10G03G14G16G22G23G26G27G29G31G32       0.000156723
  23662072.690 6    -61107.504 6    -46825.99247  23662073.60147
  20745373.339 6   1206736.395 6    935457.48848  20745371.11248
  20315467.065 7  -1423027.918 7  -1103458.93448  20315463.73348
  23693104.644 5    731928.258 5    558409.10946  23693100.48046
  23518463.620 5  -4978501.637 5  -3842939.07846  23518459.75346
  20649234.394 7    520364.691 7    401974.03148  20649235.12448
  21814586.722 6  -5111722.027 6  -3963781.10547  21814588.08147
  23992841.581 4   2520694.297 4   1953099.56346  23992840.47246
  21503286.901 7    -97014.727 7    -76511.21948  21503284.11648
  23057201.534 5   3198641.082 5   2480565.82446  23057202.39746
 18  5 30  0 43 29.9990000  0 10G03G14G16G22G23G26G27G29G31G32       0.000154209
  23662166.605 6    -60615.535 6    -46442.64547  23662167.13247
  20746509.394 6   1212709.008 6    940111.46948  20746507.96048
  20314537.776 6  -1427910.762 6  -1107263.74248  20314534.62048
  23693692.331 6    735011.438 6    560811.57046  23693686.88646
  23514637.362 5  -4998612.004 5  -3858609.47746  23514633.57746
  20649674.315 7    522676.000 7    403775.04748  20649675.26548
  21810663.948 6  -5132339.332 6  -3979846.55547  21810664.47247
  23994889.183 4   2531458.691 4   1961487.41446  23994889.18746
  21503180.331 7    -97575.098 7    -76947.87548  21503177.63648
  23059680.019 5   3211670.859 5   2490718.85946  23059682.05046
 18  5 30  0 43 34.9990000  0 10G03G14G16G22G23G26G27G29G31G32       0.000151693
  23662261.550 5    -60116.910 5    -46054.12147  23662261.78447
  20747648.206 6   1218691.625 6    944773.25048  20747645.76548
  20313610.581 7  -1432785.945 7  -1111062.59048  20313607.34748
  23694278.737 6    738096.445 6    563215.48846  23694273.95646
  23510811.284 5  -5018720.148 5  -3874278.16446  23510807.30446
  20650114.698 7    524989.992 7    405578.16048  20650115.23348
  21806741.542 6  -5152952.504 6  -3995908.74648  21806742.19448
  23996938.972 4   2542228.566 4   1969879.48846  23996938.88646
  21503073.667 7    -98134.883 7    -77384.07848  21503071.04248
  23062160.276 5   3224703.340 5   2500874.01246  23062161.94446
 18  5 30  0 43 39.9990000  0 10G03G14G16G22G23G26G27G29G31G32       0.000149176
  23662357.980 5    -59610.746 5    -45659.70347  23662358.63647
  20748788.925 6   1224685.113 6    949443.49648  20748786.76548
  20312684.448 7  -1437652.578 7  -1114854.77348  20312680.61248
  23694866.776 5    741184.168 5    565621.49246  23694861.80446
  23506985.159 5  -5038825.207 5  -3889944.41846  23506980.92946
  20650555.714 7    527307.516 7    407384.01248  20650556.74948
  21802819.526 6  -5173560.559 6  -4011966.97747  21802820.48347
  23998990.011 5   2553004.691 5   1978276.43846  23998989.05446
  21502967.347 7    -98693.238 7    -77819.16048  21502965.03048
  23064641.120 5   3237739.422 5   2511031.98846  23064642.40946
 18  5 30  0 43 44.9990000  0 10G03G14G16G22G23G26G27G29G31G32       0.000146656
  23662455.120 5    -59097.137 5    -45259.49647  23662456.28847
  20749931.347 6   1230689.398 6    954122.15248  20749928.86248
  20311759.456 7  -1442510.781 7  -1118640.39148  20311755.96448
  23695454.042 6    744274.512 6    568029.54346  23695449.55046
  23503159.870 5  -5058927.215 5  -3905608.32047  23503156.02247
  20650997.300 7    529628.469 7    409192.55148  20650997.90148
  21798898.769 6  -5194163.602 6  -4028021.28947  21798899.68347
  24001041.034 4   2563787.043 4   1986678.27046  24001041.00746
  21502861.581 7    -99250.219 7    -78253.16448  21502858.96048
  23067123.222 5   3250779.000 5   2521192.67646  23067124.28846
 18  5 30  0 43 49.9990000  0 10G03G14G16G22G23G26G27G29G31G32       0.000144136
  23662553.714 5    -58576.512 5    -44853.82047  23662555.21447
  20751076.003 6   1236704.078 6    958808.91048  20751073.80848
  20310836.581 7  -1447360.938 7  -1122419.73448  20310833.85548
  23696042.151 5    747366.992 5    570439.28146  23696038.13646
  23499334.808 5  -5079026.621 5  -3921270.20347  23499330.80447
  20651439.581 7    531952.449 7    411003.44148  20651440.30848
  21794979.175 6  -5214762.035 6  -4044072.01247  21794980.05447
  24003093.659 4   2574575.158 4   1995084.57746  24003093.69846
  21502755.808 7    -99806.250 7    -78686.44548  21502753.19848
  23069604.855 5   3263821.625 5   2531355.75046  23069606.01146
 18  5 30  0 43 54.9990000  0 10G03G14G16G22G23G26G27G29G31G32       0.000141615
  23662655.097 5    -58047.402 5    -44441.55147  23662656.31247
  20752223.284 7   1242730.609 7    963504.90248  20752220.79248
  20309915.433 7  -1452201.566 7  -1126191.65648  20309912.53848
  23696631.940 5    750463.164 5    572851.87546  23696627.17146
  23495510.253 5  -5099121.871 5  -3936928.83246  23495507.11646
  20651882.355 7    534280.949 7    412817.85248  20651883.17148
  21791061.495 6  -5235354.309 6  -4060117.93848  21791061.43348
  24005149.558 4   2585370.609 4   2003496.59846  24005148.51546
  21502650.261 7   -100359.809 7    -79117.79348  21502647.40948
  23072087.761 5   3276868.855 5   2541522.38346  23072088.85546
 18  5 30  0 43 59.9990000  0 10G03G14G16G22G23G26G27G29G31G32       0.000139091
  23662757.237 5    -57511.242 5    -44023.74247  23662758.07347
  20753371.440 6   1248767.535 6    968208.99648  20753369.58548
  20308996.300 7  -1457034.129 7  -1129957.28548  20308992.99148
  23697221.276 5    753561.547 5    575266.19546  23697217.03846
  23491687.214 5  -5119214.488 5  -3952585.42246  23491683.06946
  20652326.214 7    536612.488 7    414634.62948  20652326.76148
  21787143.542 6  -5255941.926 6  -4076160.23848  21787144.14748
  24007204.284 4   2596171.816 4   2011913.12546  24007203.99146
  21502544.769 7   -100912.352 7    -79548.34848  21502542.35548
  23074570.581 5   3289919.141 5   2551691.43846  23074572.20246
 18  5 30  0 44  4.9990000  0 10G03G14G16G22G23G26G27G29G31G32       0.000136566
  23662860.370 5    -56968.039 5    -43600.47747  23662861.55447
  20754522.175 6   1254814.840 6    972921.18448  20754520.10548
  20308077.753 7  -1461858.586 7  -1133716.60948  20308074.57348
  23697810.878 5    756662.152 5    577682.24246  23697807.80046
  23487865.089 5  -5139304.414 5  -3968239.90246  23487860.52246
  20652770.644 7    538947.109 7    416453.81648  20652771.23348
  21783226.565 6  -5276524.781 6  -4092198.82848  21783226.96848
  24009261.253 5   2606978.895 5   2020334.17646  24009260.21846
  21502440.355 7   -101463.891 7    -79978.10948  21502437.48748
  23077054.722 5   3302972.559 5   2561862.89846  23077056.56546
 18  5 30  0 44  9.9990000  0 10G03G14G16G22G23G26G27G29G31G32       0.000134039
  23662965.003 5    -56417.098 5    -43171.17647  23662966.08947
  20755675.105 6   1260873.207 6    977641.98848  20755673.00348
  20307161.808 7  -1466674.332 7  -1137469.13748  20307158.29648
  23698401.019 5    759765.645 5    580100.54346  23698398.17546
  23484042.065 5  -5159390.906 5  -3983891.72747  23484038.44447
  20653215.503 7    541285.473 7    418275.91448  20653216.45248
  21779310.245 6  -5297102.234 6  -4108233.21148  21779310.78048
  24011319.386 5   2617792.352 5   2028760.26246  24011318.76546
  21502335.706 7   -102013.688 7    -80406.53148  21502332.97648
  23079539.628 5   3316029.719 5   2572037.28546  23079541.18746
 18  5 30  0 44 14.9990000  0 10G03G14G16G22G23G26G27G29G31G32       0.000131510
  23663071.042 5    -55859.914 5    -42737.01647  23663072.42947
  20756829.667 6   1266941.246 6    982370.33248  20756827.56948
  20306246.323 7  -1471482.742 7  -1141215.95348  20306243.18348
  23698993.026 5    762870.586 5    582519.95746  23698989.64046
  23480220.355 5  -5179475.371 5  -3999541.97346  23480216.62446
  20653660.870 7    543626.113 7    420099.79348  20653661.54248
  21775395.761 6  -5317675.707 6  -4124264.48447  21775395.53047
  24013376.925 5   2628610.961 5   2037190.34846  24013376.62446
  21502230.737 7   -102563.199 7    -80834.73048  21502228.20648
  23082024.276 5   3329089.242 5   2582213.52746  23082026.59746
 18  5 30  0 44 19.9990000  0 10G03G14G16G22G23G26G27G29G31G32       0.000128981
  23663178.628 5    -55294.832 5    -42296.70747  23663180.12447
  20757986.269 6   1273020.523 6    987107.41848  20757984.67548
  20305333.128 7  -1476282.230 7  -1144955.80948  20305330.10148
  23699584.433 5    765978.527 5    584941.69946  23699581.09346
  23476399.081 5  -5199556.273 5  -4015189.43446  23476395.51946
  20654107.339 7    545970.629 7    421926.68448  20654107.85148
  21771481.511 6  -5338243.523 6  -4140291.35248  21771481.96048
  24015438.222 5   2639436.172 5   2045625.55546  24015436.82746
  21502126.456 7   -103110.820 7    -81261.45348  21502124.21048
  23084511.050 5   3342152.703 5   2592392.82046  23084512.02246
 18  5 30  0 44 24.9990000  0 10G03G14G16G22G23G26G27G29G31G32       0.000126450
  23663287.409 5    -54722.109 5    -41850.42647  23663288.92547
  20759145.909 6   1279110.750 6    991853.04748  20759143.80448
  20304421.815 6  -1481073.082 6  -1148688.95348  20304418.60148
  23700176.605 5    769089.227 5    587365.62946  23700172.71846
  23472577.214 5  -5219633.734 5  -4030834.19946  23472574.28046
  20654554.105 7    548318.789 7    423756.41048  20654554.43748
  21767568.870 6  -5358805.988 6  -4156314.04348  21767569.02248
  24017499.433 5   2650267.715 5   2054065.76246  24017497.74946
  21502022.722 7   -103656.785 7    -81686.88348  21502020.40548
  23086997.589 5   3355219.754 5   2602574.95346  23086998.50746
 18  5 30  0 44 29.9990000  0 10G03G14G16G22G23G26G27G29G31G32       0.000123917
  23663397.948 5    -54142.535 5    -41398.79347  23663399.06947
  20760306.761 6   1285211.266 6    996606.68848  20760304.30048
  20303511.581 6  -1485855.938 6  -1152415.85248  20303508.19448
  23700769.011 5    772201.969 5    589791.12946  23700764.87446
  23468758.050 5  -5239708.477 5  -4046476.83246  23468753.99146
  20655001.167 7    550669.887 7    425588.43448  20655001.99548
  21763656.730 6  -5379363.730 6  -4172333.05948  21763656.51148
  24019560.605 5   2661104.934 5   2062510.36346  24019559.62046
  21501919.292 7   -104201.785 7    -82111.55948  21501916.41748
  23089484.644 5   3368289.832 5   2612759.37546  23089485.79646
 18  5 30  0 44 34.9990000  0 10G03G14G16G22G23G26G27G29G31G32       0.000121382
  23663509.495 5    -53555.105 5    -40941.06647  23663511.02647
  20761469.722 6   1291323.016 6   1001369.08248  20761467.69448
  20302602.855 6  -1490629.941 6  -1156135.85948  20302599.76548
  23701361.972 5    775317.707 5    592218.98047  23701358.26547
  23464938.870 5  -5259779.602 5  -4062116.66046  23464934.50746
  20655449.128 7    553024.805 7    427423.43848  20655449.61248
  21759746.269 6  -5399915.805 6  -4188347.65247  21759746.11647
  24021624.511 5   2671948.742 5   2070960.04746  24021623.12046
  21501816.011 7   -104744.926 7    -82534.79348  21501813.61248
  23091972.511 5   3381363.789 5   2622946.86746  23091973.56946
 18  5 30  0 44 39.9990000  0 10G03G14G16G22G23G26G27G29G31G32       0.000118847
  23663622.886 5    -52959.863 5    -40477.27047  23663624.52647
  20762634.769 6   1297445.906 6   1006140.16448  20762632.46048
  20301696.144 7  -1495395.082 7  -1159848.95748  20301693.11648
  23701955.081 5    778436.363 5    594649.08246  23701951.28046
  23461120.003 5  -5279847.129 5  -4077753.72746  23461115.79646
  20655897.925 7    555383.559 7    429261.41848  20655898.87048
  21755835.878 6  -5420462.277 6  -4204357.89547  21755836.33547
  24023689.128 5   2682799.055 5   2079414.87546  24023688.08146
  21501712.776 7   -105286.160 7    -82956.53148  21501710.08548
  23094461.440 5   3394441.551 5   2633137.29746  23094462.19046
 18  5 30  0 44 44.9990000  0 10G03G14G16G22G23G26G27G29G31G32       0.000116310
  23663738.206 5    -52357.738 5    -40008.08247  23663738.69447
  20763801.917 6   1303579.109 6   1010919.28148  20763799.60848
  20300790.706 7  -1500152.219 7  -1163555.81648  20300787.50748
  23702549.097 5    781557.063 5    597080.80146  23702544.74146
  23457301.542 5  -5299911.840 5  -4093388.55947  23457297.77247
  20656348.042 7    557745.227 7    431101.67648  20656348.31248
  21751926.698 6  -5441003.938 6  -4220364.37548  21751927.44448
  24025754.362 4   2693655.098 4   2087874.10546  24025753.51946
  21501610.198 7   -105826.363 7    -83377.46948  21501607.37448
  23096950.878 5   3407522.328 5   2643330.07846  23096951.46446
 18  5 30  0 44 49.9990000  0 10G03G14G16G22G23G26G27G29G31G32       0.000113770
  23663853.222 5    -51749.395 5    -39534.05947  23663854.37847
  20764971.167 6   1309721.855 6   1015705.82448  20764968.65948
  20299886.886 7  -1504902.129 7  -1167257.03948  20299884.06248
  23703142.761 6    784679.109 6    599513.57046  23703138.83146
  23453484.394 5  -5319974.477 5  -4109021.79347  23453480.13247
  20656797.956 7    560109.160 7    432943.69148  20656798.37048
  21748018.683 6  -5461541.504 6  -4236367.67248  21748019.04648
  24027821.378 5   2704516.055 5   2096337.18046  24027820.21446
  21501507.331 7   -106366.238 7    -83798.15648  21501504.80848
  23099439.995 5   3420605.316 5   2653524.60546  23099441.59346
 18  5 30  0 44 54.9990000  0 10G03G14G16G22G23G26G27G29G31G32       0.000111229
  23663970.831 5    -51133.684 5    -39054.28147  23663971.41747
  20766142.190 6   1315875.414 6   1020500.80148  20766139.61648
  20298984.769 6  -1509643.598 6  -1170951.69948  20298981.51548
  23703737.847 5    787803.656 5    601948.27746  23703733.06546
  23449666.526 5  -5340033.875 5  -4124652.50446  23449662.83946
  20657248.089 7    562476.477 7    434788.34848  20657248.45648
  21744111.917 6  -5482073.785 6  -4252366.85548  21744112.40548
  24029888.394 4   2715383.125 4   2104805.04346  24029888.57746
  21501404.659 7   -106904.598 7    -84217.65648  21501401.66348
  23101930.190 5   3433691.711 5   2663721.77046  23101931.85546
 18  5 30  0 44 59.9990000  0 10G03G14G16G22G23G26G27G29G31G32       0.000108686
  23664089.370 5    -50510.156 5    -38568.43047  23664090.31247
  20767314.761 6   1322040.145 6   1025304.48448  20767312.70648
  20298083.847 6  -1514376.184 6  -1174639.43448  20298080.74948
  23704332.589 5    790931.219 5    604385.33246  23704328.33546
  23445850.784 5  -5360089.508 5  -4140280.27046  23445846.21046
  20657699.409 7    564847.621 7    436635.98848  20657699.70248
  21740205.784 6  -5502600.309 6  -4268361.54348  21740206.01948
  24031957.737 4   2726256.813 4   2113278.04346  24031957.67946
  21501302.808 7   -107441.027 7    -84635.65648  21501300.16348
  23104420.565 5   3446782.000 5   2673921.97746  23104423.07346
 18  5 30  0 45  4.9990000  0 10G03G14G16G22G23G26G27G29G31G32       0.000106142
  23664209.464 5    -49879.543 5    -38077.04347  23664210.29647
  20768490.081 6   1328215.398 6   1030116.36748  20768487.74148
  20297184.972 6  -1519100.605 6  -1178320.80148  20297181.74148
  23704928.065 5    794061.012 5    606824.10246  23704923.39446
  23442034.933 5  -5380142.129 5  -4155905.71146  23442030.44446
  20658151.159 7    567221.910 7    438486.07848  20658151.67948
  21736300.526 6  -5523121.742 6  -4284352.27048  21736301.20248
  24034029.050 4   2737136.328 4   2121755.54746  24034027.91346
  21501201.128 7   -107976.184 7    -85052.66848  21501198.26148
  23106912.659 5   3459875.391 5   2684124.57846  23106914.75346
 18  5 30  0 45  9.9990000  0 10G03G14G16G22G23G26G27G29G31G32       0.000103596
  23664330.620 5    -49241.930 5    -37580.20746  23664331.41346
  20769666.855 6   1334401.055 6   1034936.34848  20769665.11248
  20296287.753 6  -1523816.949 6  -1181995.87548  20296283.96448
  23705524.597 5    797192.891 5    609264.54346  23705519.74546
  23438219.175 5  -5400191.750 5  -4171528.79746  23438214.88246
  20658603.636 7    569599.223 7    440338.52348  20658604.27648
  21732396.448 6  -5543638.199 6  -4300339.12547  21732396.69847
  24036100.370 4   2748021.566 4   2130237.57446  24036099.23346
  21501099.276 7   -108510.152 7    -85468.75448  21501096.49548
  23109405.128 5   3472971.840 5   2694329.59446  23109407.21046
 18  5 30  0 45 14.9990000  0 10G03G14G16G22G23G26G27G29G31G32       0.000101049
  23664453.753 5    -48596.949 5    -37077.62147  23664453.99547
  20770846.034 6   1340597.457 6   1039764.71548  20770844.17548
  20295392.081 6  -1528524.832 6  -1185664.35548  20295387.83548
  23706120.894 5    800327.277 5    611706.91046  23706116.03446
  23434403.917 5  -5420238.023 5  -4187149.26246  23434400.00346
  20659056.753 7    571979.945 7    442193.62148  20659057.16348
  21728493.378 6  -5564149.305 6  -4316321.80548  21728493.29648
  24038171.644 4   2758912.875 4   2138724.30946  24038171.95646
  21500997.589 7   -109042.586 7    -85883.64148  21500995.17548
  23111897.378 5   3486071.680 5   2704537.25046  23111899.57346
 18  5 30  0 45 19.9990000  0 10G03G14G16G22G23G26G27G29G31G32       0.000098501
  23664577.995 5    -47944.523 5    -36569.25847  23664578.39747
  20772027.440 6   1346804.742 6   1044601.56348  20772025.43748
  20294497.589 6  -1533224.199 6  -1189326.20348  20294494.44848
  23706717.464 5    803464.285 5    614151.32046  23706713.52246
  23430590.347 5  -5440280.844 5  -4202767.05146  23430585.90946
  20659510.620 7    574364.156 7    444051.45348  20659510.70648
  21724590.980 6  -5584654.883 6  -4332300.18048  21724591.46848
  24040245.870 4   2769810.465 4   2147215.89546  24040245.55046
  21500897.230 7   -109573.348 7    -86297.22748  21500894.60548
  23114390.847 5   3499175.027 5   2714747.62946  23114392.90946
 18  5 30  0 45 24.9990000  0 10G03G14G16G22G23G26G27G29G31G32       0.000095949
  23664703.370 5    -47285.266 5    -36055.53947  23664704.03847
  20773211.120 6   1353022.262 6   1049446.37548  20773208.71848
  20293604.855 6  -1537915.672 6  -1192981.89548  20293601.48048
  23707315.675 5    806603.223 5    616597.24246  23707310.84746
  23426776.089 5  -5460320.797 5  -4218382.58646  23426772.39046
  20659964.745 7    576751.203 7    445911.48848  20659964.94848
  21720690.612 6  -5605155.582 6  -4348274.74247  21720690.49947
  24042321.464 4   2780713.527 4   2155711.78546  24042320.53446
  21500796.237 7   -110103.094 7    -86710.02348  21500794.08548
  23116884.862 5   3512281.242 5   2724960.24646  23116886.81246
 18  5 30  0 45 29.9990000  0 10G03G14G16G22G23G26G27G29G31G32       0.000093397
  23664829.808 5    -46619.707 5    -35536.92247  23664830.76147
  20774395.737 6   1359249.551 6   1054298.80948  20774393.28048
  20292713.722 7  -1542599.727 7  -1196631.80948  20292710.02248
  23707912.065 5    809743.602 5    619044.30146  23707908.17546
  23422963.894 5  -5480358.297 5  -4233996.20746  23422959.33546
  20660419.339 7    579140.637 7    447773.38348  20660420.07348
  21716789.644 6  -5625651.891 6  -4364245.87948  21716789.92148
  24044397.323 5   2791621.676 5   2164211.64546  24044396.39446
  21500695.175 7   -110632.305 7    -87122.39848  21500692.56548
  23119379.862 5   3525389.828 5   2735174.71546  23119380.77646
 18  5 30  0 45 34.9990000  0 10G03G14G16G22G23G26G27G29G31G32       0.000090843
  23664957.815 5    -45946.379 5    -35012.26247  23664959.33147
  20775582.401 6   1365488.004 6   1059159.93048  20775580.49948
  20291823.847 7  -1547274.988 7  -1200274.87548  20291820.56248
  23708510.425 5    812886.926 5    621493.63746  23708506.42146
  23419151.386 5  -5500391.996 5  -4249606.87146  23419147.46046
  20660874.550 7    581533.844 7    449638.21148  20660875.25348
  21712890.136 6  -5646142.332 6  -4380212.46147  21712890.31947
  24046474.339 4   2802536.301 4   2172716.55146  24046473.64746
  21500595.519 7   -111159.520 7    -87533.21548  21500592.86248
  23121874.206 5   3538502.184 5   2745392.11746  23121876.58946
 18  5 30  0 45 39.9990000  0 10G03G14G16G22G23G26G27G29G31G32       0.000088289
  23665087.753 5    -45264.863 5    -34481.20747  23665088.73347
  20776772.237 6   1371738.031 6   1064030.08248  20776769.79648
  20290935.401 6  -1551940.926 6  -1203910.67648  20290932.26148
  23709109.925 5    816033.488 5    623945.47346  23709105.48346
  23415340.050 5  -5520421.422 5  -4265214.22346  23415336.19046
  20661331.128 7    583931.281 7    451506.33648  20661331.53848
  21708992.714 6  -5666626.398 6  -4396174.07448  21708992.35848
  24048552.042 5   2813457.855 5   2181226.85546  24048551.67546
  21500495.065 7   -111684.250 7    -87942.09048  21500492.73048
  23124370.972 5   3551618.734 5   2755612.78546  23124372.35146
 18  5 30  0 45 44.9990000  0 10G03G14G16G22G23G26G27G29G31G32       0.000085733
  23665218.159 5    -44576.758 5    -33945.02347  23665219.15947
  20777963.456 6   1377998.059 6   1068908.02048  20777960.90148
  20290049.800 7  -1556599.164 7  -1207540.46948  20290046.03848
  23709708.823 5    819181.746 5    626398.65646  23709703.98346
  23411528.503 5  -5540448.160 5  -4280819.46946  23411524.99546
  20661787.683 7    586331.367 7    453376.53548  20661788.21848
  21705095.511 6  -5687105.770 6  -4412132.02348  21705095.73048
  24050630.800 4   2824384.723 4   2189741.30146  24050631.06246
  21500395.612 7   -112208.102 7    -88350.29348  21500392.87448
  23126867.480 5   3564737.969 5   2765835.53546  23126869.03846
 18  5 30  0 45 49.9990000  0 10G03G14G16G22G23G26G27G29G31G32       0.000083176
  23665351.573 5    -43879.773 5    -33401.91847  23665352.00347
  20779156.862 6   1384270.422 6   1073795.57448  20779154.79248
  20289164.925 7  -1561247.430 7  -1211162.49648  20289160.72248
  23710308.995 5    822334.070 5    628855.00446  23710304.58146
  23407718.550 5  -5560469.871 5  -4296420.77046  23407715.44846
  20662245.284 7    588736.383 7    455250.57448  20662246.01148
  21701200.058 6  -5707578.039 6  -4428084.43848  21701200.12848
  24052712.425 4   2835319.223 4   2198261.64546  24052712.38646
  21500296.651 7   -112728.793 7    -88756.02348  21500294.14448
  23129364.909 5   3577862.134 5   2776062.15446  23129366.65946
 18  5 30  0 45 54.9990000  0 10G03G14G16G22G23G26G27G29G31G32       0.000080618
  23665484.519 5    -43175.359 5    -32853.03547  23665486.17547
  20780352.409 6   1390553.617 6   1078691.56648  20780350.48048
  20288282.089 7  -1565887.141 7  -1214777.85248  20288278.42948
  23710908.987 5    825488.941 5    631313.33246  23710904.88246
  23403909.675 5  -5580488.039 5  -4312019.35946  23403905.67946
  20662703.331 7    591144.891 7    457127.33648  20662704.14748
  21697304.823 6  -5728044.672 6  -4444032.46148  21697304.96848
  24054795.058 5   2846259.848 5   2206786.81646  24054794.10146
  21500198.050 7   -113247.758 7    -89160.42248  21500195.45648
  23131863.175 4   3590989.699 4   2786291.39846  23131865.01146
 18  5 30  0 45 59.9990000  0 10G03G14G16G22G23G26G27G29G31G32       0.000078058
  23665620.448 5    -42463.613 5    -32298.43847  23665621.46447
  20781550.448 6   1396847.641 6   1083596.00048  20781548.31248
  20287400.292 6  -1570518.398 6  -1218386.62148  20287397.00348
  23711509.948 5    828646.266 5    633773.58246  23711505.51146
  23400100.933 5  -5600502.637 5  -4327615.15246  23400097.14746
  20663162.620 7    593556.785 7    459006.73048  20663163.06948
  21693411.183 6  -5748505.730 6  -4459976.14148  21693411.76548
  24056876.948 5   2857206.559 5   2215316.73846  24056876.63246
  21500099.472 7   -113765.059 7    -89563.52748  21500096.81948
  23134361.362 5   3604120.672 5   2796523.29746  23134363.80046
 18  5 30  0 46  4.9990000  0 10G03G14G16G22G23G26G27G29G31G32       0.000075497
  23665757.417 5    -41744.242 5    -31737.89147  23665758.86647
  20782750.183 6   1403152.691 6   1088509.01648  20782747.91748
  20286521.011 7  -1575140.910 7  -1221988.58248  20286517.44048
  23712111.237 5    831806.344 5    636235.96946  23712107.03846
  23396292.761 5  -5620513.441 5  -4343208.01246  23396288.71446
  20663622.198 7    595972.313 7    460888.96948  20663623.02248
  21689518.886 6  -5768960.941 6  -4475915.26248  21689519.34348
  24058961.605 4   2868159.621 4   2223851.53546  24058960.93746
  21500001.675 7   -114280.457 7    -89965.15248  21499998.52248
  23136861.386 4   3617255.285 4   2806758.04746  23136863.04246
 18  5 30  0 46  9.9990000  0 10G03G14G16G22G23G26G27G29G31G32       0.000072933
  23665895.972 5    -41017.879 5    -31171.91047  23665896.96847
  20783952.081 6   1409468.230 6   1093430.21148  20783949.62848
  20285642.972 7  -1579755.316 7  -1225584.21948  20285639.02648
  23712712.073 5    834968.570 5    638700.03146  23712708.75746
  23392485.190 5  -5640521.012 5  -4358798.34046  23392481.08146
  20664082.409 7    598390.918 7    462773.60248  20664083.68748
  21685627.433 6  -5789410.824 6  -4491850.23448  21685627.70648
  24061048.112 5   2879118.438 5   2232390.89846  24061046.20646
  21499903.245 7   -114794.469 7    -90365.68448  21499901.06548
  23139361.644 5   3630392.926 5   2816995.14546  23139362.88246
 18  5 30  0 46 14.9990000  0 10G03G14G16G22G23G26G27G29G31G32       0.000070370
  23666035.870 6    -40283.343 6    -30599.52947  23666036.55447
  20785156.214 6   1415795.398 6   1098360.47348  20785153.61648
  20284766.503 6  -1584360.410 6  -1229172.60948  20284762.85848
  23713314.558 5    838134.094 5    641166.66446  23713311.13646
  23388679.308 5  -5660524.066 5  -4374385.12146  23388675.55046
  20664543.784 7    600813.777 7    464661.53948  20664544.38648
  21681737.683 6  -5809854.211 6  -4507780.14848  21681737.08148
  24063134.042 5   2890084.176 5   2240935.62146  24063133.46446
  21499806.433 7   -115305.895 7    -90764.19948  21499803.77648
  23141862.667 5   3643534.820 5   2827235.56646  23141863.50746
 18  5 30  0 46 19.9990000  0 10G03G14G16G22G23G26G27G29G31G32       0.000067804
  23666176.417 5    -39541.902 5    -30021.80147  23666178.08547
  20786361.847 6   1422132.840 6   1103298.72348  20786360.13248
  20283891.862 7  -1588957.563 7  -1232754.80548  20283887.99548
  23713917.456 5    841301.578 5    643634.82846  23713913.76546
  23384873.073 5  -5680524.066 5  -4389969.51246  23384869.28846
  20665004.878 7    603239.496 7    466551.70748  20665005.71048
  21677848.222 6  -5830292.449 6  -4523706.03948  21677848.23748
  24065221.620 5   2901055.438 5   2249484.65646  24065221.08546
  21499709.073 7   -115816.156 7    -91161.80148  21499707.03848
  23144363.597 5   3656679.555 5   2837478.19946  23144364.80846
 18  5 30  0 46 24.9990000  0 10G03G14G16G22G23G26G27G29G31G32       0.000065237
  23666318.659 6    -38793.605 6    -29438.72747  23666320.48047
  20787570.448 6   1428480.691 6   1108245.10248  20787567.51948
  20283018.237 7  -1593546.660 7  -1236330.72748  20283014.80448
  23714520.417 5    844471.117 5    646104.62546  23714516.73346
  23381068.940 5  -5700520.785 5  -4405551.37946  23381063.81246
  20665467.198 7    605668.234 7    468444.23048  20665468.15148
  21673959.409 6  -5850725.398 6  -4539627.82448  21673959.47248
  24067310.558 5   2912032.367 5   2258038.11746  24067309.70246
  21499612.058 7   -116325.094 7    -91558.37548  21499609.80848
  23146865.831 5   3669827.252 5   2847723.13746  23146867.10146
 18  5 30  0 46 29.9990000  0 10G03G14G16G22G23G26G27G29G31G32       0.000062670
  23666462.706 5    -38037.891 5    -28849.85547  23666464.17947
  20788780.073 6   1434839.398 6   1113199.93848  20788778.03048
  20282146.995 7  -1598127.223 7  -1239900.00848  20282143.44848
  23715124.800 5    847643.246 5    648576.39146  23715120.52646
  23377264.651 5  -5720513.801 5  -4421130.34846  23377259.83946
  20665930.261 7    608100.402 7    470339.41848  20665930.89048
  21670072.300 6  -5871152.539 6  -4555545.08248  21670072.84348
  24069400.206 5   2923015.398 5   2266596.32846  24069399.89446
  21499515.433 7   -116832.211 7    -91953.53948  21499513.42948
  23149368.058 5   3682978.379 5   2857970.73446  23149369.73046
 18  5 30  0 46 34.9990000  0 10G03G14G16G22G23G26G27G29G31G32       0.000060099
  23666608.003 6    -37275.207 6    -28255.56347  23666609.26947
  20789991.933 6   1441208.539 6   1118162.89848  20789989.63648
  20281276.464 6  -1602699.699 6  -1243462.97348  20281273.26148
  23715727.980 5    850817.484 5    651049.80146  23715724.29646
  23373460.620 5  -5740503.504 5  -4436706.73046  23373456.08946
  20666393.620 7    610535.613 7    472236.98448  20666394.05448
  21666186.269 6  -5891574.324 6  -4571458.15248  21666186.62848
  24071491.636 5   2934004.074 5   2275158.93046  24071490.50746
  21499419.456 7   -117337.938 7    -92347.61348  21499417.34748
  23151870.573 5   3696132.527 5   2868220.72346  23151873.01146
 18  5 30  0 46 39.9990000  0 10G03G14G16G22G23G26G27G29G31G32       0.000057528
  23666754.386 6    -36505.523 6    -27655.82047  23666755.40547
  20791206.276 6   1447588.168 6   1123134.03548  20791203.90548
  20280408.245 6  -1607264.051 6  -1247019.61748  20280404.84348
  23716332.823 5    853993.785 5    653524.84046  23716328.48746
  23369656.190 5  -5760489.871 5  -4452280.53946  23369653.03446
  20666857.276 7    612973.875 7    474136.91848  20666858.09348
  21662300.980 6  -5911990.711 6  -4587367.02347  21662301.40147
  24073583.862 5   2944998.469 5   2283725.98446  24073582.54646
  21499323.737 7   -117842.227 7    -92740.57448  21499321.56948
  23154374.636 5   3709289.656 5   2878472.98846  23154376.87046
 18  5 30  0 46 44.9990000  0 10G03G14G16G22G23G26G27G29G31G32       0.000054955
  23666902.448 5    -35728.398 5    -27050.26247  23666903.58547
  20792422.276 6   1453978.699 6   1128113.66848  20792420.36248
  20279541.136 6  -1611819.844 6  -1250569.57848  20279538.10548
  23716937.808 5    857172.590 5    656001.82846  23716933.41346
  23365853.370 5  -5780472.410 5  -4467851.35946  23365849.86646
  20667322.019 7    615415.637 7    476039.58648  20667322.62448
  21658417.558 6  -5932401.180 6  -4603271.27748  21658417.08948
  24075676.831 5   2955999.000 5   2292297.83246  24075676.26146
  21499228.050 7   -118344.637 7    -93132.06648  21499225.44048
  23156879.519 5   3722450.285 5   2888727.98846  23156881.76146
 18  5 30  0 46 49.9990000  0 10G03G14G16G22G23G26G27G29G31G32       0.000052382
  23667051.636 5    -34943.359 5    -26438.55547  23667052.38647
  20793640.862 6   1460380.656 6   1133102.19948  20793638.17148
  20278675.940 6  -1616366.563 6  -1254112.48048  20278672.44048
  23717543.745 5    860354.422 5    658481.16446  23717539.00346
  23362053.175 5  -5800450.602 5  -4483418.77746  23362048.73046
  20667787.495 7    617861.383 7    477945.34848  20667788.02248
  21654534.362 6  -5952805.227 6  -4619170.53548  21654534.51148
  24077771.565 4   2967006.195 4   2300874.87546  24077770.77246
  21499132.792 7   -118844.648 7    -93521.68848  21499130.23048
  23159384.519 5   3735614.813 5   2898986.05146  23159386.49946
 18  5 30  0 46 54.9990000  0 10G03G14G16G22G23G26G27G29G31G32       0.000049807
  23667201.995 6    -34151.633 6    -25821.63347  23667203.11647
  20794860.659 6   1466792.742 6   1138098.61748  20794858.53448
  20277812.511 6  -1620905.410 6  -1257649.24648  20277809.43348
  23718149.230 5    863538.031 5    660961.89546  23718145.09346
  23358251.214 5  -5820425.613 5  -4498983.72346  23358247.50746
  20668253.706 7    620309.926 7    479853.28548  20668254.39048
  21650653.011 6  -5973204.074 6  -4635065.75047  21650652.95247
  24079867.597 4   2978018.824 4   2309456.11346  24079866.90946
  21499037.776 7   -119343.461 7    -93910.38748  21499035.55448
  23161889.862 5   3748782.148 5   2909246.29346  23161892.19446
 18  5 30  0 46 59.9990000  0 10G03G14G16G22G23G26G27G29G31G32       0.000047230
  23667353.964 5    -33352.004 5    -25198.55147  23667355.33547
  20796082.909 6   1473216.164 6   1143103.88748  20796080.53048
  20276950.558 6  -1625435.230 6  -1261178.97348  20276947.02248
  23718755.894 5    866724.633 5    663444.96146  23718751.26946
  23354450.690 5  -5840396.277 5  -4514545.28946  23354447.20246
  20668719.972 7    622762.355 7    481764.25448  20668720.96448
  21646772.230 6  -5993596.535 6  -4650955.96548  21646772.10848
  24081965.136 5   2989037.953 5   2318042.44146  24081963.89046
  21498943.292 7   -119839.938 7    -94297.25848  21498940.85848
  23164396.862 5   3761953.277 5   2919509.48446  23164398.55846
 18  5 30  0 47  4.9990000  0 10G03G14G16G22G23G26G27G29G31G32       0.000044651
  23667508.026 6    -32544.008 6    -24568.95747  23667508.98347
  20797307.901 6   1479651.488 6   1148118.42248  20797305.76548
  20276090.214 6  -1629955.492 6  -1264701.25848  20276086.95648
  23719362.706 5    869914.707 5    665930.69946  23719358.59746
  23350652.050 5  -5860362.074 5  -4530103.03546  23350647.86246
  20669187.269 7    625219.301 7    483678.74648  20669188.39048
  21642893.050 6  -6013982.039 6  -4666840.77747  21642892.75347
  24084062.784 5   3000064.234 5   2326634.34846  24084061.87846
  21498849.620 7   -120333.461 7    -94681.83648  21498847.03448
  23166903.933 5   3775128.863 5   2929776.18046  23166905.54646
 18  5 30  0 47  9.9990000  0 10G03G14G16G22G23G26G27G29G31G32       0.000042072
  23667662.698 5    -31729.555 5    -23934.30546  23667664.01546
  20798534.183 6   1486096.742 6   1153140.69148  20798531.82748
  20275231.487 6  -1634468.145 6  -1268217.60948  20275228.14048
  23719969.722 5    873106.359 5    668417.71946  23719965.77646
  23346852.730 5  -5880324.949 5  -4545658.52346  23346849.28846
  20669655.706 7    627678.797 7    485595.23048  20669656.21848
  21639014.933 6  -6034362.508 6  -4682721.66048  21639014.81948
  24086161.776 5   3011095.641 5   2335230.27346  24086160.94846
  21498755.464 7   -120825.996 7    -95065.62548  21498753.04248
  23169412.089 5   3788306.949 5   2940044.78946  23169413.33146
 18  5 30  0 47 14.9990000  0 10G03G14G16G22G23G26G27G29G31G32       0.000039492
  23667819.698 6    -30907.902 6    -23294.07047  23667820.35147
  20799762.542 6   1492552.645 6   1158171.25448  20799760.65148
  20274373.917 7  -1638972.461 7  -1271727.47748  20274371.11648
  23720577.839 5    876300.273 5    670906.47346  23720573.71046
  23343055.065 5  -5900284.059 5  -4561211.09046  23343050.92146
  20670124.073 7    630141.539 7    487514.25448  20670125.07748
  21635137.495 6  -6054737.184 6  -4698598.02047  21635137.33147
  24088262.237 5   3022132.949 5   2343830.75046  24088261.30846
  21498662.534 7   -121316.789 7    -95448.07048  21498660.24948
  23171920.284 5   3801488.223 5   2950315.89546  23171921.91346
 18  5 30  0 47 19.9990000  0 10G03G14G16G22G23G26G27G29G31G32       0.000036911
  23667977.667 6    -30078.504 6    -22647.79346  23667978.30046
  20800993.620 6   1499019.848 6   1163210.63348  20800990.90148
  20273518.784 7  -1643467.867 7  -1275230.38748  20273515.56548
  23721186.558 5    879497.055 5    673397.47746  23721181.67946
  23339257.628 5  -5920238.855 5  -4576760.27746  23339253.96446
  20670593.690 7    632608.141 7    489436.27748  20670594.18748
  21631261.870 6  -6075105.480 6  -4714469.42248  21631261.39048
  24090363.589 5   3033176.715 5   2352436.27046  24090362.96446
  21498569.862 7   -121805.273 7    -95828.71948  21498567.28848
  23174428.917 5   3814673.273 5   2960589.94146  23174430.41346
 18  5 30  0 47 24.9990000  0 10G03G14G16G22G23G26G27G29G31G32       0.000034328
  23668136.636 6    -29241.535 6    -21995.60547  23668137.65547
  20802225.706 7   1505498.141 7   1168258.65248  20802224.00348
  20272664.792 7  -1647954.488 7  -1278726.46148  20272662.26948
  23721795.495 5    882696.523 5    675890.55946  23721790.55046
  23335460.948 5  -5940189.531 5  -4592306.25846  23335457.07346
  20671063.698 7    635078.379 7    491361.12948  20671064.43748
  21627387.183 6  -6095467.547 6  -4730335.96148  21627387.06948
  24092465.456 4   3044226.789 4   2361046.73446  24092465.67946
  21498477.019 7   -122291.457 7    -96207.56348  21498474.29248
  23176938.753 5   3827861.961 5   2970866.82846  23176940.54246
 18  5 30  0 47 29.9990000  0 10G03G14G16G22G23G26G27G29G31G32       0.000031744
  23668297.245 5    -28396.992 5    -21337.53946  23668298.27246
  20803460.940 6   1511987.508 6   1173315.28948  20803458.88648
  20271812.886 6  -1652432.387 6  -1282215.72348  20271810.15548
  23722404.409 5    885898.645 5    678385.69946  23722399.92146
  23331664.769 5  -5960136.012 5  -4607848.96146  23331661.39446
  20671534.331 7    637552.281 7    493288.85548  20671535.04248
  21623513.190 6  -6115823.379 6  -4746197.64848  21623513.33548
  24094570.831 5   3055283.105 5   2369662.00846  24094569.80446
  21498384.808 7   -122775.563 7    -96584.79348  21498382.51948
  23179449.198 5   3841054.203 5   2981146.46146  23179450.99546
 18  5 30  0 47 34.9990000  0 10G03G14G16G22G23G26G27G29G31G32       0.000029158
  23668459.737 5    -27544.719 5    -20673.43047  23668460.38647
  20804698.019 6   1518488.125 6   1178380.70748  20804696.23748
  20270962.089 6  -1656901.348 6  -1285698.04348  20270959.57348
  23723013.894 5    889103.590 5    680883.07846  23723010.40146
  23327870.136 5  -5980078.164 5  -4623388.27046  23327866.89446
  20672005.831 7    640029.984 7    495219.53148  20672006.47648
  21619640.519 6  -6136172.770 6  -4762054.30948  21619641.03448
  24096674.995 4   3066345.848 4   2378282.32046  24096674.62846
  21498293.323 7   -123257.324 7    -96960.19948  21498290.60548
  23181960.105 5   3854250.203 5   2991429.00446  23181961.94846
 18  5 30  0 47 39.9990000  0 10G03G14G16G22G23G26G27G29G31G32       0.000026571
  23668622.972 5    -26684.992 5    -20003.51647  23668623.74947
  20805936.940 7   1524999.707 7   1183454.66048  20805935.15548
  20270113.745 6  -1661361.707 6  -1289173.64848  20270110.60548
  23723624.901 5    892311.055 5    683382.37146  23723620.74546
  23324074.917 5  -6000016.219 5  -4638924.41846  23324072.68346
  20672477.964 7    642511.250 7    497152.98448  20672478.69848
  21615769.565 6  -6156515.973 6  -4777906.14847  21615769.58547
  24098781.878 5   3077414.746 5   2386907.41446  24098781.54246
  21498202.214 7   -123737.000 7    -97333.98448  21498199.42148
  23184471.815 5   3867449.676 5   3001714.31646  23184474.18746
 18  5 30  0 47 44.9990000  0 10G03G14G16G22G23G26G27G29G31G32       0.000023985
  23668788.534 6    -25817.527 6    -19327.56647  23668788.85147
  20807178.386 6   1531522.551 6   1188537.39148  20807176.36248
  20269266.487 6  -1665813.117 6  -1292642.27348  20269263.75748
  23724235.675 5    895521.441 5    685883.98046  23724231.25346
  23320281.917 5  -6019949.797 5  -4654457.06646  23320279.50746
  20672951.292 7    644996.352 7    499089.43448  20672952.05048
  21611899.597 6  -6176852.680 6  -4793752.94548  21611900.14448
  24100889.644 4   3088490.082 4   2395537.55946  24100888.76546
  21498110.964 7   -124214.324 7    -97705.93448  21498108.81248
  23186985.347 5   3880652.906 5   3012002.52346  23186986.49946
 18  5 30  0 47 49.9990000  0 10G03G14G16G22G23G26G27G29G31G32       0.000021397
  23668954.925 5    -24942.320 5    -18645.59046  23668955.52646
  20808421.323 6   1538056.660 6   1193628.90248  20808419.75348
  20268421.362 7  -1670255.617 7  -1296103.96148  20268418.28848
  23724847.042 5    898734.645 5    688387.76246  23724842.97246
  23316490.362 5  -6039878.945 5  -4669986.22346  23316487.45646
  20673424.792 7    647485.297 7    501028.87148  20673425.35848
  21608030.511 6  -6197182.855 6  -4809594.63748  21608031.35548
  24102998.128 4   3099571.844 4   2404172.69146  24102998.13246
  21498020.808 7   -124689.309 7    -98076.05148  21498018.44048
  23189497.347 5   3893859.879 5   3022293.63746  23189499.23346
 18  5 30  0 47 54.9990000  0 10G03G14G16G22G23G26G27G29G31G32       0.000018806
  23669123.284 5    -24059.805 5    -17957.92246  23669123.51546
  20809666.933 6   1544601.605 6   1198728.85948  20809665.08148
  20267577.605 6  -1674689.590 6  -1299559.00448  20267574.61248
  23725458.159 5    901950.262 5    690893.43046  23725455.21046
  23312698.651 5  -6059804.012 5  -4685512.25446  23312695.47646
  20673898.761 7    649977.641 7    502970.96948  20673899.79248
  21604163.714 6  -6217506.934 6  -4825431.57448  21604163.62848
  24105108.222 4   3110659.648 4   2412812.50046  24105107.87846
  21497930.730 7   -125162.266 7    -98444.59448  21497928.38648
  23192011.519 5   3907070.250 5   3032587.41846  23192013.09346
 18  5 30  0 47 59.9990000  0 10G03G14G16G22G23G26G27G29G31G32       0.000016216
  23669291.776 5    -23169.953 5    -17264.53146  23669292.89046
  20810914.644 6   1551157.367 6   1203837.24248  20810912.33948
  20266735.284 6  -1679115.074 6  -1303007.43848  20266732.12048
  23726071.542 5    905168.313 5    693400.98846  23726067.44446
  23308908.058 5  -6079725.059 5  -4701035.13746  23308904.67546
  20674374.081 7    652473.375 7    504915.69148  20674374.38648
  21600297.300 6  -6237824.910 6  -4841263.76248  21600297.31948
  24107218.230 4   3121753.402 4   2421457.00846  24107219.15546
  21497841.261 7   -125633.289 7    -98811.62548  21497838.74548
  23194526.401 5   3920283.848 5   3042883.72346  23194527.88646
 18  5 30  0 48  4.9990000  0 10G03G14G16G22G23G26G27G29G31G32       0.000013624
  23669462.159 5    -22272.617 5    -16565.31646  23669463.66746
  20812164.089 6   1557724.160 6   1208954.21548  20812162.45648
  20265894.667 6  -1683531.836 6  -1306449.07448  20265891.89048
  23726684.269 5    908388.922 5    695910.53546  23726680.51146
  23305117.730 5  -6099641.840 5  -4716554.71546  23305114.09346
  20674849.894 7    654972.691 7    506863.20348  20674850.23348
  21596431.362 6  -6258136.477 6  -4857090.94548  21596431.99948
  24109332.050 4   3132853.359 4   2430106.29346  24109331.48346
  21497751.878 7   -126102.090 7    -99176.93048  21497749.62048
  23197041.245 5   3933500.984 5   3053182.77746  23197042.86246
 18  5 30  0 48  9.9990000  0 10G03G14G16G22G23G26G27G29G31G32       0.000011030
  23669634.519 5    -21368.063 5    -15860.46946  23669635.09746
  20813416.144 6   1564301.699 6   1214079.56648  20813413.77248
  20265056.034 6  -1687940.184 6  -1309884.14848  20265053.22248
  23727296.737 5    911611.809 5    698421.87946  23727293.73746
  23301329.214 5  -6119554.625 5  -4732071.15646  23301324.51546
  20675325.698 7    657475.316 7    508813.30548  20675326.69848
  21592568.019 6  -6278441.988 6  -4872913.42248  21592568.04248
  24111445.401 5   3143959.230 5   2438760.21946  24111444.34746
  21497662.901 7   -126568.922 7    -99540.69548  21497660.66348
  23199557.409 5   3946721.410 5   3063484.37146  23199558.71046
 18  5 30  0 48 14.9990000  0 10G03G14G16G22G23G26G27G29G31G32       0.000008436
  23669808.222 5    -20456.230 5    -15149.96146  23669809.33946
  20814670.050 6   1570890.086 6   1219213.37148  20814667.37848
  20264218.870 6  -1692340.004 6  -1313312.57848  20264215.75748
  23727910.636 5    914837.102 5    700935.07846  23727907.50746
  23297540.347 5  -6139463.281 5  -4747584.39846  23297536.19846
  20675802.737 7    659981.387 7    510766.07848  20675803.23048
  21588704.769 6  -6298741.289 6  -4888731.06348  21588705.41748
  24113559.472 4   3155071.031 4   2447418.75846  24113558.87046
  21497574.706 7   -127033.723 7    -99902.87948  21497572.21848
  23202073.253 5   3959945.148 5   3073788.56346  23202075.17946
 18  5 30  0 48 19.9990000  0 10G03G14G16G22G23G26G27G29G31G32       0.000005840
  23669982.995 5    -19536.039 5    -14432.91446  23669983.64746
  20815925.401 6   1577490.383 6   1224356.44548  20815923.49148
  20263383.167 6  -1696730.238 6  -1316733.53548  20263379.97248
  23728525.589 5    918065.805 5    703450.94546  23728521.74146
  23293752.370 5  -6159366.781 5  -4763093.59846  23293749.19446
  20676280.464 7    662491.902 7    512722.32448  20676281.15148
  21584842.683 6  -6319033.320 6  -4904543.02747  21584843.55447
  24115676.386 5   3166189.902 5   2456082.79346  24115675.05446
  21497486.683 7   -127495.484 7   -100262.69548  21497484.63248
  23204591.206 5   3973173.215 5   3084096.09846  23204592.07346
 18  5 30  0 48 24.9990000  0 10G03G14G16G22G23G26G27G29G31G32       0.000003244
  23670160.081 5    -18608.145 5    -13709.88346  23670160.09346
  20817183.550 6   1584101.902 6   1229508.27348  20817182.17148
  20262549.386 6  -1701111.574 6  -1320147.57048  20262546.45248
  23729140.480 5    921297.316 5    705968.99246  23729136.78446
  23289966.222 5  -6179265.754 5  -4778599.29346  23289962.24546
  20676758.948 7    665006.211 7    514681.52048  20676760.04248
  21580983.097 6  -6339318.715 6  -4920349.82848  21580983.79648
  24117792.761 5   3177315.121 5   2464751.81346  24117792.10846
  21497399.159 7   -127954.785 7   -100620.59448  21497396.50748
  23207109.253 5   3986405.039 5   3094406.60546  23207110.83146
 18  5 30  0 48 29.9990000  0 10G03G14G16G22G23G26G27G29G31G32       0.000000647
  23670337.065 5    -17673.359 5    -12981.48846  23670338.28846
  20818443.886 6   1590723.801 6   1234668.19148  20818441.94448
  20261717.105 6  -1705484.852 6  -1323555.31648  20261714.35148
  23729755.667 5    924530.742 5    708488.53146  23729751.83946
  23286179.753 5  -6199160.988 5  -4794102.07046  23286176.38646
  20677238.058 7    667523.453 7    516642.98448  20677238.66348
  21577123.980 6  -6359598.250 6  -4936152.06647  21577124.29647
  24119910.136 5   3188445.906 5   2473425.15646  24119909.64046
  21497312.597 7   -128412.426 7   -100977.21148  21497309.78048
  23209627.894 5   3999639.660 5   3104719.27046  23209629.00346
 18  5 30  0 48 34.9990000  0 10G03G14G16G22G23G26G27G29G31G32      -0.000001953
  23670516.456 5    -16730.801 5    -12247.03546  23670517.96446
  20819706.386 6   1597357.020 6   1239836.93448  20819703.92148
  20260886.831 6  -1709849.180 6  -1326956.08648  20260883.76948
  23730372.073 6    927766.973 6    711010.28146  23730367.29246
  23282395.855 5  -6219051.539 5  -4809601.19946  23282391.60146
  20677717.636 7    670044.586 7    518607.49248  20677718.22248
  21573265.581 6  -6379871.066 6  -4951949.07448  21573266.92148
  24122030.425 5   3199583.090 5   2482103.46946  24122028.95246
  21497225.651 7   -128867.586 7   -101331.88348  21497223.24148
  23212147.526 5   4012878.082 5   3115034.88746  23212148.54646
 18  5 30  0 48 39.9990000  0 10G03G14G16G22G23G26G27G29G31G32      -0.000004553
  23670697.581 5    -15780.590 5    -11506.60246  23670698.80046
  20820970.745 6   1604001.539 6   1245014.46548  20820968.29648
  20260058.058 6  -1714204.520 6  -1330349.85548  20260055.35548
  23730988.612 5    931006.035 5    713534.21546  23730983.06246
  23278612.183 6  -6238937.488 6  -4825096.73046  23278608.12446
  20678197.823 7    672569.586 7    520575.03148  20678198.64048
  21569409.019 6  -6400137.094 6  -4967740.77747  21569410.30847
  24124150.417 5   3210726.734 5   2490786.81646  24124149.72646
  21497139.503 7   -129320.203 7   -101684.57848  21497137.26148
  23214666.589 5   4026120.230 5   3125353.44546  23214668.13246
 18  5 30  0 48 44.9990000  0 10G03G14G16G22G23G26G27G29G31G32      -0.000007153
  23670880.230 5    -14822.734 5    -10760.23047  23670881.44047
  20822236.831 6   1610657.176 6   1250200.67648  20822235.08548
  20259231.011 6  -1718551.078 6  -1333736.79348  20259228.16348
  23731605.331 5    934247.773 5    716060.23846  23731599.99546
  23274828.636 6  -6258818.891 6  -4840588.75047  23274824.26947
  20678679.370 7    675098.250 7    522545.41448  20678680.07348
  21565554.808 6  -6420396.523 6  -4983527.34047  21565554.95647
  24126272.456 5   3221876.617 5   2499475.06646  24126271.17946
  21497053.597 7   -129770.422 7   -102035.40648  21497051.28048
  23217186.495 5   4039365.973 5   3135674.77746  23217188.77646
 18  5 30  0 48 49.9990000  0 10G03G14G16G22G23G26G27G29G31G32      -0.000009754
  23671064.597 5    -13856.785 5    -10007.55146  23671065.26946
  20823505.394 6   1617324.516 6   1255396.00848  20823503.78048
  20258406.261 6  -1722888.234 6  -1337116.39148  20258402.40148
  23732223.253 5    937492.688 5    718588.73446  23732217.76946
  23271044.972 5  -6278695.184 5  -4856076.75846  23271041.90146
  20679161.237 7    677631.176 7    524519.11748  20679162.03448
  21561701.065 6  -6440648.746 6  -4999308.29347  21561700.84747
  24128394.409 5   3233033.285 5   2508168.56646  24128394.07746
  21496968.761 7   -130217.617 7   -102383.87148  21496966.25348
  23219707.972 5   4052615.879 5   3145999.36746  23219710.17946
 18  5 30  0 48 54.9990000  0 10G03G14G16G22G23G26G27G29G31G32      -0.000012358
  23671249.823 5    -12882.797 5     -9248.62947  23671250.17547
  20824776.948 6   1624003.434 6   1260600.35548  20824774.91748
  20257582.159 6  -1727216.156 6  -1340488.80548  20257579.14448
  23732841.222 5    940740.656 5    721119.61746  23732835.63646
  23267263.964 5  -6298566.527 5  -4871560.92646  23267260.72646
  20679643.987 7    680168.215 7    526496.02348  20679644.67948
  21557848.183 6  -6460893.879 6  -5015083.72348  21557848.64048
  24130519.761 5   3244196.645 5   2516867.25846  24130518.36246
  21496884.269 7   -130661.980 7   -102730.14148  21496881.63248
  23222230.378 5   4065869.789 5   3156327.04746  23222232.27646
 18  5 30  0 48 59.9990000  0 10G03G14G16G22G23G26G27G29G31G32      -0.000014961
  23671436.206 5    -11901.371 5     -8483.88746  23671436.73746
  20826049.612 6   1630693.352 6   1265813.27348  20826048.13648
  20256760.190 6  -1731535.395 6  -1343854.43448  20256756.90548
  23733459.745 5    943991.203 5    723652.50446  23733455.01946
  23263483.503 5  -6318433.434 5  -4887041.61746  23263479.75346
  20680127.573 7    682708.832 7    528475.70748  20680128.08548
  21553997.269 6  -6481132.426 6  -5030854.01247  21553997.15947
  24132646.105 5   3255366.109 5   2525570.73046  24132644.35546
  21496800.081 6   -131104.039 6   -103074.60248  21496797.89048
  23224754.019 5   4079127.160 5   3166657.46146  23224755.02246
 18  5 30  0 49  4.9990000  0 10G03G14G16G22G23G26G27G29G31G32      -0.000017565
  23671624.894 5    -10913.180 5     -7713.87146  23671624.90146
  20827324.800 6   1637393.609 6   1271034.25048  20827323.03848
  20255939.917 6  -1735846.613 6  -1347213.82448  20255936.71048
  23734077.409 5    947243.566 5    726186.80946  23734073.73746
  23259703.612 5  -6338296.488 5  -4902519.33646  23259699.61646
  20680611.651 7    685252.355 7    530457.66848  20680612.25348
  21550147.120 6  -6501365.055 6  -5046619.69147  21550147.36647
  24134771.292 5   3266541.051 5   2534278.49646  24134770.54646
  21496716.269 7   -131544.434 7   -103417.77048  21496714.07748
  23227277.503 5   4092387.297 5   3176990.00046  23227278.12846
 18  5 30  0 49  9.9990000  0 10G03G14G16G22G23G26G27G29G31G32      -0.000020172
  23671813.769 5     -9918.141 5     -6938.50046  23671814.29646
  20828601.487 6   1644104.281 6   1276263.34048  20828599.90948
  20255120.964 6  -1740149.727 6  -1350566.90648  20255117.51948
  23734697.425 5    950497.814 5    728722.59046  23734692.63246
  23255924.690 5  -6358155.680 5  -4917994.03146  23255920.51946
  20681096.394 7    687798.855 7    532441.95748  20681097.10548
  21546298.058 6  -6521591.656 6  -5062380.67647  21546298.02247
  24136899.683 5   3277721.516 5   2542990.54346  24136898.01146
  21496632.855 7   -131983.074 7   -103759.57448  21496630.50748
  23229800.245 5   4105650.357 5   3187324.85546  23229801.86646
 18  5 30  0 49 14.9990000  0 10G03G14G16G22G23G26G27G29G31G32      -0.000022779
  23672004.417 5     -8915.754 5     -6157.44547  23672004.75347
  20829880.909 6   1650825.879 6   1281500.94548  20829879.26148
  20254303.620 6  -1744444.242 6  -1353913.28948  20254300.69848
  23735316.503 5    953754.590 5    731260.32846  23735312.58946
  23252146.378 5  -6378010.410 5  -4933465.22346  23252141.99146
  20681581.878 7    690348.848 7    534428.96148  20681582.05048
  21542450.198 6  -6541811.719 6  -5078136.57448  21542450.47248
  24139026.722 4   3288907.965 4   2551707.25046  24139026.54246
  21496549.855 7   -132419.457 7   -104099.62148  21496547.78048
  23232324.659 5   4118916.707 5   3197662.23046  23232326.36646
 18  5 30  0 49 19.9990000  0 10G03G14G16G22G23G26G27G29G31G32      -0.000025389
  23672196.855 5     -7905.965 5     -5370.59047  23672196.71047
  20831162.417 6   1657558.414 6   1286747.07048  20831159.97248
  20253487.987 6  -1748730.105 6  -1357252.92248  20253484.82348
  23735937.261 5    957013.797 5    733799.96146  23735932.83946
  23248368.808 5  -6397860.625 5  -4948932.92646  23248364.99146
  20682067.440 7    692902.375 7    536418.71948  20682068.11248
  21538603.894 6  -6562025.156 6  -5093887.29748  21538603.99948
  24141157.331 5   3300100.492 5   2560428.68446  24141156.96846
  21496467.019 7   -132853.539 7   -104437.87148  21496464.67548
  23234850.917 5   4132186.453 5   3208002.29746  23234851.97246
 18  5 30  0 49 24.9990000  0 10G03G14G16G22G23G26G27G29G31G32      -0.000027998
  23672390.948 5     -6888.320 5     -4577.62546  23672390.61646
  20832445.261 6   1664302.441 6   1292002.15648  20832443.36248
  20252674.003 6  -1753006.852 6  -1360585.44548  20252670.80448
  23736558.308 5    960275.914 5    736341.84846  23736554.01546
  23244592.487 5  -6417705.836 5  -4964396.70346  23244588.87846
  20682553.956 7    695459.902 7    538411.60548  20682554.53848
  21534758.573 6  -6582231.488 6  -5109632.48848  21534759.19448
  24143288.542 4   3311299.582 4   2569155.26646  24143288.06546
  21496385.276 7   -133284.863 7   -104773.98048  21496382.81948
  23237375.901 5   4145460.105 5   3218345.37946  23237377.69846
 18  5 30  0 49 29.9990000  0 10G03G14G16G22G23G26G27G29G31G32      -0.000030609
  23672585.823 5     -5863.012 5     -3778.69946  23672585.44846
  20833730.355 6   1671057.738 6   1297266.01648  20833728.69448
  20251862.019 6  -1757274.688 6  -1363911.04348  20251858.85148
  23737179.339 5    963540.770 5    738885.88346  23737175.05846
  23240817.261 5  -6437546.266 5  -4979856.78947  23240813.60147
  20683041.237 7    698021.254 7    540407.46948  20683042.38248
  21530915.003 6  -6602430.867 6  -5125372.25848  21530915.09348
  24145420.995 4   3322504.969 4   2577886.69146  24145420.14046
  21496303.542 7   -133713.598 7   -105108.07448  21496301.60548
  23239902.511 5   4158737.406 5   3228691.31646  23239904.25746
 18  5 30  0 49 34.9990000  0 10G03G14G16G22G23G26G27G29G31G32      -0.000033220
  23672781.823 5     -4830.770 5     -2974.36347  23672782.39047
  20835018.331 6   1677823.523 6   1302538.05148  20835016.32348
  20251051.605 6  -1761534.348 6  -1367230.25448  20251048.19448
  23737800.933 5    966807.613 5    741431.46946  23737797.14446
  23237042.565 5  -6457382.586 5  -4995313.65246  23237038.99546
  20683529.292 7    700585.645 7    542405.69948  20683530.40948
  21527071.605 6  -6622624.051 6  -5141107.21948  21527072.44048
  24147554.823 4   3333715.926 4   2586622.50446  24147553.53446
  21496222.589 7   -134140.430 7   -105440.68048  21496219.66348
  23242429.394 5   4172017.625 5   3239039.50046  23242432.00746
 18  5 30  0 49 39.9990000  0 10G03G14G16G22G23G26G27G29G31G32      -0.000035831
  23672979.855 5     -3789.504 5     -2162.99246  23672979.91346
  20836308.581 6   1684601.945 6   1307819.93048  20836306.42948
  20250243.355 6  -1765783.668 6  -1370541.41048  20250239.42548
  23738423.651 5    970078.559 5    743980.24246  23738419.03446
  23233267.909 5  -6477212.625 5  -5010765.61746  23233265.17546
  20684018.745 7    703155.211 7    544407.95748  20684019.18748
  21523230.847 6  -6642808.883 6  -5156835.65248  21523231.12848
  24149689.573 4   3344934.609 4   2595364.34846  24149688.28446
  21496141.745 7   -134563.188 7   -105770.11348  21496139.64748
  23244958.511 5   4185302.938 5   3249391.69546  23244960.02646
 18  5 30  0 49 44.9990000  0 10G03G14G16G22G23G26G27G29G31G32      -0.000038445
  23673180.026 5     -2740.609 5     -1345.66047  23673179.99947
  20837600.417 6   1691391.566 6   1313110.53948  20837598.32748
  20249435.956 6  -1770024.137 6  -1373845.67648  20249432.19848
  23739047.026 5    973352.203 5    746531.09846  23739042.32746
  23229495.620 5  -6497037.871 5  -5026213.86346  23229492.45246
  20684508.331 7    705728.516 7    546413.13348  20684508.97648
  21519391.417 6  -6662986.766 6  -5172558.68448  21519391.19448
  24151826.347 5   3356159.500 5   2604110.99246  24151824.36646
  21496061.823 7   -134983.344 7   -106097.51248  21496059.73048
  23247487.284 5   4198591.813 5   3259746.63346  23247489.04646
 18  5 30  0 49 49.9990000  0 10G03G14G16G22G23G26G27G29G31G32      -0.000041059
  23673380.480 5     -1684.723 5      -522.89546  23673380.69446
  20838894.776 6   1698191.766 6   1318409.39848  20838892.29648
  20248631.026 6  -1774256.270 6  -1377143.44148  20248627.38248
  23739669.987 5    976627.844 5    749083.55946  23739665.49146
  23225723.698 5  -6516858.863 5  -5041658.77047  23225720.70647
  20684998.230 7    708304.953 7    548420.74248  20684998.92948
  21515552.964 6  -6683158.277 6  -5188276.73848  21515553.03448
  24153962.745 5   3367390.035 5   2612862.06346  24153962.10846
  21495982.730 7   -135401.441 7   -106423.30948  21495980.00748
  23250017.214 5   4211883.680 5   3270103.91446  23250018.10846
 18  5 30  0 49 54.9990000  0 10G03G14G16G22G23G26G27G29G31G32      -0.000043674
  23673582.487 5      -621.242 5       305.80146  23673583.15146
  20840190.620 6   1705003.223 6   1323717.02048  20840188.17148
  20247826.933 6  -1778479.512 6  -1380434.28148  20247823.49148
  23740294.112 5    979906.199 5    751638.09046  23740289.01546
  23221953.276 5  -6536674.949 5  -5057099.87147  23221950.03847
  20685489.261 7    710885.168 7    550431.29748  20685490.36248
  21511715.511 6  -6703322.777 6  -5203989.33248  21511715.46048
  24156100.636 5   3378626.902 5   2621618.04346  24156100.38246
  21495903.136 7   -135816.875 7   -106747.01648  21495901.21048
  23252546.026 5   4225179.211 5   3280464.04346  23252548.67146
 18  5 30  0 49 59.9990000  0 10G03G14G16G22G23G26G27G29G31G32      -0.000046291
  23673786.026 5       449.863 5      1140.43446  23673786.88646
  20841488.823 6   1711825.879 6   1329033.36348  20841486.49548
  20247025.034 6  -1782693.867 6  -1383718.19948  20247021.68348
  23740918.050 5    983187.203 5    754194.70746  23740913.62846
  23218183.167 5  -6556486.180 5  -5072537.21146  23218179.83946
  20685980.823 7    713469.086 7    552444.74248  20685981.50748
  21507880.034 6  -6723480.281 6  -5219696.46548  21507879.71448
  24158240.644 5   3389869.980 5   2630378.88346  24158239.70646
  21495824.698 7   -136229.695 7   -107068.69148  21495822.28448
  23255076.761 5   4238478.316 5   3290826.95346  23255079.33946
 18  5 30  0 50  4.9990000  0 10G03G14G16G22G23G26G27G29G31G32      -0.000048908
  23673992.276 5      1528.801 5      1981.15646  23673992.72246
  20842789.058 6   1718660.008 6   1334358.65648  20842787.12448
  20246224.870 6  -1786899.035 6  -1386994.95748  20246221.40148
  23741542.612 5    986471.145 5    756753.63346  23741538.43346
  23214414.315 5  -6576292.203 5  -5087970.45746  23214410.44446
  20686473.487 7    716057.082 7    554461.35948  20686474.45648
  21504045.206 6  -6743630.461 6  -5235397.91848  21504045.58148
  24160380.269 5   3401119.590 5   2639144.81346  24160380.38246
  21495746.839 7   -136639.531 7   -107388.04748  21495744.73748
  23257608.276 5   4251781.305 5   3301192.90246  23257610.40546
 18  5 30  0 50  9.9990000  0 10G03G14G16G22G23G26G27G29G31G32      -0.000051525
  23674198.612 5      2615.266 5      2827.73046  23674199.48746
  20844092.034 6   1725505.207 6   1339692.57448  20844089.97248
  20245425.870 6  -1791095.457 6  -1390264.88748  20245422.89048
  23742168.690 5    989757.633 5    759314.52346  23742163.41746
  23210646.651 5  -6596093.449 5  -5103400.00446  23210642.61246
  20686966.550 7    718648.703 7    556480.79348  20686967.25348
  21500212.058 6  -6763773.707 6  -5251093.94148  21500212.13648
  24162522.198 4   3412375.301 4   2647915.45746  24162522.24946
  21495669.355 7   -137046.828 7   -107705.42648  21495667.01948
  23260140.901 5   4265087.723 5   3311561.51646  23260142.87046
 18  5 30  0 50 14.9990000  0 10G03G14G16G22G23G26G27G29G31G32      -0.000054146
  23674406.683 5      3708.906 5      3679.91846  23674407.30446
  20845396.972 7   1732361.211 7   1345034.91448  20845394.48348
  20244629.362 6  -1795283.430 6  -1393528.25048  20244626.05048
  23742794.675 5    993046.363 5    761877.16446  23742789.08946
  23206879.815 5  -6615890.176 5  -5118826.01646  23206875.15146
  20687460.464 7    721243.672 7    558502.85948  20687461.27648
  21496380.362 6  -6783910.258 6  -5266784.76648  21496380.53048
  24164666.448 5   3423636.898 5   2656690.71946  24164665.61646
  21495592.323 7   -137451.832 7   -108021.02048  21495589.91748
  23262672.862 5   4278397.398 5   3321932.67646  23262675.19046
 18  5 30  0 50 19.9990000  0 11G03G14G16G21G22G23G26G27G29G31G32   -0.000056765
  23674616.058 5      4809.844 5      4537.80146  23674617.04246
  20846703.651 6   1739228.141 6   1350385.75448  20846701.56248
  20243834.050 6  -1799462.781 6  -1396784.88348  20243830.79648
  24490850.39414    -55786.31314    -31622.23056  24490849.68756
  23743420.940 5    996337.453 5    764441.64846  23743415.44446
  23203114.089 5  -6635682.207 5  -5134248.39846  23203109.08946
  20687955.440 7    723842.074 7    560527.55548  20687955.50748
  21492550.261 6  -6804039.992 6  -5282470.25848  21492549.83548
  24166810.222 5   3434904.398 5   2665470.61346  24166809.67546
  21495515.683 7   -137854.418 7   -108334.72748  21495512.92148
  23265207.261 5   4291710.336 5   3332306.37146  23265208.91346
 18  5 30  0 50 24.9990000  0 11G03G14G16G21G22G23G26G27G29G31G32   -0.000059383
  23674826.480 5      5918.094 5      5401.35546  23674828.04246
  20848012.448 6   1746106.027 6   1355745.14848  20848010.55848
  20243040.276 6  -1803633.504 6  -1400034.80148  20243036.73048
  24489294.870 3    -63958.746 3    -37990.35945  24489294.29245
  23744047.276 5    999630.926 5    767007.99646  23744042.18346
  23199348.276 6  -6655469.496 6  -5149667.05147  23199343.94447
  20688450.284 7    726443.980 7    562555.00448  20688450.99948
  21488720.230 6  -6824162.867 6  -5298150.43448  21488720.62048
  24168955.370 5   3446177.887 5   2674255.12946  24168954.84346
  21495439.308 7   -138254.527 7   -108646.49248  21495437.26548
  23267741.261 5   4305026.609 5   3342682.64546  23267742.58146
 18  5 30  0 50 29.9990000  0 11G03G14G16G21G22G23G26G27G29G31G32   -0.000062006
  23675038.839 5      7033.520 5      6270.50846  23675040.23346
  20849323.620 6   1752994.730 6   1361112.96148  20849320.98348
  20242248.151 6  -1807795.758 6  -1403278.11348  20242244.59748
  24487740.987 4    -72127.816 4    -44355.84045  24487739.73745
  23744674.433 5   1002926.629 5    769576.07846  23744669.09746
  23195583.480 5  -6675252.188 5  -5165082.15246  23195579.01546
  20688945.925 7    729049.207 7    564585.05548  20688946.67948
  21484892.870 6  -6844279.020 6  -5313825.35548  21484892.99148
  24171102.198 5   3457457.199 5   2683044.20746  24171100.84346
  21495363.362 7   -138652.383 7   -108956.51248  21495361.49148
  23270275.745 5   4318346.074 5   3353061.46146  23270277.57746
 18  5 30  0 50 34.9990000  0 11G03G14G16G21G22G23G26G27G29G31G32   -0.000064629
  23675252.831 5      8156.789 5      7145.75446  23675254.36646
  20850635.964 6   1759894.859 6   1366489.67648  20850633.60848
  20241457.870 6  -1811948.875 6  -1406514.30948  20241454.78448
  24486186.237 3    -80292.914 3    -50718.25446  24486186.01146
  23745301.745 5   1006225.184 5    772146.36346  23745296.89046
  23191819.675 5  -6695029.613 5  -5180493.12547  23191815.83547
  20689442.323 7    731658.434 7    566618.21548  20689442.99548
  21481066.073 6  -6864387.707 6  -5329494.46148  21481066.42948
  24173249.987 5   3468742.969 5   2691838.31346  24173247.92946
  21495288.698 7   -139047.273 7   -109264.23848  21495286.67148
  23272810.620 5   4331669.309 5   3363443.16446  23272812.63646
 18  5 30  0 50 39.9990000  0 11G03G14G16G21G22G23G26G27G29G31G32   -0.000067253
  23675468.315 5      9287.164 5      8026.57446  23675469.71446
  20851951.370 6   1766805.773 6   1371874.80548  20851949.03048
  20240669.612 6  -1816093.508 6  -1409743.89848  20240665.91748
  24484633.526 4    -88454.504 4    -57077.93046  24484632.81246
  23745930.690 5   1009525.953 5    774718.39846  23745925.33546
  23188056.698 5  -6714802.402 5  -5195900.48847  23188053.40547
  20689939.448 7    734270.973 7    568653.95348  20689939.91748
  21477240.323 6  -6884489.676 6  -5345158.33648  21477241.16748
  24175398.855 5   3480034.508 5   2700636.91846  24175396.48746
  21495214.183 7   -139439.824 7   -109570.12948  21495211.56548
  23275346.917 5   4344995.730 5   3373827.34846  23275348.74146
 18  5 30  0 50 44.9990000  0 11G03G14G16G21G22G23G26G27G29G31G32   -0.000069880
  23675684.956 5     10424.535 5      8912.83646  23675686.03846
  20853268.815 6   1773727.285 6   1377268.18048  20853266.56948
  20239882.253 6  -1820229.848 6  -1412967.02048  20239878.38248
  24483081.378 3    -96612.961 3    -63435.16045  24483080.29245
  23746559.081 5   1012828.680 5    777291.94546  23746553.87446
  23184294.159 5  -6734570.750 5  -5211304.38346  23184291.55446
  20690437.159 7    736886.676 7    570692.15648  20690438.15148
  21473416.800 6  -6904585.063 6  -5360817.05948  21473417.26548
  24177548.370 5   3491331.633 5   2709439.87546  24177546.74546
  21495139.651 7   -139830.254 7   -109874.36748  21495137.20248
  23277883.183 5   4358325.098 5   3384213.85546  23277885.01546
 18  5 30  0 50 49.9990000  0 11G03G14G16G21G22G23G26G27G29G31G32   -0.000072506
  23675901.972 5     11569.426 5      9804.94546  23675904.08546
  20854587.448 6   1780659.961 6   1382670.26648  20854585.50748
  20239096.870 7  -1824357.332 7  -1416183.24648  20239093.19048
  24481529.573 3   -104767.539 3    -69789.37946  24481528.72246
  23747187.214 5   1016133.953 5    779867.47746  23747182.97246
  23180534.175 5  -6754334.035 5  -5226704.34847  23180530.40547
  20690935.792 7    739506.074 7    572733.24648  20690936.59348
  21469594.347 6  -6924673.215 6  -5376470.16048  21469594.21048
  24179699.347 5   3502634.957 5   2718247.66846  24179698.24146
  21495065.948 7   -140217.949 7   -110176.47748  21495063.67548
  23280420.776 5   4371657.965 5   3394603.07846  23280422.59746
 18  5 30  0 50 54.9990000  0 11G03G14G16G21G22G23G26G27G29G31G32   -0.000075134
  23676121.355 5     12722.148 5     10703.15646  23676123.64746
  20855909.011 7   1787604.172 7   1388081.33648  20855906.98348
  20238313.128 6  -1828475.648 6  -1419392.32448  20238309.71048
  24479978.019 3   -112917.980 3    -76140.33645  24479977.27245
  23747817.417 5   1019442.188 5    782445.32046  23747812.97246
  23176774.409 5  -6774091.910 5  -5242100.09446  23176770.85146
  20691435.065 7    742129.504 7    574777.48448  20691435.75348
  21465773.042 6  -6944753.832 6  -5392117.39548  21465773.04248
  24181850.581 4   3513944.805 4   2727060.50846  24181850.18746
  21494992.870 7   -140602.559 7   -110476.19148  21494990.51148
  23282958.667 5   4384994.723 5   3404995.35546  23282960.47646
 18  5 30  0 50 59.9990000  0 11G03G14G16G21G22G23G26G27G29G31G32   -0.000077763
  23676342.120 5     13881.352 5     11606.43846  23676344.25746
  20857232.308 6   1794558.461 6   1393500.25448  20857230.41748
  20237530.964 6  -1832586.180 6  -1422595.34448  20237527.81948
  24478427.222 3   -121065.633 3    -82489.19545  24478426.90545
  23748446.925 5   1022751.902 5    785024.29746  23748442.85846
  23173014.644 5  -6793845.816 5  -5257492.74646  23173012.09746
  20691934.620 7    744755.523 7    576823.72748  20691935.78448
  21461952.745 6  -6964828.340 6  -5407759.87148  21461953.18348
  24184004.245 4   3525259.723 4   2735877.31646  24184003.28046
  21494920.042 7   -140985.461 7   -110774.54348  21494917.71448
  23285496.386 5   4398333.841 5   3415389.42746  23285498.43746
 18  5 30  0 51  4.9990000  0 11G03G14G16G21G22G23G26G27G29G31G32   -0.000080393
  23676563.909 5     15047.813 5     12515.34046  23676565.57346
  20858557.737 7   1801523.660 7   1398927.67248  20858555.73348
  20236750.339 6  -1836688.152 6  -1425791.68048  20236746.40148
  24476877.737 3   -129209.668 3    -88835.18445  24476877.44445
  23749076.753 5   1026063.992 5    787605.13346  23749073.19446
  23169256.237 5  -6813594.867 5  -5272881.61346  23169253.75346
  20692435.011 7    747385.047 7    578872.71948  20692436.04648
  21458134.151 6  -6984895.797 6  -5423396.85548  21458134.19048
  24186158.855 5   3536580.570 5   2744698.75846  24186157.65146
  21494847.440 7   -141365.848 7   -111070.95348  21494845.30848
  23288036.480 5   4411676.297 5   3425786.15246  23288037.86246
 18  5 30  0 51  9.9990000  0 11G03G14G16G21G22G23G26G27G29G31G32   -0.000083023
  23676788.214 5     16222.918 5     13431.02746  23676789.10546
  20859885.683 7   1808501.219 7   1404364.72348  20859883.40548
  20235971.667 6  -1840780.121 6  -1428980.23448  20235967.72648
  24475329.315 3   -137348.586 3    -95177.17645  24475328.32345
  23749708.573 6   1029379.703 6    790188.80146  23749704.30446
  23165500.300 5  -6833337.652 5  -5288265.60247  23165496.72647
  20692936.612 7    750019.391 7    580925.44948  20692937.21448
  21454317.237 6  -7004954.824 6  -5439027.26248  21454316.81248
  24188314.065 4   3547908.648 4   2753525.80146  24188313.33946
  21494775.675 7   -141742.309 7   -111364.28548  21494773.44048
  23290575.987 5   4425023.387 5   3436186.46546  23290577.94446
 18  5 30  0 51 14.9990000  0 11G03G14G16G21G22G23G26G27G29G31G32   -0.000085655
  23677012.800 5     17403.910 5     14351.27346  23677014.15146
  20861215.448 7   1815488.316 7   1409809.21148  20861213.07348
  20235194.620 6  -1844864.836 6  -1432163.12948  20235190.93348
  24473780.690 4   -145485.234 4   -101517.41845  24473780.57745
  23750339.269 5   1032696.422 5    792773.25846  23750335.28446
  23161744.683 6  -6853076.840 6  -5303646.79347  23161740.00747
  20693438.386 7    752655.816 7    582979.80548  20693439.23348
  21450500.964 6  -7025008.188 6  -5454653.25448  21450501.26948
  24190470.792 4   3559241.344 4   2762356.46546  24190470.04646
  21494704.198 7   -142117.617 7   -111656.73448  21494702.52248
  23293115.245 5   4438372.363 5   3446588.23846  23293117.64446
 18  5 30  0 51 19.9990000  0 11G03G14G16G21G22G23G26G27G29G31G32   -0.000088287
  23677239.690 5     18591.035 5     15276.28147  23677240.63247
  20862546.808 6   1822485.125 6   1415261.26648  20862544.22248
  20234418.519 6  -1848942.121 6  -1435340.23448  20234415.04248
  24472231.847 3   -153619.336 3   -107855.64845  24472231.94445
  23750970.542 5   1036014.246 5    795358.56646  23750966.92546
  23157988.706 6  -6872812.234 6  -5319025.03947  23157984.89047
  20693940.175 7    755294.527 7    585035.94148  20693940.97248
  21446685.808 6  -7045055.633 6  -5470274.63748  21446686.28048
  24192628.925 5   3570578.691 5   2771190.75446  24192627.01946
  21494633.597 7   -142491.535 7   -111948.11348  21494630.96848
  23295656.112 4   4451723.457 4   3456991.66846  23295658.28046
 18  5 30  0 51 24.9990000  0 11G03G14G16G21G22G23G26G27G29G31G32   -0.000090923
  23677466.706 5     19784.559 5     16206.29346  23677467.33946
  20863879.987 6   1829492.016 6   1420721.18448  20863877.92948
  20233643.987 6  -1853011.676 6  -1438511.30948  20233640.75348
  24470685.026 3   -161750.605 3   -114191.69946  24470685.35546
  23751601.901 5   1039333.504 5    797944.98846  23751598.21046
  23154233.737 5  -6892543.559 5  -5334400.10247  23154230.03847
  20694442.839 7    757935.809 7    587094.06648  20694443.74548
  21442872.542 6  -7065096.863 6  -5485891.16848  21442872.63648
  24194787.120 5   3581921.035 5   2780028.93446  24194785.82346
  21494562.511 7   -142863.762 7   -112238.15648  21494559.74148
  23298197.815 5   4465076.945 5   3467396.93446  23298199.62846
 18  5 30  0 51 29.9990000  0 11G03G14G16G21G22G23G26G27G29G31G32   -0.000093559
  23677694.933 5     20985.301 5     17141.94546  23677695.30046
  20865215.284 6   1836509.832 6   1426189.60248  20865213.54248
  20232871.378 6  -1857072.602 6  -1441675.66448  20232867.71848
  24469138.894 3   -169878.113 3   -120524.81646  24469138.67546
  23752234.589 5   1042655.059 5    800533.20746  23752230.81246
  23150479.933 5  -6912269.863 5  -5349771.25847  23150476.40947
  20694946.394 7    760580.605 7    589154.97348  20694947.16348
  21439060.183 6  -7085130.918 6  -5501502.11748  21439059.81548
  24196946.886 5   3593269.344 5   2788871.76646  24196945.65946
  21494492.144 7   -143233.395 7   -112526.18848  21494490.12848
  23300738.995 5   4478433.652 5   3477804.74646  23300741.18746
 18  5 30  0 51 34.9990000  0 11G03G14G16G21G22G23G26G27G29G31G32   -0.000096199
  23677924.120 5     22192.246 5     18082.41046  23677925.13646
  20866552.620 6   1843537.449 6   1431665.66448  20866550.53448
  20232100.144 6  -1861126.074 6  -1444834.21948  20232096.60548
  24467592.933 4   -178002.938 4   -126855.83246  24467592.55046
  23752867.034 5   1045977.863 5    803122.38346  23752862.94846
  23146727.605 5  -6931992.328 5  -5365139.40647  23146723.74947
  20695450.019 7    763227.742 7    591217.68048  20695450.69048
  21435249.011 6  -7105158.980 6  -5517108.39848  21435248.94048
  24199106.222 5   3604622.395 5   2797718.30546  24199105.95646
  21494422.300 7   -143601.539 7   -112813.05148  21494419.66348
  23303281.128 5   4491792.539 5   3488214.25046  23303282.93746
 18  5 30  0 51 39.9990000  0 11G03G14G16G21G22G23G26G27G29G31G32   -0.000098837
  23678155.167 5     23406.660 5     19028.70746  23678156.03446
  20867892.112 6   1850576.238 6   1437150.43048  20867889.94048
  20231330.198 6  -1865170.668 6  -1447985.85248  20231327.04248
  24466047.347 3   -186123.789 3   -133183.78545  24466047.45645
  23753500.003 5   1049303.164 5    805713.51646  23753495.06946
  23142975.378 5  -6951709.566 5  -5380503.47346  23142971.73346
  20695954.605 7    765878.574 7    593283.28548  20695955.14748
  21431438.948 6  -7125179.598 6  -5532708.88748  21431438.83548
  24201267.620 4   3615981.582 4   2806569.60946  24201267.55846
  21494352.628 7   -143966.828 7   -113097.70348  21494350.03448
  23305824.448 4   4505154.938 4   3498626.48846  23305826.23346
 18  5 30  0 51 44.9990000  0 11G03G14G16G21G22G23G26G27G29G31G32   -0.000101479
  23678387.776 5     24627.434 5     19979.94546  23678388.25346
  20869233.503 7   1857625.016 7   1442642.98448  20869231.52248
  20230562.151 6  -1869207.578 6  -1451131.50048  20230558.83548
  24464502.128 4   -194241.762 4   -139509.45745  24464501.94045
  23754132.933 5   1052629.875 5    808305.75446  23754128.69046
  23139223.394 5  -6971422.645 5  -5395864.30147  23139219.94447
  20696458.886 7    768531.961 7    595350.87548  20696459.87048
  21427630.589 6  -7145193.957 6  -5548304.49648  21427630.63648
  24203431.073 5   3627345.742 5   2815424.76246  24203429.58946
  21494283.550 7   -144330.344 7   -113380.96948  21494280.92548
  23308366.980 5   4518519.605 5   3509040.50446  23308369.45246
 18  5 30  0 51 49.9990000  0 11G03G14G16G21G22G23G26G27G29G31G32   -0.000104120
  23678621.409 5     25855.355 5     20936.76646  23678621.44446
  20870577.323 6   1864684.609 6   1448143.95748  20870574.56948
  20229795.651 6  -1873235.988 6  -1454270.52048  20229792.48048
  24462958.558 3   -202356.035 3   -145832.25045  24462958.25745
  23754766.839 5   1055958.762 5    810899.68846  23754761.48346
  23135472.769 5  -6991130.785 5  -5411221.27047  23135470.06247
  20696964.651 7    771188.672 7    597421.03148  20696966.28448
  21423822.972 6  -7165201.211 6  -5563894.55948  21423823.41348
  24205594.464 5   3638715.672 5   2824284.46946  24205593.43746
  21494214.776 7   -144691.309 7   -113662.23048  21494212.15548
  23310911.284 4   4531887.383 4   3519456.90646  23310913.02646
 18  5 30  0 51 54.9990000  0 11G03G14G16G21G22G23G26G27G29G31G32   -0.000106762
  23678856.394 5     27090.723 5     21899.36746  23678856.51546
  20871922.894 6   1871755.359 6   1453653.62148  20871920.41348
  20229030.526 7  -1877255.539 7  -1457402.64548  20229027.14748
  24461414.339 3   -210466.223 3   -152151.89145  24461414.87045
  23755400.253 6   1059290.098 6    813495.53946  23755395.35146
  23131723.862 6  -7010833.676 6  -5426574.19947  23131720.30447
  20697470.995 7    773849.012 7    599494.01248  20697471.43348
  21420016.776 6  -7185200.996 6  -5579478.80948  21420017.40548
  24207759.315 5   3650091.680 5   2833148.87946  24207758.42546
  21494147.089 7   -145049.469 7   -113941.33248  21494144.00748
  23313455.440 5   4545258.688 5   3529876.09046  23313457.69846
 18  5 30  0 51 59.9990000  0 11G03G14G16G21G22G23G26G27G29G31G32   -0.000109406
  23679092.784 5     28334.059 5     22868.22346  23679093.42546
  20873270.300 6   1878837.824 6   1459172.41848  20873268.28848
  20228267.487 7  -1881265.750 7  -1460527.48448  20228263.84748
  24459871.761 3   -218571.859 3   -158467.97745  24459872.25345
  23756034.800 5   1062624.504 5    816093.78546  23756030.09746
  23127976.206 6  -7030530.719 6  -5441922.54347  23127972.12447
  20697978.097 7    776513.590 7    601570.30548  20697978.89748
  21416212.776 6  -7205192.824 6  -5595056.84447  21416213.24147
  24209925.487 5   3661474.320 5   2842018.42246  24209925.10146
  21494078.886 7   -145404.172 7   -114217.73448  21494076.56948
  23316000.761 4   4558633.980 4   3540298.36346  23316002.80846
 18  5 30  0 52  4.9990000  0 11G03G14G16G21G22G23G26G27G29G31G32   -0.000112049
  23679330.901 5     29584.121 5     23842.29746  23679331.08146
  20874619.870 6   1885930.684 6   1464699.32048  20874617.97648
  20227505.995 7  -1885267.852 7  -1463646.01248  20227502.55448
  24458330.808 4   -226674.113 4   -164781.38345  24458330.44445
  23756669.503 5   1065960.664 5    818693.37946  23756665.25346
  23124228.636 6  -7050223.168 6  -5457267.31647  23124224.78447
  20698485.745 7    779181.105 7    603648.87948  20698486.67148
  21412409.581 6  -7225177.859 6  -5610629.59847  21412410.16747
  24212092.073 5   3672862.270 5   2850892.14546  24212092.24146
  21494012.464 7   -145756.723 7   -114492.45348  21494009.51548
  23318546.542 4   4572011.961 4   3550722.73446  23318548.85846
 18  5 30  0 52  9.9990000  0 11G03G14G16G21G22G23G26G27G29G31G32   -0.000114695
  23679569.550 5     30841.043 5     24821.70746  23679570.60846
  20875971.940 6   1893034.020 6   1470234.37948  20875969.63648
  20226745.870 7  -1889261.742 7  -1466758.13748  20226742.76148
  24456789.683 3   -234772.922 3   -171092.16045  24456789.26545
  23757305.190 5   1069298.613 5    821294.36746  23757300.34746
  23120481.784 5  -7069910.898 5  -5472608.41047  23120478.09747
  20698993.808 7    781851.629 7    605729.80548  20698994.73348
  21408608.237 6  -7245156.016 6  -5626196.98448  21408608.44448
  24214259.847 5   3684255.664 5   2859770.13346  24214259.91746
  21493945.222 7   -146107.035 7   -114765.43848  21493942.67148
  23321093.112 5   4585392.766 5   3561149.28146  23321094.94846
 18  5 30  0 52 14.9990000  0 11G03G14G16G21G22G23G26G27G29G31G32   -0.000117342
  23679810.550 5     32104.719 5     25806.39146  23679810.77646
  20877325.651 6   1900147.836 6   1475777.60948  20877323.57348
  20225987.519 6  -1893247.484 6  -1469863.91048  20225984.12048
  24455248.792 3   -242868.277 3   -177400.19145  24455248.59345
  23757940.987 5   1072638.434 5    823896.81646  23757935.64446
  23116736.183 5  -7089593.941 5  -5487945.83247  23116731.92547
  20699502.792 7    784525.195 7    607813.09848  20699503.64748
  21404807.573 6  -7265127.309 6  -5641759.03948  21404807.98048
  24216429.784 5   3695654.461 5   2868652.30946  24216428.37446
  21493879.230 7   -146455.125 7   -115036.67648  21493876.54648
  23323639.870 4   4598776.313 4   3571578.03946  23323641.48046
 18  5 30  0 52 19.9990000  0 11G03G14G16G21G22G23G26G27G29G31G32   -0.000119991
  23680052.339 5     33375.184 5     26796.35546  23680053.15946
  20878681.230 7   1907272.117 7   1481328.99648  20878678.92148
  20225230.284 6  -1897225.051 6  -1472963.31348  20225227.33148
  24453708.980 3   -250960.227 3   -183705.66045  24453708.87845
  23758576.300 5   1075980.074 5    826500.68446  23758571.40546
  23112991.448 5  -7109272.262 5  -5503279.58647  23112988.00347
  20700012.019 7    787201.746 7    609898.71548  20700012.60848
  21401008.847 6  -7285091.684 6  -5657315.69148  21401008.69048
  24218600.487 5   3707058.656 5   2877538.69946  24218598.25746
  21493813.675 7   -146800.945 7   -115306.16048  21493810.84748
  23326187.308 4   4612162.645 4   3582008.90245  23326189.23345
 18  5 30  0 52 24.9990000  0 11G03G14G16G21G22G23G26G27G29G31G32   -0.000122639
  23680295.542 5     34653.246 5     27792.24646  23680296.50346
  20880039.034 6   1914407.715 6   1486889.19148  20880036.95248
  20224475.065 6  -1901193.625 6  -1476055.71548  20224472.23348
  24452170.425 4   -259047.785 4   -190007.62145  24452169.82745
  23759212.448 5   1079324.230 5    829106.52046  23759208.06246
  23109248.065 5  -7128945.000 5  -5518608.99647  23109243.89047
  20700522.042 7    789882.121 7    611987.32048  20700522.71848
  21397210.589 6  -7305048.340 6  -5672866.33248  21397211.29248
  24220771.065 5   3718469.012 5   2886429.87946  24220769.59746
  21493748.019 7   -147143.652 7   -115573.21948  21493745.65948
  23328734.980 4   4625552.570 4   3592442.57846  23328736.87446
 18  5 30  0 52 29.9990000  0 11G03G14G16G21G22G23G26G27G29G31G32   -0.000125288
  23680539.808 5     35938.422 5     28793.68046  23680540.88646
  20881398.675 6   1921554.164 6   1492457.84048  20881396.59348
  20223721.620 6  -1905153.676 6  -1479141.48048  20223718.58548
  24450632.089 4   -267131.508 4   -196306.63345  24450631.34745
  23759849.409 5   1082670.590 5    831714.05546  23759845.28046
  23105505.058 6  -7148612.625 6  -5533934.41447  23105501.54247
  20701032.503 7    792565.852 7    614078.55148  20701033.51948
  21393414.573 6  -7324997.730 6  -5688411.31647  21393415.15947
  24222943.058 5   3729885.199 5   2895325.60246  24222941.91746
  21493683.761 7   -147483.715 7   -115838.20748  21493681.06548
  23331283.417 4   4638945.586 4   3602878.69546  23331285.94846
 18  5 30  0 52 34.9990000  0 11G03G14G16G21G22G23G26G27G29G31G32   -0.000127939
  23680785.722 5     37230.266 5     29800.29747  23680786.96847
  20882760.823 6   1928710.980 6   1498034.57448  20882758.56548
  20222969.730 6  -1909105.637 6  -1482220.93448  20222966.49148
  24449093.628 3   -275211.848 3   -202602.97345  24449093.96445
  23760487.003 5   1086018.680 5    834322.93446  23760482.50746
  23101763.058 5  -7168275.566 5  -5549256.18447  23101760.15147
  20701544.112 7    795252.508 7    616172.05948  20701544.41748
  21389619.933 6  -7344940.258 6  -5703950.92648  21389620.02648
  24225117.198 5   3741306.633 5   2904225.44946  24225114.57746
  21493619.261 7   -147821.602 7   -116101.49648  21493616.53848
  23333833.011 4   4652341.281 4   3613316.84846  23333835.12846
 18  5 30  0 52 39.9990000  0 11G03G14G16G21G22G23G26G27G29G31G32   -0.000130594
  23681032.581 5     38528.063 5     30811.56346  23681034.46846
  20884124.448 6   1935877.434 6   1503618.82848  20884122.12448
  20222219.206 6  -1913050.266 6  -1485294.66848  20222215.70248
  24447556.980 3   -283289.449 3   -208897.18045  24447556.44045
  23761123.144 5   1089367.738 5    836932.57846  23761119.66746
  23098023.097 6  -7187934.563 6  -5564574.86747  23098019.76147
  20702055.565 7    797941.324 7    618267.25048  20702056.28048
  21385825.534 6  -7364876.652 6  -5719485.78548  21385826.37848
  24227291.433 5   3752732.594 5   2913128.79346  24227288.82746
  21493555.019 7   -148157.977 7   -116363.60948  21493552.08548
  23336382.620 4   4665738.922 4   3623756.57846  23336384.45246
 18  5 30  0 52 44.9990000  0 11G03G14G16G21G22G23G26G27G29G31G32   -0.000133247
  23681281.050 5     39832.145 5     31827.72746  23681282.34346
  20885490.019 6   1943053.969 6   1509210.92648  20885487.93748
  20221469.878 6  -1916987.137 6  -1488362.36348  20221466.92548
  24446020.167 3   -291363.906 3   -215188.96145  24446019.83945
  23761760.972 5   1092718.176 5    839543.30146  23761757.12046
  23094282.769 6  -7207589.105 6  -5579890.10947  23094279.67947
  20702567.519 7    800632.672 7    620364.41048  20702568.54648
  21382033.425 6  -7384806.484 6  -5735015.51248  21382033.46048
  24229467.253 5   3764163.492 5   2922035.97746  24229464.72246
  21493491.526 7   -148492.445 7   -116624.23448  21493488.71048
  23338932.698 4   4679138.809 4   3634198.02346  23338934.49946
 18  5 30  0 52 49.9990000  0 10G03G14G16G21G22G23G26G27G31G32      -0.000135902
  23681529.753 5     41144.301 5     32850.16847  23681532.08147
  20886858.144 6   1950242.211 6   1514812.14848  20886856.13248
  20220722.480 6  -1920914.602 6  -1491422.71948  20220719.13648
  24444485.073 4   -299433.500 4   -221476.94945  24444483.67145
  23762399.034 5   1096071.648 5    842156.39846  23762395.10546
  23090543.784 6  -7227237.563 6  -5595200.57847  23090540.58547
  20703080.753 7    803328.277 7    622464.87148  20703081.28448
  21378242.644 6  -7404728.012 6  -5750538.78548  21378242.94848
  21493428.589 7   -148823.344 7   -116882.07048  21493425.99148
  23341482.644 3   4692542.781 3   3644642.64545  23341485.01145
 18  5 30  0 52 54.9990000  0 10G03G14G16G21G22G23G26G27G31G32      -0.000138559
  23681781.745 5     42463.336 5     33877.97746  23681782.86246
  20888228.050 6   1957441.074 6   1520421.64548  20888225.73348
  20219976.815 6  -1924833.742 6  -1494476.59048  20219973.59748
  24442950.362 3   -307499.355 3   -227762.02745  24442948.22645
  23763037.722 5   1099427.051 5    844770.98846  23763034.04246
  23086805.706 6  -7246880.992 6  -5610507.15247  23086801.92547
  20703594.253 7    806027.047 7    624567.79748  20703595.15948
  21374453.167 6  -7424642.359 6  -5766056.46148  21374453.40948
  21493366.105 7   -149151.742 7   -117137.97348  21493363.24548
  23344034.315 3   4705949.605 3   3655089.50445  23344036.37845
 18  5 30  0 52 59.9990000  0 10G03G14G16G21G22G23G26G27G31G32      -0.000141216
  23682034.175 5     43788.406 5     34910.50447  23682034.80447
  20889599.894 6   1964649.703 6   1526038.75448  20889597.77248
  20219232.433 6  -1928745.496 6  -1497524.71148  20219229.23348
  24441416.355 4   -315562.375 4   -234044.91445  24441413.93745
  23763677.339 5   1102783.500 5    847386.37146  23763672.54246
  23083068.503 5  -7266520.352 5  -5625810.55547  23083064.93747
  20704108.230 7    808728.020 7    626672.44948  20704109.22648
  21370664.761 6  -7444550.395 6  -5781569.21948  21370665.12448
  21493304.011 7   -149478.523 7   -117392.60248  21493301.35848
  23346585.761 4   4719358.430 4   3665537.87945  23346587.97645
 18  5 30  0 53  4.9990000  0 10G03G14G16G21G22G23G26G27G31G32      -0.000143877
  23682287.269 5     45120.133 5     35948.20346  23682288.66346
  20890973.503 6   1971868.727 6   1531663.96148  20890971.12048
  20218489.948 6  -1932649.102 6  -1500566.49248  20218486.48048
  24439881.886 3   -323621.867 3   -240324.96945  24439880.88245
  23764315.565 5   1106141.637 5    850003.09046  23764311.55446
  23079331.636 5  -7286154.840 5  -5641110.15647  23079328.58147
  20704622.698 7    811431.953 7    628779.41448  20704623.80848
  21366877.362 6  -7464451.402 6  -5797076.49648  21366877.91748
  21493241.980 7   -149803.000 7   -117645.44948  21493239.39048
  23349138.464 4   4732769.930 4   3675988.38346  23349139.84746
 18  5 30  0 53  9.9990000  0 10G03G14G16G21G22G23G26G27G31G32      -0.000146536
  23682542.339 5     46458.598 5     36991.14547  23682543.58147
  20892349.144 6   1979098.184 6   1537297.29748  20892346.84748
  20217748.073 6  -1936544.594 6  -1503601.94148  20217745.07748
  24438349.284 4   -331677.707 4   -246602.27345  24438347.74145
  23764955.690 5   1109501.465 5    852621.15246  23764950.28046
  23075596.323 5  -7305784.496 5  -5656405.98046  23075592.64746
  20705137.690 7    814138.875 7    630888.69548  20705139.04648
  21363091.964 6  -7484345.363 6  -5812578.27748  21363092.33948
  21493180.737 7   -150125.121 7   -117896.45348  21493178.13248
  23351689.620 3   4746184.125 3   3686441.00446  23351692.31946
 18  5 30  0 53 14.9990000  0 10G03G14G16G21G22G23G26G27G31G32      -0.000149199
  23682798.105 5     47803.934 5     38039.45747  23682799.09347
  20893726.855 6   1986338.328 6   1542938.96548  20893724.56548
  20217008.714 6  -1940431.750 6  -1506630.89148  20217005.26148
  24436816.706 4   -339729.699 4   -252876.50845  24436815.86245
  23765594.448 5   1112863.242 5    855240.72746  23765590.05446
  23071862.542 5  -7325409.027 5  -5671697.81346  23071858.33146
  20705653.706 7    816848.961 7    633000.44948  20705654.48048
  21359307.347 6  -7504232.016 6  -5828074.35948  21359307.52248
  21493119.956 7   -150444.711 7   -118145.49248  21493117.57348
  23354243.870 3   4759601.199 3   3696895.85246  23354245.69846
 18  5 30  0 53 19.9990000  0 10G03G14G16G21G22G23G26G27G31G32      -0.000151861
  23683055.487 5     49155.840 5     39092.88347  23683056.42947
  20895106.901 6   1993588.668 6   1548588.57448  20895104.59748
  20216270.542 6  -1944310.953 6  -1509653.66048  20216267.37448
  24435285.315 3   -347778.285 3   -259148.16445  24435284.11645
  23766235.003 5   1116226.559 5    857861.50446  23766230.23046
  23068128.605 5  -7345028.777 5  -5686985.93046  23068124.46446
  20706169.706 7    819561.773 7    635114.32848  20706170.65548
  21355524.526 6  -7524111.738 6  -5843565.05148  21355524.83948
  21493059.222 7   -150762.094 7   -118392.80148  21493056.92548
  23356797.144 3   4773020.789 3   3707352.65245  23356799.50745
 18  5 30  0 53 24.9990000  0 10G03G14G16G21G22G23G26G27G31G32      -0.000154526
  23683314.081 5     50514.543 5     40151.60946  23683315.01546
  20896488.526 6   2000849.574 6   1554246.42248  20896486.23748
  20215534.034 7  -1948181.859 7  -1512669.95348  20215530.79648
  24433754.714 3   -355823.051 3   -265416.83645  24433753.28445
  23766875.136 5   1119591.762 5    860483.73446  23766870.84746
  23064396.190 5  -7364643.418 5  -5702270.07847  23064392.27647
  20706686.480 7    822277.746 7    637230.67248  20706687.63648
  21351742.683 6  -7543984.160 6  -5859050.05148  21351742.96048
  21492999.769 7   -151076.914 7   -118638.12948  21492996.84348
  23359351.308 4   4786443.270 4   3717811.70745  23359353.60845
 18  5 30  0 53 29.9990000  0 10G03G14G16G21G22G23G26G27G31G32      -0.000157190
  23683574.112 5     51880.258 5     41215.79747  23683574.49947
  20897872.214 6   2008121.207 6   1559912.61748  20897870.02648
  20214798.464 6  -1952044.340 6  -1515679.67248  20214795.67148
  24432224.378 4   -363863.809 4   -271682.35945  24432223.74145
  23767516.276 5   1122958.965 5    863107.50846  23767511.76946
  23060664.355 6  -7384252.840 6  -5717550.13746  23060660.28846
  20707204.050 7    824996.961 7    639349.55148  20707204.84348
  21347962.917 6  -7563849.180 6  -5874529.28548  21347962.94848
  21492940.026 7   -151389.074 7   -118881.36748  21492937.73348
  23361905.995 4   4799868.641 4   3728273.00845  23361908.38645
 18  5 30  0 53 34.9990000  0 10G03G14G16G21G22G23G26G27G31G32      -0.000159855
  23683834.019 5     53252.895 5     42285.40246  23683835.98746
  20899258.605 6   2015403.578 6   1565587.17648  20899256.03448
  20214065.472 6  -1955898.426 6  -1518682.85948  20214062.40548
  24430695.542 3   -371900.660 3   -277944.83645  24430694.26945
  23768157.776 5   1126328.125 5    865732.80946  23768153.24546
  23056933.831 5  -7403856.992 5  -5732826.10947  23056930.18747
  20707722.097 7    827719.363 7    641470.88748  20707722.87448
  21344183.933 6  -7583706.711 6  -5890002.68848  21344184.51148
  21492881.144 7   -151698.570 7   -119122.54348  21492878.55048
  23364462.190 4   4813296.992 4   3738736.64546  23364464.05446
 18  5 30  0 53 39.9990000  0 10G03G14G16G21G22G23G26G27G31G32      -0.000162523
  23684097.112 5     54630.898 5     43359.15246  23684098.64746
  20900645.355 6   2022694.996 6   1571268.80148  20900643.08548
  20213333.050 6  -1959745.707 6  -1521680.73448  20213330.28448
  24429166.386 4   -379935.156 4   -284205.44546  24429165.49946
  23768798.230 5   1129697.641 5    868358.41846  23768794.66346
  23053204.230 6  -7423457.492 6  -5748099.23447  23053200.70247
  20708240.558 7    830443.359 7    643593.48048  20708241.44848
  21340406.495 6  -7603558.445 6  -5905471.57848  21340406.61648
  21492822.401 7   -152006.992 7   -119362.87148  21492820.06948
  23367018.042 4   4826726.668 4   3749201.27746  23367019.48746
 18  5 30  0 53 44.9990000  0 10G03G14G16G21G22G23G26G27G31G32      -0.000165194
  23684361.073 5     56016.661 5     44438.96046  23684362.03846
  20902034.769 6   2029997.910 6   1576959.37148  20902032.88248
  20212602.698 7  -1963583.813 7  -1524671.46948  20212600.07348
  24427637.526 3   -387964.848 3   -290462.35246  24427637.45246
  23769439.597 5   1133069.961 5    870986.19946  23769435.72646
  23049475.425 5  -7443051.941 5  -5763367.62547  23049472.57347
  20708759.519 7    833171.391 7    645719.19948  20708760.55048
  21336630.253 6  -7623401.883 6  -5920933.98448  21336630.65948
  21492764.589 7   -152311.934 7   -119600.48848  21492762.12048
  23369573.878 5   4840160.039 5   3759668.82446  23369576.14046
 18  5 30  0 53 49.9990000  0 10G03G14G16G21G22G23G26G27G31G32      -0.000167862
  23684625.347 5     57410.207 5     45524.83246  23684627.18746
  20903427.542 6   2037312.449 6   1582659.01248  20903425.17148
  20211874.175 6  -1967412.625 6  -1527654.95748  20211871.35848
  24426110.831 3   -395989.637 3   -296715.42646  24426110.21046
  23770081.761 5   1136445.105 5    873616.14546  23770078.22646
  23045747.769 5  -7462640.180 5  -5778631.19547  23045744.66347
  20709279.581 7    835903.523 7    647848.12948  20709280.23348
  21332855.159 6  -7643236.934 6  -5936389.86748  21332856.29648
  21492707.323 7   -152613.250 7   -119835.28148  21492704.53048
  23372130.784 4   4853597.258 4   3770139.36745  23372132.93345
 18  5 30  0 53 54.9990000  0 10G03G14G16G21G22G23G26G27G31G32      -0.000170532
  23684892.472 5     58811.125 5     46616.45746  23684893.58146
  20904821.440 6   2044638.102 6   1588367.30148  20904819.06548
  20211147.769 7  -1971232.617 7  -1530631.57448  20211144.19048
  24424584.456 3   -404009.980 3   -302964.99246  24424584.44046
  23770724.800 5   1139822.617 5    876247.95346  23770721.05046
  23042021.526 5  -7482222.645 5  -5793890.26247  23042018.30847
  20709800.284 7    838639.293 7    649979.89548  20709800.92548
  21329082.839 6  -7663064.031 6  -5951839.54348  21329083.22648
  21492650.870 7   -152911.453 7   -120067.64848  21492647.84348
  23374688.894 3   4867037.813 3   3780612.50845  23374690.10145
 18  5 30  0 53 59.9990000  0 10G03G14G16G21G22G23G26G27G31G32      -0.000173203
  23685160.612 5     60218.922 5     47713.43846  23685161.41346
  20906217.565 6   2051974.371 6   1594083.86748  20906215.29248
  20210421.925 6  -1975044.262 6  -1533601.68848  20210419.03448
  24423059.573 4   -412026.316 4   -309211.48846  24423058.82746
  23771368.628 5   1143201.926 5    878881.17246  23771364.24146
  23038295.948 5  -7501799.859 5  -5809145.21947  23038292.66347
  20710321.362 7    841378.203 7    652114.11348  20710322.03448
  21325311.597 6  -7682883.656 6  -5967283.40248  21325311.20248
  21492594.597 7   -153207.012 7   -120297.96548  21492591.65148
  23377246.745 4   4880481.254 4   3791087.89846  23377248.67546
 18  5 30  0 54  4.9990000  0 10G03G14G16G21G22G23G26G27G31G32      -0.000175875
  23685429.878 5     61634.676 5     48816.61347  23685431.06947
  20907615.565 6   2059322.383 6   1599809.58248  20907613.33948
  20209698.581 6  -1978846.488 6  -1536564.45748  20209695.42948
  24421535.612 4   -420037.594 4   -315454.03945  24421534.15145
  23772011.972 5   1146584.234 5    881516.72746  23772008.04646
  23034572.628 5  -7521370.617 5  -5824395.15646  23034568.56946
  20710843.792 7    844121.355 7    654251.62548  20710844.22248
  21321540.847 6  -7702694.676 6  -5982720.55548  21321541.64048
  21492539.269 7   -153498.789 7   -120525.33648  21492535.97648
  23379805.620 3   4893928.578 3   3801566.27345  23379807.60545
 18  5 30  0 54  9.9990000  0 10G03G14G16G21G22G23G26G27G31G32      -0.000178547
  23685700.433 5     63057.230 5     49925.10246  23685701.81246
  20909015.925 6   2066680.914 6   1605543.49648  20909013.47648
  20208976.722 6  -1982640.473 6  -1539520.80948  20208973.44048
  24420010.925 4   -428044.922 4   -321693.51645  24420010.31245
  23772656.269 5   1149968.340 5    884153.69146  23772651.86246
  23030849.105 6  -7540936.137 6  -5839641.02047  23030845.37847
  20711366.120 7    846867.602 7    656391.55948  20711366.51148
  21317772.878 6  -7722498.285 6  -5998151.94548  21317773.13248
  21492484.136 7   -153787.922 7   -120750.64148  21492480.94048
  23382364.409 3   4907378.688 3   3812046.85245  23382367.32745
 18  5 30  0 54 14.9990000  0 10G03G14G16G21G22G23G26G27G31G32      -0.000181221
  23685972.237 5     64486.152 5     51038.53146  23685973.86646
  20910417.683 6   2074049.652 6   1611285.37148  20910415.76148
  20208255.901 6  -1986426.605 6  -1542471.04348  20208253.13648
  24418487.823 3   -436048.629 3   -327930.18445  24418487.40145
  23773300.019 5   1153353.832 5    886791.71146  23773296.11246
  23027126.761 6  -7560496.797 6  -5854883.09047  23027122.75747
  20711889.065 7    849616.520 7    658533.57848  20711889.88248
  21314005.683 6  -7742294.813 6  -6013577.82048  21314005.91348
  21492429.480 7   -154074.875 7   -120974.24248  21492426.27248
  23384924.378 3   4920831.172 3   3822529.32046  23384927.26146
 18  5 30  0 54 19.9990000  0 10G03G14G16G21G22G23G26G27G31G32      -0.000183895
  23686245.987 5     65922.344 5     52157.62146  23686247.06246
  20911822.284 6   2081429.410 6   1617035.82448  20911820.29248
  20207536.909 6  -1990204.035 6  -1545414.49248  20207533.98748
  24416966.675 3   -444047.957 3   -334163.37545  24416965.26945
  23773944.620 5   1156741.633 5    889431.55946  23773940.96846
  23023405.558 6  -7580051.688 6  -5870120.65247  23023401.70247
  20712413.128 7    852368.988 7    660678.35948  20712413.50748
  21310239.472 6  -7762083.367 6  -6028997.47748  21310239.74148
  21492375.323 7   -154358.672 7   -121195.37548  21492372.38648
  23387485.269 3   4934286.883 3   3833014.27345  23387487.69845
 18  5 30  0 54 24.9990000  0 10G03G14G16G21G22G23G26G27G31G32      -0.000186571
  23686519.933 5     67365.168 5     53281.91846  23686521.31246
  20913228.448 6   2088819.523 6   1622794.34448  20913226.63248
  20206820.097 7  -1993973.387 7  -1548351.66048  20206817.02648
  24415444.128 3   -452043.441 3   -340393.64145  24415443.79645
  23774589.495 5   1160131.074 5    892072.66446  23774586.11246
  23019685.776 6  -7599601.477 6  -5885354.25447  23019681.90947
  20712936.901 7    855124.367 7    662825.42248  20712937.82748
  21306475.315 6  -7781864.625 6  -6044411.43448  21306475.64048
  21492322.401 7   -154639.984 7   -121414.59048  21492318.72248
  23390045.855 4   4947745.191 4   3843501.23046  23390048.60546
 18  5 30  0 54 29.9990000  0 10G03G14G16G21G22G23G26G27G31G32      -0.000189247
  23686795.909 5     68814.809 5     54411.49646  23686797.33146
  20914637.034 6   2096220.313 6   1628561.18848  20914634.89448
  20206104.417 6  -1997734.359 6  -1551282.28548  20206100.86248
  24413922.597 3   -460034.836 3   -346620.68845  24413922.96445
  23775234.362 5   1163522.418 5    894715.24246  23775231.33146
  23015966.331 6  -7619145.852 6  -5900583.63747  23015962.65147
  20713462.183 7    857882.902 7    664974.93848  20713462.85148
  21302712.636 6  -7801638.215 6  -6059819.40648  21302713.30048
  21492268.636 7   -154918.531 7   -121631.63748  21492265.72648
  23392608.105 4   4961206.355 4   3853990.43046  23392610.23046
 18  5 30  0 54 34.9990000  0 10G03G14G16G21G22G23G26G27G31G32      -0.000191925
  23687073.409 5     70270.641 5     55545.89547  23687074.40947
  20916047.058 6   2103631.020 6   1634335.75848  20916044.73748
  20205390.065 6  -2001487.680 6  -1554206.94948  20205386.82348
  24412403.214 3   -468022.777 3   -352845.02745  24412402.86645
  23775880.737 5   1166914.934 5    897358.79346  23775876.71846
  23012247.487 6  -7638685.426 6  -5915809.27047  23012244.45247
  20713987.159 7    860643.898 7    667126.36748  20713988.47648
  21298951.019 6  -7821404.871 6  -6075221.98448  21298951.90148
  21492216.300 7   -155195.020 7   -121847.07848  21492213.09348
  23395170.550 3   4974669.664 3   3864481.30546  23395172.23346
 18  5 30  0 54 39.9990000  0 10G03G14G16G21G22G23G26G27G31G32      -0.000194605
  23687352.972 5     71733.426 5     56685.71646  23687353.28046
  20917458.823 6   2111052.375 6   1640118.62548  20917457.40148
  20204677.222 7  -2005232.652 7  -1557125.11748  20204673.98748
  24410884.448 3   -476006.590 3   -359066.18845  24410883.50745
  23776526.737 5   1170309.324 5    900003.74246  23776522.93746
  23008530.472 5  -7658219.531 5  -5931030.64547  23008527.71447
  20714513.605 7    863408.063 7    669280.25448  20714514.34348
  21295191.433 6  -7841163.832 6  -6090618.57848  21295191.71848
  21492164.065 7   -155468.703 7   -122060.34448  21492161.44848
  23397732.253 3   4988135.848 3   3874974.40246  23397734.73046
 18  5 30  0 54 44.9990000  0 10G03G14G16G21G22G23G26G27G31G32      -0.000197285
  23687631.886 6     73202.949 6     57830.80146  23687632.68346
  20918873.542 6   2118484.398 6   1645909.80548  20918871.74548
  20203966.394 6  -2008969.262 6  -1560036.76648  20203963.28048
  24409365.222 3   -483986.160 3   -365283.99246  24409364.99146
  23777173.526 6   1173705.559 6    902650.15646  23777169.21846
  23004813.511 5  -7677748.184 5  -5946247.75047  23004811.38247
  20715040.058 7    866175.395 7    671436.60948  20715040.89748
  21291433.440 6  -7860915.141 6  -6106009.20748  21291433.53448
  21492112.433 7   -155739.586 7   -122271.41848  21492109.44448
  23400296.245 4   5001604.859 4   3885469.69946  23400297.96846
 18  5 30  0 54 49.9990000  0 10G03G14G16G21G22G23G26G27G31G32      -0.000199966
  23687912.222 5     74678.609 5     58980.66447  23687913.15947
  20920289.940 6   2125926.277 6   1651708.66848  20920287.69448
  20203256.628 7  -2012698.195 7  -1562942.42648  20203253.24548
  24407848.323 3   -491962.379 3   -371499.24645  24407847.15145
  23777819.667 5   1177102.883 5    905297.41846  23777814.56246
  23001098.940 6  -7697272.129 6  -5961461.18047  23001096.17147
  20715567.315 7    868945.113 7    673594.83248  20715567.90948
  21287675.698 6  -7880659.461 6  -6121394.39148  21287675.75348
  21492061.487 7   -156008.438 7   -122480.91848  21492058.09748
  23402860.565 4   5015075.930 4   3895966.60246  23402861.92546
 18  5 30  0 54 54.9990000  0 10G03G14G16G21G22G23G26G27G31G32      -0.000202650
  23688195.222 5     76161.066 5     60135.82047  23688194.83947
  20921707.612 6   2133378.746 6   1657515.77748  20921705.88248
  20202549.065 6  -2016418.852 6  -1565841.64548  20202545.37848
  24406330.862 4   -499934.410 4   -377711.21145  24406330.48045
  23778466.573 5   1180502.000 5    907946.08646  23778461.83146
  22997384.300 6  -7716790.625 6  -5976670.41447  22997381.66747
  20716094.925 7    871717.949 7    675755.48448  20716095.51948
  21283920.394 6  -7900396.113 6  -6136773.59848  21283920.03448
  21492010.972 7   -156274.523 7   -122688.25048  21492007.95648
  23405423.761 4   5028549.809 4   3906465.73046  23405425.95246
 18  5 30  0 54 59.9990000  0 10G03G14G16G21G22G23G26G27G31G32      -0.000205334
  23688478.292 6     77650.781 6     61296.64147  23688478.23347
  20923128.472 6   2140842.301 6   1663331.53148  20923126.14748
  20201842.761 6  -2020130.734 6  -1568734.02048  20201839.13248
  24404815.003 4   -507901.785 4   -383919.59845  24404813.40945
  23779113.917 6   1183903.395 6    910596.50846  23779109.31546
  22993672.042 6  -7736303.141 6  -5991874.97347  22993668.35147
  20716623.394 7    874494.363 7    677918.91848  20716623.95248
  21280165.433 6  -7920124.609 6  -6152146.44548  21280165.75748
  21491960.401 7   -156537.355 7   -122893.06648  21491957.83948
  23407989.105 5   5042026.938 5   3916967.30146  23407990.55846
 18  5 30  0 55  4.9990000  0 10G03G14G16G21G22G23G26G27G31G32      -0.000208017
  23688763.300 6     79147.820 6     62463.17646  23688762.92546
  20924550.761 6   2148316.984 6   1669155.95348  20924548.61648
  20201137.355 7  -2023833.797 7  -1571619.52348  20201134.23348
  24403299.862 4   -515864.543 4   -390124.28945  24403298.55845
  23779761.409 5   1187307.109 5    913248.75446  23779756.72246
  22989960.573 6  -7755809.578 6  -6007074.78147  22989956.25747
  20717152.409 7    877274.402 7    680085.16448  20717153.01148
  21276413.511 6  -7939844.844 6  -6167512.86348  21276413.55848
  21491911.253 7   -156796.883 7   -123095.28948  21491908.25348
  23410554.253 4   5055507.328 4   3927471.50846  23410555.49946
 18  5 30  0 55  9.9990000  0 10G03G14G16G21G22G23G26G27G31G32      -0.000210703
  23689049.558 6     80651.555 6     63634.91047  23689049.32747
  20925975.159 6   2155802.148 6   1674988.53948  20925972.89448
  20200434.456 6  -2027528.668 6  -1574498.65248  20200431.12848
  24401784.511 3   -523823.199 3   -396325.82846  24401784.19446
  23780409.862 6   1190712.508 6    915902.29746  23780404.61246
  22986249.355 6  -7775310.574 6  -6022270.36747  22986245.16747
  20717682.144 7    880057.461 7    682253.78148  20717682.73748
  21272662.175 6  -7959557.438 6  -6182873.31648  21272662.03448
  21491862.456 7   -157053.691 7   -123295.41448  21491859.69048
  23413119.714 5   5068990.391 5   3937977.77745  23413121.73345
 18  5 30  0 55 14.9990000  0 10G03G14G16G21G22G23G26G27G31G32      -0.000213390
  23689336.362 6     82160.727 6     64810.88746  23689336.63246
  20927401.198 6   2163296.582 6   1680828.35548  20927398.75748
  20199732.870 7  -2031216.602 7  -1577372.37148  20199729.29248
  24400270.409 3   -531778.992 3   -402525.12545  24400270.12445
  23781057.972 6   1194118.332 6    918556.19546  23781052.61246
  22982538.394 5  -7794807.410 5  -6037462.71547  22982534.24147
  20718211.511 7    882842.270 7    684423.75848  20718212.39748
  21268912.128 6  -7979263.590 6  -6198228.76248  21268912.43748
  21491813.855 7   -157309.035 7   -123494.38348  21491811.02648
  23415685.925 4   5082474.926 4   3948485.20345  23415687.48745
 18  5 30  0 55 19.9990000  0 10G03G14G16G21G22G23G26G27G31G32      -0.000216078
  23689625.565 6     83677.793 6     65993.01246  23689626.09346
  20928829.534 6   2170802.688 6   1686677.26648  20928826.92948
  20199032.034 6  -2034895.098 6  -1580238.72748  20199029.33548
  24398757.144 3   -539729.398 3   -408720.24646  24398756.92946
  23781705.519 5   1197527.102 5    921212.37546  23781701.80446
  22978829.761 6  -7814297.555 6  -6052649.82847  22978825.48347
  20718742.565 7    885631.316 7    686597.04748  20718743.41748
  21265163.901 6  -7998960.852 6  -6213577.27748  21265164.38248
  21491765.980 7   -157560.430 7   -123690.27748  21491763.14748
  23418251.909 4   5095963.316 4   3958995.57445  23418254.39445
 18  5 30  0 55 24.9990000  0 10G03G14G16G21G22G23G26G27G31G32      -0.000218765
  23689914.433 5     85200.914 5     67179.84846  23689915.67546
  20930259.855 6   2178318.613 6   1692533.82448  20930257.51548
  20198334.253 6  -2038566.066 6  -1583099.22748  20198330.54648
  24397245.105 3   -547676.344 3   -414912.64545  24397244.83145
  23782354.612 5   1200936.898 5    923869.32046  23782351.18346
  22975121.417 6  -7833782.832 6  -6067833.18047  22975117.48747
  20719273.644 7    888422.715 7    688772.15248  20719274.19448
  21261417.144 6  -8018651.043 6  -6228920.28548  21261416.77248
  21491718.761 7   -157809.715 7   -123884.52748  21491715.76548
  23420819.831 4   5109453.711 4   3969507.53945  23420821.45645
 18  5 30  0 55 29.9990000  0 10G03G14G16G21G22G23G26G27G31G32      -0.000221455
  23690205.565 5     86731.148 5     68372.23046  23690206.58546
  20931692.386 6   2185845.539 6   1698398.96148  20931689.93748
  20197637.519 6  -2042228.348 6  -1585952.95748  20197634.28848
  24395733.987 3   -555618.605 3   -421101.41045  24395733.28045
  23783004.073 5   1204348.828 5    926527.95746  23783000.73746
  22971415.605 6  -7853262.172 6  -6083011.89847  22971410.76147
  20719805.761 7    891217.641 7    690950.01648  20719806.30048
  21257671.526 6  -8038333.031 6  -6244256.89848  21257671.69448
  21491671.901 7   -158055.797 7   -124076.28548  21491668.88248
  23423387.503 4   5122947.238 4   3980021.98045  23423388.93345
 18  5 30  0 55 34.9990000  0 10G03G14G16G21G22G23G26G27G31G32      -0.000224146
  23690498.495 5     88268.426 5     69570.12146  23690499.32746
  20933126.558 6   2193383.363 6   1704272.57848  20933124.42548
  20196942.073 6  -2045882.043 6  -1588800.00048  20196938.54648
  24394223.597 3   -563556.273 3   -427286.60945  24394222.67145
  23783653.581 5   1207762.840 5    929188.23046  23783650.53446
  22967709.144 6  -7872735.566 6  -6098185.96947  22967705.87847
  20720338.190 7    894015.957 7    693130.52048  20720338.88248
  21253927.573 6  -8058006.863 6  -6259587.15248  21253927.62448
  21491625.706 7   -158298.668 7   -124265.53948  21491622.64448
  23425955.683 4   5136443.828 4   3990538.73845  23425957.13645
 18  5 30  0 55 39.9990000  0 10G03G14G16G21G22G23G26G27G31G32      -0.000226837
  23690791.237 5     89812.965 5     70773.64146  23690793.08146
  20934563.206 6   2200932.137 6   1710154.73448  20934560.74548
  20196248.917 7  -2049527.016 7  -1591640.24248  20196245.21448
  24392713.698 3   -571489.309 3   -433468.16845  24392713.30445
  23784303.878 5   1211179.027 5    931850.18446  23784300.75746
  22964004.909 6  -7892202.867 6  -6113355.27347  22964001.25347
  20720871.495 7    896817.789 7    695313.77048  20720871.67948
  21250184.964 6  -8077672.438 6  -6274910.96548  21250185.51948
  21491580.565 7   -158538.250 7   -124452.23848  21491577.24948
  23428525.003 4   5149943.586 4   4001058.02045  23428526.14745
 18  5 30  0 55 44.9990000  0 10G03G14G16G21G22G23G26G27G31G32      -0.000229530
  23691086.980 5     91363.918 5     71982.17246  23691088.24546
  20936001.128 6   2208491.199 6   1716044.89848  20935999.43348
  20195556.284 7  -2053163.973 7  -1594474.23448  20195553.04648
  24391205.706 3   -579418.270 3   -439646.57045  24391204.32345
  23784954.300 5   1214596.664 5    934513.26246  23784951.01546
  22960301.839 6  -7911664.809 6  -6128520.43047  22960297.94047
  20721404.925 7    899622.453 7    697499.22348  20721405.66748
  21246444.761 6  -8097330.391 6  -6290228.84848  21246444.44048
  21491535.081 7   -158775.211 7   -124636.87948  21491531.79248
  23431093.511 4   5163445.750 4   4011579.22745  23431095.71445
 18  5 30  0 55 49.9990000  0 10G03G14G16G21G22G23G26G27G31G32      -0.000232224
  23691382.980 5     92920.770 5     73195.29346  23691384.15946
  20937442.261 6   2216059.969 6   1721942.64148  20937439.50748
  20194865.753 7  -2056793.516 7  -1597302.46148  20194862.22248
  24389697.542 3   -587343.781 3   -445822.31645  24389696.30445
  23785604.495 5   1218015.160 5    937177.00046  23785601.40546
  22956598.948 6  -7931122.012 6  -6143681.89147  22956595.64747
  20721939.003 7    902429.309 7    699686.38748  20721939.73348
  21242705.737 6  -8116981.324 6  -6305541.26248  21242704.92548
  21491490.448 7   -159010.066 7   -124819.89848  21491487.05048
  23433663.089 4   5176949.797 4   4022101.75045  23433665.65145
 18  5 30  0 55 54.9990000  0 10G03G14G16G21G22G23G26G27G31G32      -0.000234919
  23691681.276 5     94484.730 5     74413.95346  23691681.68746
  20938884.058 6   2223639.734 6   1727848.94548  20938881.96048
  20194176.120 6  -2060414.402 6  -1600123.93448  20194173.17148
  24388190.355 4   -595264.543 4   -451994.32045  24388188.38645
  23786255.425 5   1221435.789 5    939842.43046  23786251.71846
  22952897.839 6  -7950573.051 6  -6158838.55147  22952894.14047
  20722473.651 7    905239.688 7    701876.28948  20722474.65548
  21238967.980 6  -8136623.938 6  -6320847.20348  21238967.61248
  21491446.151 7   -159241.641 7   -125000.34448  21491443.10848
  23436233.183 4   5190456.957 4   4032626.84845  23436235.64045
 18  5 30  0 55 59.9990000  0 10G03G14G16G21G22G23G26G27G31G32      -0.000237614
  23691980.105 5     96054.809 5     75637.40246  23691980.86246
  20940328.886 6   2231229.457 6   1733763.00448  20940325.93348
  20193488.550 7  -2064027.594 7  -1602939.40248  20193485.55848
  24386683.901 3   -603181.641 3   -458163.47345  24386682.41345
  23786906.659 5   1224857.496 5    942508.68446  23786902.86246
  22949197.042 6  -7970018.988 6  -6173991.23447  22949193.22247
  20723009.034 7    908052.473 7    704068.07048  20723009.83148
  21235231.308 6  -8156259.230 6  -6336147.43448  21235230.47248
  21491402.956 7   -159470.996 7   -125179.07048  21491399.69448
  23438803.901 3   5203966.184 3   4043153.48445  23438806.79245
 18  5 30  0 56  4.9990000  0 10G03G14G16G21G22G23G26G27G31G32      -0.000240313
  23692280.042 5     97630.145 5     76864.91446  23692280.76146
  20941774.284 6   2238828.297 6   1739684.17248  20941771.96848
  20192802.792 6  -2067633.965 6  -1605749.56648  20192799.48348
  24385177.800 4   -611095.832 4   -464330.35945  24385176.32745
  23787557.151 5   1228279.504 5    945175.16046  23787553.56546
  22945497.237 6  -7989460.688 6  -6189140.60247  22945493.57347
  20723544.589 7    910866.887 7    706261.12148  20723545.45648
  21231495.847 6  -8175888.047 6  -6351442.61748  21231495.85148
  21491358.886 7   -159698.875 7   -125356.63348  21491356.21048
  23441374.206 3   5217476.645 3   4053681.10945  23441377.76545
 18  5 30  0 56  9.9990000  0 10G03G14G16G21G22G23G26G27G31G32      -0.000243011
  23692580.987 5     99212.684 5     78098.05546  23692582.21446
  20943222.308 6   2246438.164 6   1745613.93848  20943220.23348
  20192118.042 6  -2071231.590 6  -1608552.92248  20192114.81948
  24383672.659 3   -619005.152 3   -470493.46545  24383670.45645
  23788209.464 5   1231703.695 5    947843.35546  23788204.60846
  22941798.831 6  -8008896.159 6  -6204285.11047  22941795.12447
  20724081.034 7    913684.887 7    708456.96148  20724081.65548
  21227762.042 6  -8195508.398 6  -6366731.20348  21227762.33148
  21491317.190 7   -159923.387 7   -125531.59048  21491313.43348
  23443945.987 3   5230990.313 3   4064211.18445  23443949.27245
 18  5 30  0 56 14.9990000  0 10G03G14G16G21G22G23G26G27G31G32      -0.000245710
  23692883.339 5    100801.102 5     79335.77047  23692884.06947
  20944672.456 6   2254057.742 6   1751551.25848  20944669.96848
  20191435.089 6  -2074821.766 6  -1611350.45748  20191431.61248
  24382168.058 3   -626910.941 3   -476653.84045  24382166.44845
  23788861.081 5   1235128.758 5    950512.23846  23788856.27246
  22938101.315 6  -8028326.637 6  -6219425.73047  22938097.33547
  20724617.659 7    916505.098 7    710654.53148  20724618.60848
  21224029.940 6  -8215121.625 6  -6382014.22348  21224029.68748
  21491274.308 7   -160145.820 7   -125704.91448  21491270.80848
  23446518.940 3   5244505.848 3   4074742.75445  23446521.65145
 18  5 30  0 56 19.9990000  0 10G03G14G16G21G22G23G26G27G31G32      -0.000248411
  23693187.511 5    102396.902 5     80579.25846  23693187.87046
  20946124.308 6   2261688.570 6   1757497.35548  20946122.19448
  20190753.753 7  -2078402.977 7  -1614141.01248  20190750.26148
  24380663.628 3   -634811.555 3   -482810.10946  24380662.94446
  23789514.190 5   1238556.266 5    953183.02346  23789508.59746
  22934405.019 6  -8047750.629 6  -6234561.29347  22934401.17147
  20725154.667 7    919329.113 7    712855.06348  20725155.37048
  21220299.323 6  -8234726.105 6  -6397290.43848  21220298.97248
  21491232.847 7   -160364.578 7   -125875.37148  21491229.56248
  23449090.722 2   5258024.730 2   4085276.90245  23449094.14445
 18  5 30  0 56 24.9990000  0 10G03G14G16G21G22G23G26G27G31G32      -0.000251114
  23693492.581 5    103999.652 5     81828.12546  23693492.71046
  20947578.886 6   2269330.148 6   1763451.82448  20947576.66748
  20190073.480 6  -2081975.738 6  -1616924.98848  20190070.06948
  24379160.706 3   -642707.566 3   -488962.84046  24379160.96446
  23790166.034 5   1241985.660 5    955855.27746  23790161.48046
  22930710.065 6  -8067168.605 6  -6249692.18047  22930706.46847
  20725692.956 7    922156.391 7    715058.12948  20725693.56548
  21216570.417 6  -8254322.332 6  -6412560.21948  21216570.04248
  21491191.237 7   -160580.188 7   -126043.37548  21491188.39748
  23451663.831 2   5271546.551 2   4095813.37145  23451667.78045
 18  5 30  0 56 29.9990000  0 10G03G14G16G21G22G23G26G27G31G32      -0.000253817
  23693798.784 5    105608.422 5     83081.69946  23693798.59346
  20949034.737 6   2276981.648 6   1769414.03148  20949032.78048
  20189395.175 6  -2085540.820 6  -1619702.98048  20189391.86248
  24377660.323 3   -650599.715 3   -495112.55546  24377659.28446
  23790819.487 5   1245416.113 5    958528.34046  23790814.47246
  22927015.706 6  -8086581.426 6  -6264819.04747  22927011.87847
  20726231.534 7    924986.109 7    717263.10548  20726232.35548
  21212843.058 6  -8273911.156 6  -6427824.25048  21212842.51948
  21491151.112 7   -160793.418 7   -126209.53148  21491147.73048
  23454237.831 3   5285070.402 3   4106351.42245  23454240.84345
 18  5 30  0 56 34.9990000  0 10G03G14G16G21G22G23G26G27G31G32      -0.000256519
  23694105.605 5    107224.504 5     84341.00446  23694106.71846
  20950493.284 6   2284644.320 6   1775384.93048  20950490.96048
  20188718.526 6  -2089097.035 6  -1622474.05148  20188715.48748
  24376159.105 3   -658486.836 3   -501258.34045  24376158.40545
  23791471.558 4   1248848.785 4    961203.16046  23791467.71446
  22923323.300 6  -8105987.813 6  -6279940.91447  22923319.76147
  20726770.651 7    927819.484 7    719470.92248  20726771.43748
  21209116.362 6  -8293491.309 6  -6443081.51648  21209116.51948
  21491111.253 7   -161003.090 7   -126372.91848  21491107.99148
  23456811.144 3   5298597.473 3   4116891.98045  23456815.21045
 18  5 30  0 56 39.9990000  0 10G03G14G16G21G22G23G26G27G31G32      -0.000259224
  23694415.214 5    108847.723 5     85605.85947  23694415.27647
  20951953.550 6   2292317.906 6   1781364.33648  20951950.98048
  20188043.347 6  -2092644.547 6  -1625238.35248  20188040.40948
  24374658.972 3   -666369.055 3   -507400.34846  24374658.51146
  23792125.362 5   1252283.609 5    963879.62146  23792121.40146
  22919631.526 6  -8125387.918 6  -6295057.88347  22919628.12047
  20727310.878 7    930656.379 7    721681.48448  20727311.28048
  21205392.362 6  -8313062.957 6  -6458332.15248  21205392.46848
  21491071.659 7   -161209.344 7   -126533.63348  21491068.56248
  23459386.339 3   5312127.672 3   4127435.01245  23459389.96445
 18  5 30  0 56 44.9990000  0 10G03G14G16G21G22G23G26G27G31G32      -0.000261929
  23694725.144 5    110477.602 5     86875.87146  23694725.36246
  20953414.917 6   2300001.980 6   1787351.92648  20953413.19848
  20187370.276 6  -2096183.773 6  -1627996.19948  20187366.44448
  24373161.097 3   -674246.781 3   -513538.81646  24373159.19846
  23792779.151 5   1255720.051 5    966557.34846  23792775.55846
  22915940.519 6  -8144782.168 6  -6310170.29347  22915937.73747
  20727850.675 7    933496.285 7    723894.39848  20727851.89748
  21201669.089 6  -8332626.496 6  -6473576.46548  21201669.50748
  21491033.276 7   -161412.621 7   -126692.03948  21491029.77248
  23461961.183 3   5325660.516 3   4137980.04745  23461965.30045
 18  5 30  0 56 49.9990000  0 10G03G14G16G21G22G23G26G27G31G32      -0.000264635
  23695035.784 5    112113.930 5     88150.93046  23695036.48346
  20954879.651 6   2307696.363 6   1793347.53148  20954877.19048
  20186698.081 6  -2099714.977 6  -1630747.79348  20186694.69848
  24371661.378 3   -682120.207 3   -519673.96145  24371661.55445
  23793433.987 4   1259157.988 4    969236.26646  23793430.18346
  22912250.222 6  -8164170.723 6  -6325278.25847  22912248.03047
  20728391.675 7    936339.074 7    726109.55948  20728392.39748
  21197948.003 6  -8352182.137 6  -6488814.61348  21197948.26148
  21490995.300 7   -161613.105 7   -126848.25848  21490991.74548
  23464537.612 3   5339195.855 3   4148527.01645  23464540.72245
 18  5 30  0 56 54.9990000  0 10G03G14G16G21G22G23G26G27G31G32      -0.000267342
  23695348.401 5    113756.699 5     89431.00846  23695348.81546
  20956345.878 6   2315401.070 6   1799351.19948  20956343.35148
  20186027.636 6  -2103238.141 6  -1633493.11348  20186024.04248
  24370164.440 3   -689989.414 3   -525805.77345  24370164.48045
  23794088.706 4   1262597.309 4    971916.22746  23794084.60846
  22908562.120 5  -8183553.602 5  -6340381.78147  22908559.81247
  20728933.237 7    939184.688 7    728326.92648  20728934.03048
  21194228.331 6  -8371729.859 6  -6504046.59048  21194228.37048
  21490957.433 7   -161810.801 7   -127002.30948  21490953.95248
  23467114.659 4   5352733.539 4   4159075.87945  23467117.30845
