     2.10           OBSERVATION DATA    GPS(GPS)            RINEX VERSION / TYPE
cnvtToRINEX 3.07.0  convertToRINEX OPR  19-May-20 12:30 UTC PGM / RUN BY / DATE 
----------------------------------------------------------- COMMENT             
9038                                                        MARKER NAME         
9038                                                        MARKER NUMBER       
GNSS Observer       Trimble                                 OBSERVER / AGENCY   
0220327801          TRIMBLE 5700        2.32                REC # / TYPE / VERS 
                    TRM39105.00                             ANT # / TYPE        
 -3049879.4807  4927089.3666  2656211.9261                  APPROX POSITION XYZ 
       -0.0460        0.0000        0.0000                  ANTENNA: DELTA H/E/N
     1     1     0                                          WAVELENGTH FACT L1/2
     4    C1    L1    L2    P2                              # / TYPES OF OBSERV 
  2020     5    16     2     8   37.0000000     GPS         TIME OF FIRST OBS   
  2020     5    16     3     9   59.0000000     GPS         TIME OF LAST OBS    
     0                                                      RCV CLOCK OFFS APPL 
    18                                                      LEAP SECONDS        
     9                                                      # OF SATELLITES     
   G01  2620  2620  2620  2620                              PRN / # OF OBS      
   G04  3683  3678  3683  3683                              PRN / # OF OBS      
   G07  3469  3469  3463  3463                              PRN / # OF OBS      
   G08  3683  3683  3683  3683                              PRN / # OF OBS      
   G09  3683  3683  3683  3683                              PRN / # OF OBS      
   G11  3652  3652  3652  3652                              PRN / # OF OBS      
   G16  3683  3683  3683  3683                              PRN / # OF OBS      
   G26  1752  1704  1569  1569                              PRN / # OF OBS      
   G27  3683  3683  3683  3683                              PRN / # OF OBS      
CARRIER PHASE MEASUREMENTS: PHASE SHIFTS REMOVED            COMMENT             
                                                            END OF HEADER       
 20  5 16  2  8 37.0000000  0  6G04G08G09G16G26G27                   0.000047831
  21767090.50016       111.69916       -10.22258  21767088.46558
  20371622.84417    -38061.80117    -15271.82859  20371623.11359
  22752947.53116    -26114.21516     -5447.09059  22752945.73059
  21918154.76616     -2300.82416     -1179.91858  21918152.36358
  23473967.43815      2982.33615                
  20477663.07817      1546.13317       915.88759  20477662.31659
 20  5 16  2  8 38.0000000  0  6G04G08G09G16G26G27                   0.000046888
  21767089.211 6       104.082 6       -16.12847  21767087.39147
  20371231.633 7    -40117.785 7    -16873.89849  20371231.56349
  22752595.656 6    -27963.402 6     -6888.02749  22752594.33649
  21918122.891 6     -2467.988 6     -1310.18048  21918120.39148
  23474016.758 5      3241.223 5      1023.03157  23474017.77357
  20477672.781 7      1596.613 7       955.22349  20477672.37549
 20  5 16  2  8 39.0000000  0  6G04G08G09G16G26G27                   0.000045946
  21767087.039 5        94.441 5       -23.62147  21767085.71947
  20370840.250 7    -42175.738 7    -18477.50449  20370840.21949
  22752243.297 6    -29814.523 6     -8330.46549  22752241.92249
  21918090.633 6     -2637.676 6     -1442.40648  21918087.97748
  23474065.344 5      3497.566 5      1222.78547  23474066.36347
  20477682.180 7      1645.055 7       992.96549  20477681.41849
 20  5 16  2  8 40.0000000  0  6G04G08G09G16G26G27                   0.000045002
  21767085.023 6        82.859 6       -32.67247  21767083.29747
  20370448.047 7    -44235.602 7    -20082.59449  20370447.97349
  22751890.891 6    -31667.500 6     -9774.34849  22751889.16449
  21918057.672 6     -2809.730 6     -1576.48048  21918055.23448
  23474113.672 5      3751.520 5      1420.66847  23474114.78547
  20477691.094 7      1691.543 7      1029.18849  20477690.41049
 20  5 16  2  8 41.0000000  0  6G04G08G09G16G26G27                   0.000044056
  21767082.336 6        69.496 6       -43.09847  21767080.92647
  20370055.531 7    -46297.137 7    -21688.98449  20370055.85949
  22751537.648 6    -33522.133 6    -11219.51249  22751536.62949
  21918024.563 6     -2983.984 6     -1712.27048  21918022.09448
  23474161.547 5      4003.238 5      1616.81346  23474162.57846
  20477699.750 7      1736.242 7      1064.02349  20477699.00449
 20  5 16  2  8 42.0000000  0  6G04G08G09G16G26G27                   0.000043106
  21767079.531 6        54.305 6       -54.93847  21767077.84047
  20369663.211 7    -48360.488 7    -23296.78949  20369663.11349
  22751184.367 6    -35378.523 6    -12666.05149  22751183.58649
  21917991.352 6     -3160.543 6     -1849.84448  21917988.36348
  23474209.383 5      4252.664 5      1811.16047  23474210.02747
  20477707.523 7      1779.098 7      1097.41449  20477707.01649
 20  5 16  2  8 43.0000000  0  6G04G08G09G16G26G27                   0.000042158
  21767076.305 6        37.813 6       -67.78947  21767074.87147
  20369269.969 7    -50425.117 7    -24905.58649  20369270.30549
  22750830.766 6    -37236.160 6    -14113.55949  22750829.89849
  21917957.078 6     -3338.902 6     -1988.83248  21917954.40648
  23474256.484 5      4500.223 5      2004.06347  23474257.48047
  20477715.648 7      1820.570 7      1129.73449  20477715.13749
 20  5 16  2  8 44.0000000  0  6G04G08G09G16G26G27                   0.000041208
  21767072.867 6        19.667 6       -81.92447  21767071.13747
  20368876.852 7    -52491.305 7    -26515.60549  20368876.69149
  22750476.930 6    -39095.344 6    -15562.27349  22750476.18849
  21917923.180 6     -3519.336 6     -2129.43048  21917920.11748
  23474302.563 5      4745.754 5      2195.37547  23474304.15247
  20477723.273 7      1860.398 7      1160.76249  20477722.65249
 20  5 16  2  8 45.0000000  0  6G04G08G09G16G26G27                   0.000040257
  21767069.750 6         0.234 6       -97.06347  21767067.86347
  20368483.570 7    -54558.727 7    -28126.58249  20368483.67649
  22750122.836 6    -40955.672 6    -17011.87549  22750122.22349
  21917888.039 6     -3701.492 6     -2271.37148  21917885.51648
  23474349.125 5      4989.512 5      2385.30546  23474350.39146
  20477730.594 7      1898.945 7      1190.80149  20477730.28549
 20  5 16  2  8 46.0000000  0  6G04G08G09G16G26G27                   0.000039305
  21767065.383 6       -20.453 6      -113.19147  21767063.67647
  20368089.734 7    -56627.332 7    -29738.48049  20368090.16449
  22749769.250 6    -42817.195 6    -18462.41449  22749768.31649
  21917853.000 6     -3885.352 6     -2414.64548  21917850.15648
  23474395.797 5      5231.551 5      2573.91447  23474396.51647
  20477737.320 7      1936.211 7      1219.84449  20477737.13349
 20  5 16  2  8 47.0000000  0  6G04G08G09G16G26G27                   0.000038351
  21767060.695 6       -42.461 6      -130.34047  21767059.69147
  20367695.836 7    -58697.215 7    -31351.37949  20367696.25449
  22749414.211 6    -44679.914 6    -19913.88749  22749413.61749
  21917818.414 6     -4070.992 6     -2559.30148  21917815.60248
  23474441.039 5      5471.770 5      2761.10946  23474442.59846
  20477744.102 7      1972.156 7      1247.84849  20477743.99649
 20  5 16  2  8 48.0000000  0  6G04G08G09G16G26G27                   0.000037395
  21767056.672 6       -65.441 6      -148.24647  21767055.43847
  20367301.719 7    -60768.063 7    -32965.02749  20367302.27349
  22749059.758 6    -46543.605 6    -21366.11749  22749059.08249
  21917782.477 6     -4258.102 6     -2705.10548  21917779.45748
  23474486.367 5      5710.551 5      2947.16846  23474487.57446
  20477750.992 7      2007.031 7      1275.02349  20477750.69949
 20  5 16  2  8 49.0000000  0  6G04G08G09G16G26G27                   0.000036440
  21767051.641 6       -89.531 6      -167.01647  21767050.79347
  20366907.375 7    -62839.918 7    -34579.45749  20366907.55949
  22748704.820 6    -48408.266 6    -22819.09449  22748704.15249
  21917746.641 6     -4446.758 6     -2852.11348  21917743.84848
  23474531.414 5      5947.754 5      3132.00447  23474533.13347
  20477757.156 7      2040.824 7      1301.35249  20477756.73049
 20  5 16  2  8 50.0000000  0  6G04G08G09G16G26G27                   0.000035482
  21767046.992 6      -114.637 6      -186.58647  21767046.08647
  20366512.984 7    -64912.723 7    -36194.63349  20366513.44149
  22748349.797 6    -50273.820 6    -24272.76649  22748349.24649
  21917710.758 6     -4636.852 6     -3000.23848  21917707.64148
  23474576.625 5      6183.477 5      3315.67647  23474577.90647
  20477763.664 7      2073.590 7      1326.89149  20477763.03949
 20  5 16  2  8 51.0000000  0  6G04G08G09G16G26G27                   0.000034525
  21767042.016 6      -140.777 6      -206.96147  21767041.24247
  20366118.313 7    -66986.527 7    -37810.58649  20366119.05549
  22747995.102 6    -52140.344 6    -25727.19949  22747993.89149
  21917673.969 6     -4828.480 6     -3149.55948  21917670.71148
  23474620.945 5      6417.707 5      3498.18846  23474622.06646
  20477769.484 7      2105.289 7      1351.59049  20477769.06349
 20  5 16  2  8 52.0000000  0  6G04G08G09G16G26G27                   0.000033567
  21767036.680 6      -167.828 6      -228.04747  21767035.91447
  20365723.664 7    -69061.160 7    -39427.18449  20365724.33649
  22747638.961 6    -54007.664 6    -27182.25049  22747638.33249
  21917637.313 6     -5021.457 6     -3299.93448  21917634.37148
  23474664.984 5      6650.551 5      3679.62147  23474666.50047
  20477775.414 7      2136.063 7      1375.57049  20477775.18849
 20  5 16  2  8 53.0000000  0  6G04G08G09G16G26G27                   0.000032608
  21767031.750 6      -195.688 6      -249.75847  21767030.50847
  20365328.750 7    -71136.559 7    -41044.38749  20365329.04349
  22747283.594 6    -55875.762 6    -28637.91449  22747283.39549
  21917600.094 6     -5215.695 6     -3451.28948  21917597.23448
  23474709.156 5      6882.070 5      3860.02046  23474710.66446
  20477780.977 7      2165.992 7      1398.88749  20477780.70349
 20  5 16  2  8 54.0000000  0  6G04G08G09G16G26G27                   0.000031649
  21767026.102 6      -224.383 6      -272.12147  21767025.20347
  20364933.461 7    -73212.703 7    -42662.16449  20364934.08249
  22746928.477 6    -57744.531 6    -30094.10249  22746927.71549
  21917563.203 6     -5411.211 6     -3603.64148  21917559.94948
  23474752.797 5      7112.332 5      4039.44146  23474754.52346
  20477786.898 7      2195.090 7      1421.55949  20477786.15649
 20  5 16  2  8 55.0000000  0  6G04G08G09G16G26G27                   0.000030687
  21767021.047 6      -253.734 6      -294.98447  21767019.57847
  20364538.383 7    -75289.465 7    -44280.41849  20364538.75449
  22746572.344 6    -59613.930 6    -31550.77749  22746571.78149
  21917525.320 6     -5607.867 6     -3756.87548  21917522.34448
  23474796.789 5      7341.410 5      4217.94946  23474798.00846
  20477792.000 7      2223.496 7      1443.69149  20477791.50049
 20  5 16  2  8 56.0000000  0  6G04G08G09G16G26G27                   0.000029726
  21767014.625 6      -283.684 6      -318.32448  21767013.94548
  20364143.141 7    -77366.727 7    -45899.06349  20364143.55949
  22746216.898 6    -61483.758 6    -33007.78549  22746216.04349
  21917488.102 6     -5805.527 6     -3910.90248  21917484.95748
  23474839.414 5      7569.496 5      4395.68046  23474841.63346
  20477797.453 7      2251.309 7      1465.36349  20477796.98049
 20  5 16  2  8 57.0000000  0  6G04G08G09G16G26G27                   0.000028763
  21767008.828 6      -314.230 6      -342.12947  21767008.28947
  20363747.773 7    -79444.578 7    -47518.16049  20363748.10249
  22745860.797 6    -63354.141 6    -34465.22749  22745859.82849
  21917450.250 6     -6004.258 6     -4065.75848  21917447.17648
  23474883.320 5      7796.484 5      4572.55146  23474885.06646
  20477802.711 7      2278.465 7      1486.52349  20477802.30949
 20  5 16  2  8 58.0000000  0  6G04G08G09G16G26G27                   0.000027800
  21767003.773 5      -345.332 5      -366.35947  21767002.52047
  20363352.117 7    -81522.902 7    -49137.64149  20363352.73049
  22745504.617 6    -65224.969 6    -35923.01649  22745504.34049
  21917412.219 6     -6203.980 6     -4221.39548  21917409.25848
  23474926.570 5      8022.469 5      4748.64847  23474927.79347
  20477807.828 7      2305.090 7      1507.27049  20477807.18449
 20  5 16  2  8 59.0000000  0  6G04G08G09G16G26G27                   0.000026836
  21766997.102 6      -376.957 6      -391.01247  21766995.99647
  20362956.828 7    -83601.707 7    -50757.48049  20362956.94549
  22745148.430 6    -67096.266 6    -37381.16849  22745148.51649
  21917373.953 6     -6404.703 6     -4377.80148  21917370.67248
  23474968.844 5      8247.406 5      4923.91847  23474970.87147
  20477812.602 7      2331.121 7      1527.55549  20477812.10249
 20  5 16  2  9  0.0000000  0  6G04G08G09G16G26G27                   0.000025873
  21766991.102 6      -408.973 6      -415.96547  21766990.17647
  20362560.953 7    -85680.840 7    -52377.58249  20362561.39549
  22744792.633 6    -68967.801 6    -38839.50849  22744792.43449
  21917335.422 6     -6606.277 6     -4534.87148  21917332.35548
  23475012.148 5      8471.527 5      5098.55947  23475013.13747
  20477817.219 7      2356.762 7      1547.53549  20477817.34049
 20  5 16  2  9  1.0000000  0  6G04G08G09G16G26G27                   0.000024908
  21766984.992 6      -441.301 6      -441.15647  21766984.08647
  20362165.414 7    -87760.191 7    -53997.86349  20362165.80549
  22744436.539 6    -70839.590 6    -40298.03949  22744436.03149
  21917296.922 6     -6808.586 6     -4692.51248  21917294.12548
  23475054.188 5      8694.852 5      5272.56347  23475055.50047
  20477822.180 7      2382.086 7      1567.27349  20477821.78149
 20  5 16  2  9  2.0000000  0  6G04G08G09G16G26G27                   0.000023943
  21766978.875 6      -474.016 6      -466.64847  21766977.44147
  20361769.680 7    -89839.926 7    -55618.43449  20361769.79349
  22744079.992 6    -72711.676 6    -41756.81349  22744079.71149
  21917258.039 6     -7011.754 6     -4850.82048  21917255.50048
  23475096.023 5      8917.324 5      5445.92246  23475097.96946
  20477826.844 7      2406.996 7      1586.68049  20477826.81649
 20  5 16  2  9  3.0000000  0  6G04G08G09G16G26G27                   0.000022978
  21766972.609 6      -507.133 6      -492.45347  21766971.62947
  20361373.805 7    -91919.977 7    -57239.25049  20361374.07449
  22743723.422 6    -74584.066 6    -43215.82049  22743723.71149
  21917219.625 6     -7215.777 6     -5009.80148  21917216.77748
  23475138.570 5      9138.953 5      5618.61346  23475140.48046
  20477831.852 7      2431.484 7      1605.75849  20477831.62549
 20  5 16  2  9  4.0000000  0  6G04G08G09G16G26G27                   0.000022011
  21766965.992 6      -540.574 6      -518.51648  21766964.87548
  20360977.992 7    -94000.262 7    -58860.25049  20360978.25049
  22743367.117 6    -76456.652 6    -44674.98049  22743366.98449
  21917180.406 6     -7420.547 6     -5169.36748  21917177.71948
  23475181.219 5      9359.754 5      5790.66846  23475182.00846
  20477836.547 7      2455.633 7      1624.57449  20477835.63749
 20  5 16  2  9  5.0000000  0  6G04G08G09G16G26G27                   0.000021044
  21766959.672 6      -574.305 6      -544.79747  21766958.82047
  20360581.734 7    -96080.848 7    -60481.48449  20360582.45749
  22743011.078 6    -78329.488 6    -46134.33249  22743010.76249
  21917141.461 6     -7626.105 6     -5329.53948  21917138.63348
  23475223.313 5      9579.793 5      5962.13346  23475223.88346
  20477840.828 7      2479.457 7      1643.14149  20477840.41449
 20  5 16  2  9  6.0000000  0  6G04G08G09G16G26G27                   0.000020077
  21766953.156 6      -608.285 6      -571.28148  21766952.53148
  20360186.078 7    -98161.594 7    -62102.84449  20360186.32049
  22742654.195 6    -80202.484 6    -47593.81349  22742654.55949
  21917102.023 6     -7832.375 6     -5490.27048  21917099.52048
  23475264.305 5      9799.102 5      6133.02346  23475265.94546
  20477845.492 7      2502.988 7      1661.47749  20477844.54749
 20  5 16  2  9  7.0000000  0  6G04G08G09G16G26G27                   0.000019110
  21766946.891 6      -642.605 6      -598.03948  21766946.07448
  20359790.234 7   -100242.602 7    -63724.41049  20359790.48449
  22742297.766 6    -82075.699 6    -49053.46549  22742298.68049
  21917062.703 6     -8039.359 6     -5651.55148  21917060.14548
  23475305.930 5     10017.648 5      6303.32046  23475307.07846
  20477849.922 7      2526.203 7      1679.56349  20477849.41049
 20  5 16  2  9  8.0000000  0  7G04G08G09G11G16G26G27                0.000018141
  21766940.141 6      -677.074 6      -624.89847  21766938.84847
  20359393.891 7   -102323.762 7    -65346.09449  20359394.17649
  22741941.250 6    -83948.973 6    -50513.16449  22741941.53949
  22340934.44516   -157285.02016   -105206.37958  22340932.57458
  21917023.578 6     -8247.027 6     -5813.36748  21917020.56648
  23475347.625 5     10235.500 5      6473.07846  23475348.48046
  20477854.289 7      2549.219 7      1697.49649  20477853.35549
 20  5 16  2  9  9.0000000  0  7G04G08G09G11G16G26G27                0.000017176
  21766934.156 6      -711.762 6      -651.92247  21766933.29747
  20358997.773 7   -104405.016 7    -66967.84849  20358998.43049
  22741584.922 6    -85822.371 6    -51972.96149  22741585.03949
  22340052.313 6   -161919.496 6   -108817.66048  22340050.52048
  21916983.469 6     -8455.316 6     -5975.67248  21916980.85548
  23475388.992 5     10452.746 5      6642.36346  23475389.88746
  20477858.375 7      2572.023 7      1715.26649  20477857.89549
 20  5 16  2  9 10.0000000  0  7G04G08G09G11G16G26G27                0.000016207
  21766927.383 6      -746.648 6      -679.09848  21766926.50448
  20358601.547 7   -106486.441 7    -68589.74249  20358602.27049
  22741228.359 6    -87695.879 6    -53432.83649  22741228.80149
  22339170.703 6   -166554.461 6   -112429.32448  22339168.55948
  21916944.297 6     -8664.285 6     -6138.51248  21916941.15648
  23475430.336 5     10669.253 5      6811.07746  23475431.21946
  20477862.938 7      2594.586 7      1732.85249  20477862.23449
 20  5 16  2  9 11.0000000  0  7G04G08G09G11G16G26G27                0.000015236
  21766920.586 6      -781.684 6      -706.39848  21766919.68448
  20358205.609 7   -108567.934 7    -70211.69149  20358206.14549
  22740872.086 6    -89569.430 6    -54892.74649  22740872.50049
  22338288.469 6   -171189.789 6   -116041.27048  22338286.64148
  21916904.211 6     -8873.816 6     -6301.78548  21916901.36748
  23475471.102 5     10885.188 5      6979.32447  23475472.14547
  20477867.047 7      2617.020 7      1750.34049  20477866.62949
 20  5 16  2  9 12.0000000  0  7G04G08G09G11G16G26G27                0.000014267
  21766913.758 6      -816.879 6      -733.82847  21766913.06647
  20357809.875 7   -110649.566 7    -71833.74249  20357809.77749
  22740515.055 6    -91443.082 6    -56352.73449  22740515.59449
  22337406.383 6   -175825.520 6   -119653.52348  22337404.59448
  21916863.750 6     -9083.992 6     -6465.57048  21916861.21548
  23475512.086 5     11100.508 5      7147.08647  23475512.96947
  20477871.250 7      2639.227 7      1767.63749  20477870.69949
 20  5 16  2  9 13.0000000  0  7G04G08G09G11G16G26G27                0.000013296
  21766906.727 6      -852.152 6      -761.31648  21766906.00048
  20357413.664 7   -112731.203 7    -73455.79749  20357413.64849
  22740159.078 6    -93316.691 6    -57812.68449  22740159.16049
  22336524.523 6   -180461.563 6   -123266.02048  22336522.14848
  21916823.875 6     -9294.715 6     -6629.77348  21916821.18848
  23475553.109 5     11315.246 5      7314.40247  23475554.19147
  20477875.414 7      2661.340 7      1784.85949  20477874.90249
 20  5 16  2  9 14.0000000  0  7G04G08G09G11G16G26G27                0.000012325
  21766899.977 5      -887.609 5      -788.95347  21766899.40247
  20357017.375 7   -114812.957 7    -75077.93849  20357017.59849
  22739802.258 6    -95190.375 6    -59272.69549  22739802.25849
  22335641.680 6   -185098.012 6   -126878.83248  22335639.88348
  21916783.578 6     -9506.023 6     -6794.40248  21916781.17648
  23475593.844 5     11529.328 5      7481.21547  23475594.44947
  20477879.859 7      2683.270 7      1801.95749  20477879.05949
 20  5 16  2  9 15.0000000  0  7G04G08G09G11G16G26G27                0.000011354
  21766892.922 5      -923.188 5      -816.66847  21766893.07847
  20356621.195 7   -116894.770 7    -76700.13349  20356622.01649
  22739445.563 6    -97064.113 6    -60732.75449  22739446.20749
  22334759.352 6   -189734.809 6   -130491.92248  22334757.56648
  21916743.250 6     -9717.918 6     -6959.50448  21916740.75448
  23475634.477 5     11742.887 5      7647.63747  23475634.99247
  20477883.547 7      2705.078 7      1818.95349  20477883.23849
 20  5 16  2  9 16.0000000  0  7G04G08G09G11G16G26G27                0.000010384
  21766886.672 5      -958.715 5      -844.35248  21766886.02748
  20356225.023 7   -118976.473 7    -78322.23849  20356225.53949
  22739089.711 6    -98937.699 6    -62192.69149  22739089.81649
  22333877.875 6   -194371.836 6   -134105.19148  22333875.32448
  21916703.023 6     -9930.215 6     -7124.93048  21916700.40248
  23475674.281 5     11955.961 5      7813.67647  23475676.04747
  20477887.852 7      2726.875 7      1835.93849  20477887.39849
 20  5 16  2  9 17.0000000  0  7G04G08G09G11G16G26G27                0.000009413
  21766879.992 6      -994.426 6      -872.19148  21766879.10948
  20355828.828 7   -121058.301 7    -79944.44549  20355829.43049
  22738732.891 6   -100811.414 6    -63652.72749  22738733.00449
  22332994.547 6   -199009.242 6   -137718.75848  22332992.87948
  21916662.703 6    -10143.164 6     -7290.88348  21916659.71148
  23475715.531 5     12168.395 5      7979.20347  23475716.18447
  20477892.172 7      2748.473 7      1852.75449  20477891.34449
 20  5 16  2  9 18.0000000  0  7G04G08G09G11G16G26G27                0.000008440
  21766873.266 6     -1030.168 6      -900.04748  21766872.22748
  20355432.438 7   -123140.082 7    -81566.62549  20355432.90649
  22738375.766 6   -102684.980 6    -65112.64149  22738376.06649
  22332112.000 6   -203646.902 6   -141332.52748  22332110.92248
  21916621.836 6    -10356.574 6     -7457.18848  21916619.13748
  23475755.523 5     12380.332 5      8144.34047  23475756.59047
  20477896.164 7      2770.027 7      1869.53549  20477895.53549
 20  5 16  2  9 19.0000000  0  7G04G08G09G11G16G26G27                0.000007467
  21766866.344 5     -1066.008 5      -927.95747  21766865.52747
  20355036.398 7   -125221.934 7    -83188.84049  20355036.85549
  22738019.570 6   -104558.641 6    -66572.64149  22738019.71149
  22331229.469 6   -208284.949 6   -144946.59848  22331228.52348
  21916581.883 6    -10570.652 6     -7624.00048  21916578.34848
  23475795.414 3     12591.664 3      8309.03146  23475796.75846
  20477899.859 6      2791.445 6      1886.23849  20477899.70349
 20  5 16  2  9 20.0000000  0  7G04G08G09G11G16G26G27                0.000006495
  21766859.461 5     -1101.820 5      -955.85947  21766859.24647
  20354640.313 7   -127303.664 7    -84810.96149  20354640.70749
  22737662.883 6   -106432.133 6    -68032.51249  22737663.25449
  22330347.266 6   -212923.156 6   -148560.79348  22330345.77748
  21916540.547 6    -10785.008 6     -7791.00848  21916537.83648
  23475835.617 4     12802.637 4      8473.45746  23475836.99246
  20477904.320 7      2812.895 7      1902.96549  20477903.30949
 20  5 16  2  9 21.0000000  0  7G04G08G09G11G16G26G27                0.000005522
  21766852.695 5     -1137.758 5      -983.84447  21766852.05947
  20354244.164 7   -129385.477 7    -86433.15649  20354245.06649
  22737306.664 6   -108305.637 6    -69492.37949  22737306.90249
  22329464.844 6   -217561.742 6   -152175.27748  22329462.65648
  21916499.594 6    -10999.980 6     -7958.52348  21916496.94148
  23475876.336 4     13012.984 4      8637.34846  23475877.09446
  20477908.305 7      2834.191 7      1919.57049  20477907.74649
 20  5 16  2  9 22.0000000  0  7G04G08G09G11G16G26G27                0.000004547
  21766846.172 5     -1173.820 5     -1011.94948  21766845.22748
  20353847.797 7   -131467.367 7    -88055.40249  20353848.32049
  22736950.250 6   -110179.211 6    -70952.30949  22736950.23049
  22328581.641 6   -222200.652 6   -155790.00048  22328580.14548
  21916458.195 6    -11215.520 6     -8126.48848  21916455.78948
  23475916.289 4     13222.770 4      8800.81346  23475917.26246
  20477912.359 7      2855.344 7      1936.05149  20477911.96949
 20  5 16  2  9 23.0000000  0  7G04G08G09G11G16G26G27                0.000003574
  21766839.570 6     -1209.898 6     -1040.07048  21766838.80148
  20353451.672 7   -133549.223 7    -89677.62549  20353451.94949
  22736593.594 6   -112052.676 6    -72412.15249  22736593.91849
  22327698.977 6   -226839.840 6   -159404.94948  22327697.03148
  21916417.211 6    -11431.523 6     -8294.80148  21916414.55948
  23475956.070 4     13432.078 4      8963.89846  23475956.65246
  20477916.367 7      2876.473 7      1952.51249  20477916.10949
 20  5 16  2  9 24.0000000  0  7G04G08G09G11G16G26G27                0.000002600
  21766832.273 6     -1246.039 6     -1068.23448  21766831.57848
  20353055.609 7   -135631.098 7    -91299.86349  20353055.73449
  22736237.117 6   -113926.172 6    -73872.02749  22736237.22749
  22326816.008 6   -231479.383 6   -163020.16448  22326814.84448
  21916375.938 6    -11648.105 6     -8463.54347  21916373.45347
  23475995.578 3     13640.734 3      9126.50846  23475996.59846
  20477920.172 6      2897.473 6      1968.88349  20477919.61349
 20  5 16  2  9 25.0000000  0  7G04G08G09G11G16G26G27                0.000001625
  21766825.938 6     -1282.215 6     -1096.44548  21766824.85548
  20352659.797 7   -137712.938 7    -92922.08649  20352659.57849
  22735880.445 6   -115799.582 6    -75331.85249  22735880.73849
  22325932.820 6   -236119.148 6   -166635.57448  22325931.65248
  21916334.781 6    -11865.156 6     -8632.65247  21916332.34447
  23476034.516 3     13848.977 3      9288.75846  23476035.63346
  20477923.922 6      2918.430 6      1985.22749  20477923.35549
 20  5 16  2  9 26.0000000  0  7G04G08G09G11G16G26G27                0.000000650
  21766818.836 6     -1318.523 6     -1124.75048  21766818.18848
  20352263.398 7   -139794.836 7    -94544.34849  20352263.06649
  22735524.273 6   -117673.008 6    -76791.66049  22735524.27349
  22325050.273 6   -240759.234 6   -170251.22748  22325048.58248
  21916293.281 7    -12082.637 7     -8802.13747  21916290.66047
  23476073.914 4     14056.637 4      9450.52046  23476075.62546
  20477928.547 7      2939.281 7      2001.47349  20477927.79349
 20  5 16  2  9 27.0000000  0  7G04G08G09G11G16G26G27               -0.000000324
  21766811.609 6     -1354.762 6     -1152.97748  21766811.55548
  20351867.211 7   -141876.609 7    -96166.51249  20351867.77049
  22735167.508 6   -119546.270 6    -78251.34049  22735167.96949
  22324166.797 6   -245399.496 6   -173867.01648  22324165.41848
  21916251.945 6    -12300.629 6     -8972.03148  21916249.47348
  23476114.195 4     14263.898 4      9612.03146  23476115.12546
  20477932.516 7      2960.156 7      2017.73049  20477931.42649
 20  5 16  2  9 28.0000000  0  7G04G08G09G11G16G26G27               -0.000001301
  21766804.461 6     -1391.070 6     -1181.26647  21766804.21547
  20351471.219 7   -143958.387 7    -97788.66849  20351471.25849
  22734811.109 6   -121419.520 6    -79711.00449  22734811.33249
  22323283.664 6   -250040.082 6   -177483.05148  22323282.39848
  21916210.109 6    -12519.145 6     -9142.30547  21916207.72347
  23476153.883 4     14470.629 4      9773.14146  23476154.59446
  20477936.188 6      2980.957 6      2033.92649  20477935.20749
 20  5 16  2  9 29.0000000  0  7G04G08G09G11G16G26G27               -0.000002275
  21766797.547 6     -1427.406 6     -1209.57848  21766797.39148
  20351074.867 7   -146040.109 7    -99410.78949  20351075.15249
  22734454.508 6   -123292.680 6    -81170.60949  22734454.44549
  22322399.820 6   -254680.910 6   -181099.27748  22322399.02048
  21916168.469 6    -12738.125 6     -9312.89547  21916166.32847
  23476191.203 3     14676.848 3      9933.90245  23476193.61345
  20477940.414 6      3001.719 6      2050.11349  20477939.24649
 20  5 16  2  9 30.0000000  0  7G04G08G09G11G16G26G27               -0.000003252
  21766790.555 6     -1463.633 6     -1237.81348  21766790.70748
  20350678.867 7   -148121.648 7   -101032.76649  20350679.30149
  22734098.031 6   -125165.641 6    -82630.06349  22734098.55149
  22321516.898 6   -259321.875 6   -184715.61348  22321516.10948
  21916127.125 6    -12957.434 6     -9483.76247  21916124.68447
  23476231.000 4     14882.738 4     10094.35245  23476233.11345
  20477944.492 6      3022.520 6      2066.32449  20477943.55949
 20  5 16  2  9 31.0000000  0  7G04G08G09G11G16G26G27               -0.000004229
  21766783.805 6     -1499.875 6     -1266.05148  21766783.96148
  20350282.977 7   -150203.176 7   -102654.74649  20350282.88349
  22733741.516 6   -127038.555 6    -84089.47749  22733741.76649
  22320634.031 6   -263963.105 6   -188332.15248  22320632.54748
  21916084.758 6    -13177.227 6     -9655.02047  21916082.82447
  23476269.695 2     15088.090 2     10254.36745  23476272.62545
  20477947.867 6      3043.281 6      2082.50849  20477947.31349
 20  5 16  2  9 32.0000000  0  7G04G08G09G11G16G26G27               -0.000005205
  21766776.609 6     -1536.211 6     -1294.37148  21766776.97748
  20349886.883 7   -152284.699 7   -104276.70749  20349886.71149
  22733385.367 6   -128911.441 6    -85548.86349  22733385.24649
  22319750.539 6   -268604.645 6   -191948.94148  22319749.67248
  21916043.148 6    -13397.547 6     -9826.71147  21916040.86347
  23476309.789 3     15292.891 3     10413.89845  23476311.50045
  20477951.867 6      3063.977 6      2098.63749  20477951.48049
 20  5 16  2  9 33.0000000  0  7G04G08G09G11G16G26G27               -0.000006182
  21766769.969 6     -1572.387 6     -1322.56648  21766770.10948
  20349490.391 7   -154366.023 7   -105898.52349  20349490.92249
  22733028.547 6   -130784.102 6    -87008.07849  22733028.84849
  22318867.813 6   -273246.273 6   -195565.79348  22318866.37548
  21916001.281 6    -13618.156 6     -9998.61747  21915998.72747
  23476347.617 3     15497.457 3     10573.18045  23476350.84445
  20477955.773 6      3084.793 6      2114.86349  20477955.05149
 20  5 16  2  9 34.0000000  0  7G04G08G09G11G16G26G27               -0.000007160
  21766763.148 6     -1608.598 6     -1350.78148  21766762.96548
  20349094.648 7   -156447.313 7   -107520.30549  20349095.30149
  22732672.273 6   -132656.664 6    -88467.21549  22732672.62549
  22317984.445 6   -277888.125 6   -199182.81648  22317983.19148
  21915959.109 6    -13839.262 6    -10170.90647  21915957.10947
  23476386.648 3     15701.441 3     10732.09045  23476389.26645
  20477959.797 6      3105.551 6      2131.03549  20477959.42649
 20  5 16  2  9 35.0000000  0  7G04G08G09G11G16G26G27               -0.000008139
  21766756.141 6     -1644.824 6     -1379.00848  21766756.42248
  20348698.852 7   -158528.555 7   -109142.04749  20348699.17649
  22732316.281 6   -134529.141 6    -89926.27749  22732316.19549
  22317101.102 6   -282530.195 6   -202800.01248  22317099.41048
  21915917.188 6    -14060.672 6    -10343.46948  21915915.88348
  23476426.484 5     15904.973 5     10890.68445  23476428.32045
  20477964.102 7      3126.328 7      2147.20749  20477963.54349
 20  5 16  2  9 36.0000000  0  7G04G08G09G11G16G26G27               -0.000009115
  21766749.680 6     -1681.016 6     -1407.21148  21766749.10248
  20348303.000 7   -160609.754 7   -110763.77049  20348302.77049
  22731960.102 6   -136401.531 6    -91385.27349  22731960.09049
  22316217.906 6   -287172.539 6   -206417.43048  22316216.48848
  21915874.945 6    -14282.668 6    -10516.51648  21915872.94548
  23476465.055 5     16108.117 5     11049.03546  23476467.17246
  20477967.961 7      3147.047 7      2163.30949  20477967.74249
 20  5 16  2  9 37.0000000  0  7G04G08G09G11G16G26G27               -0.000010094
  21766743.109 6     -1717.332 6     -1435.50848  21766742.36748
  20347906.523 7   -162691.000 7   -112385.52349  20347906.84049
  22731603.813 6   -138273.918 6    -92844.27049  22731603.69549
  22315333.914 6   -291815.211 6   -210035.10248  22315332.67248
  21915832.250 6    -14505.230 6    -10689.97348  21915829.57048
  23476503.125 5     16310.609 5     11206.86346  23476505.57846
  20477971.609 7      3167.637 7      2179.33249  20477971.29349
 20  5 16  2  9 38.0000000  0  7G04G08G09G11G16G26G27               -0.000011072
  21766735.727 6     -1753.625 6     -1463.80148  21766734.96548
  20347510.328 7   -164772.145 7   -114007.19149  20347510.75049
  22731247.711 6   -140146.195 6    -94303.18849  22731247.44949
  22314450.359 6   -296458.094 6   -213652.92648  22314449.03948
  21915790.180 6    -14728.215 6    -10863.72748  21915787.45348
  23476542.094 5     16512.688 5     11364.34046  23476544.03146
  20477975.695 7      3188.242 7      2195.38749  20477975.02749
 20  5 16  2  9 39.0000000  0  7G04G08G09G11G16G26G27               -0.000012051
  21766728.813 6     -1789.730 6     -1491.93448  21766727.87548
  20347114.352 7   -166853.070 7   -115628.69149  20347114.74249
  22730891.016 6   -142018.199 6    -95761.89549  22730890.58249
  22313566.969 6   -301101.051 6   -217270.80548  22313565.39848
  21915747.617 6    -14951.516 6    -11037.70348  21915744.62948
  23476580.203 5     16714.465 5     11521.56647  23476581.62147
  20477979.742 7      3208.977 7      2211.55549  20477979.05549
 20  5 16  2  9 40.0000000  0  7G04G08G09G11G16G26G27               -0.000013031
  21766722.141 6     -1825.855 6     -1520.08648  21766721.70348
  20346718.539 7   -168933.922 7   -117250.13349  20346718.86349
  22730535.508 6   -143890.109 6    -97220.52749  22730534.96549
  22312683.305 6   -305744.238 6   -220888.87147  22312681.77347
  21915704.711 6    -15175.227 6    -11211.99648  21915701.78948
  23476618.508 5     16915.793 5     11678.44147  23476620.23447
  20477983.148 7      3229.719 7      2227.72749  20477982.71549
 20  5 16  2  9 41.0000000  0  7G04G08G09G11G16G26G27               -0.000014009
  21766715.352 6     -1861.898 6     -1548.17648  21766714.81648
  20346322.547 7   -171014.656 7   -118871.48449  20346323.02749
  22730178.539 6   -145761.836 6    -98679.01649  22730178.55949
  22311799.766 6   -310387.555 6   -224507.03148  22311798.58648
  21915662.461 6    -15399.281 6    -11386.56648  21915659.75448
  23476656.844 5     17116.680 5     11834.96547  23476658.66047
  20477987.469 7      3250.504 7      2243.93849  20477986.97749
 20  5 16  2  9 42.0000000  0  7G04G08G09G11G16G26G27               -0.000014990
  21766708.344 6     -1897.824 6     -1576.17648  21766707.81648
  20345926.578 7   -173095.195 7   -120492.68849  20345926.49249
  22729822.734 6   -147633.383 6   -100137.36349  22729822.55149
  22310916.383 6   -315030.984 6   -228125.28548  22310914.83248
  21915619.656 6    -15623.691 6    -11561.43848  21915616.94948
  23476694.703 5     17317.270 5     11991.25447  23476696.49247
  20477991.688 7      3271.379 7      2260.20749  20477990.99249
 20  5 16  2  9 43.0000000  0  7G04G08G09G11G16G26G27               -0.000015968
  21766701.445 6     -1933.855 6     -1604.25048  21766700.78548
  20345530.555 7   -175175.824 7   -122113.95749  20345530.93849
  22729466.508 6   -149504.961 6   -101595.73849  22729466.61749
  22310032.375 6   -319674.801 6   -231743.84048  22310030.79748
  21915576.867 6    -15848.680 6    -11736.76648  21915574.49648
  23476732.914 5     17517.211 5     12147.05547  23476734.80147
  20477995.367 7      3292.117 7      2276.36749  20477994.78549
 20  5 16  2  9 44.0000000  0  7G04G08G09G11G16G26G27               -0.000016951
  21766694.930 6     -1970.051 6     -1632.46148  21766694.18048
  20345134.930 7   -177256.547 7   -123735.30149  20345134.85549
  22729110.359 6   -151376.559 6   -103054.12149  22729110.22349
  22309148.766 6   -324318.969 6   -235362.67648  22309147.03548
  21915534.203 6    -16074.277 6    -11912.57448  21915531.18448
  23476770.875 5     17716.574 5     12302.40646  23476772.56346
  20477999.469 7      3312.688 7      2292.39149  20477998.66049
 20  5 16  2  9 45.0000000  0  7G04G08G09G11G16G26G27               -0.000017931
  21766687.859 6     -2006.195 6     -1660.62548  21766687.17648
  20344738.656 7   -179337.102 7   -125356.52049  20344739.12949
  22728754.859 6   -153247.996 6   -104512.38349  22728754.10949
  22308265.250 6   -328963.289 6   -238981.62948  22308263.33248
  21915491.164 6    -16300.246 6    -12088.67248  21915488.21548
  23476809.000 5     17915.555 5     12457.46946  23476810.19546
  20478003.352 7      3333.316 7      2308.45349  20478002.47349
 20  5 16  2  9 46.0000000  0  7G04G08G09G11G16G26G27               -0.000018911
  21766680.758 6     -2042.148 6     -1688.64848  21766680.27748
  20344343.086 7   -181417.449 7   -126977.56649  20344343.26649
  22728398.508 6   -155119.188 6   -105970.46149  22728398.26249
  22307381.445 6   -333607.691 6   -242600.64548  22307379.46148
  21915447.305 6    -16526.500 6    -12264.98048  21915445.11348
  23476845.922 4     18114.223 4     12612.28946  23476847.82046
  20478007.086 7      3354.070 7      2324.62149  20478006.82849
 20  5 16  2  9 47.0000000  0  7G04G08G09G11G16G26G27               -0.000019892
  21766674.133 6     -2077.973 6     -1716.56648  21766673.63348
  20343947.008 7   -183497.621 7   -128598.48049  20343947.16849
  22728042.125 6   -156990.148 6   -107428.35949  22728042.26249
  22306497.719 6   -338252.207 6   -246219.74648  22306495.67648
  21915404.820 6    -16753.074 6    -12441.53148  21915402.21548
  23476884.219 5     18312.570 5     12766.86746  23476885.84446
  20478011.305 7      3374.953 7      2340.89149  20478010.71949
 20  5 16  2  9 48.0000000  0  7G04G08G09G11G16G26G27               -0.000020874
  21766667.367 6     -2113.730 6     -1744.42648  21766666.79348
  20343551.234 7   -185577.625 7   -130219.25849  20343551.49649
  22727686.672 6   -158860.918 6   -108886.09849  22727686.16049
  22305613.500 6   -342896.824 6   -249838.92648  22305611.59048
  21915361.539 6    -16980.039 6    -12618.37948  21915358.87548
  23476922.289 5     18510.598 5     12921.15246  23476923.26246
  20478015.289 7      3395.867 7      2357.19149  20478014.53149
 20  5 16  2  9 49.0000000  0  7G04G08G09G11G16G26G27               -0.000021854
  21766660.484 6     -2149.590 6     -1772.36748  21766659.98848
  20343155.281 7   -187657.664 7   -131840.06649  20343155.35549
  22727330.352 6   -160731.723 6   -110343.86749  22727329.98449
  22304730.055 6   -347541.809 6   -253458.38748  22304728.14148
  21915318.391 6    -17207.527 6    -12795.62148  21915315.82848
  23476959.805 5     18707.977 5     13074.93447  23476960.77347
  20478019.141 7      3416.672 7      2373.42649  20478018.64549
 20  5 16  2  9 50.0000000  0  7G04G08G09G11G16G26G27               -0.000022839
  21766653.328 6     -2185.371 6     -1800.25448  21766652.99248
  20342759.734 7   -189737.563 7   -133460.77049  20342759.86749
  22726974.078 6   -162602.313 6   -111801.46549  22726974.18049
  22303845.734 6   -352186.902 6   -257077.93848  22303843.96948
  21915275.148 6    -17435.367 6    -12973.14148  21915272.37948
  23476997.305 5     18904.980 5     13228.41447  23476997.98847
  20478023.188 7      3437.563 7      2389.71149  20478022.71949
 20  5 16  2  9 51.0000000  0  7G04G08G09G11G16G26G27               -0.000023821
  21766646.477 6     -2220.980 6     -1827.99648  21766646.09848
  20342364.055 7   -191817.246 7   -135081.30149  20342364.04349
  22726618.781 6   -164472.660 6   -113258.87949  22726617.96149
  22302961.930 6   -356832.070 6   -260697.55548  22302960.16048
  21915231.813 6    -17663.512 6    -13150.91048  21915229.25048
  23477034.922 5     19101.688 5     13381.69147  23477035.53547
  20478027.086 7      3458.594 7      2406.09449  20478026.84049
 20  5 16  2  9 52.0000000  0  7G04G08G09G11G16G26G27               -0.000024803
  21766640.164 6     -2256.668 6     -1855.80548  21766639.02748
  20341968.281 7   -193896.949 7   -136701.85549  20341968.11749
  22726262.477 6   -166342.973 6   -114716.26249  22726262.05949
  22302077.656 6   -361477.559 6   -264317.41448  22302076.34048
  21915188.094 6    -17892.148 6    -13329.07448  21915185.74248
  23477072.328 5     19297.816 5     13534.52047  23477072.95747
  20478031.063 7      3479.520 7      2422.39549  20478030.62149
 20  5 16  2  9 53.0000000  0  7G04G08G09G11G16G26G27               -0.000025785
  21766633.438 6     -2292.352 6     -1883.60548  21766632.35948
  20341572.367 7   -195976.563 7   -138322.32849  20341572.23849
  22725906.891 6   -168213.207 6   -116173.58249  22725906.27049
  22301193.539 6   -366123.246 6   -267937.43848  22301192.05148
  21915144.375 7    -18121.258 7    -13507.64148  21915142.34448
  23477108.961 5     19493.531 5     13687.01246  23477110.18846
  20478035.422 7      3500.426 7      2438.66449  20478034.77749
 20  5 16  2  9 54.0000000  0  7G04G08G09G11G16G26G27               -0.000026768
  21766626.719 6     -2327.852 6     -1911.26648  21766625.68048
  20341176.766 7   -198055.980 7   -139942.64549  20341177.07449
  22725550.867 6   -170083.168 6   -117630.69949  22725550.93049
  22300309.484 6   -370769.020 6   -271557.51648  22300307.76648
  21915100.703 7    -18350.680 7    -13686.43448  21915098.34448
  23477146.758 5     19688.902 5     13839.24246  23477147.40646
  20478039.453 7      3521.434 7      2455.02349  20478038.34049
 20  5 16  2  9 55.0000000  0  7G04G08G09G11G16G26G27               -0.000027752
  21766619.914 6     -2363.363 6     -1938.93848  21766618.77748
  20340781.320 7   -200135.297 7   -141562.88749  20340781.41049
  22725195.086 6   -171953.016 6   -119087.73849  22725194.87549
  22299425.766 6   -375415.039 6   -275177.78948  22299423.64548
  21915056.719 7    -18580.516 7    -13865.53148  21915054.84448
  23477183.430 4     19883.828 4     13991.16846  23477184.78146
  20478042.906 7      3542.473 7      2471.42249  20478042.56649
 20  5 16  2  9 56.0000000  0  7G04G08G09G11G16G26G27               -0.000028736
  21766612.695 6     -2398.898 6     -1966.63748  21766611.80548
  20340385.617 7   -202214.590 7   -143183.12149  20340385.58649
  22724838.969 6   -173822.848 6   -120544.75849  22724839.19949
  22298541.422 6   -380061.301 6   -278798.25848  22298539.34448
  21915012.977 6    -18810.855 6    -14045.00848  21915011.08648
  23477220.461 3     20078.301 3     14142.75446  23477221.72346
  20478047.445 7      3563.438 7      2487.76649  20478046.98849
 20  5 16  2  9 57.0000000  0  7G04G08G09G11G16G26G27               -0.000029720
  21766606.281 6     -2434.438 6     -1994.33248  21766605.03548
  20339990.070 7   -204293.840 7   -144803.32049  20339989.73849
  22724483.445 6   -175692.551 6   -122001.67649  22724483.07849
  22297657.391 6   -384707.789 6   -282418.89148  22297655.36748
  21914969.195 6    -19041.656 6    -14224.84048  21914967.06348
  23477257.070 2     20272.219 2     14293.93846  23477258.47346
  20478050.836 7      3584.410 7      2504.12549  20478050.46549
 20  5 16  2  9 58.0000000  0  7G04G08G09G11G16G26G27               -0.000030704
  21766599.258 6     -2469.703 6     -2021.81648  21766598.13748
  20339594.352 7   -206372.742 7   -146423.24249  20339594.51249
  22724127.695 6   -177561.910 6   -123458.32849  22724126.94549
  22296772.719 6   -389354.223 6   -286039.48048  22296770.86748
  21914925.367 6    -19272.605 6    -14404.78147  21914923.85547
  23477294.906 2     20465.996 2     14445.00846  23477295.49246
  20478055.008 6      3605.613 6      2520.67249  20478054.74249
 20  5 16  2  9 59.0000000  0  7G04G08G09G11G16G26G27               -0.000031689
  21766592.797 6     -2505.035 6     -2049.34448  21766591.57448
  20339198.531 7   -208451.641 7   -148043.16449  20339199.04749
  22723771.734 6   -179431.203 6   -124914.92249  22723771.44149
  22295889.055 6   -394000.945 6   -289660.30548  22295886.68448
  21914881.344 6    -19504.039 6    -14585.10947  21914879.45747
  23477330.508 2     20659.254 2     14595.63756  23477332.54756
  20478059.586 6      3626.738 6      2537.14549  20478058.64549
 20  5 16  2 10  0.0000000  0  7G04G08G09G11G16G26G27               -0.000032673
  21766586.156 6     -2540.254 6     -2076.78547  21766585.10547
  20338802.688 7   -210530.367 7   -149662.94949  20338802.90649
  22723416.602 6   -181300.297 6   -126371.35549  22723415.63349
  22295004.844 6   -398647.785 6   -293281.21948  22295002.57848
  21914836.523 6    -19735.832 6    -14765.72347  21914835.80547
  23477367.336 2     20852.215 2                
  20478063.258 6      3647.980 6      2553.69949  20478062.44549
 20  5 16  2 10  1.0000000  0  7G04G08G09G11G16G26G27               -0.000033659
  21766579.344 6     -2575.383 6     -2104.16047  21766578.39547
  20338407.375 7   -212608.957 7   -151282.62549  20338407.79749
  22723060.805 6   -183169.211 6   -127827.65249  22723060.19949
  22294120.727 6   -403294.754 6   -296902.24648  22294118.50848
  21914792.781 6    -19967.973 6    -14946.60547  21914791.42647
  23477404.055 2     21044.781 2                
  20478067.602 6      3669.250 6      2570.25849  20478066.78549
 20  5 16  2 10  2.0000000  0  7G04G08G09G11G16G26G27               -0.000034643
  21766572.844 6     -2610.469 6     -2131.50048  21766571.71948
  20338011.836 7   -214687.453 7   -152902.24249  20338012.65649
  22722705.539 6   -185037.957 6   -129283.80549  22722704.57849
  22293236.828 6   -407941.887 6   -300523.39548  22293234.03548
  21914748.555 6    -20200.430 6    -15127.76248  21914746.86348
  23477440.898 5     21237.043 5                
  20478071.617 7      3690.570 7      2586.85949  20478070.85949
 20  5 16  2 10  3.0000000  0  7G04G08G09G11G16G26G27               -0.000035629
  21766566.094 6     -2645.469 6     -2158.77748  21766565.12548
  20337616.609 7   -216765.789 7   -154521.72349  20337616.75049
  22722349.484 6   -186906.574 6   -130739.84849  22722349.41449
  22292351.969 6   -412589.211 6   -304144.69148  22292349.45748
  21914704.609 6    -20433.355 6    -15309.27748  21914702.18448
  23477477.492 5     21428.742 5                
  20478075.813 7      3711.945 7      2603.49249  20478074.48849
 20  5 16  2 10  4.0000000  0  7G04G08G09G11G16G26G27               -0.000036615
  21766559.227 6     -2680.453 6     -2186.04348  21766557.95748
  20337221.094 7   -218844.031 7   -156141.13749  20337221.20749
  22721993.844 6   -188775.027 6   -132195.77349  22721993.47749
  22291467.492 6   -417236.707 6   -307766.12948  22291465.27348
  21914659.914 6    -20666.711 6    -15491.11748  21914657.53948
  23477514.313 5     21620.086 5                
  20478079.438 7      3733.332 7      2620.14549  20478078.85949
 20  5 16  2 10  5.0000000  0  7G04G08G09G11G16G26G27               -0.000037601
  21766552.820 6     -2715.242 6     -2213.14848  21766551.45748
  20336825.680 7   -220922.035 7   -157760.36749  20336825.89149
  22721638.086 6   -190643.234 6   -133651.52049  22721638.34449
  22290583.336 6   -421884.281 6   -311387.62548  22290580.68048
  21914615.805 6    -20900.332 6    -15673.16848  21914613.18048
  23477550.453 5     21811.070 5                
  20478083.836 7      3754.848 7      2636.90649  20478083.07049
 20  5 16  2 10  6.0000000  0  7G04G08G09G11G16G26G27               -0.000038588
  21766545.969 6     -2750.137 6     -2240.34448  21766544.84048
  20336430.031 7   -223000.066 7   -159379.60949  20336430.32049
  22721283.250 6   -192511.398 6   -135107.23849  22721282.81649
  22289698.727 6   -426532.152 6   -315009.33648  22289696.07848
  21914570.969 6    -21134.473 6    -15855.62148  21914568.68448
  23477587.164 5     22001.566 5                
  20478087.703 7      3776.277 7      2653.60949  20478087.16449
 20  5 16  2 10  7.0000000  0  7G04G08G09G11G16G26G27               -0.000039574
  21766539.555 6     -2784.836 6     -2267.38348  21766538.81348
  20336034.719 7   -225077.863 7   -160998.67649  20336035.16049
  22720927.648 6   -194379.297 6   -136562.74649  22720927.17649
  22288814.641 6   -431180.063 6   -318631.07848  22288811.85948
  21914526.172 6    -21368.898 6    -16038.28148  21914524.01248
  23477623.344 5     22191.773 5                
  20478091.516 7      3797.879 7      2670.44549  20478091.03949
 20  5 16  2 10  8.0000000  0  7G04G08G09G11G16G26G27               -0.000040562
  21766532.789 6     -2819.355 6     -2294.28548  21766532.13748
  20335639.328 7   -227155.375 7   -162617.51649  20335639.28549
  22720572.297 6   -196246.895 6   -138018.02749  22720571.37949
  22287929.914 6   -435827.988 6   -322252.84048  22287926.94148
  21914481.469 6    -21603.547 6    -16221.12148  21914479.43448
  23477659.008 5     22381.688 5                
  20478095.961 7      3819.633 7      2687.40249  20478095.53149
 20  5 16  2 10  9.0000000  0  7G04G08G09G11G16G26G27               -0.000041548
  21766526.227 6     -2853.928 6     -2321.22348  21766525.34448
  20335244.133 7   -229232.941 7   -164236.40249  20335244.28149
  22720216.867 6   -198114.496 6   -139473.30549  22720216.07049
  22287045.602 6   -440476.246 6   -325874.85948  22287042.46548
  21914437.250 6    -21838.754 6    -16404.39548  21914434.87548
  23477695.094 5     22571.078 5                
  20478099.992 7      3841.293 7      2704.28149  20478099.68449
 20  5 16  2 10 10.0000000  0  7G04G08G09G11G16G26G27               -0.000042536
  21766519.805 6     -2888.496 6     -2348.15648  21766518.64848
  20334848.531 7   -231310.383 7   -165855.18449  20334849.08249
  22719861.234 6   -199981.926 6   -140928.44549  22719860.78549
  22286161.094 6   -445124.664 6   -329497.00448  22286158.01248
  21914392.125 6    -22074.355 6    -16587.98848  21914389.93848
  23477731.016 5     22760.051 5                
  20478104.078 7      3862.992 7      2721.19549  20478103.64149
 20  5 16  2 10 11.0000000  0  7G04G08G09G11G16G26G27               -0.000043524
  21766512.938 6     -2923.043 6     -2375.08248  21766512.40648
  20334453.422 7   -233387.770 7   -167473.93049  20334453.37949
  22719505.797 6   -201849.297 6   -142383.53549  22719505.52049
  22285276.094 6   -449773.313 6   -333119.32048  22285273.52048
  21914347.328 6    -22310.391 6    -16771.91848  21914345.02048
  23477766.578 5     22948.570 5                
  20478108.313 7      3884.648 7      2738.07049  20478107.57049
 20  5 16  2 10 12.0000000  0  7G04G08G09G11G16G26G27               -0.000044512
  21766506.930 6     -2957.570 6     -2401.98048  21766505.90648
  20334058.078 7   -235465.066 7   -169092.59849  20334058.64149
  22719150.656 6   -203716.523 6   -143838.51649  22719150.00049
  22284391.711 6   -454422.176 6   -336741.81348  22284389.18448
  21914302.078 6    -22546.863 6    -16956.18448  21914299.81648
  23477802.281 5     23136.656 5                
  20478112.445 7      3906.324 7      2754.95749  20478111.87949
 20  5 16  2 10 13.0000000  0  7G04G08G09G11G16G26G27               -0.000045500
  21766500.180 6     -2992.063 6     -2428.85548  21766499.05948
  20333662.766 7   -237542.277 7   -170711.19949  20333663.16849
  22718795.680 6   -205583.637 6   -145293.40649  22718795.13749
  22283506.969 6   -459071.227 6   -340364.45348  22283504.76248
  21914257.500 6    -22783.750 6    -17140.77748  21914255.07048
  23477838.219 5     23324.281 5     15389.06356  23477836.46956
  20478116.492 7      3928.000 7      2771.84849  20478115.75449
 20  5 16  2 10 14.0000000  0  7G04G08G09G11G16G26G27               -0.000046488
  21766493.602 6     -3026.391 6     -2455.60548  21766492.99648
  20333267.711 7   -239619.289 7   -172329.65249  20333267.88349
  22718439.945 6   -207450.484 6   -146748.09449  22718439.64149
  22282622.211 6   -463720.344 6   -343987.13748  22282619.92248
  21914211.961 6    -23020.922 6    -17325.58648  21914209.97748
  23477873.883 5     23511.602 5     15535.03546  23477872.18846
  20478120.633 7      3949.816 7      2788.84849  20478120.21149
 20  5 16  2 10 15.0000000  0  7G04G08G09G11G16G26G27               -0.000047476
  21766486.969 6     -3060.719 6     -2482.36348  21766486.05548
  20332872.695 7   -241696.188 7   -173948.02049  20332872.82449
  22718085.266 6   -209317.230 6   -148202.70749  22718084.34049
  22281737.078 6   -468369.652 6   -347609.97348  22281734.86348
  21914167.023 6    -23258.539 6    -17510.73448  21914164.66048
  23477909.492 5     23698.500 5     15680.67246  23477908.52346
  20478125.156 7      3971.637 7      2805.84849  20478124.53149
 20  5 16  2 10 16.0000000  0  7G04G08G09G11G16G26G27               -0.000048466
  21766480.227 6     -3094.773 6     -2508.91048  21766479.53948
  20332477.203 7   -243772.754 7   -175566.12149  20332477.46149
  22717729.805 6   -211183.621 6   -149657.02749  22717729.18049
  22280852.711 6   -473018.949 6   -351232.79748  22280850.24648
  21914121.516 6    -23496.340 6    -17696.03948  21914119.42648
  23477944.383 5     23885.184 5     15826.14546  23477944.34446
  20478129.023 7      3993.680 7      2823.02749  20478128.78149
 20  5 16  2 10 17.0000000  0  7G04G08G09G11G16G26G27               -0.000049456
  21766473.945 6     -3128.723 6     -2535.36348  21766472.93448
  20332081.891 7   -245849.164 7   -177184.10549  20332081.98449
  22717374.391 6   -213049.781 6   -151111.18449  22717373.97349
  22279968.055 6   -477668.363 6   -354855.71948  22279965.40248
  21914075.906 6    -23734.496 6    -17881.61748  21914073.59048
  23477980.031 5     24071.492 5     15971.32046  23477979.53946
  20478133.391 7      4015.809 7      2840.26649  20478132.79749
 20  5 16  2 10 18.0000000  0  7G04G08G09G11G16G26G27               -0.000050444
  21766467.227 6     -3162.551 6     -2561.72348  21766466.87948
  20331686.930 7   -247925.363 7   -178801.92649  20331687.35249
  22717019.844 6   -214915.699 6   -152565.15249  22717018.96149
  22279082.922 6   -482317.848 6   -358478.69148  22279080.69548
  21914031.156 6    -23972.953 6    -18067.43048  21914028.48048
  23478015.695 5     24257.516 5     16116.26246  23478015.47746
  20478137.703 7      4038.055 7      2857.59849  20478137.18449
 20  5 16  2 10 19.0000000  0  7G04G08G09G11G16G26G27               -0.000051434
  21766460.828 6     -3196.402 6     -2588.10248  21766460.63748
  20331291.789 7   -250001.543 7   -180419.72749  20331292.28149
  22716664.516 6   -216781.594 6   -154019.09849  22716663.63749
  22278198.313 6   -486967.613 6   -362101.88748  22278195.82448
  21913985.516 6    -24211.875 6    -18253.60248  21913983.01248
  23478051.406 5     24443.027 5     16260.80546  23478051.19546
  20478141.766 7      4060.254 7      2874.90249  20478141.39149
 20  5 16  2 10 20.0000000  0  7G04G08G09G11G16G26G27               -0.000052423
  21766454.242 6     -3230.262 6     -2614.48448  21766453.87948
  20330896.633 7   -252077.668 7   -182037.48449  20330897.25849
  22716309.297 6   -218647.387 6   -155472.96149  22716308.81349
  22277313.391 6   -491617.602 6   -365725.25848  22277310.99248
  21913939.898 6    -24451.270 6    -18440.14148  21913937.26648
  23478085.727 5     24628.055 5     16404.97746  23478086.50446
  20478146.055 7      4082.418 7      2892.17249  20478145.57849
 20  5 16  2 10 21.0000000  0  7G04G08G09G11G16G26G27               -0.000053415
  21766448.055 6     -3263.934 6     -2640.71948  21766447.59848
  20330501.445 7   -254153.543 7   -183655.05549  20330501.81649
  22715954.438 6   -220512.891 6   -156926.60249  22715953.41449
  22276428.719 6   -496267.617 6   -369348.64148  22276426.35548
  21913894.453 6    -24690.906 6    -18626.87148  21913891.76648
  23478121.047 5     24812.844 5     16548.97347  23478121.24247
  20478150.188 7      4104.762 7      2909.58249  20478149.64849
 20  5 16  2 10 22.0000000  0  7G04G08G09G11G16G26G27               -0.000054405
  21766441.570 6     -3297.547 6     -2666.91848  21766441.11748
  20330106.680 7   -256229.301 7   -185272.52349  20330106.99249
  22715599.453 6   -222378.234 6   -158380.11749  22715598.54749
  22275543.492 6   -500917.813 6   -372972.18048  22275541.15648
  21913848.641 6    -24930.941 6    -18813.91848  21913846.35248
  23478156.313 5     24997.184 5     16692.60947  23478156.64847
  20478154.656 7      4127.117 7      2927.00049  20478153.43049
 20  5 16  2 10 23.0000000  0  7G04G08G09G11G16G26G27               -0.000055395
  21766435.102 6     -3331.074 6     -2693.04748  21766434.79748
  20329711.664 7   -258304.855 7   -186889.83649  20329711.72749
  22715244.672 6   -224243.367 6   -159833.46549  22715243.57849
  22274658.641 6   -505568.102 6   -376595.78548  22274656.23448
  21913803.352 6    -25171.313 6    -19001.21948  21913800.31348
  23478191.430 5     25181.207 5     16836.00046  23478191.73846
  20478158.992 7      4149.586 7      2944.50849  20478158.40249
 20  5 16  2 10 24.0000000  0  7G04G08G09G11G16G26G27               -0.000056387
  21766428.781 6     -3364.543 6     -2719.12148  21766428.28948
  20329316.805 7   -260380.363 7   -188507.12149  20329316.78149
  22714889.984 6   -226108.402 6   -161286.74649  22714889.02049
  22273773.906 6   -510218.602 6   -380219.54748  22273771.27348
  21913757.227 6    -25412.109 6    -19188.85248  21913754.43048
  23478226.984 5     25364.758 5     16979.02346  23478226.69946
  20478163.148 7      4172.043 7      2962.00049  20478162.23449
 20  5 16  2 10 25.0000000  0  7G04G08G09G11G16G26G27               -0.000057379
  21766422.492 6     -3397.891 6     -2745.11748  21766422.28948
  20328922.258 7   -262455.688 7   -190124.25849  20328922.01649
  22714534.977 6   -227973.188 6   -162739.82849  22714534.25849
  22272888.813 6   -514869.211 6   -383843.40248  22272886.37148
  21913711.313 6    -25653.199 6    -19376.71948  21913708.62548
  23478261.508 5     25548.012 5     17121.81646  23478261.71946
  20478167.438 7      4194.602 7      2979.58249  20478166.65649
 20  5 16  2 10 26.0000000  0  7G04G08G09G11G16G26G27               -0.000058371
  21766416.555 6     -3431.211 6     -2771.07448  21766415.59048
  20328526.969 7   -264530.863 7   -191741.27749  20328526.99649
  22714179.984 6   -229837.820 6   -164192.79349  22714179.04749
  22272003.859 6   -519519.965 6   -387467.37148  22272001.40248
  21913665.273 6    -25894.695 6    -19564.89148  21913662.88348
  23478295.742 5     25730.848 5     17264.28546  23478296.37546
  20478171.938 7      4217.180 7      2997.18049  20478171.22749
 20  5 16  2 10 27.0000000  0  7G04G08G09G11G16G26G27               -0.000059361
  21766409.703 6     -3464.512 6     -2797.02748  21766409.20348
  20328132.344 7   -266605.949 7   -193358.22749  20328132.58249
  22713825.219 6   -231702.359 6   -165645.67649  22713824.22349
  22271119.102 6   -524170.918 6   -391091.48448  22271116.55948
  21913619.461 6    -26136.633 6    -19753.42248  21913616.73048
  23478330.672 5     25913.215 5     17406.39546  23478331.02346
  20478175.930 7      4239.793 7      3014.79749  20478175.43049
 20  5 16  2 10 28.0000000  0  7G04G08G09G11G16G26G27               -0.000060354
  21766403.914 6     -3497.496 6     -2822.73448  21766402.76248
  20327737.461 7   -268680.684 7   -194974.90249  20327737.63749
  22713470.258 6   -233566.484 6   -167098.24249  22713469.14849
  22270233.961 6   -528821.832 6   -394715.57048  22270231.35948
  21913573.727 6    -26378.719 6    -19942.05948  21913570.71548
  23478365.875 5     26095.426 5     17548.37146  23478366.21546
  20478180.477 7      4262.641 7      3032.59449  20478179.83249
 20  5 16  2 10 29.0000000  0  7G04G08G09G11G16G26G27               -0.000061346
  21766397.359 6     -3530.527 6     -2848.47348  21766396.40648
  20327342.852 7   -270755.395 7   -196591.55949  20327342.75049
  22713115.672 6   -235430.582 6   -168550.78949  22713114.82449
  22269348.633 6   -533472.984 6   -398339.85248  22269346.24648
  21913527.016 6    -26621.289 6    -20131.07848  21913524.54748
  23478399.695 5     26277.148 5     17689.96546  23478400.60246
  20478184.789 7      4285.453 7      3050.37149  20478184.39849
 20  5 16  2 10 30.0000000  0  7G04G08G09G11G16G26G27               -0.000062338
  21766391.156 6     -3563.383 6     -2874.07048  21766390.04348
  20326947.891 7   -272829.879 7   -198208.03949  20326948.30549
  22712760.727 6   -237294.371 6   -170003.10249  22712759.78949
  22268463.836 6   -538124.168 6   -401964.14848  22268461.66848
  21913481.094 6    -26864.133 6    -20320.30948  21913478.27048
  23478434.539 5     26458.547 5     17831.30546  23478435.05146
  20478189.063 7      4308.406 7      3068.25849  20478188.59449
 20  5 16  2 10 31.0000000  0  7G04G08G09G11G16G26G27               -0.000063332
  21766384.977 6     -3596.090 6     -2899.55548  21766384.19148
  20326553.070 7   -274904.137 7   -199824.34849  20326553.47749
  22712406.344 6   -239157.918 6   -171455.21549  22712405.70749
  22267578.617 6   -542775.438 6   -405588.51648  22267575.94148
  21913434.930 6    -27107.238 6    -20509.73848  21913431.75848
  23478469.438 5     26639.703 5     17972.46546  23478469.84046
  20478193.609 7      4331.508 7      3086.25849  20478192.78149
 20  5 16  2 10 32.0000000  0  7G04G08G09G11G16G26G27               -0.000064323
  21766378.992 6     -3628.621 6     -2924.90648  21766377.71948
  20326158.344 7   -276978.184 7   -201440.48449  20326158.55949
  22712051.273 6   -241021.215 6   -172907.13749  22712050.39149
  22266693.320 6   -547426.773 6   -409212.93048  22266691.05548
  21913388.563 6    -27350.648 6    -20699.41048  21913385.79348
  23478503.563 5     26820.555 5     18113.38746  23478504.41446
  20478197.703 7      4354.762 7      3104.37549  20478197.22349
 20  5 16  2 10 33.0000000  0  7G04G08G09G11G16G26G27               -0.000065317
  21766372.367 6     -3661.074 6     -2950.19548  21766371.57448
  20325763.813 7   -279052.086 7   -203056.51649  20325764.17649
  22711697.438 6   -242884.301 6   -174358.88349  22711696.07049
  22265808.227 6   -552078.227 6   -412837.43848  22265805.65648
  21913341.898 6    -27594.426 6    -20889.37148  21913339.18448
  23478537.984 5     27001.023 5     18254.02046  23478538.47346
  20478201.945 7      4378.070 7      3122.53949  20478201.85549
 20  5 16  2 10 34.0000000  0  7G04G08G09G11G16G26G27               -0.000066311
  21766366.070 6     -3693.547 6     -2975.50448  21766365.63348
  20325369.039 7   -281125.941 7   -204672.50449  20325369.25849
  22711342.445 6   -244747.305 6   -175810.57049  22711341.63349
  22264923.133 6   -556729.949 6   -416462.15648  22264920.44548
  21913295.484 6    -27838.664 6    -21079.69148  21913292.66048
  23478572.070 5     27180.996 5     18394.27046  23478572.61746
  20478206.367 7      4401.332 7      3140.65649  20478206.55949
 20  5 16  2 10 35.0000000  0  7G04G08G09G11G16G26G27               -0.000067305
  21766360.070 6     -3725.926 6     -3000.73448  21766359.14848
  20324974.438 7   -283199.656 7   -206288.38749  20324974.57049
  22710987.914 6   -246610.168 6   -177262.15249  22710986.98849
  22264038.109 6   -561381.816 6   -420086.98448  22264035.34448
  21913249.023 6    -28083.250 6    -21270.28148  21913246.36748
  23478606.398 5     27360.590 5     18534.20746  23478607.09046
  20478210.516 7      4424.656 7      3158.83649  20478210.19949
 20  5 16  2 10 36.0000000  0  7G04G08G09G11G16G26G27               -0.000068298
  21766354.094 6     -3758.230 6     -3025.91048  21766353.43848
  20324579.648 7   -285273.199 7   -207904.13749  20324579.98049
  22710633.523 6   -248472.805 6   -178713.55949  22710632.82849
  22263152.469 6   -566033.797 6   -423711.89848  22263149.87148
  21913202.609 6    -28328.195 6    -21461.14548  21913199.83248
  23478640.625 5     27539.848 5     18673.88746  23478641.26246
  20478215.820 7      4448.059 7      3177.07449  20478214.94149
 20  5 16  2 10 37.0000000  0  7G04G08G09G11G16G26G27               -0.000069292
  21766348.547 6     -3790.348 6     -3050.93448  21766347.62548
  20324185.320 7   -287346.523 7   -209519.71549  20324185.43849
  22710278.539 6   -250335.191 6   -180164.76649  22710278.39549
  22262267.250 6   -570685.828 6   -427336.85248  22262264.85548
  21913155.734 6    -28573.430 6    -21652.23848  21913153.24248
  23478674.477 5     27718.770 5     18813.29347  23478675.26647
  20478219.938 7      4471.605 7      3195.42249  20478219.36749
 20  5 16  2 10 38.0000000  0  7G04G08G09G11G16G26G27               -0.000070288
  21766342.008 6     -3822.355 6     -3075.87948  21766341.32448
  20323790.586 7   -289419.629 7   -211135.12149  20323791.13749
  22709924.602 6   -252197.313 6   -181615.77749  22709924.18049
  22261382.195 6   -575337.941 6   -430961.87548  22261379.85948
  21913108.969 6    -28818.945 6    -21843.54748  21913106.21548
  23478708.516 5     27897.383 5     18952.47746  23478709.11346
  20478224.484 7      4495.281 7      3213.86749  20478223.90649
 20  5 16  2 10 39.0000000  0  7G04G08G09G11G16G26G27               -0.000071281
  21766335.992 6     -3854.434 6     -3100.87148  21766335.08648
  20323396.063 7   -291492.777 7   -212750.56349  20323396.87149
  22709570.117 6   -254059.461 6   -183066.80149  22709569.91049
  22260496.625 6   -579990.367 6   -434587.14148  22260494.21548
  21913061.953 6    -29065.023 6    -22035.30148  21913059.71148
  23478742.578 5     28075.461 5     19091.23847  23478742.99647
  20478229.211 7      4518.832 7      3232.22749  20478228.51249
 20  5 16  2 10 40.0000000  0  7G04G08G09G11G16G26G27               -0.000072277
  21766329.539 6     -3886.426 6     -3125.80148  21766329.14148
  20323001.547 7   -293565.762 7   -214365.87949  20323002.10549
  22709215.398 6   -255921.395 6   -184517.66049  22709215.18449
  22259611.203 6   -584642.922 6   -438212.51248  22259608.77348
  21913014.688 6    -29311.457 6    -22227.32848  21913012.30148
  23478776.250 5     28253.180 5     19229.71946  23478776.93046
  20478233.672 7      4542.441 7      3250.61749  20478233.19549
 20  5 16  2 10 41.0000000  0  7G04G08G09G11G16G26G27               -0.000073273
  21766324.109 6     -3918.414 6     -3150.72348  21766323.15648
  20322607.477 7   -295638.641 7   -215981.10549  20322607.74249
  22708861.891 6   -257783.215 6   -185968.43449  22708861.29349
  22258725.672 6   -589295.668 6   -441838.02748  22258723.17248
  21912968.117 6    -29558.289 6    -22419.66448  21912965.54348
  23478810.063 5     28430.457 5     19367.85246  23478810.77346
  20478238.047 7      4566.066 7      3269.02749  20478237.51649
 20  5 16  2 10 42.0000000  0  7G04G08G09G11G16G26G27               -0.000074268
  21766317.508 6     -3950.145 6     -3175.44948  21766316.80148
  20322212.969 7   -297711.250 7   -217596.13349  20322213.30149
  22708507.164 6   -259644.719 6   -187418.95749  22708506.43049
  22257840.523 6   -593948.414 6   -445463.54748  22257837.85948
  21912921.250 6    -29805.367 6    -22612.19548  21912918.83248
  23478844.039 5     28607.504 5     19505.80546  23478844.35946
  20478242.383 7      4589.898 7      3287.59449  20478242.19949
 20  5 16  2 10 43.0000000  0  7G04G08G09G11G16G26G27               -0.000075264
  21766311.672 6     -3981.691 6     -3200.03548  21766310.92648
  20321818.930 7   -299783.625 7   -219210.96949  20321818.87549
  22708153.242 6   -261505.918 6   -188869.24249  22708152.76649
  22256955.203 6   -598601.223 6   -449089.11348  22256952.35948
  21912873.984 6    -30052.715 6    -22804.94148  21912871.49248
  23478877.180 5     28784.234 5     19643.52746  23478877.75046
  20478246.727 7      4613.871 7      3306.27049  20478246.78949
 20  5 16  2 10 44.0000000  0  7G04G08G09G11G16G26G27               -0.000076260
  21766305.219 6     -4013.176 6     -3224.57048  21766304.84448
  20321424.586 7   -301855.828 7   -220825.67249  20321424.83249
  22707799.219 6   -263366.973 6   -190319.41849  22707798.55949
  22256069.266 6   -603254.121 6   -452714.74648  22256066.98048
  21912827.039 6    -30300.414 6    -22997.94948  21912824.51248
  23478910.992 5     28960.617 5     19780.96146  23478911.53946
  20478251.656 7      4637.922 7      3325.01649  20478251.39549
 20  5 16  2 10 45.0000000  0  7G04G08G09G11G16G26G27               -0.000077255
  21766299.883 6     -4044.422 6     -3248.91848  21766299.12948
  20321030.133 7   -303927.754 7   -222440.15649  20321030.42649
  22707445.188 6   -265227.648 6   -191769.29349  22707444.87949
  22255184.188 6   -607907.012 6   -456340.37148  22255181.34048
  21912779.836 6    -30548.316 6    -23191.12148  21912777.21148
  23478944.547 5     29136.777 5     19918.22346  23478945.19546
  20478256.320 7      4662.199 7      3343.93849  20478255.54749
 20  5 16  2 10 46.0000000  0  7G04G08G09G11G16G26G27               -0.000078253
  21766293.977 6     -4075.293 6     -3272.98048  21766292.82448
  20320635.938 7   -305999.215 7   -224054.28549  20320636.22349
  22707091.258 6   -267087.883 6   -193218.82449  22707090.81349
  22254298.883 6   -612559.766 6   -459965.89548  22254296.39548
  21912732.750 6    -30796.297 6    -23384.35548  21912730.43048
  23478977.617 5     29312.852 5     20055.41846  23478978.54746
  20478260.836 7      4686.801 7      3363.10549  20478260.55949
 20  5 16  2 10 47.0000000  0  7G04G08G09G11G16G26G27               -0.000079248
  21766287.859 6     -4106.184 6     -3297.05148  21766287.15648
  20320241.586 7   -308070.637 7   -225668.38349  20320241.96549
  22706737.383 6   -268948.023 6   -194668.29349  22706736.70349
  22253413.508 6   -617212.750 6   -463591.59848  22253410.87148
  21912685.516 6    -31044.742 6    -23577.95348  21912683.06348
  23479011.305 5     29488.473 5     20192.25446  23479012.35246
  20478265.633 7      4711.379 7      3382.25449  20478264.86749
 20  5 16  2 10 48.0000000  0  7G04G08G09G11G16G26G27               -0.000080246
  21766281.625 6     -4137.016 6     -3321.07848  21766281.60248
  20319847.797 7   -310141.945 7   -227282.38749  20319847.96549
  22706383.758 6   -270808.012 6   -196117.63749  22706382.73449
  22252527.656 6   -621865.898 6   -467217.43448  22252525.13748
  21912638.320 6    -31293.582 6    -23771.85548  21912635.78948
  23479044.375 5     29663.637 5     20328.73446  23479045.48846
  20478270.156 7      4735.980 7      3401.42249  20478269.75849
 20  5 16  2 10 49.0000000  0  7G04G08G09G11G16G26G27               -0.000081244
  21766275.906 6     -4167.797 6     -3345.06648  21766275.36748
  20319453.305 7   -312213.109 7   -228896.28149  20319453.82449
  22706029.508 6   -272667.824 6   -197566.84449  22706028.66049
  22251642.594 6   -626519.227 6   -470843.39848  22251639.63348
  21912590.594 6    -31542.793 6    -23966.05148  21912588.40648
  23479078.281 5     29838.430 5     20464.92246  23479078.38746
  20478275.273 7      4760.645 7      3420.64549  20478274.55549
 20  5 16  2 10 50.0000000  0  7G04G08G09G11G16G26G27               -0.000082239
  21766270.484 6     -4198.516 6     -3369.01248  21766269.56648
  20319059.508 7   -314284.188 7   -230510.10949  20319059.82849
  22705675.313 6   -274527.504 6   -199015.94549  22705675.03549
  22250756.906 6   -631172.688 6   -474469.46948  22250754.03548
  21912543.156 6    -31792.371 6    -24160.52348  21912540.78948
  23479111.367 5     30012.832 5     20600.82847  23479112.16447
  20478279.953 7      4785.344 7      3439.88749  20478278.98449
 20  5 16  2 10 51.0000000  0  7G04G08G09G11G16G26G27               -0.000083237
  21766264.500 6     -4229.230 6     -3392.94548  21766264.17248
  20318665.211 7   -316355.184 7   -232123.87149  20318665.39849
  22705321.734 6   -276387.070 6   -200464.96149  22705321.34849
  22249871.773 6   -635826.375 6   -478095.72348  22249868.31648
  21912495.398 6    -32042.414 6    -24355.36748  21912493.11348
  23479144.047 5     30186.758 5     20736.35947  23479145.17647
  20478284.383 7      4810.016 7      3459.10949  20478283.88749
 20  5 16  2 10 52.0000000  0  7G04G08G09G11G16G26G27               -0.000084236
  21766258.469 6     -4259.789 6     -3416.75448  21766258.32048
  20318271.063 7   -318425.961 7   -233737.45749  20318271.54749
  22704967.594 6   -278246.387 6   -201913.77749  22704967.05949
  22248985.656 6   -640480.121 6   -481722.02048  22248982.97348
  21912447.836 6    -32292.750 6    -24550.43448  21912445.58648
  23479177.125 5     30360.391 5     20871.67246  23479178.16446
  20478289.375 7      4834.813 7      3478.42649  20478288.55149
 20  5 16  2 10 53.0000000  0  7G04G08G09G11G16G26G27               -0.000085234
  21766252.922 6     -4290.188 6     -3440.44148  21766252.07848
  20317877.016 7   -320496.508 7   -235350.86749  20317877.31649
  22704614.188 6   -280105.426 6   -203362.37549  22704613.53149
  22248100.180 6   -645133.898 6   -485348.33648  22248097.34448
  21912400.141 6    -32543.348 6    -24745.70348  21912397.68848
  23479210.648 5     30533.742 5     21006.76246  23479211.24246
  20478294.000 7      4859.770 7      3497.87949  20478293.28149
 20  5 16  2 10 54.0000000  0  7G04G08G09G11G16G26G27               -0.000086231
  21766247.500 6     -4320.500 6     -3464.06348  21766246.38348
  20317482.938 7   -322566.906 7   -236964.16449  20317483.54749
  22704260.180 6   -281964.266 6   -204810.83249  22704259.49249
  22247214.352 6   -649787.820 6   -488974.77348  22247211.75448
  21912352.289 6    -32794.297 6    -24941.25048  21912349.92248
  23479242.906 5     30706.727 5     21141.55546  23479243.93846
  20478298.352 7      4884.770 7      3517.35949  20478298.09049
 20  5 16  2 10 55.0000000  0  7G04G08G09G11G16G26G27               -0.000087231
  21766241.234 6     -4350.641 6     -3487.54748  21766240.73848
  20317089.227 7   -324637.082 7   -238577.29749  20317089.62549
  22703906.664 6   -283822.883 6   -206259.10549  22703906.40649
  22246329.297 6   -654441.813 6   -492601.25848  22246326.09848
  21912305.055 6    -33045.551 6    -25137.03148  21912302.06348
  23479275.750 5     30879.426 5     21276.11746  23479276.46146
  20478303.406 7      4909.945 7      3536.97749  20478302.66449
 20  5 16  2 10 56.0000000  0  7G04G08G09G11G16G26G27               -0.000088228
  21766235.992 6     -4380.742 6     -3511.00448  21766234.74248
  20316695.148 7   -326707.137 7   -240190.32849  20316695.59449
  22703553.250 5   -285681.309 5   -207707.22349  22703552.57449
  22245443.492 6   -659095.961 6   -496227.86748  22245440.63748
  21912256.594 6    -33297.188 6    -25333.11348  21912254.02348
  23479308.750 5     31051.680 5     21410.33646  23479309.59846
  20478307.805 7      4935.125 7      3556.59049  20478307.80149
 20  5 16  2 10 57.0000000  0  7G04G08G09G11G16G26G27               -0.000089228
  21766230.039 6     -4410.621 6     -3534.28148  21766229.19548
  20316301.164 7   -328776.949 7   -241803.17249  20316301.89849
  22703199.477 6   -287539.449 6   -209155.12949  22703199.08649
  22244557.773 6   -663750.105 6   -499854.47748  22244555.11348
  21912208.875 6    -33549.063 6    -25529.37948  21912206.26648
  23479341.391 5     31223.719 5     21544.38747  23479342.27747
  20478312.836 7      4960.492 7      3576.35549  20478312.30949
 20  5 16  2 10 58.0000000  0  7G04G08G09G11G16G26G27               -0.000090227
  21766224.641 6     -4440.441 6     -3557.52748  21766223.71148
  20315907.391 7   -330846.617 7   -243415.89549  20315907.90649
  22702845.852 6   -289397.434 6   -210602.90649  22702845.32449
  22243671.711 6   -668404.387 6   -503481.18448  22243669.28148
  21912160.719 6    -33801.320 6    -25725.94948  21912158.40648
  23479374.617 5     31395.344 5     21678.10947  23479375.50047
  20478317.820 7      4985.914 7      3596.16849  20478317.44949
 20  5 16  2 10 59.0000000  0  7G04G08G09G11G16G26G27               -0.000091227
  21766218.578 6     -4470.180 6     -3580.70348  21766217.94148
  20315513.547 7   -332916.113 7   -245028.49249  20315514.21949
  22702492.820 6   -291255.211 6   -212050.52049  22702492.27749
  22242785.961 6   -673058.844 6   -507108.03948  22242783.25048
  21912112.742 6    -34053.949 6    -25922.80148  21912110.14548
  23479406.984 5     31566.609 5     21811.56647  23479407.70747
  20478322.945 7      5011.387 7      3616.01249  20478322.10549
 20  5 16  2 11  0.0000000  0  7G04G08G09G11G16G26G27               -0.000092226
  21766212.961 6     -4499.844 6     -3603.82448  21766212.89548
  20315120.164 7   -334985.453 7   -246640.97349  20315120.41449
  22702139.008 6   -293112.820 6   -213498.00849  22702138.58649
  22241900.531 6   -677713.410 6   -510734.97348  22241897.66848
  21912064.414 6    -34306.918 6    -26119.92248  21912062.27748
  23479439.984 5     31737.457 5     21944.68447  23479440.23447
  20478327.383 7      5036.938 7      3635.92649  20478326.91049
 20  5 16  2 11  1.0000000  0  7G04G08G09G11G16G26G27               -0.000093225
  21766207.711 6     -4529.496 6     -3626.93848  21766207.11348
  20314726.234 7   -337054.742 7   -248253.39849  20314726.59049
  22701785.273 6   -294970.320 6   -214945.40649  22701785.21949
  22241014.641 6   -682368.191 6   -514362.08248  22241011.97348
  21912016.375 6    -34560.340 6    -26317.39148  21912013.79748
  23479472.219 5     31907.910 5     22077.50447  23479472.98447
  20478331.859 7      5062.449 7      3655.80549  20478331.71149
 20  5 16  2 11  2.0000000  0  7G04G08G09G11G16G26G27               -0.000094227
  21766202.336 6     -4558.898 6     -3649.84848  21766201.55948
  20314332.359 7   -339123.719 7   -249865.59449  20314332.77349
  22701432.398 6   -296827.492 6   -216392.55549  22701432.02049
  22240128.859 6   -687022.973 6   -517989.18448  22240126.17248
  21911968.000 6    -34813.961 6    -26515.01248  21911965.73848
  23479504.547 5     32078.102 5     22210.12547  23479504.96547
  20478337.195 7      5088.180 7      3675.85949  20478337.04349
 20  5 16  2 11  3.0000000  0  7G04G08G09G11G16G26G27               -0.000095226
  21766196.352 6     -4588.203 6     -3672.68848  21766195.72348
  20313938.891 7   -341192.500 7   -251477.63349  20313939.13349
  22701078.820 6   -298684.402 6   -217839.50449  22701078.46149
  22239243.172 6   -691677.820 6   -521616.33648  22239240.30548
  21911919.859 6    -35067.902 6    -26712.89148  21911917.24248
  23479536.742 5     32247.984 5     22342.50447  23479537.36347
  20478342.031 7      5114.031 7      3696.00449  20478341.43849
 20  5 16  2 11  4.0000000  0  7G04G08G09G11G16G26G27               -0.000096228
  21766190.891 6     -4617.383 6     -3695.42648  21766190.15648
  20313545.352 7   -343261.090 7   -253089.52349  20313545.79749
  22700725.539 6   -300541.121 6   -219286.30149  22700724.80149
  22238357.438 6   -696332.758 6   -525243.56348  22238354.59848
  21911871.359 6    -35322.156 6    -26911.01648  21911868.82048
  23479569.258 5     32417.520 5     22474.60947  23479569.69547
  20478346.930 7      5139.980 7      3716.22349  20478346.70349
 20  5 16  2 11  5.0000000  0  7G04G08G09G11G16G26G27               -0.000097229
  21766185.609 6     -4646.465 6     -3718.08648  21766184.52048
  20313151.539 7   -345329.520 7   -254701.28549  20313152.28549
  22700372.094 6   -302397.648 6   -220732.94549  22700371.59049
  22237471.398 6   -700987.832 6   -528870.89548  22237468.55948
  21911822.992 6    -35576.773 6    -27109.41848  21911820.25048
  23479601.148 5     32586.707 5     22606.43846  23479602.03146
  20478351.984 7      5165.980 7      3736.48849  20478351.63349
 20  5 16  2 11  6.0000000  0  7G04G08G09G11G16G26G27               -0.000098230
  21766179.977 6     -4675.313 6     -3740.57448  21766178.64848
  20312758.336 7   -347397.668 7   -256312.82449  20312758.63349
  22700018.883 6   -304253.848 6   -222179.33649  22700018.46949
  22236585.617 6   -705642.926 6   -532498.24248  22236582.81648
  21911774.484 6    -35831.637 6    -27308.02048  21911772.22348
  23479633.125 5     32755.625 5     22738.05946  23479633.96146
  20478356.977 7      5192.168 7      3756.88749  20478356.61749
 20  5 16  2 11  7.0000000  0  7G04G08G09G11G16G26G27               -0.000099230
  21766174.609 6     -4704.188 6     -3763.07048  21766173.34848
  20312364.602 7   -349465.734 7   -257924.30549  20312365.09849
  22699665.625 6   -306109.957 6   -223625.66049  22699665.83249
  22235699.789 6   -710298.207 6   -536125.73448  22235696.84448
  21911725.977 6    -36086.898 6    -27506.93048  21911723.34048
  23479665.203 5     32924.113 5     22869.35246  23479665.80546
  20478362.234 7      5218.387 7      3777.31349  20478361.69149
 20  5 16  2 11  8.0000000  0  7G04G08G09G11G16G26G27               -0.000100233
  21766168.516 6     -4732.938 6     -3785.47748  21766168.01248
  20311971.172 7   -351533.617 7   -259535.64549  20311971.72749
  22699312.266 6   -307965.813 6   -225071.77749  22699312.03549
  22234813.383 6   -714953.582 6   -539753.29748  22234811.23848
  21911677.133 6    -36342.508 6    -27706.10248  21911674.66448
  23479697.305 5     33092.230 5     23000.34847  23479697.68847
  20478366.820 7      5244.664 7      3797.79349  20478366.83249
 20  5 16  2 11  9.0000000  0  7G04G08G09G11G16G26G27               -0.000101234
  21766163.344 6     -4761.590 6     -3807.80548  21766162.25448
  20311577.914 7   -353601.363 7   -261146.87549  20311577.88749
  22698959.398 6   -309821.539 6   -226517.79749  22698959.09449
  22233928.477 6   -719609.078 6   -543380.96148  22233925.11348
  21911628.625 6    -36598.480 6    -27905.56648  21911625.97748
  23479729.852 5     33260.012 5     23131.08247  23479729.68047
  20478372.398 7      5271.008 7      3818.32049  20478371.63749
 20  5 16  2 11 10.0000000  0  7G04G08G09G11G16G26G27               -0.000102236
  21766157.859 6     -4789.898 6     -3829.85948  21766157.22748
  20311184.180 7   -355668.668 7   -262757.76249  20311184.56349
  22698606.523 6   -311676.750 6   -227963.41849  22698605.89849
  22233042.586 6   -724264.441 6   -547008.51648  22233039.14548
  21911579.617 6    -36854.500 6    -28105.06648  21911577.09448
  23479761.219 5     33427.711 5     23261.75847  23479761.30147
  20478377.391 7      5297.715 7      3839.13349  20478376.85549
 20  5 16  2 11 11.0000000  0  7G04G08G09G11G16G26G27               -0.000103237
  21766152.813 6     -4818.102 6     -3851.84448  21766152.02348
  20310790.813 7   -357735.855 7   -264368.55549  20310791.27049
  22698253.094 6   -313531.785 6   -229408.89549  22698253.24649
  22232156.828 6   -728919.953 6   -550636.19148  22232153.43048
  21911531.383 6    -37110.910 6    -28304.85948  21911528.29348
  23479793.125 5     33595.000 5     23392.11747  23479793.69947
  20478382.359 7      5324.453 7      3859.96549  20478381.30949
 20  5 16  2 11 12.0000000  0  7G04G08G09G11G16G26G27               -0.000104240
  21766147.672 6     -4846.148 6     -3873.69948  21766146.76248
  20310397.469 7   -359802.813 7   -265979.17249  20310397.86349
  22697899.961 6   -315386.563 6   -230854.18049  22697900.86349
  22231270.641 6   -733575.480 6   -554263.87548  22231267.82848
  21911482.109 6    -37367.598 6    -28504.87548  21911479.35948
  23479824.758 5     33762.000 5     23522.24247  23479825.39147
  20478387.445 7      5351.363 7      3880.93849  20478386.48049
 20  5 16  2 11 13.0000000  0  7G04G08G09G11G16G26G27               -0.000105244
  21766142.563 6     -4874.090 6     -3895.46948  21766140.94948
  20310004.289 7   -361869.574 7   -267589.63749  20310004.59049
  22697547.477 6   -317241.098 6   -232299.27749  22697547.58249
  22230384.898 6   -738231.102 6   -557891.62948  22230381.45748
  21911433.016 6    -37624.582 6    -28705.12948  21911430.70748
  23479856.727 5     33928.711 5     23652.15247  23479857.13747
  20478392.297 7      5378.383 7      3901.99249  20478392.12549
 20  5 16  2 11 14.0000000  0  7G04G08G09G11G16G26G27               -0.000106245
  21766137.133 6     -4901.836 6     -3917.08648  21766135.97348
  20309610.680 7   -363936.113 7   -269199.92649  20309611.50049
  22697194.500 6   -319095.367 6   -233744.16449  22697194.90649
  22229498.914 6   -742886.777 6   -561519.43048  22229495.77048
  21911384.219 6    -37881.867 6    -28905.60948  21911381.40648
  23479888.336 5     34095.113 5     23781.81647  23479888.73847
  20478397.727 7      5405.512 7      3923.13349  20478397.25849
 20  5 16  2 11 15.0000000  0  7G04G08G09G11G16G26G27               -0.000107248
  21766131.883 6     -4929.586 6     -3938.71148  21766130.68048
  20309217.625 7   -366002.543 7   -270810.12549  20309218.30549
  22696841.984 6   -320949.523 6   -235188.96149  22696842.02049
  22228612.414 6   -747542.648 6   -565147.37948  22228609.44548
  21911335.016 6    -38139.555 6    -29106.40248  21911332.79348
  23479919.852 5     34261.090 5     23911.13346  23479920.49246
  20478402.672 7      5432.672 7      3944.29349  20478402.11349
 20  5 16  2 11 16.0000000  0  7G04G08G09G11G16G26G27               -0.000108252
  21766126.109 6     -4957.113 6     -3960.16048  21766124.90248
  20308824.398 7   -368068.688 7   -272420.11349  20308825.07049
  22696489.305 6   -322803.387 6   -236633.52349  22696489.05949
  22227726.922 6   -752198.500 6   -568775.31648  22227723.45348
  21911285.813 6    -38397.480 6    -29307.38348  21911283.39848
  23479951.063 5     34426.789 5     24040.24247  23479952.30947
  20478408.078 7      5460.016 7      3965.60249  20478407.69149
 20  5 16  2 11 17.0000000  0  7G04G08G09G11G16G26G27               -0.000109257
  21766121.586 6     -4984.504 6     -3981.50848  21766120.04748
  20308431.242 7   -370134.676 7   -274029.97749  20308431.68849
  22696135.977 6   -324656.996 6   -238077.89849  22696136.34049
  22226840.969 6   -756854.473 6   -572403.35248  22226837.57848
  21911237.445 6    -38655.711 6    -29508.60948  21911234.41448
  23479983.430 5     34592.184 5     24169.10947  23479983.78947
  20478413.422 7      5487.461 7      3986.98049  20478413.00849
 20  5 16  2 11 18.0000000  0  7G04G08G09G11G16G26G27               -0.000110260
  21766116.359 6     -5011.836 6     -4002.80548  21766115.18848
  20308037.805 7   -372200.527 7   -275639.72749  20308038.40649
  22695783.695 6   -326510.453 6   -239522.15249  22695783.48049
  22225954.781 6   -761510.570 6   -576031.48048  22225951.68048
  21911188.102 6    -38914.328 6    -29710.13348  21911185.20748
  23480014.266 5     34757.172 5     24297.66847  23480015.30547
  20478418.516 7      5514.961 7      4008.40649  20478417.99249
 20  5 16  2 11 19.0000000  0  7G04G08G09G11G16G26G27               -0.000111263
  21766110.531 6     -5039.117 6     -4024.07048  21766109.98848
  20307645.164 7   -374266.270 7   -277249.39849  20307645.57049
  22695430.656 6   -328363.738 6   -240966.27749  22695430.80549
  22225068.625 6   -766166.828 6   -579659.73448  22225065.87948
  21911138.742 6    -39173.316 6    -29911.94948  21911135.88348
  23480045.969 5     34921.785 5     24425.93847  23480046.83247
  20478423.922 7      5542.488 7      4029.85549  20478423.05149
 20  5 16  2 11 20.0000000  0  7G04G08G09G11G16G26G27               -0.000112268
  21766105.906 6     -5066.309 6     -4045.26248  21766104.51248
  20307252.031 7   -376331.828 7   -278858.91849  20307252.23849
  22695077.984 6   -330216.871 6   -242410.27749  22695078.72749
  22224182.375 6   -770823.230 6   -583288.09848  22224179.71948
  21911089.086 6    -39432.680 6    -30114.05148  21911086.62148
  23480076.617 5     35086.008 5     24553.90646  23480077.50046
  20478428.664 7      5570.066 7      4051.34449  20478428.47749
 20  5 16  2 11 21.0000000  0  7G04G08G09G11G16G26G27               -0.000113272
  21766100.289 6     -5093.328 6     -4066.31348  21766099.30948
  20306859.008 7   -378397.129 7   -280468.24649  20306859.79349
  22694725.727 6   -332069.680 6   -243854.01649  22694726.07049
  22223296.359 6   -775479.637 6   -586916.46548  22223293.21948
  21911039.930 6    -39692.281 6    -30316.33648  21911037.45348
  23480107.883 5     35249.980 5     24681.68447  23480109.20347
  20478434.281 7      5597.820 7      4072.96949  20478433.89149
 20  5 16  2 11 22.0000000  0  7G04G08G09G11G16G26G27               -0.000114277
  21766095.484 6     -5120.172 6     -4087.23048  21766094.33248
  20306465.859 7   -380462.203 7   -282077.39549  20306466.44149
  22694373.641 6   -333922.230 6   -245297.55949  22694373.29749
  22222410.320 6   -780136.105 6   -590544.87548  22222407.56648
  21910990.664 6    -39952.180 6    -30518.85948  21910987.33648
  23480139.633 5     35413.637 5     24809.19947  23480139.95747
  20478439.281 7      5625.719 7      4094.71149  20478438.68849
 20  5 16  2 11 23.0000000  0  7G04G08G09G11G16G26G27               -0.000115282
  21766090.305 6     -5146.871 6     -4108.03948  21766089.41048
  20306072.977 7   -382527.070 7   -283686.38349  20306073.36349
  22694021.031 6   -335774.547 6   -246740.91849  22694021.34449
  22221524.063 6   -784792.625 6   -594173.32848  22221521.35948
  21910941.094 6    -40212.371 6    -30721.60248  21910938.19148
  23480170.484 5     35577.020 5     24936.50447  23480171.11347
  20478444.891 7      5653.727 7      4116.53149  20478444.00849
 20  5 16  2 11 24.0000000  0  7G04G08G09G11G16G26G27               -0.000116287
  21766084.844 6     -5173.508 6     -4128.78948  21766084.35548
  20305680.281 7   -384591.801 7   -285295.26249  20305681.06649
  22693667.820 6   -337626.684 6   -248184.14549  22693667.96549
  22220637.695 6   -789449.324 6   -597801.93048  22220635.09048
  21910891.039 6    -40472.938 6    -30924.63748  21910888.57848
  23480201.875 5     35739.965 5     25063.48446  23480202.20746
  20478449.867 7      5681.789 7      4138.39849  20478449.67649
 20  5 16  2 11 25.0000000  0  7G04G08G09G11G16G26G27               -0.000117292
  21766079.641 6     -5199.977 6     -4149.42248  21766078.95748
  20305287.305 7   -386656.246 7   -286903.91849  20305287.49249
  22693315.414 6   -339478.520 6   -249627.14149  22693316.24249
  22219751.570 6   -794106.039 6   -601430.54748  22219749.15248
  21910841.797 6    -40733.742 6    -31127.86348  21910838.80148
  23480231.930 5     35902.664 5     25190.26647  23480233.25447
  20478455.508 7      5710.020 7      4160.39849  20478455.04349
 20  5 16  2 11 26.0000000  0  7G04G08G09G11G16G26G27               -0.000118298
  21766075.055 6     -5226.191 6     -4169.84848  21766074.43448
  20304894.281 7   -388720.430 7   -288512.37549  20304894.69549
  22692963.438 6   -341330.051 6   -251069.89149  22692964.07049
  22218865.219 6   -798762.719 6   -605059.12948  22218863.51248
  21910791.773 6    -40994.773 6    -31331.26648  21910789.52748
  23480262.680 5     36065.152 5     25316.87047  23480264.01647
  20478461.078 7      5738.449 7      4182.54749  20478460.55149
 20  5 16  2 11 27.0000000  0  7G04G08G09G11G16G26G27               -0.000119303
  21766070.172 6     -5252.305 6     -4190.19548  21766068.99248
  20304501.789 7   -390784.422 7   -290120.68049  20304502.30949
  22692610.539 6   -343181.352 6   -252512.46149  22692611.66049
  22217978.711 6   -803419.508 6   -608687.79748  22217976.34048
  21910742.219 6    -41256.137 6    -31534.92648  21910739.60248
  23480293.898 5     36227.285 5     25443.20347  23480294.95347
  20478466.484 7      5766.992 7      4204.78549  20478465.87149
 20  5 16  2 11 28.0000000  0  7G04G08G09G11G16G26G27               -0.000120310
  21766065.055 6     -5278.316 6     -4210.46148  21766064.34048
  20304109.125 7   -392848.250 7   -291728.85949  20304109.40249
  22692258.672 6   -345032.465 6   -253954.88749  22692259.30549
  22217092.813 6   -808076.387 6   -612316.53148  22217090.40248
  21910692.250 6    -41517.840 6    -31738.85248  21910689.92648
  23480324.570 5     36389.059 5     25569.26247  23480325.80947
  20478472.227 7      5795.598 7      4227.07449  20478471.26249
 20  5 16  2 11 29.0000000  0  7G04G08G09G11G16G26G27               -0.000121315
  21766060.141 6     -5304.367 6     -4230.75848  21766059.21948
  20303716.398 7   -394912.039 7   -293337.00849  20303716.83649
  22691906.672 6   -346883.445 6   -255397.19949  22691906.99649
  22216206.906 6   -812733.480 6   -615945.44548  22216204.44548
  21910642.711 6    -41779.996 6    -31943.12948  21910639.66848
  23480355.656 5     36550.391 5     25694.96547  23480356.81347
  20478477.289 7      5824.172 7      4249.34449  20478476.71949
 20  5 16  2 11 30.0000000  0  7G04G08G09G11G16G26G27               -0.000122322
  21766055.125 6     -5330.148 6     -4250.84848  21766054.25448
  20303323.625 7   -396975.547 7   -294944.93849  20303323.96549
  22691554.250 6   -348734.121 6   -256839.29349  22691554.65649
  22215320.367 6   -817390.598 6   -619574.36348  22215318.44548
  21910592.672 6    -42042.367 6    -32147.57448  21910590.18848
  23480386.180 5     36711.453 5     25820.46147  23480387.28947
  20478483.031 7      5852.934 7      4271.75449  20478482.73049
 20  5 16  2 11 31.0000000  0  7G04G08G09G11G16G26G27               -0.000123329
  21766050.102 6     -5355.797 6     -4270.83648  21766049.50048
  20302931.219 7   -399038.813 7   -296552.68449  20302931.43049
  22691201.898 6   -350584.535 6   -258281.17649  22691202.43449
  22214434.336 6   -822047.766 6   -623203.32448  22214432.00448
  21910542.656 6    -42305.035 6    -32352.25848  21910539.50848
  23480417.008 5     36872.258 5     25945.76646  23480417.71546
  20478487.867 7      5881.848 7      4294.28149  20478487.46949
 20  5 16  2 11 32.0000000  0  7G04G08G09G11G16G26G27               -0.000124336
  21766045.664 6     -5381.195 6     -4290.62948  21766044.43848
  20302538.586 7   -401101.762 7   -298160.16849  20302539.00849
  22690849.930 6   -352434.609 6   -259722.80149  22690850.52749
  22213548.336 6   -826704.879 6   -626832.24648  22213545.37148
  21910492.797 6    -42567.875 6    -32557.07448  21910489.81648
  23480447.266 5     37032.824 5     26070.87547  23480448.23047
  20478493.766 7      5911.000 7      4317.00449  20478493.27749
 20  5 16  2 11 33.0000000  0  7G04G08G09G11G16G26G27               -0.000125343
  21766040.875 6     -5406.570 6     -4310.39848  21766039.88748
  20302145.594 7   -403164.629 7   -299767.60249  20302146.28949
  22690498.289 6   -354284.559 6   -261164.32049  22690498.48849
  22212661.586 6   -831362.188 6   -630461.31348  22212659.36748
  21910442.852 6    -42831.172 6    -32762.23448  21910439.85248
  23480477.727 5     37193.000 5     26195.69547  23480479.07847
  20478499.422 7      5940.102 7      4339.67649  20478498.69549
 20  5 16  2 11 34.0000000  0  7G04G08G09G11G16G26G27               -0.000126350
  21766036.586 6     -5431.738 6     -4330.02048  21766034.75048
  20301753.445 7   -405227.195 7   -301374.79349  20301753.87949
  22690146.281 6   -356134.191 6   -262605.59049  22690146.89549
  22211775.672 6   -836019.473 6   -634090.36348  22211772.95348
  21910392.625 6    -43094.656 6    -32967.54348  21910389.99648
  23480507.820 5     37352.937 5     26320.32247  23480509.37947
  20478504.945 7      5969.457 7      4362.54749  20478504.73049
 20  5 16  2 11 35.0000000  0  7G04G08G09G11G16G26G27               -0.000127357
  21766031.430 6     -5456.770 6     -4349.52048  21766030.43448
  20301360.969 7   -407289.594 7   -302981.85249  20301360.85549
  22689793.945 6   -357983.586 6   -264046.68049  22689794.55949
  22210889.188 6   -840676.855 6   -637719.50048  22210886.76648
  21910342.523 6    -43358.461 6    -33173.09848  21910339.65648
  23480539.320 5     37512.473 5     26444.62147  23480539.67247
  20478510.766 7      5998.898 7      4385.49649  20478510.05149
 20  5 16  2 11 36.0000000  0  7G04G08G09G11G16G26G27               -0.000128365
  21766026.734 6     -5481.691 6     -4368.94548  21766025.21548
  20300968.297 7   -409351.805 7   -304588.77349  20300968.77049
  22689442.039 6   -359832.773 6   -265487.60249  22689442.92249
  22210002.930 6   -845334.340 6   -641348.70748  22210000.43848
  21910292.211 6    -43622.605 6    -33378.93848  21910289.42248
  23480569.180 5     37671.707 5     26568.69947  23480570.45347
  20478516.141 7      6028.414 7      4408.49249  20478515.61749
 20  5 16  2 11 37.0000000  0  7G04G08G09G11G16G26G27               -0.000129374
  21766021.617 6     -5506.461 6     -4388.24248  21766021.10548
  20300575.828 7   -411413.789 7   -306195.52349  20300576.27749
  22689090.445 5   -361681.711 5   -266928.32849  22689091.10249
  22209116.703 6   -849991.910 6   -644977.97748  22209114.87148
  21910241.516 6    -43887.051 6    -33584.99648  21910238.73048
  23480599.289 5     37830.648 5     26692.55147  23480600.20747
  20478521.430 7      6058.082 7      4431.60949  20478521.20749
 20  5 16  2 11 38.0000000  0  7G04G08G09G11G16G26G27               -0.000130381
  21766017.023 6     -5530.938 6     -4407.32048  21766016.03548
  20300183.648 7   -413475.398 7   -307801.96549  20300184.34849
  22688738.313 6   -363530.234 6   -268368.73849  22688739.59049
  22208230.250 6   -854649.313 6   -648607.12548  22208228.02348
  21910191.398 6    -44151.598 6    -33791.14148  21910188.82048
  23480629.289 5     37989.469 5     26816.29747  23480630.70747
  20478527.516 7      6088.039 7      4454.96149  20478527.02049
 20  5 16  2 11 39.0000000  0  7G04G08G09G11G16G26G27               -0.000131390
  21766012.250 6     -5555.207 6     -4426.23048  21766011.62148
  20299791.359 7   -415536.758 7   -309408.22349  20299791.93049
  22688386.648 5   -365378.461 5   -269808.91849  22688387.78149
  22207344.320 6   -859306.770 6   -652236.30548  22207341.56648
  21910140.672 6    -44416.430 6    -33997.50048  21910138.10948
  23480659.219 5     38148.008 5     26939.82847  23480660.91847
  20478533.344 7      6118.152 7      4478.43049  20478533.13749
 20  5 16  2 11 40.0000000  0  7G04G08G09G11G16G26G27               -0.000132397
  21766007.828 6     -5579.254 6     -4444.97348  21766007.48848
  20299399.375 7   -417597.820 7   -311014.25049  20299399.71549
  22688035.141 5   -367226.344 5   -271248.82049  22688036.10949
  22206458.039 6   -863964.203 6   -655865.47748  22206455.46148
  21910090.320 6    -44681.445 6    -34204.01648  21910087.69548
  23480689.469 5     38306.332 5     27063.19547  23480690.91847
  20478539.188 7      6148.461 7      4502.03949  20478538.52349
 20  5 16  2 11 41.0000000  0  7G04G08G09G11G16G26G27               -0.000133406
  21766003.180 6     -5603.121 6     -4463.57048  21766002.73048
  20299007.102 7   -419658.641 7   -312620.08249  20299007.64549
  22687683.523 5   -369073.965 5   -272688.53149  22687684.69949
  22205571.930 6   -868621.668 6   -659494.68048  22205569.00848
  21910039.813 6    -44946.742 6    -34410.73448  21910037.14148
  23480720.047 5     38464.332 5     27186.30947  23480721.14847
  20478544.734 7      6178.969 7      4525.80949  20478544.32449
 20  5 16  2 11 42.0000000  0  7G04G08G09G11G16G26G27               -0.000134415
  21765998.859 6     -5626.820 6     -4482.03948  21765998.03948
  20298614.938 7   -421719.227 7   -314225.73449  20298615.58649
  22687332.109 5   -370921.281 5   -274128.00449  22687332.61349
  22204685.367 6   -873279.199 6   -663123.91848  22204682.91848
  21909989.016 6    -45212.301 6    -34617.66448  21909986.53148
  23480750.016 5     38622.113 5     27309.24647  23480750.49647
  20478550.836 7      6209.582 7      4549.66449  20478550.21949
 20  5 16  2 11 43.0000000  0  7G04G08G09G11G16G26G27               -0.000135424
  21765994.352 6     -5650.289 6     -4500.32848  21765993.89548
  20298222.820 7   -423779.520 7   -315831.15649  20298223.37149
  22686980.563 5   -372768.273 5   -275567.21949  22686981.37149
  22203799.188 6   -877936.695 6   -666753.12948  22203796.54348
  21909938.922 6    -45478.070 6    -34824.76248  21909936.38348
  23480780.258 5     38779.660 5     27432.02047  23480781.34447
  20478556.695 7      6240.426 7      4573.69949  20478556.09449
 20  5 16  2 11 44.0000000  0  7G04G08G09G11G16G26G27               -0.000136433
  21765990.086 6     -5673.750 6     -4518.61348  21765989.44548
  20297831.039 7   -425839.734 7   -317436.52049  20297831.59849
  22686628.828 6   -374615.172 6   -277006.35549  22686629.92249
  22202912.750 6   -882594.398 6   -670382.51248  22202910.42248
  21909888.438 6    -45744.281 6    -35032.20348  21909885.48848
  23480809.086 5     38936.719 5     27554.40247  23480810.82447
  20478562.414 7      6271.223 7      4597.69549  20478561.74249
 20  5 16  2 11 45.0000000  0  7G04G08G09G11G16G26G27               -0.000137442
  21765985.297 6     -5697.066 6     -4536.77748  21765985.02048
  20297438.797 7   -427899.711 7   -319041.69549  20297439.22349
  22686277.781 6   -376461.809 6   -278445.29749  22686278.53949
  22202026.695 6   -887252.148 6   -674011.91848  22202024.10548
  21909837.344 6    -46010.773 6    -35239.86348  21909834.53548
  23480839.250 5     39093.496 5     27676.56647  23480840.67247
  20478568.305 7      6302.172 7      4621.80549  20478567.99249
 20  5 16  2 11 46.0000000  0  7G04G08G09G11G16G26G27               -0.000138453
  21765980.961 6     -5720.242 6     -4554.83648  21765980.25448
  20297047.094 7   -429959.492 7   -320646.72349  20297047.35949
  22685926.664 6   -378308.211 6   -279884.05149  22685927.21549
  22201140.625 6   -891909.992 6   -677641.40248  22201138.10948
  21909786.711 6    -46277.602 6    -35447.78148  21909783.89848
  23480868.945 5     39249.957 5     27798.48447  23480870.56347
  20478573.938 7      6333.254 7      4646.02749  20478573.47749
 20  5 16  2 11 47.0000000  0  7G04G08G09G11G16G26G27               -0.000139462
  21765976.898 6     -5743.145 6     -4572.68848  21765976.20748
  20296655.156 7   -432018.930 7   -322251.47749  20296655.19549
  22685575.266 6   -380154.227 6   -281322.50449  22685576.31649
  22200254.250 6   -896567.746 6   -681270.82048  22200251.32048
  21909736.086 6    -46544.551 6    -35655.78548  21909733.26648
  23480899.047 5     39406.230 5     27920.25047  23480899.59847
  20478580.344 7      6364.582 7      4670.43449  20478579.68049
 20  5 16  2 11 48.0000000  0  7G04G08G09G11G16G26G27               -0.000140472
  21765972.320 6     -5766.008 6     -4590.50448  21765971.81348
  20296263.336 7   -434078.273 7   -323856.16049  20296263.62549
  22685224.500 6   -382000.090 6   -282760.84449  22685225.14149
  22199367.641 6   -901225.645 6   -684900.35248  22199364.73848
  21909685.039 6    -46811.910 6    -35864.11348  21909682.22748
  23480928.102 5     39562.133 5     28041.73447  23480929.91447
  20478586.195 7      6395.926 7      4694.86349  20478585.46549
 20  5 16  2 11 49.0000000  0  7G04G08G09G11G16G26G27               -0.000141481
  21765967.992 6     -5788.719 6     -4608.20748  21765967.41848
  20295871.328 7   -436137.398 7   -325460.67649  20295871.60549
  22684873.195 6   -383845.711 6   -284198.98849  22684873.34849
  22198481.133 6   -905883.641 6   -688529.96148  22198478.32848
  21909633.930 6    -47079.570 6    -36072.68448  21909631.34448
  23480958.508 5     39717.660 5     28162.91847  23480959.39147
  20478592.219 7      6427.363 7      4719.35949  20478591.56349
 20  5 16  2 11 50.0000000  0  7G04G08G09G11G16G26G27               -0.000142492
  21765963.813 6     -5811.383 6     -4625.86748  21765963.00048
  20295479.625 7   -438196.375 7   -327065.07049  20295479.95749
  22684521.734 6   -385691.176 6   -285637.01249  22684522.63749
  22197594.789 6   -910541.777 6   -692159.67648  22197592.62148
  21909582.938 6    -47347.613 6    -36281.54748  21909580.26248
  23480987.680 5     39872.852 5     28283.84447  23480988.90647
  20478598.406 7      6458.871 7      4743.90649  20478597.89549
 20  5 16  2 11 51.0000000  0  7G04G08G09G11G16G26G27               -0.000143503
  21765959.680 6     -5833.957 6     -4643.45348  21765959.14848
  20295087.820 7   -440255.211 7   -328669.35949  20295088.21549
  22684170.641 6   -387536.453 6   -287074.89149  22684171.24249
  22196708.070 6   -915200.043 6   -695789.49248  22196705.60948
  21909532.063 6    -47616.000 6    -36490.67648  21909528.91448
  23481017.391 5     40027.660 5     28404.47347  23481018.37147
  20478604.102 7      6490.414 7      4768.49249  20478603.72749
 20  5 16  2 11 52.0000000  0  7G04G08G09G11G16G26G27               -0.000144514
  21765955.125 6     -5856.340 6     -4660.89848  21765954.72348
  20294695.813 7   -442313.785 7   -330273.44149  20294696.55149
  22683819.664 6   -389381.441 6   -288512.54749  22683819.92249
  22195821.938 6   -919858.309 6   -699419.30948  22195819.29748
  21909481.023 6    -47884.625 6    -36699.99648  21909477.67648
  23481046.516 5     40182.223 5     28524.91847  23481047.16447
  20478609.898 7      6522.168 7      4793.22749  20478609.44949
 20  5 16  2 11 53.0000000  0  7G04G08G09G11G16G26G27               -0.000145525
  21765950.852 6     -5878.578 6     -4678.23448  21765950.30148
  20294304.227 7   -444372.156 7   -331877.37149  20294304.87149
  22683468.398 6   -391226.172 6   -289949.99649  22683469.21949
  22194935.445 6   -924516.641 6   -703049.18048  22194932.79748
  21909429.703 6    -48153.559 6    -36909.55948  21909426.42648
  23481075.750 5     40336.465 5     28645.10247  23481077.41447
  20478616.383 7      6554.020 7      4818.04349  20478615.91049
 20  5 16  2 11 54.0000000  0  7G04G08G09G11G16G26G27               -0.000146538
  21765946.305 6     -5900.703 6     -4695.47348  21765946.17248
  20293912.656 7   -446430.352 7   -333481.15649  20293913.39149
  22683117.547 6   -393070.695 6   -291387.28949  22683118.07849
  22194049.000 6   -929175.047 6   -706679.11348  22194046.45348
  21909378.961 6    -48422.832 6    -37119.38348  21909375.51648
  23481105.305 5     40490.367 5     28765.02347  23481106.15247
  20478621.813 7      6585.957 7      4842.93449  20478621.62149
 20  5 16  2 11 55.0000000  0  7G04G08G09G11G16G26G27               -0.000147549
  21765942.336 6     -5922.516 6     -4712.46948  21765941.48448
  20293521.195 7   -448488.137 7   -335084.62549  20293521.36749
  22682766.539 6   -394914.770 6   -292824.23049  22682767.18849
  22193162.516 6   -933833.379 6   -710308.97748  22193160.30548
  21909327.359 6    -48692.215 6    -37329.30548  21909324.05948
  23481134.633 5     40644.121 5     28884.82847  23481136.04347
  20478628.414 7      6618.203 7      4868.05549  20478627.61749
 20  5 16  2 11 56.0000000  0  7G04G08G09G11G16G26G27               -0.000148560
  21765938.242 6     -5944.313 6     -4729.45348  21765937.52748
  20293129.422 7   -450545.813 7   -336688.00849  20293130.19149
  22682415.438 6   -396758.730 6   -294261.08649  22682416.41449
  22192275.898 6   -938491.859 6   -713938.95748  22192273.40248
  21909275.820 6    -48962.012 6    -37539.53148  21909272.69148
  23481164.516 5     40797.512 5     29004.34847  23481165.12947
  20478634.578 7      6650.453 7      4893.19149  20478634.18449
 20  5 16  2 11 57.0000000  0  7G04G08G09G11G16G26G27               -0.000149572
  21765934.586 6     -5965.906 6     -4746.28548  21765933.70748
  20292738.320 7   -452603.254 7   -338291.21149  20292738.74649
  22682064.844 6   -398602.402 6   -295697.71549  22682065.68049
  22191389.641 6   -943150.371 6   -717568.97348  22191386.75448
  21909224.227 6    -49232.078 6    -37749.97348  21909221.26648
  23481192.664 5     40950.547 5     29123.59847  23481193.71147
  20478640.625 7      6682.883 7      4918.46549  20478640.07049
 20  5 16  2 11 58.0000000  0  7G04G08G09G11G16G26G27               -0.000150585
  21765930.148 6     -5987.316 6     -4762.97348  21765929.66848
  20292346.398 7   -454660.441 7   -339894.21149  20292346.79749
  22681714.258 6   -400445.750 6   -297134.09449  22681714.96149
  22190503.195 6   -947808.906 6   -721199.00048  22190500.61348
  21909173.172 6    -49502.363 6    -37960.58648  21909169.94148
  23481222.133 5     41103.367 5     29242.68047  23481223.26247
  20478646.938 7      6715.449 7      4943.84049  20478646.25849
 20  5 16  2 11 59.0000000  0  7G04G08G09G11G16G26G27               -0.000151596
  21765925.984 6     -6008.648 6     -4779.59048  21765925.42648
  20291954.984 7   -456717.480 7   -341497.10249  20291955.38749
  22681362.867 5   -402288.957 5   -298570.35249  22681364.07449
  22189616.648 6   -952467.563 6   -724829.12548  22189614.02748
  21909121.469 6    -49773.020 6    -38171.48048  21909118.37548
  23481251.102 5     41255.832 5     29361.48047  23481251.70347
  20478653.102 7      6748.102 7      4969.28149  20478653.10949
 20  5 16  2 12  0.0000000  0  7G04G08G09G11G16G26G27               -0.000152609
  21765922.313 6     -6029.863 6     -4796.11748  21765921.80148
  20291563.641 7   -458774.355 7   -343099.86349  20291564.00849
  22681012.664 6   -404131.941 6   -300006.44549  22681013.10949
  22188730.070 6   -957126.324 6   -728459.32848  22188727.11348
  21909069.891 6    -50044.008 6    -38382.64148  21909067.00848
  23481279.852 5     41407.941 5     29480.00847  23481281.07447
  20478659.586 7      6780.832 7      4994.78149  20478658.91049
 20  5 16  2 12  1.0000000  0  7G04G08G09G11G16G26G27               -0.000153622
  21765918.148 6     -6051.125 6     -4812.68048  21765917.51648
  20291172.227 7   -460831.176 7   -344702.58249  20291172.70349
  22680661.969 6   -405974.816 6   -301442.45749  22680662.84449
  22187843.516 6   -961785.309 6   -732089.70348  22187840.87148
  21909018.375 6    -50315.461 6    -38594.16848  21909015.25048
  23481308.164 5     41559.578 5     29598.16047  23481309.73847
  20478665.531 7      6813.508 7      5020.23849  20478665.14149
 20  5 16  2 12  2.0000000  0  7G04G08G09G11G16G26G27               -0.000154636
  21765913.984 6     -6072.234 6     -4829.13748  21765913.42648
  20290780.898 7   -462887.805 7   -346305.15249  20290781.23449
  22680311.180 6   -407817.488 6   -302878.30549  22680312.02349
  22186956.766 6   -966444.367 6   -735720.12948  22186954.50848
  21908966.445 6    -50587.207 6    -38805.91448  21908963.60548
  23481337.820 5     41710.891 5     29716.06347  23481338.48847
  20478671.664 7      6846.297 7      5045.78549  20478671.61349
 20  5 16  2 12  3.0000000  0  7G04G08G09G11G16G26G27               -0.000155649
  21765909.766 6     -6093.070 6     -4845.37148  21765909.36748
  20290389.648 7   -464944.098 7   -347907.46149  20290390.57849
  22679960.469 6   -409659.766 6   -304313.84449  22679961.33249
  22186070.281 6   -971103.355 6   -739350.50848  22186067.55148
  21908914.672 6    -50859.125 6    -39017.79748  21908911.93448
  23481366.016 5     41862.039 5     29833.83647  23481367.42647
  20478678.156 7      6879.352 7      5071.55149  20478677.85549
 20  5 16  2 12  4.0000000  0  7G04G08G09G11G16G26G27               -0.000156662
  21765905.961 6     -6113.656 6     -4861.41448  21765905.49648
  20289998.383 7   -467000.078 7   -349509.52349  20289999.02349
  22679609.953 6   -411501.676 6   -305749.09849  22679610.98849
  22185183.867 6   -975762.305 6   -742980.85548  22185181.04348
  21908862.805 6    -51131.234 6    -39229.83248  21908860.14848
  23481394.984 5     42012.961 5     29951.44547  23481396.21147
  20478684.633 7      6912.625 7      5097.47749  20478684.05549
 20  5 16  2 12  5.0000000  0  7G04G08G09G11G16G26G27               -0.000157675
  21765902.188 6     -6134.102 6     -4877.35248  21765901.74248
  20289607.008 7   -469055.824 7   -351111.39849  20289607.84849
  22679259.594 6   -413343.352 6   -307184.17249  22679260.53149
  22184297.484 6   -980421.301 6   -746611.24648  22184294.74248
  21908811.258 6    -51403.629 6    -39442.09448  21908808.28548
  23481423.070 5     42163.609 5     30068.82847  23481424.56647
  20478690.930 7      6946.039 7      5123.50849  20478690.35949
 20  5 16  2 12  6.0000000  0  7G04G08G09G11G16G26G27               -0.000158689
  21765898.680 6     -6154.277 6     -4893.07848  21765897.64548
  20289215.680 7   -471111.223 7   -352713.01249  20289216.11749
  22678908.852 6   -415184.668 6   -308618.96149  22678910.19149
  22183410.859 6   -985080.242 6   -750241.58248  22183408.10248
  21908759.195 6    -51676.207 6    -39654.49248  21908756.36348
  23481452.406 5     42314.051 5     30186.05147  23481453.23047
  20478697.273 7      6979.672 7      5149.71549  20478696.55949
 20  5 16  2 12  7.0000000  0  7G04G08G09G11G16G26G27               -0.000159704
  21765894.695 6     -6174.320 6     -4908.69548  21765894.24248
  20288824.641 7   -473166.430 7   -354314.47349  20288825.34449
  22678558.797 6   -417025.715 6   -310053.54749  22678559.81649
  22182524.273 6   -989739.254 6   -753871.98448  22182521.34048
  21908707.164 6    -51949.063 6    -39867.10948  21908704.40648
  23481481.609 5     42464.172 5     30303.02347  23481481.71947
  20478703.508 7      7013.434 7      5176.02349  20478703.19949
 20  5 16  2 12  8.0000000  0  8G04G07G08G09G11G16G26G27            -0.000160717
  21765890.633 6     -6194.250 6     -4924.22348  21765890.19548
  24704544.84414   -183067.00814   -111106.27758  24704543.42658
  20288433.711 7   -475221.438 7   -355915.77349  20288434.46149
  22678208.273 6   -418866.543 6   -311487.96149  22678209.15249
  22181637.305 6   -994398.336 6   -757502.43848  22181635.12948
  21908655.320 6    -52222.262 6    -40079.98848  21908652.28148
  23481509.266 5     42614.000 5     30419.77347  23481510.58247
  20478710.281 7      7047.301 7      5202.41049  20478709.41049
 20  5 16  2 12  9.0000000  0  8G04G07G08G09G11G16G26G27            -0.000161732
  21765887.063 6     -6214.078 6     -4939.67648  21765886.75448
  24703601.453 4   -188023.410 4   -114968.40248  24703600.42648
  20288042.891 7   -477276.293 7   -357516.96549  20288043.57049
  22677858.234 6   -420707.172 6   -312922.22349  22677859.07049
  22180750.758 6   -999057.551 6   -761132.99648  22180748.37548
  21908603.297 6    -52495.789 6    -40293.12948  21908600.38748
  23481537.938 5     42763.457 5     30536.23447  23481538.90647
  20478716.586 7      7081.215 7      5228.83649  20478716.12549
 20  5 16  2 12 10.0000000  0  8G04G07G08G09G11G16G26G27            -0.000162746
  21765883.039 6     -6233.664 6     -4954.93848  21765883.10948
  24702658.281 4   -192980.137 4   -118830.78148  24702657.25048
  20287651.820 7   -479330.828 7   -359117.90249  20287652.47349
  22677507.953 6   -422547.453 6   -314356.20749  22677509.14549
  22179864.313 6  -1003716.703 6   -764763.50848  22179861.37948
  21908551.211 6    -52769.523 6    -40506.43048  21908548.46148
  23481566.234 5     42912.691 5     30652.51647  23481567.37147
  20478723.148 7      7115.367 7      5255.44949  20478722.08249
 20  5 16  2 12 11.0000000  0  8G04G07G08G09G11G16G26G27            -0.000163761
  21765879.156 6     -6253.109 6     -4970.09448  21765878.90248
  24701714.500 4   -197937.180 4   -122693.40648  24701714.10948
  20287260.969 7   -481385.156 7   -360718.67649  20287261.59049
  22677157.477 6   -424387.512 6   -315790.02049  22677158.89849
  22178977.680 6  -1008375.934 6   -768394.07848  22178975.08248
  21908499.586 6    -53043.563 6    -40719.96548  21908496.26248
  23481594.625 5     43061.617 5     30768.55547  23481595.57847
  20478729.266 7      7149.633 7      5282.15249  20478728.91849
 20  5 16  2 12 12.0000000  0  8G04G07G08G09G11G16G26G27            -0.000164776
  21765875.703 6     -6272.582 6     -4985.26648  21765875.43048
  24700771.492 4   -202894.797 4   -126556.47748  24700770.53548
  20286869.922 7   -483439.449 7   -362319.41849  20286870.41049
  22676807.680 6   -426227.441 6   -317223.73449  22676808.66449
  22178091.328 6  -1013035.379 6   -772024.81348  22178088.52748
  21908446.836 6    -53318.035 6    -40933.85248  21908444.00448
  23481622.617 5     43210.098 5     30884.26247  23481623.98447
  20478736.406 7      7183.879 7      5308.83649  20478735.34049
 20  5 16  2 12 13.0000000  0  8G04G07G08G09G11G16G26G27            -0.000165792
  21765872.406 6     -6291.801 6     -5000.24248  21765871.67648
  24699828.250 4   -207852.625 4   -130419.72348  24699827.25048
  20286479.234 7   -485493.434 7   -363919.92649  20286479.64849
  22676457.398 5   -428067.027 5   -318657.18049  22676458.37949
  22177204.516 6  -1017694.797 6   -775655.53148  22177202.05948
  21908394.852 6    -53592.695 6    -41147.87148  21908391.73848
  23481650.914 5     43358.348 5     30999.77147  23481652.12147
  20478742.734 7      7218.336 7      5335.68849  20478742.02049
 20  5 16  2 12 14.0000000  0  8G04G07G08G09G11G16G26G27            -0.000166807
  21765868.430 6     -6310.961 6     -5015.17648  21765867.83248
  24698884.820 4   -212810.953 4   -134283.35248  24698883.51248
  20286088.414 7   -487547.270 7   -365520.31649  20286088.91849
  22676107.523 5   -429906.461 5   -320090.50849  22676108.50849
  22176317.859 6  -1022354.344 6   -779286.34048  22176315.09848
  21908342.086 6    -53867.758 6    -41362.20348  21908339.22748
  23481679.320 5     43506.254 5     31115.02747  23481680.53547
  20478749.445 7      7252.824 7      5362.55949  20478748.71549
 20  5 16  2 12 15.0000000  0  8G04G07G08G09G11G16G26G27            -0.000167824
  21765864.422 6     -6329.883 6     -5029.92248  21765864.23448
  24697941.227 4   -217769.535 4   -138147.18048  24697940.10548
  20285697.703 7   -489600.836 7   -367120.50449  20285698.16049
  22675757.070 5   -431745.559 5   -321523.57049  22675758.31349
  22175430.844 6  -1027013.871 6   -782917.14148  22175427.98848
  21908289.977 6    -54143.000 6    -41576.67648  21908286.96948
  23481706.773 5     43653.891 5     31230.06347  23481708.40647
  20478756.070 7      7287.543 7      5389.61349  20478755.47749
 20  5 16  2 12 16.0000000  0  8G04G07G08G09G11G16G26G27            -0.000168839
  21765860.891 6     -6348.703 6     -5044.58648  21765860.94948
  24696997.102 4   -222728.559 4   -142011.35548  24696996.31648
  20285306.555 7   -491654.195 7   -368720.52349  20285307.46949
  22675407.641 5   -433584.465 5   -322956.48849  22675408.46149
  22174544.258 6  -1031673.477 6   -786548.00048  22174541.36748
  21908237.688 6    -54418.582 6    -41791.41848  21908234.74648
  23481734.945 5     43801.219 5     31344.87147  23481736.89547
  20478762.430 7      7322.336 7      5416.72349  20478761.74249
 20  5 16  2 12 17.0000000  0  8G04G07G08G09G11G16G26G27            -0.000169855
  21765857.664 6     -6367.289 6     -5059.06648  21765857.17648
  24696053.750 4   -227687.820 4   -145875.70748  24696053.03548
  20284916.227 7   -493707.242 7   -370320.29749  20284916.92649
  22675058.094 6   -435422.957 6   -324389.07849  22675058.66849
  22173657.625 6  -1036333.039 6   -790178.82448  22173655.51248
  21908184.867 6    -54694.352 6    -42006.30548  21908182.38348
  23481763.250 5     43948.332 5     31459.50047  23481764.35947
  20478769.234 7      7357.344 7      5444.00049  20478768.50849
 20  5 16  2 12 18.0000000  0  8G04G07G08G09G11G16G26G27            -0.000170872
  21765854.000 6     -6385.793 6     -5073.48448  21765853.83648
  24695109.516 4   -232647.555 4   -149740.43048  24695108.85248
  20284525.461 7   -495760.133 7   -371919.95349  20284526.14549
  22674707.773 5   -437261.313 5   -325821.56349  22674708.77349
  22172770.688 6  -1040992.730 6   -793809.75448  22172767.99648
  21908132.328 6    -54970.484 6    -42221.47748  21908129.84848
  23481791.242 5     44095.078 5     31573.84047  23481792.39547
  20478775.539 7      7392.410 7      5471.32449  20478775.16449
 20  5 16  2 12 19.0000000  0  8G04G07G08G09G11G16G26G27            -0.000171888
  21765850.992 6     -6404.078 6     -5087.73848  21765850.18448
  24694166.273 4   -237607.594 4   -153605.39148  24694165.23448
  20284135.219 7   -497812.746 7   -373519.39549  20284135.27749
  22674358.414 5   -439099.363 5   -327253.80949  22674359.37549
  22171884.102 6  -1045652.430 6   -797440.69148  22171881.43048
  21908080.125 6    -55246.840 6    -42436.81648  21908076.96948
  23481818.953 5     44241.598 5     31688.00447  23481820.09047
  20478782.695 7      7427.660 7      5498.78949  20478782.04349
 20  5 16  2 12 20.0000000  0  8G04G07G08G09G11G16G26G27            -0.000172905
  21765847.563 6     -6422.051 6     -5101.74248  21765846.56348
  24693221.867 4   -242567.840 4   -157470.50448  24693221.36348
  20283744.727 7   -499864.949 7   -375118.51249  20283744.93449
  22674008.797 5   -440936.961 5   -328685.70749  22674009.28149
  22170997.391 6  -1050312.027 6   -801071.54348  22170994.69948
  21908027.078 6    -55523.332 6    -42652.26648  21908024.56348
  23481846.805 5     44387.930 5     31802.03147  23481848.09047
  20478789.320 7      7463.211 7      5526.48849  20478788.68049
 20  5 16  2 12 21.0000000  0  8G04G07G08G09G11G16G26G27            -0.000173922
  21765843.914 6     -6440.113 6     -5115.82448  21765843.37948
  24692277.766 4   -247528.664 4   -161336.08248  24692277.08248
  20283354.109 7   -501917.160 7   -376717.64149  20283354.55149
  22673659.422 6   -442774.570 6   -330117.60949  22673659.53149
  22170110.313 6  -1054971.891 6   -804702.60548  22170107.77748
  21907974.750 6    -55800.328 6    -42868.10948  21907971.18048
  23481874.461 5     44533.750 5     31915.65647  23481876.12947
  20478796.109 7      7498.668 7      5554.11349  20478795.58649
 20  5 16  2 12 22.0000000  0  8G04G07G08G09G11G16G26G27            -0.000174938
  21765840.484 6     -6458.086 6     -5129.83248  21765840.31648
  24691333.875 4   -252489.875 4   -165201.96548  24691333.00448
  20282963.570 7   -503969.223 7   -378316.65649  20282964.03949
  22673309.906 5   -444611.977 5   -331549.35249  22673310.05549
  22169223.766 6  -1059631.852 6   -808333.74248  22169221.21548
  21907921.766 6    -56077.656 6    -43084.20748  21907918.91048
  23481902.344 5     44679.281 5     32029.05947  23481903.67647
  20478802.844 7      7534.184 7      5581.78149  20478802.19149
 20  5 16  2 12 23.0000000  0  8G04G07G08G09G11G16G26G27            -0.000175957
  21765837.094 6     -6475.992 6     -5143.78948  21765836.28548
  24690389.391 4   -257451.609 4   -169068.25448  24690388.59848
  20282573.031 7   -506021.168 7   -379915.57449  20282573.44949
  22672960.000 6   -446449.219 6   -332980.96949  22672960.34049
  22168336.719 6  -1064291.984 6   -811965.01648  22168334.36748
  21907868.883 6    -56355.422 6    -43300.64548  21907866.05548
  23481930.570 5     44824.316 5     32142.06647  23481931.12147
  20478809.672 7      7569.734 7      5609.48849  20478809.10949
 20  5 16  2 12 24.0000000  0  8G04G07G08G09G11G16G26G27            -0.000176973
  21765833.758 6     -6493.668 6     -5157.56348  21765833.11748
  24689445.234 4   -262413.645 4   -172934.76648  24689444.19548
  20282182.625 7   -508072.777 7   -381514.23049  20282183.19549
  22672610.219 5   -448286.066 5   -334412.28149  22672610.34449
  22167450.070 6  -1068952.059 6   -815596.23848  22167447.57848
  21907815.891 6    -56633.332 6    -43517.19948  21907813.01248
  23481957.617 5     44969.219 5     32254.98047  23481958.73047
  20478816.164 7      7605.520 7      5637.36749  20478815.82049
 20  5 16  2 12 25.0000000  0  8G04G07G08G09G11G16G26G27            -0.000177992
  21765830.164 6     -6511.195 6     -5171.21948  21765829.32448
  24688500.539 3   -267375.984 3   -176801.52048  24688500.10248
  20281792.359 7   -510124.160 7   -383112.71149  20281792.46149
  22672260.414 5   -450122.691 5   -335843.42249  22672260.85949
  22166563.250 6  -1073612.180 6   -819227.50848  22166560.85948
  21907762.656 6    -56911.535 6    -43733.98448  21907760.14148
  23481984.680 5     45113.816 5     32367.65247  23481986.01247
  20478822.813 7      7641.434 7      5665.35949  20478822.50449
 20  5 16  2 12 26.0000000  0  8G04G07G08G09G11G16G26G27            -0.000179010
  21765827.461 6     -6528.512 6     -5184.71548  21765826.05948
  24687556.320 3   -272338.617 3   -180668.50448  24687555.94148
  20281401.828 7   -512175.313 7   -384711.01649  20281402.31649
  22671911.188 5   -451959.016 5   -337274.32849  22671911.51649
  22165675.922 6  -1078272.313 6   -822858.78148  22165674.21948
  21907709.930 6    -57189.980 6    -43950.95748  21907707.03148
  23482012.500 5     45258.145 5     32480.11747  23482013.43847
  20478829.938 7      7677.516 7      5693.47749  20478829.32849
 20  5 16  2 12 27.0000000  0  8G04G07G08G09G11G16G26G27            -0.000180029
  21765823.789 6     -6545.539 6     -5197.98848  21765823.13748
  24686611.984 3   -277301.516 3   -184535.69148  24686611.19948
  20281011.672 7   -514226.051 7   -386308.98849  20281011.96149
  22671561.852 6   -453794.891 6   -338704.87549  22671562.14549
  22164789.898 6  -1082932.332 6   -826489.96548  22164786.96148
  21907657.242 6    -57468.535 6    -44168.01648  21907654.21148
  23482039.781 5     45402.344 5     32592.47747  23482041.09047
  20478836.797 7      7713.902 7      5721.82449  20478836.21949
 20  5 16  2 12 28.0000000  0  8G04G07G08G09G11G16G26G27            -0.000181047
  21765820.336 6     -6562.395 6     -5211.12548  21765819.52048
  24685667.328 3   -282264.738 3   -188403.14148  24685666.57848
  20280621.398 7   -516276.609 7   -387906.82849  20280621.89149
  22671212.688 6   -455630.574 6   -340135.28549  22671213.00849
  22163902.984 6  -1087592.410 6   -830121.18448  22163900.58248
  21907603.914 6    -57747.414 6    -44385.32048  21907601.15248
  23482067.336 5     45546.219 5     32704.59047  23482068.44147
  20478843.789 7      7750.359 7      5750.23049  20478843.24649
 20  5 16  2 12 29.0000000  0  8G04G07G08G09G11G16G26G27            -0.000182064
  21765817.000 6     -6579.227 6     -5224.24648  21765816.10548
  24684723.242 3   -287228.500 3   -192271.00448  24684722.35948
  20280231.070 7   -518327.063 7   -389504.58249  20280231.77349
  22670863.586 6   -457466.063 6   -341565.53149  22670863.50049
  22163015.273 6  -1092252.668 6   -833752.55548  22163013.48848
  21907550.930 6    -58026.680 6    -44602.93848  21907548.00048
  23482094.680 5     45689.719 5     32816.40647  23482096.10247
  20478850.953 7      7786.871 7      5778.68449  20478850.32449
 20  5 16  2 12 30.0000000  0  8G04G07G08G09G11G16G26G27            -0.000183084
  21765814.148 6     -6595.957 6     -5237.28548  21765813.24248
  24683777.766 3   -292192.625 3   -196139.14847  24683777.73047
  20279841.117 7   -520377.336 7   -391102.19949  20279841.10249
  22670514.492 6   -459301.363 6   -342995.63749  22670514.56649
  22162129.219 6  -1096913.004 6   -837383.98848  22162126.88348
  21907497.570 6    -58306.281 6    -44820.80148  21907495.13348
  23482122.094 5     45832.859 5     32927.94147  23482123.03947
  20478857.898 7      7823.453 7      5807.18849  20478857.38749
 20  5 16  2 12 31.0000000  0  8G04G07G08G09G11G16G26G27            -0.000184103
  21765810.805 6     -6612.535 6     -5250.20748  21765810.34448
  24682833.859 3   -297157.125 3   -200007.59848  24682832.74648
  20279450.828 7   -522427.387 7   -392699.64849  20279451.50049
  22670164.891 6   -461136.387 6   -344425.52349  22670164.82049
  22161242.570 6  -1101573.371 6   -841015.44148  22161239.78148
  21907444.227 6    -58586.133 6    -45038.86748  21907441.59448
  23482149.125 5     45975.699 5     33039.23447  23482150.53147
  20478865.133 7      7860.176 7      5835.79749  20478864.27349
 20  5 16  2 12 32.0000000  0  8G04G07G08G09G11G16G26G27            -0.000185123
  21765807.758 6     -6628.891 6     -5262.95748  21765807.14548
  24681889.289 3   -302121.906 3   -203876.25448  24681887.98848
  20279060.695 7   -524477.133 7   -394296.85249  20279061.27749
  22669815.703 6   -462971.105 6   -345855.17649  22669816.00049
  22160355.625 6  -1106233.738 6   -844646.90248  22160353.08248
  21907391.203 6    -58866.246 6    -45257.13748  21907388.23448
  23482176.289 5     46118.316 5     33150.35947  23482177.75847
  20478871.680 7      7897.121 7      5864.58649  20478871.09049
 20  5 16  2 12 33.0000000  0  8G04G07G08G09G11G16G26G27            -0.000186142
  21765804.586 6     -6644.996 6     -5275.50048  21765803.91448
  24680943.570 3   -307086.961 3   -207745.12548  24680943.24248
  20278670.828 7   -526526.543 7   -395893.79749  20278671.32449
  22669466.734 6   -464805.395 6   -347284.50049  22669466.62949
  22159468.875 6  -1110894.023 6   -848278.28948  22159466.37548
  21907337.516 6    -59146.500 6    -45475.51648  21907334.91848
  23482202.922 5     46260.824 5     33261.40247  23482205.11747
  20478879.188 7      7934.289 7      5893.55149  20478878.37949
 20  5 16  2 12 34.0000000  0  8G04G07G08G09G11G16G26G27            -0.000187160
  21765801.891 6     -6660.930 6     -5287.91448  21765800.81648
  24679999.578 3   -312052.348 3   -211614.25448  24679998.30148
  20278280.602 7   -528575.762 7   -397490.58249  20278281.25049
  22669118.273 6   -466639.496 6   -348713.66849  22669118.06349
  22158581.641 6  -1115554.363 6   -851909.72748  22158579.29748
  21907284.563 6    -59427.039 6    -45694.11748  21907281.59048
  23482229.883 5     46402.930 5     33372.12947  23482231.53547
  20478886.234 7      7971.578 7      5922.60549  20478885.20349
 20  5 16  2 12 35.0000000  0  8G04G07G08G09G11G16G26G27            -0.000188181
  21765799.109 6     -6676.617 6     -5300.14548  21765797.78148
  24679055.078 3   -317018.027 3   -215483.61348  24679053.25048
  20277890.992 7   -530624.633 7   -399087.10949  20277891.64849
  22668769.125 6   -468473.203 6   -350142.53149  22668768.74249
  22157695.102 6  -1120214.656 6   -855541.11748  22157692.60248
  21907231.047 6    -59707.773 6    -45912.87148  21907227.89548
  23482257.617 5     46544.898 5     33482.75047  23482258.75447
  20478893.133 7      8009.082 7      5951.83649  20478892.75049
 20  5 16  2 12 36.0000000  0  8G04G07G08G09G11G16G26G27            -0.000189201
  21765796.289 6     -6692.203 6     -5312.28948  21765794.59048
  24678109.156 3   -321984.102 3   -219353.28548  24678108.17648
  20277501.070 7   -532673.301 7   -400683.47349  20277501.92249
  22668419.891 6   -470306.707 6   -351571.23449  22668419.95349
  22156808.313 6  -1124875.004 6   -859172.55148  22156805.64848
  21907177.148 6    -59988.809 6    -46131.85948  21907174.79748
  23482284.227 5     46686.500 5     33593.08247  23482285.43047
  20478900.156 7      8046.715 7      5981.16049  20478899.70749
 20  5 16  2 12 37.0000000  0  8G04G07G08G09G11G16G26G27            -0.000190222
  21765793.203 6     -6707.723 6     -5324.38348  21765791.90648
  24677165.031 3   -326950.598 3   -223223.28548  24677163.41848
  20277111.469 7   -534721.852 7   -402279.75449  20277111.87549
  22668071.180 6   -472140.016 6   -352999.79749  22668071.11749
  22155921.383 6  -1129535.520 6   -862804.13348  22155918.85248
  21907123.977 6    -60270.227 6    -46351.15248  21907121.39548
  23482310.898 5     46827.766 5     33703.16047  23482312.53147
  20478906.906 7      8084.375 7      6010.50449  20478906.61349
 20  5 16  2 12 38.0000000  0  8G04G07G08G09G11G16G26G27            -0.000191242
  21765789.844 6     -6723.230 6     -5336.46948  21765788.75048
  24676219.969 4   -331917.660 4   -227093.71948  24676218.06348
  20276721.633 7   -536770.355 7   -403875.98049  20276722.30949
  22667722.141 6   -473973.250 6   -354428.28949  22667722.27749
  22155034.602 6  -1134196.246 6   -866435.86348  22155031.78548
  21907070.188 6    -60552.098 6    -46570.79748  21907067.84848
  23482337.977 5     46968.508 5     33812.82447  23482339.05947
  20478914.586 7      8122.004 7      6039.82849  20478914.23849
 20  5 16  2 12 39.0000000  0  8G04G07G08G09G11G16G26G27            -0.000192263
  21765786.883 6     -6738.633 6     -5348.47348  21765785.70348
  24675274.273 4   -336885.074 4   -230964.42248  24675273.00448
  20276331.648 7   -538818.691 7   -405472.09049  20276332.44549
  22667373.273 6   -475806.250 6   -355856.59849  22667373.24249
  22154147.633 6  -1138857.059 6   -870067.66848  22154145.11748
  21907016.828 6    -60834.297 6    -46790.68848  21907013.83248
  23482364.672 5     47108.965 5     33922.27047  23482365.95347
  20478921.703 7      8159.719 7      6069.21149  20478921.16449
 20  5 16  2 12 40.0000000  0  8G04G07G08G09G11G16G26G27            -0.000193283
  21765784.227 6     -6753.820 6     -5360.30548  21765782.95748
  24674328.469 4   -341852.797 4   -234835.37148  24674327.56648
  20275942.164 7   -540866.723 7   -407067.96149  20275942.10549
  22667024.742 6   -477638.922 6   -357284.64849  22667024.93449
  22153260.961 6  -1143517.844 6   -873699.44148  22153258.29348
  21906962.758 6    -61116.691 6    -47010.73848  21906959.87948
  23482391.242 5     47249.172 5     34031.52747  23482392.66447
  20478929.391 7      8197.641 7      6098.76249  20478928.50049
 20  5 16  2 12 41.0000000  0  8G04G07G08G09G11G16G26G27            -0.000194304
  21765781.531 6     -6768.805 6     -5371.98448  21765780.19548
  24673383.328 3   -346820.813 3   -238706.55548  24673381.94148
  20275552.477 7   -542914.438 7   -408663.57849  20275552.90249
  22666675.984 6   -479471.270 6   -358712.45749  22666675.61349
  22152373.789 6  -1148178.594 6   -877331.19148  22152371.01248
  21906908.914 6    -61399.293 6    -47230.94948  21906906.29348
  23482418.063 5     47389.160 5     34140.60947  23482419.22347
  20478936.297 7      8235.762 7      6128.47349  20478935.67649
 20  5 16  2 12 42.0000000  0  8G04G07G08G09G11G16G26G27            -0.000195326
  21765778.484 6     -6783.566 6     -5383.49248  21765777.27748
  24672437.844 3   -351789.184 3   -242578.00848  24672436.13748
  20275163.023 7   -544961.926 7   -410259.02749  20275162.96949
  22666327.141 6   -481303.324 6   -360140.03549  22666327.62949
  22151487.055 6  -1152839.371 6   -880962.96148  22151484.00048
  21906855.008 6    -61682.184 6    -47451.39148  21906852.72348
  23482444.211 5     47528.906 5     34249.50847  23482445.60247
  20478943.219 7      8274.051 7      6158.30149  20478943.01649
 20  5 16  2 12 43.0000000  0  8G04G07G08G09G11G16G26G27            -0.000196346
  21765775.508 6     -6798.254 6     -5394.93848  21765774.29348
  24671492.430 4   -356757.887 4   -246449.71548  24671490.69548
  20274773.141 7   -547009.211 7   -411854.31649  20274773.59449
  22665978.547 6   -483135.172 6   -361567.44949  22665978.85949
  22150599.961 6  -1157500.230 6   -884594.79748  22150597.45748
  21906801.172 6    -61965.352 6    -47672.04348  21906798.43448
  23482471.141 5     47668.301 5     34358.12547  23482472.03947
  20478950.797 7      8312.426 7      6188.20749  20478950.12949
 20  5 16  2 12 44.0000000  0  8G04G07G08G09G11G16G26G27            -0.000197369
  21765773.742 6     -6812.762 6     -5406.24248  21765771.81648
  24670547.156 4   -361727.027 4   -250321.77048  24670545.64548
  20274383.734 7   -549056.297 7   -413449.44949  20274383.82849
  22665630.344 6   -484966.738 6   -362994.64149  22665630.48849
  22149713.273 6  -1162161.137 6   -888226.67248  22149710.32048
  21906747.367 6    -62248.832 6    -47892.93848  21906744.36748
  23482497.266 5     47807.370 5     34466.48647  23482498.93447
  20478958.133 7      8350.945 7      6218.21949  20478957.57049
 20  5 16  2 12 45.0000000  0  8G04G07G08G09G11G16G26G27            -0.000198391
  21765770.422 6     -6827.109 6     -5417.42648  21765769.19148
  24669601.320 4   -366696.457 4   -254194.05548  24669599.89848
  20273994.273 7   -551103.121 7   -415044.37549  20273994.53549
  22665281.781 6   -486798.021 6   -364421.61749  22665281.76649
  22148826.297 6  -1166822.063 6   -891858.56348  22148823.22748
  21906693.375 6    -62532.559 6    -48114.02048  21906690.61348
  23482523.234 5     47946.227 5     34574.68447  23482525.44147
  20478965.609 7      8389.598 7      6248.34049  20478965.19149
 20  5 16  2 12 46.0000000  0  8G04G07G08G09G11G16G26G27            -0.000199413
  21765767.789 6     -6841.297 6     -5428.47748  21765766.43048
  24668655.781 4   -371666.273 4   -258066.64148  24668653.69948
  20273604.625 7   -553149.715 7   -416639.12149  20273604.96149
  22664933.086 6   -488629.035 6   -365848.38749  22664933.24249
  22147938.828 6  -1171483.031 6   -895490.48848  22147936.24648
  21906639.563 6    -62816.566 6    -48335.32848  21906636.16848
  23482550.609 4     48084.789 4     34682.64847  23482551.28947
  20478972.930 7      8428.406 7      6278.57849  20478972.27749
 20  5 16  2 12 47.0000000  0  8G04G07G08G09G11G16G26G27            -0.000200436
  21765765.023 6     -6855.246 6     -5439.34848  21765763.94148
  24667710.109 4   -376636.324 4   -261939.40648  24667708.24248
  20273215.328 7   -555196.035 7   -418233.65649  20273215.98049
  22664584.852 6   -490459.707 6   -367274.88749  22664585.06349
  22147052.367 6  -1176143.941 6   -899122.36348  22147049.16848
  21906585.250 6    -63100.770 6    -48556.78548  21906581.78548
  23482576.695 5     48223.094 5     34790.41047  23482577.41047
  20478979.844 7      8467.398 7      6308.96149  20478980.03549
 20  5 16  2 12 48.0000000  0  8G04G07G08G09G11G16G26G27            -0.000201458
  21765762.148 6     -6869.098 6     -5450.14148  21765761.03548
  24666764.484 4   -381606.789 4   -265812.49248  24666762.09848
  20272825.680 7   -557242.113 7   -419828.00849  20272826.27049
  22664236.344 6   -492290.152 6   -368701.20349  22664236.64149
  22146165.250 6  -1180804.941 6   -902754.31348  22146162.57848
  21906531.023 6    -63385.289 6    -48778.49648  21906528.00448
  23482602.914 5     48361.141 5     34897.97747  23482603.86747
  20478987.547 7      8506.527 7      6339.44949  20478987.09449
 20  5 16  2 12 49.0000000  0  8G04G07G08G09G11G16G26G27            -0.000202480
  21765759.695 6     -6882.754 6     -5460.78148  21765758.74648
  24665818.922 4   -386577.648 4   -269685.89148  24665816.72748
  20272436.555 7   -559287.969 7   -421422.18049  20272437.11749
  22663888.023 6   -494120.332 6   -370127.32449  22663888.54349
  22145278.023 6  -1185465.984 6   -906386.29748  22145275.43848
  21906476.781 6    -63670.078 6    -49000.41048  21906474.41448
  23482629.539 5     48498.871 5     35005.30547  23482630.16047
  20478995.250 7      8545.770 7      6370.02349  20478994.59849
 20  5 16  2 12 50.0000000  0  8G04G07G08G09G11G16G26G27            -0.000203503
  21765757.477 6     -6896.477 6     -5471.47348  21765755.86348
  24664871.375 4   -391549.008 4   -273559.66848  24664870.22748
  20272047.070 7   -561333.789 7   -423016.32049  20272047.48849
  22663539.945 6   -495950.445 6   -371553.38349  22663540.12149
  22144391.313 6  -1190127.246 6   -910018.44948  22144388.79748
  21906422.523 6    -63955.324 6    -49222.68448  21906419.84048
  23482655.313 5     48636.113 5     35112.23847  23482656.25047
  20479002.563 7      8584.992 7      6400.59049  20479002.05549
 20  5 16  2 12 51.0000000  0  8G04G07G08G09G11G16G26G27            -0.000204525
  21765754.852 6     -6910.016 6     -5482.02748  21765753.18848
  24663926.297 4   -396520.695 4   -277433.70748  24663924.10248
  20271657.977 7   -563379.371 7   -424610.27749  20271658.39149
  22663191.680 6   -497780.262 6   -372979.21549  22663191.89549
  22143503.828 6  -1194788.539 6   -913650.62948  22143501.44948
  21906368.102 6    -64240.867 6    -49445.18848  21906365.61748
  23482681.109 5     48773.098 5     35218.98447  23482682.39547
  20479009.992 7      8624.293 7      6431.21149  20479009.84049
 20  5 16  2 12 52.0000000  0  8G04G07G08G09G11G16G26G27            -0.000205549
  21765752.422 6     -6923.371 6     -5492.43848  21765750.63348
  24662979.531 4   -401492.707 4   -281308.00448  24662978.37948
  20271268.781 7   -565424.707 7   -426204.04749  20271269.05149
  22662843.797 6   -499609.809 6   -374404.84449  22662843.62949
  22142616.953 6  -1199449.855 6   -917282.82448  22142614.37548
  21906313.906 6    -64526.641 6    -49667.87148  21906311.00048
  23482706.992 5     48909.809 5     35325.51647  23482708.27047
  20479017.141 7      8663.832 7      6462.02049  20479017.01649
 20  5 16  2 12 53.0000000  0  8G04G07G08G09G11G16G26G27            -0.000206573
  21765749.617 6     -6936.383 6     -5502.57048  21765748.09848
  24662033.656 4   -406464.898 4   -285182.43848  24662032.16048
  20270879.836 7   -567469.613 7   -427797.48849  20270879.94949
  22662495.281 6   -501438.898 6   -375830.10949  22662495.87949
  22141730.078 6  -1204111.012 6   -920914.90248  22141727.29748
  21906259.539 6    -64812.500 6    -49890.61748  21906256.65648
  23482733.602 5     49046.383 5     35431.93447  23482734.16447
  20479025.094 7      8703.648 7      6493.04349  20479024.67649
 20  5 16  2 12 54.0000000  0  8G04G07G08G09G11G16G26G27            -0.000207596
  21765747.250 6     -6949.336 6     -5512.66848  21765745.78948
  24661087.313 4   -411437.561 4   -289057.23048  24661085.77748
  20270490.469 7   -569514.383 7   -429390.81349  20270490.63349
  22662147.547 6   -503267.809 6   -377255.23449  22662147.86349
  22140843.031 6  -1208772.285 6   -924547.06348  22140840.61348
  21906205.086 6    -65098.762 6    -50113.67648  21906202.14848
  23482759.523 5     49182.609 5     35538.07447  23482760.25047
  20479032.563 7      8743.512 7      6524.10249  20479032.12549
 20  5 16  2 12 55.0000000  0  8G04G07G08G09G11G16G26G27            -0.000208620
  21765744.586 6     -6962.180 6     -5522.67648  21765743.62148
  24660141.391 4   -416410.621 4   -292932.33648  24660139.52748
  20270101.680 7   -571558.973 7   -430984.00049  20270102.30549
  22661799.961 6   -505096.484 6   -378680.18049  22661800.20349
  22139956.461 6  -1213433.695 6   -928179.32448  22139953.30148
  21906150.273 6    -65385.332 6    -50336.98048  21906147.19548
  23482785.555 5     49318.534 5     35643.99047  23482786.37547
  20479039.711 7      8783.461 7      6555.23449  20479039.44949
 20  5 16  2 12 56.0000000  0  8G04G07G08G09G11G16G26G27            -0.000209644
  21765742.422 6     -6974.754 6     -5532.47748  21765740.98848
  24659194.602 4   -421383.918 4   -296807.63348  24659193.36748
  20269712.516 7   -573603.203 7   -432576.91449  20269712.83249
  22661451.695 6   -506924.828 6   -380104.86349  22661451.93449
  22139069.141 6  -1218094.996 6   -931811.50448  22139066.40248
  21906096.250 6    -65672.055 6    -50560.39548  21906092.86748
  23482811.164 5     49454.234 5     35749.73447  23482811.91047
  20479048.180 7      8823.664 7      6586.55949  20479047.65249
 20  5 16  2 12 57.0000000  0  8G04G07G08G09G11G16G26G27            -0.000210669
  21765739.883 6     -6987.047 6     -5542.06348  21765738.95348
  24658248.523 4   -426357.418 4   -300683.08648  24658246.77748
  20269323.648 7   -575647.117 7   -434169.56649  20269323.86349
  22661103.844 6   -508752.734 6   -381529.20749  22661104.16449
  22138182.266 6  -1222756.203 6   -935443.61348  22138179.08248
  21906041.531 6    -65958.961 6    -50783.96148  21906038.34848
  23482837.000 5     49589.754 5     35855.34447  23482837.35947
  20479055.727 7      8864.125 7      6618.08649  20479055.01249
 20  5 16  2 12 58.0000000  0  8G04G07G08G09G11G16G26G27            -0.000211693
  21765737.547 6     -6999.078 6     -5551.43848  21765736.14148
  24657301.641 4   -431331.203 4   -304558.75448  24657300.17648
  20268935.102 7   -577690.672 7   -435761.94949  20268934.78949
  22660756.172 6   -510580.305 6   -382953.28549  22660756.19549
  22137295.117 6  -1227417.387 6   -939075.70348  22137292.68048
  21905986.656 6    -66246.031 6    -51007.65248  21905983.70748
  23482862.578 5     49725.102 5     35960.81347  23482863.22347
  20479063.570 7      8904.813 7      6649.79349  20479063.02349
 20  5 16  2 12 59.0000000  0  8G04G07G08G09G11G16G26G27            -0.000212717
  21765735.070 6     -7010.871 6     -5560.62948  21765733.97348
  24656355.125 4   -436305.254 4   -308434.64148  24656353.94548
  20268546.063 7   -579733.883 7   -437354.05949  20268546.31649
  22660408.141 6   -512407.516 6   -384377.08249  22660408.14849
  22136408.336 6  -1232078.480 6   -942707.71948  22136405.43848
  21905931.938 6    -66533.273 6    -51231.48448  21905929.23848
  23482888.297 5     49860.273 5     36066.14147  23482888.76247
  20479071.273 7      8945.750 7      6681.69549  20479070.38349
 20  5 16  2 13  0.0000000  0  8G04G07G08G09G11G16G26G27            -0.000213741
  21765733.570 6     -7022.574 6     -5569.75448  21765731.94148
  24655408.594 4   -441279.715 4   -312310.84048  24655407.16448
  20268157.414 7   -581776.961 7   -438946.07049  20268157.67649
  22660060.406 6   -514234.527 6   -385800.73449  22660061.20749
  22135521.406 6  -1236739.684 6   -946339.83248  22135518.25048
  21905877.422 6    -66820.883 6    -51455.59448  21905874.70348
  23482914.461 5     49995.109 5     36171.21147  23482914.80947
  20479079.047 7      8986.734 7      6713.62949  20479078.63749
 20  5 16  2 13  1.0000000  0  8G04G07G08G09G11G16G26G27            -0.000214766
  21765730.875 6     -7034.102 6     -5578.73848  21765729.72748
  24654461.641 4   -446254.539 4   -316187.32048  24654460.51248
  20267768.641 7   -583819.793 7   -440537.88749  20267768.72349
  22659713.008 6   -516061.266 6   -387224.17249  22659713.38349
  22134634.500 6  -1241400.926 6   -949971.97348  22134631.49248
  21905822.602 6    -67108.730 6    -51679.89148  21905819.40648
  23482940.078 5     50129.629 5     36276.02047  23482940.66047
  20479086.961 7      9027.891 7      6745.69549  20479086.65249
 20  5 16  2 13  2.0000000  0  8G04G07G08G09G11G16G26G27            -0.000215792
  21765728.891 6     -7045.516 6     -5587.63748  21765727.39148
  24653514.938 4   -451229.672 4   -320064.04348  24653513.65648
  20267379.547 7   -585862.438 7   -442129.55949  20267380.29349
  22659365.000 6   -517887.770 6   -388647.41849  22659365.74649
  22133747.336 6  -1246062.211 6   -953604.14848  22133744.45748
  21905767.898 6    -67396.914 6    -51904.45348  21905764.77048
  23482965.352 5     50263.863 5     36380.62147  23482965.85247
  20479094.828 7      9069.105 7      6777.81349  20479094.05949
 20  5 16  2 13  3.0000000  0  8G04G07G08G09G11G16G26G27            -0.000216816
  21765726.844 6     -7056.750 6     -5596.38748  21765725.65648
  24652568.070 5   -456205.227 5   -323941.09048  24652567.19148
  20266991.109 7   -587904.820 7   -443721.02349  20266991.57849
  22659017.906 5   -519713.969 5   -390070.43849  22659018.27049
  22132860.156 6  -1250723.535 6   -957236.34848  22132857.43448
  21905712.859 6    -67685.336 6    -52129.19548  21905709.65648
  23482990.703 5     50397.824 5     36484.99647  23482991.48447
  20479102.805 7      9110.523 7      6810.08649  20479101.81349
 20  5 16  2 13  4.0000000  0  8G04G07G08G09G11G16G26G27            -0.000217842
  21765724.750 6     -7067.766 6     -5604.97348  21765723.39548
  24651621.055 4   -461181.047 4   -327818.34448  24651619.99648
  20266602.305 7   -589946.953 7   -445312.29749  20266602.95349
  22658670.398 6   -521539.863 6   -391493.20749  22658670.78549
  22131973.563 6  -1255384.855 6   -960868.54748  22131970.51248
  21905657.898 6    -67973.961 6    -52354.10548  21905654.96148
  23483016.125 5     50531.512 5     36589.16447  23483017.13747
  20479110.695 7      9152.086 7      6842.47349  20479109.76649
 20  5 16  2 13  5.0000000  0  8G04G07G08G09G11G16G26G27            -0.000218868
  21765722.570 6     -7078.660 6     -5613.46148  21765721.30548
  24650674.070 4   -466157.203 4   -331695.86748  24650673.29748
  20266213.734 7   -591988.852 7   -446903.38749  20266214.27349
  22658322.813 6   -523365.488 6   -392915.77349  22658323.49249
  22131086.016 6  -1260046.203 6   -964500.76248  22131083.02048
  21905602.758 6    -68262.902 6    -52579.25448  21905600.07048
  23483041.953 5     50664.902 5     36693.10547  23483042.43047
  20479118.500 7      9193.801 7      6874.97749  20479117.78549
 20  5 16  2 13  6.0000000  0  8G04G07G08G09G11G16G26G27            -0.000219894
  21765720.125 6     -7089.277 6     -5621.73848  21765719.49648
  24649727.617 4   -471133.652 4   -335573.61748  24649726.21148
  20265825.086 7   -594030.426 7   -448494.22749  20265826.07449
  22657975.438 6   -525190.785 6   -394338.08249  22657975.91049
  22130199.672 6  -1264707.500 6   -968132.93848  22130196.04348
  21905547.852 6    -68552.027 6    -52804.54348  21905544.96948
  23483067.359 5     50798.148 5     36796.93847  23483067.70747
  20479126.234 7      9235.723 7      6907.64849  20479125.78149
 20  5 16  2 13  7.0000000  0  8G04G07G08G09G11G16G26G27            -0.000220921
  21765718.539 6     -7099.980 6     -5630.07848  21765717.48848
  24648780.141 4   -476110.652 4   -339451.79748  24648778.82848
  20265436.680 7   -596071.973 7   -450085.03949  20265437.26649
  22657628.070 6   -527016.012 6   -395760.33649  22657628.58249
  22129312.141 6  -1269369.063 6   -971765.32048  22129309.29348
  21905492.867 6    -68841.637 6    -53030.21948  21905489.76248
  23483092.469 5     50930.879 5     36900.36347  23483092.75847
  20479134.445 7      9277.594 7      6940.27349  20479133.91849
 20  5 16  2 13  8.0000000  0  8G04G07G08G09G11G16G26G27            -0.000221947
  21765716.391 6     -7110.316 6     -5638.13348  21765715.16448
  24647833.188 4   -481087.828 4   -343330.12548  24647832.19148
  20265048.195 7   -598113.086 7   -451675.51649  20265048.53549
  22657280.773 6   -528840.770 6   -397182.22749  22657281.32449
  22128425.438 6  -1274030.438 6   -975397.56648  22128421.98048
  21905437.617 6    -69131.352 6    -53255.96948  21905435.09848
  23483117.625 5     51063.500 5     37003.69947  23483118.39847
  20479142.617 7      9319.770 7      6973.13749  20479141.78149
 20  5 16  2 13  9.0000000  0  8G04G07G08G09G11G16G26G27            -0.000222973
  21765714.492 6     -7120.668 6     -5646.19948  21765713.25448
  24646885.734 4   -486065.512 4   -347208.82848  24646884.64848
  20264660.078 7   -600154.145 7   -453265.95749  20264660.26649
  22656933.617 6   -530665.465 6   -398604.06649  22656934.54349
  22127538.086 6  -1278692.023 6   -979029.97748  22127535.02048
  21905382.352 6    -69421.484 6    -53482.04348  21905379.49248
  23483142.586 5     51195.688 5     37106.69547  23483143.37147
  20479150.617 7      9361.930 7      7005.98449  20479149.57049
 20  5 16  2 13 10.0000000  0  8G04G07G08G09G11G16G26G27            -0.000223999
  21765713.125 6     -7130.785 6     -5654.08248  21765711.54348
  24645938.148 4   -491043.445 4   -351087.73448  24645937.41448
  20264271.734 7   -602194.918 7   -454856.17249  20264272.20349
  22656586.414 6   -532489.789 6   -400025.62549  22656587.14849
  22126651.078 6  -1283353.547 6   -982662.32848  22126647.96948
  21905327.172 6    -69711.820 6    -53708.28148  21905324.35548
  23483167.984 5     51327.641 5     37209.52047  23483168.62947
  20479158.656 7      9404.277 7      7038.98049  20479157.78549
 20  5 16  2 13 11.0000000  0  8G04G07G08G09G11G16G26G27            -0.000225025
  21765710.758 6     -7140.816 6     -5661.89848  21765709.41448
  24644991.016 4   -496021.805 4   -354966.96948  24644989.99248
  20263883.492 7   -604235.500 7   -456446.23049  20263883.64149
  22656239.367 6   -534313.867 6   -401446.98449  22656239.85949
  22125763.859 6  -1288015.199 6   -986294.78548  22125760.89148
  21905271.680 6    -70002.492 6    -53934.77348  21905268.95748
  23483192.695 5     51459.254 5     37312.07047  23483193.53947
  20479166.852 7      9446.730 7      7072.05949  20479166.18849
 20  5 16  2 13 12.0000000  0  8G04G07G08G09G11G16G26G27            -0.000226053
  21765709.227 6     -7150.574 6     -5669.50448  21765707.57848
  24644043.781 4   -501000.446 4   -358846.42048  24644042.23048
  20263495.250 7   -606275.762 7   -458036.04349  20263495.34049
  22655892.141 6   -536137.656 6   -402868.11749  22655892.99249
  22124876.820 6  -1292676.762 6   -989927.17248  22124873.91848
  21905216.313 6    -70293.355 6    -54161.42648  21905213.92648
  23483217.852 5     51590.703 5     37414.49247  23483218.50047
  20479175.000 7      9489.398 7      7105.30549  20479174.35949
 20  5 16  2 13 13.0000000  0  8G04G07G08G09G11G16G26G27            -0.000227081
  21765707.602 6     -7160.047 6     -5676.88348  21765705.95348
  24643096.836 4   -505979.293 4   -362726.03948  24643095.07448
  20263107.188 7   -608315.656 7   -459625.57449  20263107.29349
  22655545.875 6   -537960.980 6   -404288.88349  22655546.10249
  22123989.852 6  -1297338.234 6   -993559.48848  22123986.97348
  21905160.859 6    -70584.336 6    -54388.16448  21905158.52748
  23483242.664 5     51721.980 5     37516.78547  23483243.70347
  20479182.563 7      9532.340 7      7138.77049  20479182.38349
 20  5 16  2 13 14.0000000  0  8G04G07G08G09G11G16G26G27            -0.000228107
  21765705.109 6     -7169.383 6     -5684.16048  21765704.45748
  24642148.695 4   -510958.504 4   -366605.94148  24642147.60548
  20262718.844 7   -610355.336 7   -461214.94149  20262719.41849
  22655198.461 6   -539784.102 6   -405709.50049  22655198.91449
  22123102.617 6  -1301999.750 6   -997191.83248  22123099.64148
  21905105.367 6    -70875.621 6    -54615.14148  21905102.86348
  23483267.344 5     51852.938 5     37618.83247  23483268.60547
  20479190.945 7      9575.391 7      7172.31349  20479190.41849
 20  5 16  2 13 15.0000000  0  8G04G07G08G09G11G16G26G27            -0.000229136
  21765703.945 6     -7178.676 6     -5691.40648  21765702.76248
  24641201.258 4   -515938.223 4   -370486.24248  24641200.24248
  20262330.945 7   -612394.898 7   -462804.20349  20262331.23849
  22654852.188 6   -541607.082 6   -407130.00049  22654852.11749
  22122215.711 6  -1306661.430 6  -1000824.30948  22122213.14848
  21905050.086 6    -71167.316 6    -54842.43448  21905047.55148
  23483292.984 5     51983.551 5     37720.60247  23483293.30947
  20479199.281 7      9618.469 7      7205.88349  20479198.44549
 20  5 16  2 13 16.0000000  0  8G04G07G08G09G11G16G26G27            -0.000230164
  21765701.820 6     -7187.820 6     -5698.53548  21765700.72748
  24640253.281 4   -520918.215 4   -374366.75048  24640252.33248
  20261942.656 7   -614434.227 7   -464393.29749  20261942.87949
  22654505.016 6   -543429.719 6   -408550.23849  22654505.27349
  22121328.227 6  -1311323.125 6  -1004456.80548  22121325.23448
  21904994.461 6    -71459.230 6    -55069.90648  21904992.00448
  23483317.609 5     52113.820 5     37822.11347  23483318.17647
  20479207.344 7      9661.707 7      7239.57049  20479206.83649
 20  5 16  2 13 17.0000000  0  8G04G07G08G09G11G16G26G27            -0.000231192
  21765699.961 6     -7196.891 6     -5705.60248  21765698.98048
  24639306.141 4   -525898.676 4   -378247.62948  24639304.35248
  20261554.664 7   -616473.414 7   -465982.27349  20261554.84449
  22654157.922 6   -545252.195 6   -409970.35249  22654158.52749
  22120441.313 6  -1315984.953 6  -1008089.39548  22120438.66048
  21904938.984 6    -71751.531 6    -55297.67248  21904936.87948
  23483341.859 6     52243.738 6     37923.35247  23483343.12147
  20479215.617 7      9704.980 7      7273.29349  20479215.04749
 20  5 16  2 13 18.0000000  0  8G04G07G08G09G11G16G26G27            -0.000232220
  21765698.281 6     -7205.797 6     -5712.54748  21765697.58248
  24638357.531 4   -530879.516 4   -382128.79748  24638356.68448
  20261166.625 7   -618512.387 7   -467571.08249  20261167.09849
  22653811.086 6   -547074.469 6   -411390.30949  22653811.75449
  22119554.203 6  -1320646.848 6  -1011722.03948  22119551.30548
  21904883.305 6    -72044.125 6    -55525.66848  21904880.67248
  23483366.938 5     52373.383 5     38024.36747  23483367.49247
  20479224.016 7      9748.363 7      7307.09449  20479223.62149
 20  5 16  2 13 19.0000000  0  8G04G07G08G09G11G16G26G27            -0.000233248
  21765697.016 6     -7214.375 6     -5719.23448  21765695.34848
  24637409.883 4   -535860.520 4   -386010.09448  24637408.73048
  20260778.586 7   -620550.934 7   -469159.56349  20260779.10949
  22653464.773 6   -548896.281 6   -412809.90649  22653465.15649
  22118667.047 6  -1325308.586 6  -1015354.56348  22118664.38348
  21904827.430 6    -72336.813 6    -55753.73848  21904825.17648
  23483391.234 5     52502.898 5     38125.28147  23483392.23847
  20479232.359 7      9792.066 7      7341.14849  20479231.86349
 20  5 16  2 13 20.0000000  0  8G04G07G08G09G11G16G26G27            -0.000234276
  21765695.477 6     -7222.840 6     -5725.83648  21765694.22348
  24636461.930 4   -540841.863 4   -389891.66048  24636460.99248
  20260390.719 7   -622589.289 7   -470747.89149  20260391.09049
  22653118.344 6   -550717.820 6   -414229.28549  22653118.58249
  22117779.914 6  -1329970.395 6  -1018987.14148  22117777.35948
  21904771.758 6    -72629.813 6    -55982.05148  21904769.38748
  23483416.000 5     52632.105 5     38225.96547  23483416.96147
  20479240.570 7      9835.875 7      7375.28549  20479240.08649
 20  5 16  2 13 21.0000000  0  8G04G07G08G09G11G16G26G27            -0.000235306
  21765693.609 6     -7231.125 6     -5732.29748  21765692.36748
  24635513.953 4   -545823.547 4   -393773.48448  24635513.07848
  20260002.922 7   -624627.379 7   -472336.01649  20260003.43049
  22652771.453 6   -552539.094 6   -415648.45749  22652771.66449
  22116892.789 6  -1334632.211 6  -1022619.72348  22116890.43048
  21904715.789 6    -72923.051 6    -56210.55148  21904713.46548
  23483440.602 5     52761.055 5     38326.43847  23483441.25447
  20479248.672 7      9879.844 7      7409.54349  20479248.85949
 20  5 16  2 13 22.0000000  0  8G04G07G08G09G11G16G26G27            -0.000236334
  21765692.188 6     -7239.305 6     -5738.66448  21765690.88348
  24634565.922 4   -550805.684 4   -397655.66048  24634565.15648
  20259615.008 7   -626665.324 7   -473924.02349  20259615.38749
  22652425.289 6   -554360.122 6   -417067.44849  22652425.01249
  22116005.625 6  -1339294.125 6  -1026252.37948  22116003.53548
  21904659.945 6    -73216.633 6    -56439.31348  21904657.83248
  23483464.594 5     52889.652 5     38426.64547  23483466.03947
  20479257.055 7      9923.898 7      7443.87549  20479256.88749
 20  5 16  2 13 23.0000000  0  8G04G07G08G09G11G16G26G27            -0.000237364
  21765690.719 6     -7247.180 6     -5744.80548  21765689.43848
  24633617.352 4   -555787.945 4   -401537.94548  24633616.50448
  20259227.297 7   -628702.875 7   -475511.72349  20259227.76249
  22652078.711 6   -556180.785 6   -418486.14549  22652078.91449
  22115118.617 6  -1343955.898 6  -1029884.93448  22115116.07448
  21904604.070 6    -73510.352 6    -56668.18848  21904601.69948
  23483489.078 5     53018.121 5     38526.74247  23483490.48447
  20479266.094 7      9968.223 7      7478.41449  20479265.45349
 20  5 16  2 13 24.0000000  0  8G04G07G08G09G11G16G26G27            -0.000238392
  21765689.078 6     -7254.762 6     -5750.71548  21765688.11748
  24632669.719 4   -560770.543 4   -405420.48848  24632668.64548
  20258839.555 7   -630740.094 7   -477099.16849  20258840.17649
  22651731.906 6   -558001.078 6   -419904.55949  22651732.49249
  22114231.391 6  -1348617.625 6  -1033517.44548  22114229.05948
  21904548.297 6    -73804.219 6    -56897.17648  21904545.98448
  23483513.398 5     53146.426 5     38626.72747  23483514.33247
  20479274.328 7     10012.797 7      7513.14549  20479273.90249
 20  5 16  2 13 25.0000000  0  8G04G07G08G09G11G16G26G27            -0.000239422
  21765687.797 6     -7262.211 6     -5756.52048  21765686.67248
  24631721.680 4   -565753.383 4   -409303.21548  24631720.44948
  20258452.031 7   -632777.047 7   -478686.40249  20258452.20749
  22651385.914 6   -559821.008 6   -421322.67649  22651386.67249
  22113344.523 6  -1353279.367 6  -1037149.97348  22113341.87948
  21904492.547 6    -74098.324 6    -57126.35548  21904490.04748
  23483538.023 5     53274.457 5     38726.48847  23483539.09047
  20479282.484 7     10057.535 7      7548.00849  20479282.16449
 20  5 16  2 13 26.0000000  0  8G04G07G08G09G11G16G26G27            -0.000240452
  21765686.055 6     -7269.559 6     -5762.24648  21765685.15648
  24630772.750 4   -570736.672 4   -413186.29748  24630772.09448
  20258064.148 7   -634813.867 7   -480273.53549  20258064.71149
  22651039.563 6   -561640.824 6   -422740.71949  22651039.51249
  22112457.422 6  -1357941.203 6  -1040782.57448  22112454.77048
  21904436.453 6    -74392.809 6    -57355.82848  21904434.34048
  23483562.203 5     53402.113 5     38825.95747  23483563.32447
  20479291.203 7     10102.305 7      7582.89549  20479290.92649
 20  5 16  2 13 27.0000000  0  8G04G07G08G09G11G16G26G27            -0.000241482
  21765684.797 6     -7276.734 6     -5767.84048  21765683.89148
  24629824.250 4   -575720.250 4   -417069.60548  24629823.31648
  20257676.805 7   -636850.395 7   -481860.44149  20257677.13749
  22650693.219 6   -563460.289 6   -424158.48449  22650693.70349
  22111570.594 6  -1362603.043 6  -1044415.17648  22111567.95348
  21904380.477 6    -74687.512 6    -57585.46948  21904378.13348
  23483586.109 5     53529.508 5     38925.22347  23483587.24247
  20479300.055 7     10147.281 7      7617.94149  20479299.32049
 20  5 16  2 13 28.0000000  0  8G04G07G08G09G11G16G26G27            -0.000242512
  21765683.633 6     -7283.691 6     -5773.25848  21765682.71948
  24628876.031 4   -580704.160 4   -420953.16848  24628874.92648
  20257289.531 7   -638886.664 7   -483447.14149  20257290.10549
  22650347.133 6   -565279.473 6   -425576.02749  22650347.34049
  22110683.180 6  -1367264.867 6  -1048047.76248  22110680.59448
  21904324.094 6    -74982.449 6    -57815.29348  21904321.89848
  23483610.633 5     53656.695 5     39024.32847  23483611.43047
  20479308.320 7     10192.414 7      7653.10549  20479307.84049
 20  5 16  2 13 29.0000000  0  8G04G07G08G09G11G16G26G27            -0.000243542
  21765682.633 6     -7290.500 6     -5778.56648  21765681.41048
  24627927.789 4   -585688.426 4   -424837.01648  24627926.39548
  20256901.938 7   -640922.707 7   -485033.67649  20256902.50849
  22650000.719 6   -567098.410 6   -426993.39149  22650001.07449
  22109795.867 6  -1371926.730 6  -1051680.38748  22109793.34048
  21904267.859 6    -75277.680 6    -58045.33648  21904265.73048
  23483635.477 6     53783.582 6     39123.20347  23483635.90247
  20479316.695 7     10237.676 7      7688.37949  20479316.39849
 20  5 16  2 13 30.0000000  0  8G04G07G08G09G11G16G26G27            -0.000244572
  21765681.016 6     -7297.152 6     -5783.74648  21765680.02748
  24626979.039 4   -590673.043 4   -428721.13748  24626978.25448
  20256514.500 7   -642958.504 7   -486620.01249  20256515.01249
  22649655.398 6   -568917.031 6   -428410.49649  22649654.91449
  22108909.000 6  -1376588.625 6  -1055313.02348  22108906.26248
  21904211.555 6    -75573.176 6    -58275.60248  21904209.24648
  23483659.516 6     53910.164 6     39221.83647  23483659.63747
  20479325.461 7     10283.086 7      7723.76649  20479325.16049
 20  5 16  2 13 31.0000000  0  8G04G07G08G09G11G16G26G27            -0.000245604
  21765679.969 6     -7303.789 6     -5788.91448  21765679.00448
  24626030.328 4   -595658.148 4   -432605.62948  24626029.50448
  20256126.930 7   -644994.242 7   -488206.30149  20256127.14149
  22649309.320 6   -570735.523 6   -429827.50049  22649308.89849
  22108021.461 6  -1381250.695 6  -1058945.80548  22108019.04748
  21904155.336 6    -75869.070 6    -58506.16848  21904153.03548
  23483682.820 5     54036.344 5     39320.16047  23483683.64547
  20479334.484 7     10328.488 7      7759.14149  20479334.02349
 20  5 16  2 13 32.0000000  0  8G04G07G08G09G11G16G26G27            -0.000246634
  21765678.055 6     -7310.168 6     -5793.89148  21765677.91048
  24625082.313 4   -600643.457 4   -436490.29348  24625080.50848
  20255740.156 7   -647029.625 7   -489792.30549  20255740.12149
  22648962.555 6   -572553.676 6   -431244.24649  22648962.98449
  22107134.352 6  -1385912.691 6  -1062578.53948  22107132.21548
  21904099.219 6    -76165.164 6    -58736.89548  21904096.77048
  23483707.461 5     54162.383 5     39418.38347  23483708.05947
  20479343.008 7     10374.148 7      7794.72349  20479342.36349
 20  5 16  2 13 33.0000000  0  8G04G07G08G09G11G16G26G27            -0.000247665
  21765677.305 6     -7316.352 6     -5798.71548  21765676.45748
  24624132.914 4   -605629.082 4   -440375.19148  24624131.48048
  20255352.773 7   -649064.734 7   -491378.11349  20255352.91449
  22648617.477 6   -574371.508 6   -432660.74249  22648616.90649
  22106247.102 6  -1390574.676 6  -1066211.25848  22106244.96148
  21904042.484 6    -76461.461 6    -58967.77748  21904039.85548
  23483731.406 6     54288.113 6     39516.34847  23483731.50847
  20479351.664 7     10419.961 7      7830.42649  20479351.49649
 20  5 16  2 13 34.0000000  0  8G04G07G08G09G11G16G26G27            -0.000248695
  21765676.352 6     -7322.508 6     -5803.51248  21765675.35548
  24623184.828 4   -610615.223 4   -444260.49248  24623182.81348
  20254965.438 7   -651099.754 7   -492963.84449  20254965.78949
  22648271.273 6   -576189.211 6   -434077.12949  22648270.87949
  22105359.992 6  -1395236.840 6  -1069844.10948  22105357.82448
  21903986.242 6    -76758.180 6    -59198.99248  21903983.70348
  23483755.266 5     54413.469 5     39614.01647  23483756.03147
  20479360.648 7     10465.789 7      7866.12549  20479360.20349
 20  5 16  2 13 35.0000000  0  8G04G07G08G09G11G16G26G27            -0.000249727
  21765674.680 6     -7328.453 6     -5808.13748  21765674.24248
  24622235.445 3   -615601.699 3   -448146.06347  24622233.97347
  20254578.070 7   -653134.484 7   -494549.34849  20254578.31349
  22647925.016 6   -578006.602 6   -435493.27349  22647925.62149
  22104472.898 6  -1399898.984 6  -1073476.94548  22104470.91048
  21903930.203 6    -77055.145 6    -59430.39548  21903927.29348
  23483778.070 5     54538.574 5     39711.50047  23483779.37947
  20479368.859 7     10511.773 7      7901.95349  20479368.67249
 20  5 16  2 13 36.0000000  0  8G04G07G08G09G11G16G26G27            -0.000250759
  21765674.172 6     -7334.148 6     -5812.58248  21765673.09448
  24621286.648 4   -620588.363 4   -452031.77348  24621284.99648
  20254191.125 7   -655168.883 7   -496134.59449  20254191.27049
  22647579.617 6   -579823.617 6   -436909.12549  22647579.55549
  22103585.742 6  -1404561.031 6  -1077109.71148  22103583.44948
  21903873.070 6    -77352.238 6    -59661.89148  21903870.33248
  23483802.273 5     54663.516 5     39808.85947  23483803.55547
  20479377.625 7     10558.016 7      7937.99249  20479377.34049
 20  5 16  2 13 37.0000000  0  8G04G07G08G09G11G16G26G27            -0.000251791
  21765672.930 6     -7339.750 6     -5816.93848  21765672.07448
  24620337.984 4   -625575.414 4   -455917.77748  24620336.34448
  20253803.891 7   -657203.145 7   -497719.73849  20253803.94549
  22647233.086 6   -581640.406 6   -438324.81349  22647233.98849
  22102698.336 6  -1409223.195 6  -1080742.56348  22102696.10548
  21903817.234 6    -77649.695 6    -59893.68048  21903813.72748
  23483826.047 5     54788.074 5     39905.91847  23483827.22747
  20479386.578 7     10604.344 7      7974.08649  20479385.98449
 20  5 16  2 13 38.0000000  0  8G04G07G08G09G11G16G26G27            -0.000252823
  21765671.828 6     -7345.176 6     -5821.16448  21765671.16048
  24619388.719 4   -630562.805 4   -459804.04748  24619387.19948
  20253416.930 7   -659237.156 7   -499304.67249  20253417.21949
  22646888.297 6   -583456.910 6   -439740.27349  22646888.64849
  22101811.289 6  -1413885.340 6  -1084375.40248  22101809.02048
  21903759.820 6    -77947.391 6    -60125.65648  21903756.81348
  23483849.617 5     54912.405 5     40002.80247  23483851.00047
  20479395.805 7     10650.816 7      8010.30549  20479395.25049
 20  5 16  2 13 39.0000000  0  8G04G07G08G09G11G16G26G27            -0.000253855
  21765671.297 6     -7350.352 6     -5825.21548  21765669.92248
  24618439.625 4   -635550.480 4   -463690.54748  24618437.79748
  20253029.992 7   -661270.844 7   -500889.36749  20253030.00049
  22646542.633 6   -585273.094 6   -441155.48849  22646542.92649
  22100923.953 6  -1418547.480 6  -1088008.23848  22100921.76248
  21903703.164 6    -78245.289 6    -60357.78548  21903700.43448
  23483873.141 6     55036.492 6     40099.48847  23483874.38747
  20479404.609 7     10697.484 7      8046.66849  20479404.15249
 20  5 16  2 13 40.0000000  0  8G04G07G08G09G11G16G26G27            -0.000254889
  21765669.938 6     -7355.363 6     -5829.11748  21765669.28948
  24617490.563 4   -640538.445 4   -467577.26648  24617488.60948
  20252642.875 7   -663304.250 7   -502473.84049  20252643.27349
  22646197.281 6   -587088.949 6   -442570.43849  22646196.96149
  22100036.969 6  -1423209.586 6  -1091641.05148  22100034.79748
  21903646.797 6    -78543.453 6    -60590.11748  21903643.37548
  23483896.789 5     55160.379 5     40196.02047  23483897.96147
  20479413.180 7     10744.332 7      8083.17649  20479413.06649
 20  5 16  2 13 41.0000000  0  8G04G07G08G09G11G16G26G27            -0.000255920
  21765669.383 6     -7360.234 6     -5832.91448  21765668.35548
  24616540.961 4   -645526.848 4   -471464.33648  24616539.64148
  20252255.992 7   -665337.473 7   -504058.16849  20252256.08249
  22645851.961 6   -588904.594 6   -443985.22349  22645851.84049
  22099150.031 6  -1427871.750 6  -1095273.90248  22099147.62548
  21903589.625 6    -78841.867 6    -60822.64848  21903586.91848
  23483920.141 5     55283.938 5     40292.30147  23483921.63347
  20479422.352 7     10791.301 7      8119.77049  20479422.11349
 20  5 16  2 13 42.0000000  0  8G04G07G08G09G11G16G26G27            -0.000256952
  21765668.406 6     -7365.000 6     -5836.62548  21765667.12948
  24615591.758 4   -650515.586 4   -475351.66048  24615590.14848
  20251869.125 7   -667370.496 7   -505642.34049  20251869.21949
  22645506.258 6   -590720.027 6   -445399.83649  22645506.54349
  22098262.719 6  -1432534.023 6  -1098906.84048  22098260.62148
  21903532.953 6    -79140.672 6    -61055.47748  21903530.02048
  23483943.828 6     55407.121 6     40388.28547  23483944.87547
  20479431.359 7     10838.313 7      8156.40249  20479430.73849
 20  5 16  2 13 43.0000000  0  8G04G07G08G09G11G16G26G27            -0.000257986
  21765667.117 6     -7369.465 6     -5840.10548  21765666.58248
  24614641.930 4   -655504.559 4   -479239.17648  24614641.26248
  20251482.297 7   -669403.137 7   -507226.21549  20251482.72349
  22645160.484 6   -592535.008 6   -446814.11349  22645161.08249
  22097375.477 6  -1437196.164 6  -1102539.67648  22097373.19148
  21903476.078 6    -79439.563 6    -61288.37548  21903473.07848
  23483967.398 5     55530.191 5     40484.18047  23483968.60547
  20479440.172 7     10885.637 7      8193.28149  20479440.07849
 20  5 16  2 13 44.0000000  0  8G04G07G08G09G11G16G26G27            -0.000259020
  21765666.414 6     -7373.797 6     -5843.47748  21765665.69148
  24613692.406 4   -660493.879 4   -483126.95348  24613691.33648
  20251095.719 7   -671435.582 7   -508809.94149  20251095.85249
  22644815.359 6   -594349.781 6   -448228.22749  22644816.00049
  22096488.266 6  -1441858.332 6  -1106172.53148  22096485.68048
  21903418.961 6    -79738.754 6    -61521.51248  21903416.00848
  23483990.359 5     55652.988 5     40579.86347  23483991.84847
  20479449.102 7     10933.059 7      8230.23049  20479449.00049
 20  5 16  2 13 45.0000000  0  8G04G07G08G09G11G16G26G27            -0.000260052
  21765665.844 6     -7378.035 6     -5846.78148  21765664.87548
  24612743.625 4   -665483.578 4   -487015.03548  24612742.14848
  20250708.742 7   -673467.832 7   -510393.51249  20250708.80149
  22644470.195 6   -596164.301 6   -449642.13349  22644470.42249
  22095601.172 6  -1446520.613 6  -1109805.48048  22095598.72748
  21903362.047 6    -80038.270 6    -61754.90248  21903358.71948
  23484014.102 5     55775.418 5     40675.25047  23484015.14147
  20479458.133 7     10980.582 7      8267.26649  20479458.30149
 20  5 16  2 13 46.0000000  0  8G04G07G08G09G11G16G26G27            -0.000261086
  21765665.016 6     -7381.926 6     -5849.81348  21765664.48848
  24611793.898 4   -670473.527 4   -490903.30548  24611792.50448
  20250322.234 7   -675499.703 7   -511976.79349  20250322.66049
  22644124.977 6   -597978.363 6   -451055.69149  22644125.16049
  22094714.328 6  -1451182.742 6  -1113438.30948  22094711.74248
  21903305.141 6    -80337.895 6    -61988.37948  21903301.87548
  23484037.531 5     55897.742 5     40770.55947  23484038.71947
  20479467.211 7     11028.387 7      8304.50849  20479466.89549
 20  5 16  2 13 47.0000000  0  8G04G07G08G09G11G16G26G27            -0.000262119
  21765664.336 6     -7385.609 6     -5852.69148  21765663.27748
  24610844.945 4   -675463.668 4   -494791.71948  24610842.28548
  20249935.469 7   -677531.234 7   -513559.79749  20249935.64549
  22643779.828 6   -599792.094 6   -452468.99249  22643779.60949
  22093826.844 6  -1455844.809 6  -1117071.09448  22093824.18848
  21903247.930 6    -80637.684 6    -62221.98848  21903245.26248
  23484060.836 5     56019.883 5     40865.73047  23484061.84447
  20479476.219 7     11076.434 7      8341.95349  20479476.19549
 20  5 16  2 13 48.0000000  0  8G04G07G08G09G11G16G26G27            -0.000263153
  21765663.250 6     -7389.234 6     -5855.51648  21765662.73448
  24609894.945 4   -680454.332 4   -498680.54348  24609892.78948
  20249549.055 7   -679562.688 7   -515142.75449  20249549.31349
  22643434.617 6   -601605.746 6   -453882.23049  22643434.86749
  22092939.758 6  -1460507.066 6  -1120704.02048  22092937.05548
  21903190.891 6    -80937.898 6    -62455.92248  21903188.14548
  23484084.039 5     56141.590 5     40960.57447  23484084.94947
  20479485.680 7     11124.480 7      8379.39149  20479485.09049
 20  5 16  2 13 49.0000000  0  8G04G07G08G09G11G16G26G27            -0.000264187
  21765663.078 6     -7392.605 6     -5858.14848  21765662.53148
  24608945.133 4   -685445.191 4   -502569.52348  24608943.15648
  20249162.344 7   -681593.809 7   -516725.44549  20249162.54349
  22643089.477 6   -603418.957 6   -455295.12149  22643089.97349
  22092052.328 6  -1465169.211 6  -1124336.85948  22092049.95348
  21903133.797 6    -81238.285 6    -62689.98448  21903130.83248
  23484106.953 6     56263.109 6     41055.26247  23484107.86747
  20479494.766 7     11172.766 7      8417.01649  20479495.02049
 20  5 16  2 13 50.0000000  0  8G04G07G08G09G11G16G26G27            -0.000265221
  21765662.094 6     -7395.750 6     -5860.60248  21765661.88348
  24607995.727 4   -690436.355 4   -506458.74648  24607993.57448
  20248775.836 7   -683624.613 7   -518307.89149  20248775.98049
  22642744.672 6   -605231.848 6   -456707.76649  22642744.82449
  22091165.289 6  -1469831.324 6  -1127969.67648  22091162.64848
  21903076.586 6    -81538.863 6    -62924.19948  21903073.16448
  23484129.961 6     56384.449 6     41149.81347  23484130.71547
  20479504.047 7     11221.250 7      8454.80549  20479504.00849
 20  5 16  2 13 51.0000000  0  8G04G07G08G09G11G16G26G27            -0.000266254
  21765661.930 6     -7398.883 6     -5863.05148  21765661.21948
  24607044.727 4   -695428.000 4   -510348.34048  24607043.77048
  20248389.453 7   -685655.316 7   -519890.25449  20248390.27349
  22642399.664 6   -607044.590 6   -458120.29749  22642400.00449
  22090278.219 6  -1474493.613 6  -1131602.62948  22090275.16048
  21903019.234 6    -81839.840 6    -63158.72748  21903016.31648
  23484153.180 6     56505.367 6     41244.03547  23484154.06647
  20479513.438 7     11269.762 7      8492.59849  20479513.12549
 20  5 16  2 13 52.0000000  0  8G04G07G08G09G11G16G26G27            -0.000267290
  21765660.938 6     -7401.738 6     -5865.27048  21765660.50848
  24606095.492 4   -700419.824 4   -514238.07448  24606093.65648
  20248003.164 7   -687685.680 7   -521472.35549  20248003.45349
  22642054.852 6   -608856.980 6   -459532.55149  22642055.05149
  22089390.930 6  -1479155.789 6  -1135235.48848  22089388.22748
  21902961.625 6    -82140.984 6    -63393.38748  21902959.16448
  23484176.555 6     56626.109 6     41338.12547  23484176.97347
  20479522.828 7     11318.492 7      8530.57449  20479522.33649
 20  5 16  2 13 53.0000000  0  8G04G07G08G09G11G16G26G27            -0.000268326
  21765660.836 6     -7404.414 6     -5867.35948  21765660.40248
  24605145.492 4   -705412.043 4   -518128.10948  24605143.96948
  20247616.992 7   -689715.781 7   -523054.25849  20247617.25049
  22641709.813 6   -610669.051 6   -460944.54749  22641710.43449
  22088503.625 6  -1483817.984 6  -1138868.37148  22088501.12948
  21902904.453 6    -82442.383 6    -63628.24248  21902901.53548
  23484198.664 6     56746.570 6     41431.98447  23484199.96547
  20479531.742 7     11367.398 7      8568.68049  20479531.77749
 20  5 16  2 13 54.0000000  0  8G04G07G08G09G11G16G26G27            -0.000269360
  21765660.352 6     -7406.996 6     -5869.36348  21765659.84448
  24604195.992 4   -710404.574 4   -522018.39148  24604193.41048
  20247230.688 7   -691745.699 7   -524636.00849  20247231.05949
  22641365.727 6   -612480.910 6   -462356.38349  22641365.73449
  22087616.969 6  -1488480.273 6  -1142501.32848  22087613.89548
  21902847.211 6    -82744.109 6    -63863.35548  21902844.28948
  23484221.328 6     56866.758 6     41525.63347  23484222.60547
  20479541.406 7     11416.375 7      8606.84049  20479541.14549
 20  5 16  2 13 55.0000000  0  8G04G07G08G09G11G16G26G27            -0.000270395
  21765659.852 6     -7409.258 6     -5871.12548  21765659.21548
  24603245.695 4   -715397.395 4   -525908.89548  24603243.02348
  20246844.539 7   -693775.262 7   -526217.48449  20246844.84049
  22641020.500 6   -614292.367 6   -463767.91449  22641020.39849
  22086729.453 6  -1493142.449 6  -1146134.18848  22086726.93448
  21902789.461 6    -83045.934 6    -64098.54348  21902786.55148
  23484244.172 5     56986.766 5     41619.14847  23484245.80147
  20479550.617 7     11465.621 7      8645.21149  20479550.57049
 20  5 16  2 13 56.0000000  0  8G04G07G08G09G11G16G26G27            -0.000271431
  21765659.430 6     -7411.332 6     -5872.74648  21765658.96948
  24602295.414 4   -720390.445 4   -529799.58648  24602293.32448
  20246458.109 7   -695804.520 7   -527798.72349  20246458.25049
  22640676.367 6   -616103.512 6   -465179.19149  22640676.25049
  22085841.953 6  -1497804.598 6  -1149767.02748  22085839.35248
  21902732.500 6    -83347.980 6    -64333.89848  21902729.35948
  23484267.047 5     57106.520 5     41712.46147  23484268.55547
  20479559.781 6     11515.078 6      8683.75049  20479559.97749
 20  5 16  2 13 57.0000000  0  8G04G07G08G09G11G16G26G27            -0.000272465
  21765659.094 6     -7413.227 6     -5874.22348  21765658.44548
  24601345.289 4   -725383.883 4   -533690.57448  24601343.18848
  20246072.125 7   -697833.543 7   -529379.78949  20246072.11349
  22640331.695 6   -617914.344 6   -466590.23449  22640331.46949
  22084955.250 6  -1502466.742 6  -1153399.86748  22084952.29748
  21902674.578 6    -83650.297 6    -64569.48048  21902671.39848
  23484289.742 6     57226.031 6     41805.59047  23484291.28147
  20479569.414 7     11564.660 7      8722.38349  20479569.37549
 20  5 16  2 13 58.0000000  0  8G04G07G08G09G11G16G26G27            -0.000273500
  21765658.969 6     -7414.918 6     -5875.54348  21765657.69148
  24600394.664 4   -730377.539 4   -537581.73048  24600392.78148
  20245686.148 7   -699862.262 7   -530960.60949  20245686.21549
  22639987.023 6   -619724.887 6   -468001.04349  22639987.10249
  22084068.078 6  -1507128.863 6  -1157032.68848  22084065.21948
  21902617.195 6    -83952.844 6    -64805.23048  21902614.02348
  23484312.906 5     57345.309 5     41898.52747  23484314.16047
  20479578.805 6     11614.449 6      8761.18449  20479578.76649
 20  5 16  2 13 59.0000000  0  8G04G07G08G09G11G16G26G27            -0.000274536
  21765658.469 6     -7416.457 6     -5876.74248  21765657.73448
  24599445.180 4   -735371.609 4   -541473.21948  24599442.43448
  20245300.125 7   -701890.758 7   -532541.25049  20245300.22349
  22639642.461 6   -621535.129 6   -469411.62149  22639642.89149
  22083180.742 6  -1511791.012 6  -1160665.53548  22083178.09048
  21902559.641 6    -84255.652 6    -65041.17648  21902556.61348
  23484334.938 5     57464.324 5     41991.27047  23484336.39847
  20479588.563 7     11664.359 7      8800.07449  20479588.30949
 20  5 16  2 14  0.0000000  0  8G04G07G08G09G11G16G26G27            -0.000275574
  21765658.359 6     -7417.750 6     -5877.75448  21765657.41848
  24598493.438 4   -740365.925 4   -545364.89048  24598491.97748
  20244914.055 7   -703918.922 7   -534121.64149  20244914.33649
  22639298.109 6   -623345.020 6   -470821.92249  22639298.35949
  22082293.508 6  -1516453.094 6  -1164298.32448  22082290.80948
  21902502.477 6    -84558.613 6    -65277.25848  21902498.98848
  23484358.125 5     57583.137 5     42083.85247  23484358.87947
  20479598.016 6     11714.516 6      8839.15649  20479597.85549
 20  5 16  2 14  1.0000000  0  8G04G07G08G09G11G16G26G27            -0.000276609
  21765658.164 6     -7418.719 6     -5878.50848  21765657.18848
  24597543.531 4   -745360.371 4   -549256.66048  24597541.92648
  20244528.320 7   -705946.688 7   -535701.71549  20244528.49249
  22638953.750 6   -625154.480 6   -472231.89549  22638953.78949
  22081406.555 6  -1521115.074 6  -1167931.03548  22081403.68448
  21902444.172 6    -84861.715 6    -65513.44148  21902441.22748
  23484380.336 5     57701.824 5     42176.32847  23484381.75847
  20479608.047 7     11764.992 7      8878.48849  20479607.80949
 20  5 16  2 14  2.0000000  0  8G04G07G08G09G11G16G26G27            -0.000277645
  21765658.336 6     -7419.398 6     -5879.04348  21765657.36748
  24596592.695 4   -750355.082 4   -553148.64148  24596591.74648
  20244142.617 7   -707974.117 7   -537281.53949  20244142.63749
  22638609.297 6   -626963.586 6   -473641.58649  22638609.35949
  22080519.281 6  -1525776.945 6  -1171563.66448  22080516.72748
  21902386.375 6    -85164.980 6    -65749.75848  21902383.95348
  23484403.063 5     57820.344 5     42268.68847  23484404.17247
  20479617.203 7     11815.660 7      8917.97349  20479617.23849
 20  5 16  2 14  3.0000000  0  8G04G07G08G09G11G16G26G27            -0.000278681
  21765657.930 6     -7419.914 6     -5879.44548  21765656.80948
  24595642.445 4   -755350.074 4   -557040.84448  24595640.65248
  20243756.703 7   -710001.266 7   -538861.13749  20243756.84849
  22638265.008 6   -628772.355 6   -475051.01649  22638265.34449
  22079631.992 6  -1530438.805 6  -1175196.28148  22079629.53948
  21902328.711 6    -85468.461 6    -65986.23448  21902326.15248
  23484425.477 5     57938.617 5     42360.84047  23484426.46947
  20479627.148 7     11866.523 7      8957.60249  20479626.85249
 20  5 16  2 14  4.0000000  0  8G04G07G08G09G11G16G26G27            -0.000279718
  21765657.844 6     -7420.164 6     -5879.63748  21765657.18048
  24594691.922 5   -760345.355 5   -560933.26648  24594690.08248
  20243371.297 7   -712028.078 7   -540440.46949  20243371.10249
  22637921.203 6   -630580.754 6   -476460.16049  22637921.39149
  22078744.617 6  -1535100.598 6  -1178828.84848  22078742.42248
  21902271.141 6    -85772.145 6    -66222.87948  21902268.11348
  23484448.141 5     58056.734 5     42452.87947  23484449.17247
  20479636.484 7     11917.625 7      8997.42649  20479636.52049
 20  5 16  2 14  5.0000000  0  8G04G07G08G09G11G16G26G27            -0.000280754
  21765657.977 6     -7420.227 6     -5879.69148  21765657.05148
  24593741.297 5   -765340.898 5   -564825.89848  24593739.23448
  20242985.477 7   -714054.645 7   -542019.61349  20242985.27749
  22637577.391 6   -632388.859 6   -477869.07449  22637577.41849
  22077857.703 6  -1539762.402 6  -1182461.42648  22077855.05948
  21902213.102 6    -86076.063 6    -66459.69548  21902210.08648
  23484470.781 5     58174.566 5     42544.69947  23484471.90647
  20479646.094 7     11968.863 7      9037.34449  20479646.47349
 20  5 16  2 14  6.0000000  0  8G04G07G08G09G11G16G26G27            -0.000281792
  21765658.031 6     -7420.289 6     -5879.73848  21765656.87948
  24592789.938 5   -770336.988 5   -568718.95348  24592788.43848
  20242600.016 7   -716081.109 7   -543598.67649  20242600.08249
  22637233.461 6   -634196.828 6   -479277.88749  22637233.22349
  22076970.672 6  -1544424.332 6  -1186094.10248  22076968.14848
  21902155.320 6    -86380.363 6    -66696.81348  21902152.38348
  23484492.734 5     58292.016 5     42636.21547  23484493.85947
  20479655.836 7     12020.121 7      9077.28549  20479655.75049
 20  5 16  2 14  7.0000000  0  8G04G07G08G09G11G16G26G27            -0.000282829
  21765657.758 6     -7420.223 6     -5879.69548  21765656.98448
  24591839.617 5   -775333.410 5   -572612.26248  24591837.66448
  20242214.328 7   -718107.387 7   -545177.59449  20242214.52349
  22636889.430 6   -636004.563 6   -480686.50449  22636889.23049
  22076083.813 6  -1549086.371 6  -1189726.85548  22076081.22348
  21902097.328 6    -86685.000 6    -66934.20348  21902094.65248
  23484515.031 6     58409.105 6     42727.44947  23484516.23447
  20479665.859 7     12071.445 7      9117.27749  20479665.72349
 20  5 16  2 14  8.0000000  0  8G04G07G08G09G11G16G26G27            -0.000283865
  21765658.000 6     -7419.977 6     -5879.50448  21765656.92248
  24590889.336 5   -780330.215 5   -576505.87548  24590886.82448
  20241828.813 7   -720133.430 7   -546756.32849  20241828.82449
  22636545.531 6   -637812.035 6   -482094.92649  22636545.28949
  22075196.102 6  -1553748.395 6  -1193359.59848  22075193.60248
  21902038.984 6    -86989.895 6    -67171.78148  21902036.33248
  23484537.711 5     58525.918 5     42818.46947  23484538.32847
  20479675.695 7     12122.949 7      9157.41449  20479675.53549
 20  5 16  2 14  9.0000000  0  8G04G07G08G09G11G16G26G27            -0.000284903
  21765657.641 6     -7419.590 6     -5879.20348  21765657.14548
  24589938.141 5   -785327.242 5   -580399.65648  24589936.38748
  20241443.367 7   -722159.199 7   -548334.84849  20241443.14549
  22636201.305 6   -639619.188 6   -483503.10249  22636200.99249
  22074309.055 6  -1558410.418 6  -1196992.34848  22074306.71548
  21901980.859 6    -87295.004 6    -67409.53948  21901978.51648
  23484559.023 5     58642.535 5     42909.34047  23484560.84847
  20479685.742 7     12174.602 7      9197.66849  20479685.98049
 20  5 16  2 14 10.0000000  0  8G04G07G08G09G11G16G26G27            -0.000285942
  21765657.711 6     -7419.023 6     -5878.76248  21765657.22348
  24588987.320 5   -790324.715 5   -584293.78148  24588985.60948
  20241058.133 7   -724184.785 7   -549913.22749  20241058.34849
  22635857.453 6   -641426.133 6   -484911.10949  22635857.57849
  22073421.852 6  -1563072.496 6  -1200625.13348  22073419.20748
  21901923.148 6    -87600.449 6    -67647.54748  21901920.54748
  23484581.484 5     58758.813 5     42999.94147  23484582.48847
  20479695.633 7     12226.383 7      9238.01649  20479695.18049
 20  5 16  2 14 11.0000000  0  8G04G07G08G09G11G16G26G27            -0.000286980
  21765657.797 6     -7418.402 6     -5878.28548  21765657.18848
  24588036.313 5   -795322.574 5   -588188.21548  24588034.19548
  20240672.359 7   -726210.219 7   -551491.48449  20240672.52049
  22635513.516 6   -643232.855 6   -486318.95349  22635513.55149
  22072534.789 6  -1567734.684 6  -1204258.00848  22072532.33248
  21901864.742 6    -87906.234 6    -67885.82448  21901862.39148
  23484603.516 5     58874.742 5     43090.27747  23484604.90247
  20479705.273 7     12278.176 7      9278.36749  20479705.32849
 20  5 16  2 14 12.0000000  0  8G04G07G08G09G11G16G26G27            -0.000288017
  21765658.172 6     -7417.523 6     -5877.60548  21765657.38748
  24587084.836 4   -800320.688 4   -592082.85248  24587082.80948
  20240287.070 7   -728235.340 7   -553069.50449  20240287.22349
  22635169.680 6   -645039.211 6   -487726.49649  22635169.58649
  22071647.320 6  -1572396.797 6  -1207890.82448  22071645.16048
  21901806.633 6    -88212.176 6    -68124.22348  21901804.00048
  23484625.852 5     58990.477 5     43180.44947  23484627.06647
  20479715.109 7     12330.227 7      9318.93049  20479715.28549
 20  5 16  2 14 13.0000000  0  8G04G07G08G09G11G16G26G27            -0.000289055
  21765658.367 6     -7416.445 6     -5876.77048  21765657.27748
  24586133.461 4   -805319.113 4   -595977.73448  24586131.93448
  20239901.602 7   -730260.176 7   -554647.30549  20239901.46149
  22634826.180 6   -646845.277 6   -489133.82049  22634826.23449
  22070760.578 6  -1577058.934 6  -1211523.65248  22070757.48048
  21901748.617 6    -88518.352 6    -68362.80148  21901745.41848
  23484648.070 5     59105.977 5     43270.45347  23484649.03547
  20479725.148 7     12382.438 7      9359.61349  20479725.30949
 20  5 16  2 14 14.0000000  0  8G04G07G08G09G11G16G26G27            -0.000290094
  21765658.703 6     -7415.129 6     -5875.74648  21765657.83648
  24585182.023 4   -810317.759 4   -599872.78048  24585180.44548
  20239516.734 7   -732284.672 7   -556224.83249  20239516.42249
  22634482.617 6   -648650.957 6   -490540.84449  22634482.77349
  22069873.414 6  -1581720.953 6  -1215156.38748  22069870.70348
  21901690.023 6    -88824.711 6    -68601.52348  21901687.50848
  23484670.039 5     59221.285 5     43360.30147  23484671.27047
  20479734.750 7     12434.887 7      9400.48849  20479735.27049
 20  5 16  2 14 15.0000000  0  8G04G07G08G09G11G16G26G27            -0.000291132
  21765658.805 6     -7413.695 6     -5874.62948  21765657.94148
  24584230.914 4   -815316.805 4   -603768.14148  24584229.53548
  20239131.258 7   -734308.965 7   -557802.20349  20239131.31649
  22634138.773 6   -650456.410 6   -491947.69949  22634139.04349
  22068986.195 6  -1586383.043 6  -1218789.19148  22068984.06648
  21901631.656 6    -89131.371 6    -68840.47748  21901628.96148
  23484691.648 5     59336.297 5     43449.93047  23484692.89847
  20479745.000 7     12487.449 7      9441.44149  20479745.18449
 20  5 16  2 14 16.0000000  0  8G04G07G08G09G11G16G26G27            -0.000292171
  21765658.773 6     -7412.063 6     -5873.35548  21765658.12148
  24583279.820 4   -820316.180 4   -607663.75448  24583277.69148
  20238745.977 7   -736333.008 7   -559379.37949  20238745.94949
  22633795.234 6   -652261.578 6   -493354.32049  22633795.57449
  22068099.016 6  -1591045.141 6  -1222421.99648  22068096.38748
  21901573.641 6    -89438.281 6    -69079.63348  21901570.54348
  23484713.336 6     59451.039 6     43539.33647  23484714.65647
  20479755.242 7     12540.133 7      9482.49249  20479755.09449
 20  5 16  2 14 17.0000000  0  8G04G07G08G09G11G16G26G27            -0.000293211
  21765659.750 6     -7410.438 6     -5872.08648  21765658.86348
  24582328.641 5   -825315.992 5   -611559.70748  24582326.42648
  20238361.047 7   -738356.965 7   -560956.49249  20238361.16449
  22633451.625 6   -654066.613 6   -494760.84449  22633452.17649
  22067211.609 6  -1595707.410 6  -1226054.93048  22067209.32848
  21901515.273 6    -89745.598 6    -69319.10248  21901512.10948
  23484735.398 5     59565.348 5     43628.40647  23484736.57447
  20479765.398 7     12592.820 7      9523.55149  20479765.26249
 20  5 16  2 14 18.0000000  0  8G04G07G08G09G11G16G26G27            -0.000294250
  21765660.023 6     -7408.574 6     -5870.64148  21765658.91848
  24581376.891 5   -830316.094 5   -615455.88748  24581374.62148
  20237976.008 7   -740380.605 7   -562533.35549  20237976.19949
  22633108.094 6   -655871.293 6   -496167.08649  22633108.42249
  22066324.484 6  -1600369.598 6  -1229687.80148  22066322.17648
  21901456.188 6    -90053.113 6    -69558.73048  21901453.40648
  23484756.859 5     59679.480 5     43717.33647  23484758.18847
  20479775.336 7     12645.777 7      9564.81349  20479775.12949
 20  5 16  2 14 19.0000000  0  8G04G07G08G09G11G16G26G27            -0.000295290
  21765660.570 6     -7406.445 6     -5868.98048  21765658.92648
  24580425.211 5   -835316.500 5   -619352.30948  24580423.52348
  20237590.844 7   -742403.930 7   -564109.97349  20237590.98049
  22632765.320 6   -657675.605 6   -497573.03549  22632765.42249
  22065437.492 6  -1605031.711 6  -1233320.61348  22065435.10548
  21901398.117 6    -90360.816 6    -69798.49648  21901395.04348
  23484778.789 5     59793.430 5     43806.12547  23484779.90647
  20479785.180 7     12698.898 7      9606.21149  20479784.85949
 20  5 16  2 14 20.0000000  0  8G04G07G08G09G11G16G26G27            -0.000296328
  21765660.875 6     -7404.023 6     -5867.09448  21765659.80948
  24579473.695 5   -840317.000 5   -623248.79748  24579471.88748
  20237205.906 7   -744426.867 7   -565686.28949  20237206.01249
  22632421.914 6   -659479.500 6   -498978.66849  22632422.17249
  22064550.086 6  -1609693.723 6  -1236953.34848  22064547.96148
  21901339.039 6    -90668.613 6    -70038.34448  21901336.29748
  23484800.469 5     59907.242 5     43894.80547  23484801.96547
  20479795.320 7     12752.340 7      9647.85249  20479795.42249
 20  5 16  2 14 21.0000000  0  8G04G07G08G09G11G16G26G27            -0.000297367
  21765661.398 6     -7401.367 6     -5865.02348  21765660.37948
  24578522.383 4   -845317.809 4   -627145.52748  24578519.75848
  20236820.984 7   -746449.508 7   -567262.37549  20236821.10549
  22632078.938 6   -661283.043 6   -500384.02749  22632078.83649
  22063663.094 6  -1614355.660 6  -1240586.02748  22063660.98048
  21901280.672 6    -90976.621 6    -70278.34848  21901277.98048
  23484822.266 5     60020.828 5     43983.30947  23484823.47347
  20479805.742 7     12805.961 7      9689.63349  20479805.80949
 20  5 16  2 14 22.0000000  0  8G04G07G08G09G11G16G26G27            -0.000298409
  21765662.336 6     -7398.625 6     -5862.89148  21765660.86748
  24577570.305 4   -850318.988 4   -631042.55148  24577568.22348
  20236436.523 7   -748471.980 7   -568838.32449  20236436.02049
  22631735.469 6   -663086.398 6   -501789.24249  22631735.75849
  22062775.813 6  -1619017.699 6  -1244218.78948  22062773.62948
  21901222.094 6    -91284.965 6    -70518.60948  21901219.27048
  23484843.617 5     60134.074 5     44071.55147  23484844.99247
  20479815.805 7     12859.648 7      9731.46949  20479816.04749
 20  5 16  2 14 23.0000000  0  8G04G07G08G09G11G16G26G27            -0.000299448
  21765662.594 6     -7395.676 6     -5860.59448  21765661.37148
  24576618.555 4   -855320.504 4   -634939.83648  24576616.44548
  20236051.195 7   -750494.141 7   -570414.03549  20236051.53949
  22631392.359 6   -664889.398 6   -503194.18049  22631392.53949
  22061888.820 6  -1623679.711 6  -1247851.52348  22061886.64148
  21901163.078 6    -91593.520 6    -70759.03948  21901160.26648
  23484864.938 5     60247.129 5     44159.64847  23484866.34447
  20479826.203 7     12913.559 7      9773.48049  20479826.37949
 20  5 16  2 14 24.0000000  0  8G04G07G08G09G11G16G26G27            -0.000300488
  21765663.102 6     -7392.563 6     -5858.16848  21765661.96548
  24575666.742 4   -860322.340 4   -638837.36348  24575664.80148
  20235666.680 7   -752516.090 7   -571989.57849  20235666.58649
  22631049.109 6   -666692.152 6   -504598.92249  22631049.23049
  22061001.672 6  -1628341.719 6  -1251484.25848  22060999.58248
  21901104.141 6    -91902.352 6    -70999.69148  21901101.75848
  23484886.453 5     60359.887 5     44247.50447  23484887.63747
  20479836.438 7     12967.590 7      9815.57449  20479836.77349
 20  5 16  2 14 25.0000000  0  8G04G07G08G09G11G16G26G27            -0.000301529
  21765663.563 6     -7389.305 6     -5855.62948  21765662.03948
  24574715.273 4   -865324.512 4   -642735.16847  24574712.54347
  20235281.906 7   -754537.801 7   -573564.93449  20235281.71549
  22630706.172 6   -668494.625 6   -506003.44949  22630706.60549
  22060114.453 6  -1633003.801 6  -1255117.05148  22060112.43048
  21901045.563 6    -92211.484 6    -71240.57848  21901042.79348
  23484908.180 6     60472.379 6     44335.16447  23484909.39147
  20479846.609 7     13021.746 7      9857.77349  20479846.83649
 20  5 16  2 14 26.0000000  0  8G04G07G08G09G11G16G26G27            -0.000302568
  21765664.578 6     -7385.848 6     -5852.94148  21765662.85248
  24573763.141 4   -870326.977 4   -646633.19148  24573760.95348
  20234897.266 7   -756559.262 7   -575140.10549  20234897.34849
  22630363.336 6   -670296.832 6   -507407.76649  22630363.14149
  22059227.508 6  -1637665.855 6  -1258749.82048  22059224.91048
  21900986.977 6    -92520.816 6    -71481.61748  21900983.60948
  23484929.039 5     60584.594 5     44422.60247  23484930.52047
  20479856.844 7     13076.074 7      9900.11349  20479856.98449
 20  5 16  2 14 27.0000000  0  8G04G07G08G09G11G16G26G27            -0.000303610
  21765665.070 6     -7382.121 6     -5850.03948  21765663.60948
  24572811.039 4   -875329.691 4   -650531.41048  24572808.52048
  20234512.891 7   -758580.367 7   -576714.98849  20234512.78549
  22630020.781 6   -672098.613 6   -508811.75449  22630020.50449
  22058339.938 6  -1642327.777 6  -1262382.48848  22058337.79748
  21900927.547 6    -92830.301 6    -71722.77348  21900925.28948
  23484950.633 5     60696.672 5     44509.93047  23484951.82047
  20479867.250 7     13130.645 7      9942.63349  20479867.67249
 20  5 16  2 14 28.0000000  0  8G04G07G08G09G11G16G26G27            -0.000304651
  21765665.953 6     -7378.074 6     -5846.89148  21765664.71148
  24571859.102 4   -880332.586 4   -654429.76648  24571857.07048
  20234128.211 7   -760601.078 7   -578289.57049  20234128.15649
  22629677.648 6   -673899.969 6   -510215.40649  22629677.52749
  22057453.352 6  -1646989.605 6  -1266015.07848  22057451.03148
  21900869.016 6    -93139.891 6    -71964.01648  21900866.04748
  23484971.375 5     60808.625 5     44597.16847  23484972.93847
  20479877.648 7     13185.504 7      9985.38349  20479878.33649
 20  5 16  2 14 29.0000000  0  8G04G07G08G09G11G16G26G27            -0.000305691
  21765666.586 6     -7374.059 6     -5843.76248  21765665.43448
  24570907.336 4   -885335.930 4   -658328.47748  24570904.94948
  20233743.664 7   -762621.715 7   -579864.09049  20233743.77049
  22629335.211 6   -675701.215 6   -511618.98049  22629334.75849
  22056565.961 6  -1651651.598 6  -1269647.79748  22056563.62948
  21900810.109 6    -93449.938 6    -72205.60948  21900807.14848
  23484992.500 5     60920.121 5     44684.04747  23484994.09847
  20479888.305 7     13240.352 7     10028.11749  20479888.38349
 20  5 16  2 14 30.0000000  0  8G04G07G08G09G11G16G26G27            -0.000306732
  21765666.859 6     -7369.789 6     -5840.44148  21765666.30148
  24569954.258 5   -890339.555 5   -662227.40648  24569952.77048
  20233359.172 7   -764642.039 7   -581438.36749  20233358.90249
  22628992.148 6   -677502.129 6   -513022.28949  22628992.14149
  22055678.945 6  -1656313.551 6  -1273280.48848  22055676.48448
  21900750.906 6    -93760.152 6    -72447.33248  21900748.17648
  23485013.914 5     61031.434 5     44770.78547  23485015.63747
  20479898.680 7     13295.410 7     10071.02349  20479899.05549
 20  5 16  2 14 31.0000000  0  8G04G07G08G09G11G16G26G27            -0.000307774
  21765668.234 6     -7365.289 6     -5836.93448  21765666.91048
  24569002.328 4   -895343.516 4   -666126.59848  24569000.69948
  20232974.695 7   -766662.063 7   -583012.41849  20232974.68849
  22628649.844 6   -679302.668 6   -514425.30949  22628649.52049
  22054792.000 6  -1660975.461 6  -1276913.13748  22054789.85548
  21900691.773 6    -94070.574 6    -72689.22348  21900689.00848
  23485035.133 5     61142.512 5     44857.33647  23485036.55547
  20479909.375 6     13350.672 6     10114.07849  20479909.32449
 20  5 16  2 14 32.0000000  0  8G04G07G08G09G11G16G26G27            -0.000308815
  21765668.891 6     -7360.523 6     -5833.21948  21765668.07048
  24568049.914 4   -900347.652 4   -670025.91848  24568047.91048
  20232590.414 7   -768681.723 7   -584586.17649  20232590.51249
  22628306.711 6   -681102.828 6   -515828.03549  22628306.96949
  22053904.859 6  -1665637.246 6  -1280545.69948  22053902.60248
  21900633.031 6    -94381.168 6    -72931.23848  21900630.19948
  23485056.234 5     61253.445 5     44943.77747  23485057.52047
  20479920.133 7     13406.176 7     10157.32849  20479919.78549
 20  5 16  2 14 33.0000000  0  8G04G07G08G09G11G16G26G27            -0.000309858
  21765669.961 6     -7355.574 6     -5829.35948  21765668.75048
  24567098.055 4   -905352.109 4   -673925.49648  24567096.31648
  20232205.883 7   -770701.113 7   -586159.72349  20232206.28149
  22627964.391 6   -682902.715 6   -517230.54749  22627964.58249
  22053017.289 6  -1670299.047 6  -1284178.27048  22053015.27048
  21900573.313 6    -94691.992 6    -73173.44148  21900570.75448
  23485077.398 5     61364.141 5     45030.02747  23485078.80547
  20479930.836 7     13461.836 7     10200.70349  20479930.70749
 20  5 16  2 14 34.0000000  0  8G04G07G08G09G11G16G26G27            -0.000310900
  21765671.023 6     -7350.379 6     -5825.31648  21765669.77048
  24566145.680 4   -910356.773 4   -677825.22748  24566143.94548
  20231821.883 7   -772720.172 7   -587733.02049  20231821.80149
  22627621.922 6   -684702.203 6   -518632.74649  22627621.90649
  22052130.672 6  -1674960.750 6  -1287810.77048  22052128.25848
  21900514.172 6    -95002.957 6    -73415.75448  21900511.76648
  23485098.367 5     61474.656 5     45116.14847  23485099.75847
  20479941.102 7     13517.781 7     10244.28949  20479941.04349
 20  5 16  2 14 35.0000000  0  8G04G07G08G09G11G16G26G27            -0.000311941
  21765672.250 6     -7345.051 6     -5821.16048  21765670.89848
  24565193.508 4   -915361.805 4   -681725.25048  24565191.12148
  20231437.578 7   -774739.012 7   -589306.14149  20231437.98449
  22627280.117 6   -686501.457 6   -520034.76649  22627279.77349
  22051243.570 6  -1679622.484 6  -1291443.28948  22051241.00848
  21900455.031 6    -95314.223 6    -73658.30148  21900452.28548
  23485119.320 5     61584.879 5     45202.03147  23485121.37947
  20479951.719 7     13573.801 7     10287.94149  20479951.50049
 20  5 16  2 14 36.0000000  0  8G04G07G08G09G11G16G26G27            -0.000312983
  21765672.930 6     -7339.531 6     -5816.86748  21765671.50448
  24564241.070 4   -920367.195 4   -685625.56348  24564238.53948
  20231053.609 7   -776757.656 7   -590879.10949  20231053.74649
  22626937.344 6   -688300.418 6   -521436.55149  22626937.32849
  22050356.531 6  -1684284.270 6  -1295075.85248  22050353.93448
  21900396.156 6    -95625.781 6    -73901.07448  21900393.24248
  23485140.898 5     61694.840 5     45287.71147  23485142.30147
  20479962.484 7     13629.961 7     10331.70349  20479962.52749
 20  5 16  2 14 37.0000000  0  8G04G07G08G09G11G16G26G27            -0.000314026
  21765673.664 6     -7333.887 6     -5812.47348  21765673.02348
  24563288.602 5   -925372.969 5   -689526.16048  24563286.01648
  20230669.688 7   -778776.035 7   -592451.87949  20230669.48449
  22626595.789 6   -690099.125 6   -522838.14149  22626595.08249
  22049469.000 6  -1688946.055 6  -1298708.40648  22049466.73448
  21900336.242 6    -95937.598 6    -74144.04748  21900333.54748
  23485161.086 5     61804.461 5     45373.12947  23485163.18847
  20479973.313 7     13686.242 7     10375.55949  20479973.19149
 20  5 16  2 14 38.0000000  0  8G04G07G08G09G11G16G26G27            -0.000315069
  21765675.289 6     -7327.965 6     -5807.85948  21765674.20348
  24562335.359 4   -930378.844 4   -693426.84848  24562333.45748
  20230285.516 7   -780794.043 7   -594024.34449  20230285.68049
  22626252.625 6   -691897.441 6   -524239.43049  22626253.07849
  22048581.984 6  -1693607.723 6  -1302340.87148  22048579.94148
  21900277.305 6    -96249.531 6    -74387.11748  21900274.02748
  23485182.102 5     61913.988 5     45458.47347  23485183.48447
  20479984.133 7     13742.805 7     10419.63349  20479983.91049
 20  5 16  2 14 39.0000000  0  8G04G07G08G09G11G16G26G27            -0.000316111
  21765676.375 6     -7321.730 6     -5802.99648  21765675.56348
  24561382.789 5   -935385.016 5   -697327.75448  24561380.83648
  20229901.648 7   -782811.707 7   -595596.54749  20229901.34449
  22625910.875 6   -693695.320 6   -525640.37949  22625910.32849
  22047695.227 6  -1698269.313 6  -1305973.28148  22047692.64848
  21900218.117 6    -96561.629 6    -74630.31348  21900214.78548
  23485202.930 5     62023.336 5     45543.67647  23485204.62947
  20479995.117 7     13799.621 7     10463.90249  20479994.73849
 20  5 16  2 14 40.0000000  0  8G04G07G08G09G11G16G26G27            -0.000317154
  21765677.453 6     -7315.395 6     -5798.05948  21765676.83248
  24560430.789 4   -940391.508 4   -701228.91048  24560427.83248
  20229517.766 7   -784829.160 7   -597168.59849  20229517.63349
  22625568.773 6   -695492.973 6   -527041.14549  22625568.57849
  22046807.789 6  -1702930.918 6  -1309605.70348  22046805.50048
  21900158.188 6    -96874.004 6    -74873.71548  21900155.62948
  23485223.758 5     62132.426 5     45628.67647  23485225.03147
  20480005.750 7     13856.559 7     10508.27049  20480005.38349
 20  5 16  2 14 41.0000000  0  8G04G07G08G09G11G16G26G27            -0.000318197
  21765679.063 6     -7309.063 6     -5793.12948  21765677.85948
  24559476.992 4   -945398.527 4   -705130.48048  24559475.17648
  20229133.680 7   -786846.547 7   -598740.58249  20229133.88349
  22625226.844 6   -697290.516 6   -528441.83249  22625226.14149
  22045920.633 6  -1707592.727 6  -1313238.28948  22045918.45348
  21900098.625 6    -97186.824 6    -75117.47748  21900095.72748
  23485243.977 5     62241.043 5     45713.31647  23485245.72347
  20480016.891 7     13913.457 7     10552.60549  20480016.42649
 20  5 16  2 14 42.0000000  0  8G04G07G08G09G11G16G26G27            -0.000319241
  21765679.703 6     -7302.551 6     -5788.06348  21765679.01248
  24558525.258 5   -950405.820 5   -709032.27348  24558522.22348
  20228749.805 7   -788863.684 7   -600312.37949  20228750.07049
  22624884.297 6   -699087.809 6   -529842.32049  22624884.43849
  22045033.500 6  -1712254.527 6  -1316870.85248  22045031.14148
  21900039.500 6    -97499.883 6    -75361.41848  21900036.32848
  23485264.641 5     62349.379 5     45797.73047  23485266.51647
  20480027.500 7     13970.504 7     10597.05549  20480027.56649
 20  5 16  2 14 43.0000000  0  8G04G07G08G09G11G16G26G27            -0.000320284
  21765682.008 6     -7295.887 6     -5782.86748  21765680.50048
  24557572.039 5   -955413.555 5   -712934.40648  24557568.98448
  20228366.000 7   -790880.570 7   -601883.97749  20228366.21149
  22624542.789 6   -700884.770 6   -531242.54349  22624542.43849
  22044146.359 6  -1716916.379 6  -1320503.46548  22044143.97348
  21899979.602 6    -97813.250 6    -75605.59848  21899976.27048
  23485285.438 5     62457.473 5     45881.95747  23485287.28947
  20480038.250 7     14027.676 7     10641.60949  20480038.26249
 20  5 16  2 14 44.0000000  0  8G04G07G08G09G11G16G26G27            -0.000321327
  21765682.805 6     -7288.953 6     -5777.45748  21765681.43048
  24556618.500 4   -960421.453 4   -716836.68448  24556616.28948
  20227982.453 7   -792897.117 7   -603455.31349  20227982.21149
  22624200.602 6   -702681.398 6   -532642.52049  22624200.56349
  22043259.484 6  -1721578.121 6  -1324135.98848  22043257.18048
  21899920.055 6    -98126.727 6    -75849.85948  21899917.00448
  23485306.188 5     62565.387 5     45966.04747  23485307.62147
  20480048.805 7     14085.105 7     10686.35549  20480048.93449
 20  5 16  2 14 45.0000000  0  8G04G07G08G09G11G16G26G27            -0.000322372
  21765684.336 6     -7281.906 6     -5771.96948  21765682.83648
  24555665.898 4   -965429.680 4   -720739.16848  24555663.18448
  20227598.703 7   -794913.453 7   -605026.48449  20227598.35249
  22623858.906 6   -704477.746 6   -534042.26649  22623858.95349
  22042372.055 6  -1726239.906 6  -1327768.55148  22042370.00448
  21899859.945 6    -98440.527 6    -76094.37548  21899857.74648
  23485326.938 5     62672.988 5     46049.88747  23485327.71547
  20480059.844 7     14142.637 7     10731.18449  20480060.01649
 20  5 16  2 14 46.0000000  0  8G04G07G08G09G11G16G26G27            -0.000323416
  21765685.313 6     -7274.590 6     -5766.27348  21765684.18848
  24554712.617 4   -970438.216 4   -724641.91548  24554710.49248
  20227214.930 7   -796929.461 7   -606597.40249  20227215.02349
  22623517.359 6   -706273.758 6   -535441.75449  22623516.79349
  22041485.586 6  -1730901.625 6  -1331401.06648  22041482.39548
  21899800.641 6    -98754.496 6    -76339.03148  21899797.59448
  23485347.023 5     62780.422 5     46133.60547  23485348.60247
  20480071.461 7     14200.398 7     10776.19149  20480071.45749
 20  5 16  2 14 47.0000000  0  8G04G07G08G09G11G16G26G27            -0.000324459
  21765686.664 6     -7267.117 6     -5760.46148  21765685.74248
  24553759.711 5   -975446.992 5   -728544.84848  24553757.37148
  20226831.328 7   -798945.211 7   -608168.11349  20226831.19549
  22623175.438 6   -708069.441 6   -536840.98049  22623175.08249
  22040598.211 6  -1735563.313 6  -1335033.54748  22040595.21148
  21899740.602 6    -99068.711 6    -76583.87548  21899737.59448
  23485367.250 5     62887.578 5     46217.10247  23485368.75447
  20480082.055 7     14258.313 7     10821.32049  20480082.32449
 20  5 16  2 14 48.0000000  0  8G04G07G08G09G11G16G26G27            -0.000325504
  21765688.219 6     -7259.352 6     -5754.41048  21765687.27348
  24552806.492 5   -980456.066 5   -732448.02048  24552804.12948
  20226447.977 7   -800960.625 7   -609738.56349  20226447.85549
  22622833.953 6   -709864.793 6   -538239.95749  22622833.47349
  22039711.406 6  -1740224.938 6  -1338665.98448  22039708.61348
  21899680.875 6    -99383.094 6    -76828.84448  21899677.91448
  23485388.023 5     62994.594 5     46300.49247  23485389.49247
  20480093.531 7     14316.438 7     10866.61749  20480093.53549
 20  5 16  2 14 49.0000000  0  8G04G07G08G09G11G16G26G27            -0.000326548
  21765689.734 6     -7251.387 6     -5748.20348  21765689.13348
  24551853.281 5   -985465.367 5   -736351.37148  24551851.03948
  20226064.516 7   -802975.719 7   -611308.76649  20226064.48049
  22622491.805 6   -711659.766 6   -539638.64149  22622491.79349
  22038824.281 6  -1744886.504 6  -1342298.37548  22038821.13348
  21899621.055 6    -99697.648 6    -77073.95348  21899618.36348
  23485407.977 5     63101.395 5     46383.71147  23485409.52347
  20480104.375 7     14374.805 7     10912.09449  20480104.19949
 20  5 16  2 14 50.0000000  0  8G04G07G08G09G11G16G26G27            -0.000327593
  21765690.992 6     -7243.223 6     -5741.84448  21765690.53548
  24550898.961 4   -990475.008 4   -740254.98448  24550897.69148
  20225681.000 7   -804990.578 7   -612878.79349  20225681.12149
  22622150.500 6   -713454.461 6   -541037.10249  22622150.66849
  22037937.234 6  -1749548.082 6  -1345930.77348  22037934.23048
  21899561.063 6   -100012.473 6    -77319.27348  21899557.99648
  23485428.023 5     63207.938 5     46466.72747  23485429.98447
  20480115.664 7     14433.320 7     10957.69149  20480115.29349
 20  5 16  2 14 51.0000000  0  8G04G07G08G09G11G16G26G27            -0.000328638
  21765692.922 6     -7234.969 6     -5735.40648  21765692.04748
  24549946.438 4   -995484.977 4   -744158.85248  24549944.02748
  20225297.875 7   -807005.211 7   -614448.62949  20225297.64549
  22621809.148 6   -715248.875 6   -542435.34849  22621809.16449
  22037050.352 6  -1754209.695 6  -1349563.19948  22037047.46948
  21899500.922 6   -100327.582 6    -77564.81348  21899497.84048
  23485448.969 5     63314.176 5     46549.51247  23485450.07447
  20480126.797 7     14491.953 7     11003.38349  20480126.22349
 20  5 16  2 14 52.0000000  0  8G04G07G08G09G11G16G26G27            -0.000329683
  21765694.789 6     -7226.551 6     -5728.83648  21765693.55548
  24548992.898 5  -1000495.332 5   -748063.03148  24548990.82848
  20224914.219 7   -809019.641 7   -616018.32049  20224914.23049
  22621467.156 6   -717043.109 6   -543833.45349  22621467.82849
  22036163.336 6  -1758871.363 6  -1353195.66848  22036159.89148
  21899440.961 6   -100643.000 6    -77810.59448  21899438.07048
  23485469.258 5     63420.105 5     46632.05147  23485470.23847
  20480137.938 7     14550.676 7     11049.14149  20480137.58649
 20  5 16  2 14 53.0000000  0  8G04G07G08G09G11G16G26G27            -0.000330729
  21765696.211 6     -7217.980 6     -5722.16448  21765695.45748
  24548039.281 4  -1005505.984 4   -751967.43448  24548036.88348
  20224530.828 7   -811033.801 7   -617587.80149  20224531.02749
  22621125.891 6   -718836.984 6   -545231.27349  22621126.05149
  22035276.234 6  -1763533.012 6  -1356828.11348  22035273.03948
  21899380.781 6   -100958.648 6    -78056.55548  21899378.10548
  23485488.633 5     63525.797 5     46714.41047  23485490.01247
  20480149.195 7     14609.574 7     11095.03549  20480149.04749
 20  5 16  2 14 54.0000000  0  8G04G07G08G09G11G16G26G27            -0.000331774
  21765698.258 6     -7209.121 6     -5715.26648  21765697.25848
  24547086.047 5  -1010516.898 5   -755872.03948  24547083.67248
  20224147.625 7   -813047.641 7   -619157.02749  20224147.34849
  22620784.766 6   -720630.520 6   -546628.83649  22620785.16049
  22034389.063 6  -1768194.590 6  -1360460.51248  22034385.78148
  21899321.219 6   -101274.477 6    -78302.65248  21899317.79748
  23485508.563 5     63631.297 5     46796.61747  23485510.46147
  20480160.375 7     14668.676 7     11141.08649  20480160.38749
 20  5 16  2 14 55.0000000  0  8G04G07G08G09G11G16G26G27            -0.000332819
  21765699.320 6     -7200.156 6     -5708.28148  21765698.84048
  24546132.188 4  -1015528.141 4   -759776.89848  24546130.03148
  20223764.922 7   -815061.270 7   -620726.08649  20223764.76649
  22620443.844 6   -722423.797 6   -548026.19549  22620443.70349
  22033501.656 6  -1772856.211 6  -1364092.94948  22033498.84448
  21899260.570 6   -101590.574 6    -78548.96148  21899257.47348
  23485528.773 5     63736.531 5     46878.62147  23485530.53147
  20480171.797 7     14727.906 7     11187.24249  20480171.39549
 20  5 16  2 14 56.0000000  0  8G04G07G08G09G11G16G26G27            -0.000333864
  21765701.523 6     -7190.980 6     -5701.13748  21765700.89848
  24545178.711 4  -1020539.653 4   -763681.96348  24545176.61748
  20223381.500 7   -817074.594 7   -622294.91049  20223381.21149
  22620102.305 6   -724216.738 6   -549423.28949  22620103.02049
  22032614.898 6  -1777517.781 6  -1367725.34848  22032611.86748
  21899200.711 6   -101906.906 6    -78795.46148  21899197.42248
  23485548.633 5     63841.496 5     46960.40647  23485550.32447
  20480182.930 7     14787.340 7     11233.55549  20480183.13349
 20  5 16  2 14 57.0000000  0  8G04G07G08G09G11G16G26G27            -0.000334911
  21765702.984 6     -7181.621 6     -5693.84448  21765702.32448
  24544224.469 4  -1025551.535 4   -767587.32048  24544222.64848
  20222998.422 7   -819087.676 7   -623863.54349  20222998.53149
  22619761.617 6   -726009.398 6   -550820.16849  22619761.17249
  22031727.727 6  -1782179.363 6  -1371357.75048  22031725.10948
  21899140.336 6   -102223.480 6    -79042.14148  21899137.46548
  23485568.734 5     63946.246 5     47042.03146  23485570.30946
  20480194.117 7     14846.910 7     11279.96949  20480194.23849
 20  5 16  2 14 58.0000000  0  8G04G07G08G09G11G16G26G27            -0.000335957
  21765704.570 6     -7172.141 6     -5686.45748  21765703.92248
  24543271.336 4  -1030563.754 4   -771492.94948  24543268.80948
  20222615.438 7   -821100.551 7   -625432.01649  20222615.50849
  22619420.352 6   -727801.871 6   -552216.90249  22619420.05949
  22030840.648 6  -1786840.992 6  -1374990.18848  22030837.65248
  21899080.047 6   -102540.363 6    -79289.07048  21899077.28148
  23485588.734 5     64050.668 5     47123.39547  23485590.45747
  20480205.102 7     14906.574 7     11326.46149  20480205.19149
 20  5 16  2 14 59.0000000  0  7G04G08G09G11G16G26G27               -0.000337004
  21765706.680 6     -7162.547 6     -5678.98448  21765705.64148
  20222232.398 7   -823113.207 7   -627000.32049  20222232.19549
  22619079.328 6   -729594.008 6   -553613.37549  22619079.36349
  22029953.703 6  -1791502.652 6  -1378622.65248  22029951.16048
  21899020.047 6   -102857.504 6    -79536.19148  21899016.57048
  23485608.680 5     64154.789 5     47204.52347  23485610.09047
  20480216.492 7     14966.363 7     11373.05549  20480217.12549
 20  5 16  2 15  0.0000000  0  7G04G08G09G11G16G26G27               -0.000338049
  21765708.805 6     -7152.824 6     -5671.40648  21765707.30548
  20221849.484 7   -825125.684 7   -628568.48449  20221849.31649
  22618738.211 6   -731385.934 6   -555009.68449  22618738.42249
  22029066.273 6  -1796164.379 6  -1382255.16048  22029063.61348
  21898959.086 6   -103174.984 6    -79783.57448  21898956.34448
  23485628.242 5     64258.590 5     47285.43047  23485629.66847
  20480228.625 7     15026.242 7     11419.70749  20480228.35549
 20  5 16  2 15  1.0000000  0  7G04G08G09G11G16G26G27               -0.000339096
  21765710.586 6     -7142.828 6     -5663.62548  21765709.03148
  20221466.805 7   -827137.840 7   -630136.39849  20221466.48449
  22618397.125 6   -733177.500 6   -556405.71149  22618397.45749
  22028178.938 6  -1800826.012 6  -1385887.60248  22028176.90648
  21898898.773 6   -103492.617 6    -80031.07848  21898895.47748
  23485648.055 5     64362.230 5     47366.18447  23485649.50047
  20480239.570 7     15086.352 7     11466.54749  20480239.53149
 20  5 16  2 15  2.0000000  0  8G04G07G08G09G11G16G26G27            -0.000340143
  21765712.672 6     -7132.664 6     -5655.69948  21765711.80548
  24539455.17215     -7980.92615                
  20221083.625 7   -829149.715 7   -631704.09049  20221083.55149
  22618056.438 6   -734968.738 6   -557801.47749  22618056.60949
  22027292.273 6  -1805487.609 6  -1389520.01648  22027289.50448
  21898838.383 6   -103810.469 6    -80278.76248  21898835.41448
  23485667.852 5     64465.668 5     47446.77347  23485669.31347
  20480251.078 7     15146.633 7     11513.51649  20480250.77049
 20  5 16  2 15  3.0000000  0  8G04G07G08G09G11G16G26G27            -0.000341190
  21765714.469 6     -7122.242 6     -5647.58248  21765713.90248
  24538501.656 5    -12994.645 5                
  20220700.672 7   -831161.254 7   -633271.52349  20220700.88749
  22617715.758 6   -736759.633 6   -559196.98049  22617715.93049
  22026405.039 6  -1810149.160 6  -1393152.39148  22026402.27348
  21898777.711 6   -104128.508 6    -80526.59048  21898775.07848
  23485686.875 5     64568.848 5     47527.16047  23485688.62947
  20480262.539 7     15207.152 7     11560.67649  20480262.70349
 20  5 16  2 15  4.0000000  0  8G04G07G08G09G11G16G26G27            -0.000342237
  21765716.539 6     -7111.512 6     -5639.21948  21765715.71948
  24537547.750 5    -18008.582 5                
  20220318.109 7   -833172.422 7   -634838.67249  20220318.30549
  22617374.922 6   -738550.082 6   -560592.12949  22617375.35249
  22025517.977 6  -1814810.523 6  -1396784.62148  22025515.15248
  21898717.109 6   -104446.668 6    -80774.50448  21898714.58648
  23485706.953 5     64671.969 5     47607.51247  23485708.30947
  20480274.125 7     15267.941 7     11608.03949  20480274.36349
 20  5 16  2 15  5.0000000  0  8G04G07G08G09G11G16G26G27            -0.000343285
  21765718.609 6     -7100.559 6     -5630.68048  21765717.17248
  24536593.242 5    -23022.723 5                
  20219935.461 7   -835183.273 7   -636405.56649  20219935.34849
  22617034.500 6   -740340.223 6   -561987.03949  22617034.72349
  22024630.727 6  -1819471.895 6  -1400416.86748  22024628.31648
  21898656.563 6   -104765.035 6    -81022.58648  21898653.93048
  23485726.500 5     64774.859 5     47687.68047  23485727.86347
  20480285.961 7     15328.941 7     11655.57049  20480285.85549
 20  5 16  2 15  6.0000000  0  8G04G07G08G09G11G16G26G27            -0.000344332
  21765720.680 6     -7089.637 6     -5622.17248  21765719.67648
  24535638.742 5    -28037.414 5                
  20219552.703 7   -837194.082 7   -637972.43449  20219552.94549
  22616693.813 6   -742130.234 6   -563381.85549  22616693.58249
  22023743.547 6  -1824133.449 6  -1404049.24248  22023741.05148
  21898596.094 6   -105083.848 6    -81271.01248  21898593.62148
  23485745.930 5     64877.273 5     47767.48047  23485747.46547
  20480297.633 7     15389.879 7     11703.06349  20480297.75449
 20  5 16  2 15  7.0000000  0  8G04G07G08G09G11G16G26G27            -0.000345379
  21765723.109 6     -7078.547 6     -5613.53148  21765722.27348
  24534684.773 4    -33052.461 4                
  20219170.320 7   -839204.613 7   -639539.08249  20219170.31649
  22616353.383 6   -743919.984 6   -564776.46949  22616353.30149
  22022856.836 6  -1828794.996 6  -1407681.61348  22022854.20348
  21898535.211 6   -105402.891 6    -81519.61748  21898532.90648
  23485765.500 5     64979.457 5     47847.09847  23485767.48447
  20480309.289 7     15450.973 7     11750.66049  20480309.04749
 20  5 16  2 15  8.0000000  0  8G04G07G08G09G11G16G26G27            -0.000346428
  21765724.813 6     -7067.387 6     -5604.84848  21765723.87948
  24533729.719 4    -38067.816 4   -776962.33658  24533726.46558
  20218787.445 7   -841215.000 7   -641105.61349  20218787.70349
  22616012.641 6   -745709.508 6   -566170.91449  22616012.32449
  22021969.461 6  -1833456.617 6  -1411314.04748  22021967.21948
  21898474.836 6   -105722.301 6    -81768.50448  21898471.70748
  23485784.945 5     65081.293 5     47926.45347  23485786.28547
  20480321.086 7     15512.148 7     11798.33649  20480320.68849
 20  5 16  2 15  9.0000000  0  8G04G07G08G09G11G16G26G27            -0.000347475
  21765727.188 6     -7055.758 6     -5595.78948  21765726.02348
  24532775.250 4    -43083.273 4   -780870.51248  24532772.93448
  20218405.094 7   -843224.855 7   -642671.74249  20218405.20349
  22615672.789 6   -747498.488 6   -567564.92649  22615672.14849
  22021082.602 6  -1838117.996 6  -1414946.28148  22021080.27048
  21898413.742 6   -106041.668 6    -82017.35948  21898410.99248
  23485804.344 5     65183.109 5     48005.78947  23485805.92647
  20480332.703 7     15573.727 7     11846.31649  20480332.24649
 20  5 16  2 15 10.0000000  0  8G04G07G08G09G11G16G26G27            -0.000348524
  21765729.609 6     -7044.012 6     -5586.63348  21765728.25448
  24531820.570 4    -48099.098 4   -784778.95348  24531818.27048
  20218022.547 7   -845234.523 7   -644237.71149  20218022.41849
  22615332.367 6   -749287.219 6   -568958.75049  22615332.12949
  22020195.648 6  -1842779.395 6  -1418578.54748  22020193.05948
  21898353.000 6   -106361.332 6    -82266.44948  21898350.12548
  23485823.492 5     65284.648 5     48084.91447  23485825.39547
  20480344.547 7     15635.406 7     11894.37949  20480344.02749
 20  5 16  2 15 11.0000000  0  8G04G07G08G09G11G16G26G27            -0.000349573
  21765731.297 6     -7032.430 6     -5577.59848  21765730.28148
  24530866.016 4    -53115.516 4   -788687.84448  24530863.83648
  20217639.961 7   -847244.230 7   -645803.72349  20217640.02049
  22614992.039 6   -751075.973 6   -570352.58649  22614991.38349
  22019308.789 6  -1847441.117 6  -1422211.05948  22019306.20348
  21898291.883 6   -106681.578 6    -82515.99248  21898289.62548
  23485842.781 5     65385.629 5     48163.60547  23485844.09447
  20480356.273 7     15696.934 7     11942.31349  20480356.00049
 20  5 16  2 15 12.0000000  0  8G04G07G08G09G11G16G26G27            -0.000350622
  21765733.852 6     -7020.465 6     -5568.28148  21765732.72748
  24529911.672 4    -58132.094 4   -792596.85948  24529909.21548
  20217257.961 7   -849253.547 7   -647369.42649  20217257.91049
  22614651.672 6   -752864.273 6   -571746.06349  22614651.11749
  22018421.633 6  -1852102.664 6  -1425843.43048  22018419.15648
  21898231.383 6   -107001.902 6    -82765.60248  21898228.27348
  23485861.805 5     65486.492 5     48242.20347  23485863.35547
  20480368.055 7     15758.762 7     11990.49649  20480367.69149
 20  5 16  2 15 13.0000000  0  8G04G07G08G09G11G16G26G27            -0.000351671
  21765736.141 6     -7008.398 6     -5558.88348  21765734.60948
  24528956.289 4    -63149.078 4   -796506.19548  24528954.84848
  20216875.492 7   -851262.645 7   -648934.95749  20216875.44949
  22614311.016 6   -754652.344 6   -573139.36749  22614310.67249
  22017534.664 6  -1856764.281 6  -1429475.85548  22017531.96948
  21898170.289 6   -107322.508 6    -83015.42248  21898167.43448
  23485881.180 5     65587.066 5     48320.56647  23485883.07447
  20480379.742 7     15820.719 7     12038.77349  20480379.24649
 20  5 16  2 15 14.0000000  0  8G04G07G08G09G11G16G26G27            -0.000352720
  21765738.422 6     -6996.234 6     -5549.40248  21765737.16048
  24528001.313 3    -68166.363 3   -800415.75848  24527999.81648
  20216493.469 7   -853271.523 7   -650500.31649  20216493.34049
  22613971.313 6   -756440.145 6   -574532.45749  22613970.89549
  22016647.773 6  -1861425.914 6  -1433108.29348  22016645.01248
  21898109.336 6   -107643.418 6    -83265.48448  21898106.19948
  23485900.203 5     65687.324 5     48398.68847  23485901.64847
  20480391.641 7     15882.758 7     12087.11749  20480391.09449
 20  5 16  2 15 15.0000000  0  8G04G07G08G09G11G16G26G27            -0.000353769
  21765740.180 6     -6983.883 6     -5539.78548  21765739.21948
  24527046.461 4    -73184.023 4   -804325.62148  24527044.79748
  20216111.414 7   -855280.184 7   -652065.51649  20216111.27049
  22613630.922 6   -758227.695 6   -575925.34849  22613630.57449
  22015760.586 6  -1866087.582 6  -1436740.75848  22015757.95348
  21898048.070 6   -107964.586 6    -83515.74248  21898045.16448
  23485919.141 5     65787.309 5     48476.59847  23485920.38347
  20480403.367 7     15944.934 7     12135.57049  20480402.89149
 20  5 16  2 15 16.0000000  0  8G04G07G08G09G11G16G26G27            -0.000354818
  21765742.961 6     -6971.340 6     -5530.01648  21765741.54348
  24526092.398 4    -78201.938 4   -808235.68448  24526089.99648
  20215729.281 7   -857288.535 7   -653630.45749  20215728.89149
  22613290.766 6   -760014.930 6   -577317.99649  22613290.29349
  22014873.453 6  -1870749.211 6  -1440373.19148  22014870.74248
  21897986.938 6   -108285.980 6    -83766.18048  21897984.28948
  23485938.094 5     65887.051 5     48554.31347  23485939.52747
  20480415.023 7     16007.285 7     12184.15249  20480414.60949
 20  5 16  2 15 17.0000000  0  8G04G07G08G09G11G16G26G27            -0.000355869
  21765745.203 6     -6958.699 6     -5520.16848  21765744.19148
  24525137.266 4    -83220.305 4   -812146.10248  24525135.02748
  20215347.227 7   -859296.730 7   -655195.28149  20215346.76249
  22612950.859 6   -761801.926 6   -578710.46549  22612950.50449
  22013985.977 6  -1875410.883 6  -1444005.67248  22013983.85948
  21897925.789 6   -108607.719 6    -84016.88748  21897922.82848
  23485956.906 5     65986.523 5     48631.81647  23485958.67647
  20480426.969 7     16069.734 7     12232.81349  20480426.68449
 20  5 16  2 15 18.0000000  0  8G04G07G08G09G11G16G26G27            -0.000356918
  21765747.547 6     -6945.855 6     -5510.16448  21765746.65248
  24524182.594 3    -88238.875 3   -816056.68048  24524180.39148
  20214965.000 7   -861304.633 7   -656759.88349  20214964.90649
  22612610.883 6   -763588.609 6   -580102.68049  22612610.60249
  22013098.875 6  -1880072.551 6  -1447638.14148  22013096.52048
  21897864.297 6   -108929.672 6    -84267.76248  21897861.67248
  23485976.195 5     66085.730 5     48709.13347  23485977.46947
  20480438.750 7     16132.340 7     12281.59849  20480438.31349
 20  5 16  2 15 19.0000000  0  8G04G07G08G09G11G16G26G27            -0.000357967
  21765750.398 6     -6932.707 6     -5499.91848  21765748.59448
  24523227.328 4    -93257.684 4   -819967.43848  24523224.86748
  20214582.938 7   -863312.148 7   -658324.18049  20214582.55149
  22612270.852 6   -765374.879 6   -581494.58649  22612270.56349
  22012212.102 6  -1884734.102 6  -1451270.52048  22012209.64148
  21897803.156 6   -109251.734 6    -84518.71948  21897800.30548
  23485994.969 5     66184.813 5     48786.33247  23485996.43047
  20480450.492 7     16195.223 7     12330.59049  20480450.66449
 20  5 16  2 15 20.0000000  0  8G04G07G08G09G11G16G26G27            -0.000359018
  21765752.844 6     -6919.500 6     -5489.62548  21765751.62548
  24522272.852 4    -98276.848 4   -823878.47348  24522269.99648
  20214200.680 7   -865319.516 7   -659888.36349  20214200.89849
  22611930.750 6   -767160.922 6   -582886.30549  22611930.51649
  22011324.742 6  -1889395.715 6  -1454902.94548  22011322.73448
  21897741.789 6   -109574.129 6    -84769.94148  21897738.64548
  23486013.469 5     66283.523 5     48863.25047  23486015.05947
  20480462.539 7     16258.164 7     12379.63749  20480462.72749
 20  5 16  2 15 21.0000000  0  8G04G07G08G09G11G16G26G27            -0.000360069
  21765755.711 6     -6906.121 6     -5479.20348  21765754.15648
  24521316.852 4   -103296.414 4   -827789.82048  24521314.44148
  20213818.750 7   -867326.656 7   -661452.37549  20213818.60549
  22611591.438 6   -768946.746 6   -584277.85949  22611590.63349
  22010437.445 6  -1894057.359 6  -1458535.39848  22010435.40648
  21897680.281 6   -109896.809 6    -85021.38348  21897677.53548
  23486032.922 5     66381.992 5     48939.98047  23486033.82447
  20480474.625 7     16321.238 7     12428.78549  20480474.50849
 20  5 16  2 15 22.0000000  0  8G04G07G08G09G11G16G26G27            -0.000361118
  21765758.633 6     -6892.496 6     -5468.57848  21765756.42648
  24520362.133 4   -108316.191 4   -831701.33248  24520359.11348
  20213437.156 7   -869333.430 7   -663016.09049  20213436.99249
  22611251.461 6   -770732.168 6   -585669.09849  22611250.93849
  22009550.617 6  -1898718.910 6  -1462167.77348  22009548.19148
  21897619.000 6   -110219.645 6    -85272.94548  21897615.88748
  23486051.648 5     66480.254 5     49016.54347  23486052.80147
  20480486.867 7     16384.578 7     12478.14549  20480486.28949
 20  5 16  2 15 23.0000000  0  8G04G07G08G09G11G16G26G27            -0.000362169
  21765760.594 6     -6878.699 6     -5457.84048  21765759.40648
  24519406.227 3   -113336.270 3   -835613.09048  24519403.93848
  20213055.148 7   -871339.996 7   -664579.64549  20213055.34849
  22610911.359 6   -772517.336 6   -587060.13749  22610911.47349
  22008663.766 6  -1903380.488 6  -1465800.17648  22008661.63748
  21897557.594 6   -110542.762 6    -85524.72348  21897554.44948
  23486069.727 6     66578.270 6     49092.91047  23486071.18047
  20480498.789 7     16448.004 7     12527.57049  20480498.19549
 20  5 16  2 15 24.0000000  0  8G04G07G08G09G11G16G26G27            -0.000363220
  21765763.484 6     -6864.621 6     -5446.87548  21765762.10548
  24518451.094 4   -118356.539 4   -839524.99248  24518448.72348
  20212673.453 7   -873346.172 7   -666142.89849  20212673.53549
  22610571.969 6   -774302.051 6   -588450.82849  22610571.71949
  22007776.695 6  -1908041.883 6  -1469432.43448  22007774.18448
  21897495.758 6   -110865.977 6    -85776.57848  21897492.75448
  23486088.695 5     66676.152 5     49169.18847  23486090.33647
  20480511.164 7     16511.773 7     12577.25849  20480510.58649
 20  5 16  2 15 25.0000000  0  8G04G07G08G09G11G16G26G27            -0.000364271
  21765766.445 6     -6850.512 6     -5435.87948  21765764.80548
  24517495.609 3   -123377.277 3   -843437.25448  24517493.30548
  20212291.773 7   -875352.219 7   -667706.05549  20212291.75049
  22610232.453 6   -776086.598 6   -589841.38349  22610231.89549
  22006889.250 6  -1912703.465 6  -1473064.84448  22006887.26648
  21897434.125 6   -111189.586 6    -86028.74248  21897430.89148
  23486107.227 5     66773.637 5     49245.14847  23486108.64547
  20480522.898 7     16575.473 7     12626.89849  20480522.65649
 20  5 16  2 15 26.0000000  0  8G04G07G08G09G11G16G26G27            -0.000365322
  21765768.852 6     -6836.055 6     -5424.60948  21765767.38348
  24516540.438 3   -128398.137 3   -847349.61348  24516537.66048
  20211909.719 7   -877357.879 7   -669268.90249  20211910.51649
  22609892.930 6   -777870.730 6   -591231.61349  22609892.34849
  22006002.273 6  -1917364.875 6  -1476697.10548  22006000.12548
  21897372.234 6   -111513.270 6    -86280.96948  21897369.59848
  23486125.578 5     66871.023 5     49321.02747  23486126.73447
  20480535.141 7     16639.555 7     12676.83249  20480534.72349
 20  5 16  2 15 27.0000000  0  8G04G07G08G09G11G16G26G27            -0.000366375
  21765771.664 6     -6821.512 6     -5413.27748  21765770.28548
  24515585.641 4   -133419.395 4   -851262.27748  24515582.52348
  20211528.281 7   -879363.332 7   -670831.59849  20211528.58649
  22609553.570 6   -779654.633 6   -592621.67249  22609552.77049
  22005115.250 6  -1922026.316 6  -1480329.39148  22005113.02748
  21897310.922 6   -111837.277 6    -86533.45348  21897307.91448
  23486143.883 5     66968.137 5     49396.69547  23486145.66847
  20480547.789 7     16703.703 7     12726.81649  20480547.11749
 20  5 16  2 15 28.0000000  0  8G04G07G08G09G11G16G26G27            -0.000367426
  21765774.414 6     -6806.676 6     -5401.71948  21765773.03948
  24514629.430 4   -138440.883 4   -855175.12948  24514626.70748
  20211146.547 7   -881368.441 7   -672394.02349  20211146.68049
  22609213.680 6   -781438.117 6   -594011.39849  22609213.71549
  22004228.125 6  -1926687.652 6  -1483961.60248  22004226.29348
  21897249.336 6   -112161.441 6    -86786.04348  21897246.32848
  23486162.453 5     67065.035 5     49472.19947  23486164.27347
  20480560.055 7     16768.066 7     12776.97349  20480559.42649
 20  5 16  2 15 29.0000000  0  8G04G07G08G09G11G16G26G27            -0.000368477
  21765777.016 6     -6791.848 6     -5390.16448  21765775.86348
  24513673.141 4   -143462.875 4   -859088.35948  24513670.94548
  20210764.969 7   -883373.453 7   -673956.36749  20210765.05549
  22608874.492 6   -783221.520 6   -595401.05949  22608874.03549
  22003340.711 6  -1931349.180 6  -1487593.96548  22003339.37948
  21897187.266 6   -112485.996 6    -87038.94148  21897184.35248
  23486180.695 5     67161.531 5     49547.40247  23486182.28547
  20480572.031 7     16832.469 7     12827.14849  20480571.59049
 20  5 16  2 15 30.0000000  0  8G04G07G08G09G11G16G26G27            -0.000369530
  21765780.711 6     -6776.660 6     -5378.33248  21765778.80148
  24512717.852 4   -148484.949 4   -863001.66448  24512715.32048
  20210383.656 7   -885378.078 7   -675518.41049  20210383.80949
  22608535.586 6   -785004.418 6   -596790.33649  22608534.80149
  22002453.852 6  -1936010.504 6  -1491226.16048  22002452.32048
  21897125.305 6   -112810.652 6    -87291.92648  21897122.32448
  23486199.273 5     67257.957 5     49622.54347  23486200.84447
  20480584.695 7     16897.137 7     12877.54349  20480583.65649
 20  5 16  2 15 31.0000000  0  8G04G07G08G09G11G16G26G27            -0.000370581
  21765783.359 6     -6761.379 6     -5366.43048  21765781.50048
  24511762.477 4   -153507.434 4   -866915.29347  24511759.30147
  20210002.531 7   -887382.434 7   -677080.24649  20210002.40649
  22608196.344 6   -786787.070 6   -598179.41049  22608195.72749
  22001567.273 6  -1940671.859 6  -1494858.39148  22001565.25848
  21897063.539 6   -113135.621 6    -87545.14848  21897060.68848
  23486217.820 5     67354.059 5     49697.42247  23486218.72347
  20480596.688 7     16961.941 7     12928.03549  20480596.35549
 20  5 16  2 15 32.0000000  0  8G04G07G08G09G11G16G26G27            -0.000371634
  21765785.945 6     -6745.871 6     -5354.35248  21765784.39148
  24510806.086 3   -158530.129 3   -870829.08247  24510804.06347
  20209620.641 7   -889386.555 7   -678641.90649  20209620.82049
  22607857.055 6   -788569.441 6   -599568.26649  22607856.72749
  22000680.164 6  -1945333.215 6  -1498490.61348  22000678.20748
  21897001.875 6   -113460.766 6    -87798.50448  21896999.30548
  23486235.695 5     67449.922 5     49772.10547  23486236.71947
  20480609.266 7     17026.895 7     12978.65249  20480608.73049
 20  5 16  2 15 33.0000000  0  8G04G07G08G09G11G16G26G27            -0.000372686
  21765789.313 6     -6730.379 6     -5342.28148  21765787.73048
  24509850.156 3   -163553.461 3   -874743.36348  24509847.83648
  20209239.313 7   -891390.605 7   -680203.50449  20209239.53549
  22607517.773 6   -790351.703 6   -600957.03949  22607517.27349
  21999793.391 6  -1949994.766 6  -1502122.98848  21999791.05148
  21896939.789 6   -113786.305 6    -88052.15647  21896936.89147
  23486254.883 4     67545.465 4     49846.56646  23486255.10546
  20480621.719 6     17091.832 6     13029.25049  20480621.37549
 20  5 16  2 15 34.0000000  0  8G04G07G08G09G11G16G26G27            -0.000373739
  21765791.945 6     -6714.719 6     -5330.08248  21765790.62548
  24508893.680 4   -168576.934 4   -878657.74647  24508891.46547
  20208858.133 7   -893394.344 7   -681764.85549  20208858.39149
  22607178.773 6   -792133.641 6   -602345.56649  22607178.25449
  21998906.344 6  -1954656.264 6  -1505755.33548  21998903.93848
  21896877.641 6   -114112.223 6    -88306.10547  21896875.08247
  23486272.477 5     67640.574 5     49920.68846  23486273.93446
  20480633.969 7     17156.934 7     13079.98449  20480633.13749
 20  5 16  2 15 35.0000000  0  8G04G07G08G09G11G16G26G27            -0.000374792
  21765795.344 6     -6698.844 6     -5317.70348  21765794.01648
  24507938.977 4   -173600.797 4   -882572.44548  24507935.61348
  20208477.219 7   -895397.855 7   -683326.03549  20208477.23849
  22606839.898 6   -793915.293 6   -603733.86349  22606839.15649
  21998018.977 6  -1959317.754 6  -1509387.66048  21998016.71548
  21896815.930 6   -114438.266 6    -88560.18448  21896813.14848
  23486290.570 5     67735.539 5     49994.68047  23486291.66047
  20480646.242 7     17222.203 7     13130.84849  20480645.85249
 20  5 16  2 15 36.0000000  0  8G04G07G08G09G11G16G26G27            -0.000375845
  21765798.258 6     -6682.766 6     -5305.17248  21765796.72348
  24506982.617 4   -178624.848 4   -886487.30147  24506979.73447
  20208095.727 7   -897401.020 7   -684886.94149  20208095.73049
  22606500.727 6   -795696.559 6   -605121.85949  22606500.32049
  21997131.688 6  -1963979.180 6  -1513019.93048  21997129.60248
  21896753.570 6   -114764.508 6    -88814.41048  21896751.09048
  23486308.141 6     67830.324 6     50068.53147  23486309.03547
  20480658.477 7     17287.707 7     13181.88349  20480658.34449
 20  5 16  2 15 37.0000000  0  8G04G07G08G09G11G16G26G27            -0.000376898
  21765801.328 6     -6666.453 6     -5292.45748  21765799.78548
  24506027.336 4   -183649.293 4   -890402.45747  24506023.30147
  20207714.852 7   -899403.902 7   -686447.62949  20207714.95749
  22606161.781 6   -797477.492 6   -606509.60549  22606161.40249
  21996245.016 6  -1968640.551 6  -1516652.15648  21996242.71548
  21896691.352 6   -115090.953 6    -89068.79748  21896688.59848
  23486326.180 5     67924.863 5     50142.19547  23486327.50447
  20480671.000 7     17353.375 7     13233.05949  20480670.45349
 20  5 16  2 15 38.0000000  0  8G04G07G08G09G11G16G26G27            -0.000377951
  21765804.336 6     -6650.102 6     -5279.71948  21765803.25848
  24505070.281 4   -188674.039 4   -894317.84048  24505067.38748
  20207333.859 7   -901406.637 7   -688008.19949  20207333.97349
  22605822.828 6   -799258.258 6   -607897.21949  22605822.75449
  21995358.313 6  -1973302.020 6  -1520284.47348  21995355.73048
  21896629.336 6   -115417.777 6    -89323.47348  21896626.27048
  23486343.852 5     68019.063 5     50215.59847  23486345.59047
  20480683.516 7     17419.082 7     13284.25849  20480683.09049
 20  5 16  2 15 39.0000000  0  8G04G07G08G09G11G16G26G27            -0.000379005
  21765807.539 6     -6633.555 6     -5266.83248  21765806.12948
  24504114.133 4   -193699.180 4   -898233.53548  24504111.15248
  20206952.438 7   -903409.129 7   -689568.58249  20206952.61749
  22605484.594 6   -801038.746 6   -609284.60949  22605483.53949
  21994471.000 6  -1977963.508 6  -1523916.80548  21994468.64848
  21896567.008 6   -115744.836 6    -89578.32848  21896564.08248
  23486362.227 5     68112.977 5     50288.77747  23486363.43447
  20480695.813 7     17484.930 7     13335.56349  20480695.53949
 20  5 16  2 15 40.0000000  0  8G04G07G08G09G11G16G26G27            -0.000380058
  21765810.289 6     -6616.805 6     -5253.77348  21765809.47348
  24503158.617 4   -198724.527 4   -902149.39548  24503155.12148
  20206571.914 7   -905411.309 7   -691128.72349  20206571.52749
  22605145.852 6   -802818.859 6   -610671.71549  22605144.71949
  21993583.781 6  -1982624.895 6  -1527549.04748  21993581.64848
  21896504.805 6   -116072.105 6    -89833.34848  21896501.78148
  23486379.836 5     68206.711 5     50361.81347  23486381.41847
  20480708.477 7     17551.004 7     13387.05149  20480708.27049
 20  5 16  2 15 41.0000000  0  8G04G07G08G09G11G16G26G27            -0.000381113
  21765813.703 6     -6599.801 6     -5240.52748  21765812.45748
  24502201.508 4   -203750.063 4   -906065.39148  24502198.71548
  20206190.672 7   -907413.148 7   -692688.59849  20206190.87549
  22604807.055 6   -804598.621 6   -612058.53549  22604806.37549
  21992696.719 6  -1987286.230 6  -1531181.26648  21992694.29348
  21896442.633 6   -116399.520 6    -90088.47748  21896439.53948
  23486397.773 6     68300.305 6     50434.75047  23486399.03947
  20480721.445 7     17617.293 7     13438.69949  20480720.78549
 20  5 16  2 15 42.0000000  0  8G04G07G08G09G11G16G26G27            -0.000382166
  21765816.922 6     -6582.691 6     -5227.19948  21765815.61748
  24501244.930 4   -208776.086 4   -909981.77048  24501242.40248
  20205809.711 7   -909414.828 7   -694248.34849  20205809.59849
  22604468.594 6   -806378.160 6   -613445.19149  22604467.67649
  21991810.180 6  -1991947.613 6  -1534813.50448  21991807.43048
  21896379.906 6   -116727.234 6    -90343.83248  21896377.45348
  23486415.539 6     68393.543 6     50507.39847  23486416.68047
  20480734.156 7     17683.688 7     13490.44149  20480733.25049
 20  5 16  2 15 43.0000000  0  8G04G07G08G09G11G16G26G27            -0.000383221
  21765820.055 6     -6565.531 6     -5213.83248  21765819.20748
  24500287.805 4   -213802.512 4   -913898.46147  24500285.66447
  20205428.828 7   -911416.379 7   -695808.00449  20205428.97749
  22604130.039 6   -808157.543 6   -614831.72749  22604129.11349
  21990922.820 6  -1996609.129 6  -1538445.85248  21990920.25048
  21896317.602 6   -117055.375 6    -90599.52348  21896314.85948
  23486433.328 6     68486.371 6     50579.73047  23486434.06347
  20480746.758 7     17750.059 7     13542.15649  20480746.09049
 20  5 16  2 15 44.0000000  0  8G04G07G08G09G11G16G26G27            -0.000384275
  21765823.953 6     -6548.168 6     -5200.30948  21765822.23048
  24499331.602 4   -218829.180 4   -917815.34447  24499329.18047
  20205047.563 7   -913417.613 7   -697367.40249  20205048.14849
  22603791.594 6   -809936.574 6   -616217.98049  22603790.66049
  21990035.672 6  -2001270.574 6  -1542078.14548  21990033.35248
  21896255.438 6   -117383.684 6    -90855.35248  21896252.48048
  23486450.711 6     68579.012 6     50651.91847  23486451.89547
  20480759.461 7     17816.656 7     13594.05549  20480758.87949
 20  5 16  2 15 45.0000000  0  8G04G07G08G09G11G16G26G27            -0.000385330
  21765826.945 6     -6530.574 6     -5186.59448  21765825.43048
  24498375.133 4   -223856.109 4   -921732.42647  24498372.14847
  20204667.406 7   -915418.543 7   -698926.57449  20204667.24249
  22603452.781 6   -811715.254 6   -617603.96949  22603452.09849
  21989148.250 6  -2005931.961 6  -1545710.38748  21989145.96548
  21896192.789 6   -117712.203 6    -91111.34848  21896189.83248
  23486468.445 5     68671.477 5     50723.96547  23486469.61347
  20480772.133 7     17883.457 7     13646.10249  20480771.54749
 20  5 16  2 15 46.0000000  0  8G04G07G08G09G11G16G26G27            -0.000386385
  21765830.484 6     -6512.703 6     -5172.67248  21765829.50848
  24497418.289 4   -228883.301 4   -925649.70748  24497415.78148
  20204286.633 7   -917419.164 7   -700485.49649  20204286.69949
  22603113.734 6   -813493.555 6   -618989.66449  22603113.42649
  21988261.930 6  -2010593.246 6  -1549342.56348  21988259.28148
  21896130.086 6   -118040.875 6    -91367.45748  21896127.43048
  23486485.492 5     68763.738 5     50795.85247  23486486.98447
  20480784.852 7     17950.480 7     13698.32849  20480784.17649
 20  5 16  2 15 47.0000000  0  8G04G07G08G09G11G16G26G27            -0.000387440
  21765833.734 6     -6494.711 6     -5158.64848  21765832.82448
  24496461.664 3   -233910.754 3   -929567.20747  24496458.73847
  20203906.023 7   -919419.543 7   -702044.23449  20203906.11749
  22602775.539 6   -815271.598 6   -620375.15249  22602775.06649
  21987374.375 6  -2015254.566 6  -1552974.75848  21987371.82448
  21896067.461 6   -118369.809 6    -91623.76248  21896064.71148
  23486503.164 6     68855.727 6     50867.53147  23486504.29747
  20480797.898 7     18017.637 7     13750.66049  20480797.21549
 20  5 16  2 15 48.0000000  0  8G04G07G08G09G11G16G26G27            -0.000388494
  21765837.133 6     -6476.605 6     -5144.54748  21765836.32048
  24495505.070 4   -238938.668 4   -933485.07448  24495502.33248
  20203525.336 7   -921419.727 7   -703602.82049  20203525.51649
  22602437.500 6   -817049.395 6   -621760.44549  22602436.91849
  21986487.250 6  -2019915.930 6  -1556606.99248  21986485.37148
  21896004.992 6   -118699.063 6    -91880.32448  21896002.43048
  23486520.930 6     68947.449 6     50939.00047  23486521.90247
  20480810.391 7     18084.902 7     13803.06649  20480809.73849
 20  5 16  2 15 49.0000000  0  8G04G07G08G09G11G16G26G27            -0.000389551
  21765840.633 6     -6458.180 6     -5130.18448  21765839.48848
  24494548.180 3   -243966.676 3   -937402.99647  24494545.17647
  20203144.836 7   -923419.504 7   -705161.08249  20203145.12149
  22602099.242 6   -818826.777 6   -623145.42249  22602098.78949
  21985600.617 6  -2024577.145 6  -1560239.10548  21985598.44948
  21895942.156 6   -119028.430 6    -92136.96948  21895939.42248
  23486538.461 6     69039.004 6     51010.34047  23486539.46147
  20480823.328 7     18152.445 7     13855.70349  20480822.45749
 20  5 16  2 15 50.0000000  0  8G04G07G08G09G11G16G26G27            -0.000390606
  21765843.914 6     -6439.746 6     -5115.82048  21765843.10248
  24493591.195 4   -248995.145 4   -941321.28147  24493588.73047
  20202764.258 7   -925419.156 7   -706719.26249  20202764.39849
  22601761.445 6   -820604.004 6   -624530.27349  22601760.67649
  21984713.578 6  -2029238.508 6  -1563871.34048  21984711.33648
  21895880.195 6   -119358.160 6    -92393.91048  21895877.14548
  23486555.828 6     69130.184 6     51081.39147  23486556.66847
  20480836.289 7     18219.977 7     13908.32449  20480835.65249
 20  5 16  2 15 51.0000000  0  8G04G07G08G09G11G16G26G27            -0.000391663
  21765847.320 6     -6421.094 6     -5101.28548  21765846.79748
  24492634.141 4   -254023.973 4   -945239.84847  24492631.67247
  20202383.766 7   -927418.574 7   -708277.24649  20202383.63349
  22601423.375 6   -822380.941 6   -625914.89849  22601422.48049
  21983826.547 6  -2033899.828 6  -1567503.53548  21983824.26648
  21895816.867 6   -119688.148 6    -92651.04748  21895813.94948
  23486572.758 6     69221.125 6     51152.25847  23486573.85247
  20480848.922 7     18287.688 7     13961.08249  20480848.41849
 20  5 16  2 15 52.0000000  0  8G04G07G08G09G11G16G26G27            -0.000392717
  21765851.188 6     -6402.277 6     -5086.62948  21765850.59848
  24491677.242 3   -259053.031 3   -949158.59047  24491674.37547
  20202003.500 7   -929417.695 7   -709835.00849  20202003.59049
  22601084.914 6   -824157.543 6   -627299.27049  22601084.83649
  21982939.820 6  -2038561.117 6  -1571135.71148  21982937.51648
  21895753.969 6   -120018.336 6    -92908.34448  21895751.37948
  23486590.523 6     69311.805 6     51222.91447  23486591.03547
  20480861.797 7     18355.559 7     14013.97349  20480861.32049
 20  5 16  2 15 53.0000000  0  8G04G07G08G09G11G16G26G27            -0.000393774
  21765855.023 6     -6383.258 6     -5071.80948  21765853.46948
  24490720.430 4   -264082.355 4   -953077.54748  24490717.57048
  20201622.813 7   -931416.527 7   -711392.53549  20201622.84849
  22600746.406 6   -825933.836 6   -628683.39549  22600746.60949
  21982052.750 6  -2043222.367 6  -1574767.85248  21982050.07848
  21895691.109 6   -120348.777 6    -93165.82448  21895688.31648
  23486607.477 6     69402.305 6     51293.42647  23486608.43047
  20480874.789 7     18423.602 7     14066.98849  20480874.43849
 20  5 16  2 15 54.0000000  0  8G04G07G08G09G11G16G26G27            -0.000394831
  21765858.766 6     -6364.035 6     -5056.83648  21765857.44548
  24489763.070 3   -269112.023 3   -956996.77047  24489760.42247
  20201242.836 7   -933415.098 7   -712949.86349  20201242.67249
  22600408.922 6   -827709.824 6   -630067.28149  22600408.62149
  21981165.844 6  -2047883.598 6  -1578399.98848  21981163.32048
  21895628.461 6   -120679.441 6    -93423.48048  21895625.29348
  23486624.742 6     69492.543 6     51363.74247  23486625.83647
  20480887.891 7     18491.828 7     14120.14849  20480886.98849
 20  5 16  2 15 55.0000000  0  8G04G07G08G09G11G16G26G27            -0.000395887
  21765862.305 6     -6344.781 6     -5041.83248  21765860.86348
  24488806.383 4   -274142.109 4   -960916.31647  24488803.46947
  20200862.391 7   -935413.535 7   -714507.09049  20200862.72349
  22600071.133 6   -829485.637 6   -631451.03149  22600070.73449
  21980278.820 6  -2052544.973 6  -1582032.23048  21980276.33648
  21895565.375 6   -121010.480 6    -93681.43448  21895562.62548
  23486641.969 6     69582.398 6     51433.75847  23486642.73447
  20480900.586 7     18560.070 7     14173.32849  20480900.17249
 20  5 16  2 15 56.0000000  0  8G04G07G08G09G11G16G26G27            -0.000396944
  21765866.031 6     -6325.359 6     -5026.69548  21765864.81648
  24487848.359 3   -279172.500 3   -964836.10247  24487845.68847
  20200482.039 7   -937411.688 7   -716064.08249  20200481.84049
  22599733.305 6   -831261.152 6   -632834.55149  22599733.00849
  21979391.430 6  -2057206.277 6  -1585664.41848  21979388.87548
  21895502.367 6   -121341.742 6    -93939.55948  21895499.57048
  23486658.727 6     69672.016 6     51503.59847  23486659.74647
  20480913.953 7     18628.453 7     14226.60549  20480913.07849
 20  5 16  2 15 57.0000000  0  8G04G07G08G09G11G16G26G27            -0.000398001
  21765869.641 6     -6305.797 6     -5011.45748  21765868.43448
  24486891.328 3   -284203.242 3   -968756.15647  24486888.78547
  20200101.813 7   -939409.629 7   -717620.92249  20200102.30549
  22599395.539 6   -833036.395 6   -634217.85949  22599394.97749
  21978504.695 6  -2061867.625 6  -1589296.63748  21978502.64848
  21895439.391 6   -121673.277 6    -94197.90248  21895436.43848
  23486675.789 6     69761.363 6     51573.21147  23486677.05147
  20480926.641 7     18696.980 7     14280.00449  20480926.12149
 20  5 16  2 15 58.0000000  0  8G04G07G08G09G11G16G26G27            -0.000399057
  21765873.516 6     -6285.953 6     -4996.00048  21765871.85548
  24485933.797 3   -289234.219 3   -972676.39547  24485931.43047
  20199721.898 7   -941407.281 7   -719177.52749  20199721.71549
  22599057.664 6   -834811.309 6   -635600.90649  22599057.41849
  21977617.883 6  -2066528.902 6  -1592928.80548  21977614.73848
  21895375.969 6   -122005.016 6    -94456.40248  21895373.14548
  23486692.742 6     69850.492 6     51642.65647  23486693.52047
  20480939.797 7     18765.727 7     14333.57049  20480939.45349
 20  5 16  2 15 59.0000000  0  8G04G07G08G09G11G16G26G27            -0.000400114
  21765877.133 6     -6265.922 6     -4980.39548  21765876.03948
  24484976.102 3   -294265.406 3   -976596.80147  24484973.78547
  20199341.781 7   -943404.598 7   -720733.87949  20199341.68449
  22598719.773 6   -836585.832 6   -636983.65649  22598719.87949
  21976730.484 6  -2071190.098 6  -1596560.90248  21976727.98448
  21895312.828 6   -122336.895 6    -94715.00448  21895310.07448
  23486709.719 6     69939.457 6     51711.97747  23486710.92247
  20480952.992 7     18834.680 7     14387.30549  20480952.31649
 20  5 16  2 16  0.0000000  0  8G04G07G08G09G11G16G26G27            -0.000401173
  21765881.375 6     -6245.707 6     -4964.63748  21765880.10548
  24484019.047 3   -299296.965 3   -980517.49247  24484016.20747
  20198961.906 7   -945401.680 7   -722290.05549  20198961.80549
  22598382.383 6   -838360.078 6   -638366.18849  22598381.97349
  21975843.133 6  -2075851.297 6  -1600193.00448  21975840.81348
  21895249.836 6   -122669.051 6    -94973.82448  21895246.90648
  23486726.500 6     70028.152 6     51781.08247  23486727.70747
  20480966.141 7     18903.750 7     14441.13349  20480965.73449
 20  5 16  2 16  1.0000000  0  8G04G07G08G09G11G16G26G27            -0.000402229
  21765884.797 6     -6225.145 6     -4948.62548  21765884.23448
  24483061.516 3   -304328.625 3   -984438.27047  24483058.82047
  20198581.719 7   -947398.332 7   -723845.88749  20198581.72349
  22598044.766 6   -840133.871 6   -639748.36349  22598044.62949
  21974956.648 6  -2080512.348 6  -1603824.99248  21974954.24248
  21895186.594 6   -123001.309 6    -95232.72348  21895183.53948
  23486743.570 6     70116.758 6     51850.12147  23486744.41847
  20480979.539 7     18973.160 7     14495.21549  20480978.98449
 20  5 16  2 16  2.0000000  0  8G04G07G08G09G11G16G26G27            -0.000403288
  21765889.227 6     -6204.461 6     -4932.50848  21765887.99248
  24482103.313 3   -309360.629 3   -988359.30947  24482101.08647
  20198201.672 7   -949394.719 7   -725401.50849  20198201.70749
  22597707.297 6   -841907.367 6   -641130.30949  22597706.91449
  21974070.023 6  -2085173.375 6  -1607456.95748  21974066.96148
  21895123.500 6   -123333.781 6    -95491.78948  21895120.19548
  23486760.039 5     70205.133 5     51918.99247  23486761.50847
  20480992.727 7     19042.715 7     14549.41049  20480992.46949
 20  5 16  2 16  3.0000000  0  8G04G07G08G09G11G16G26G27            -0.000404345
  21765892.906 6     -6183.672 6     -4916.31348  21765891.90648
  24481146.102 3   -314393.027 3   -992280.66047  24481143.53547
  20197821.805 7   -951390.961 7   -726957.02749  20197821.94149
  22597369.602 6   -843680.684 6   -642512.12149  22597369.52349
  21973183.016 6  -2089834.465 6  -1611088.97748  21973180.08248
  21895059.953 6   -123666.613 6    -95751.14548  21895057.20348
  23486777.016 6     70293.121 6     51987.55547  23486777.86747
  20481005.797 7     19112.316 7     14603.64849  20481005.36749
 20  5 16  2 16  4.0000000  0  8G04G07G08G09G11G16G26G27            -0.000405403
  21765896.805 6     -6162.680 6     -4899.95348  21765896.07048
  24480188.578 3   -319425.668 3   -996202.19947  24480185.77347
  20197441.906 7   -953386.898 7   -728512.30549  20197441.88349
  22597032.352 6   -845453.660 6   -643893.65649  22597032.52749
  21972295.172 6  -2094495.539 6  -1614720.99648  21972292.77748
  21894996.508 6   -123999.660 6    -96010.65648  21894993.45748
  23486793.547 6     70380.906 6     52055.96147  23486794.36747
  20481019.070 7     19182.113 7     14658.02749  20481018.52749
 20  5 16  2 16  5.0000000  0  8G04G07G08G09G11G16G26G27            -0.000406462
  21765901.109 6     -6141.535 6     -4883.48448  21765899.98048
  24479230.648 3   -324458.699 3  -1000124.04747  24479228.23047
  20197062.258 7   -955382.641 7   -730067.43049  20197062.28149
  22596694.930 6   -847226.371 6   -645274.98449  22596694.78949
  21971408.164 6  -2099156.598 6  -1618352.97948  21971405.74248
  21894933.156 6   -124332.977 6    -96270.38348  21894930.22748
  23486809.953 6     70468.395 6     52124.13347  23486811.11347
  20481032.930 7     19252.012 7     14712.49649  20481031.94549
 20  5 16  2 16  6.0000000  0  8G04G07G08G09G11G16G26G27            -0.000407520
  21765905.227 6     -6120.215 6     -4866.87148  21765903.93448
  24478272.664 3   -329491.977 3  -1004046.08247  24478270.29747
  20196682.633 7   -957378.094 7   -731622.32849  20196682.73849
  22596358.117 6   -848998.773 6   -646656.07849  22596357.32449
  21970521.250 6  -2103817.656 6  -1621984.96948  21970518.91048
  21894869.688 6   -124666.496 6    -96530.27048  21894866.90648
  23486827.070 6     70555.711 6     52192.17247  23486827.86747
  20481045.891 7     19322.098 7     14767.10949  20481045.19149
 20  5 16  2 16  7.0000000  0  8G04G07G08G09G11G16G26G27            -0.000408579
  21765909.000 6     -6098.695 6     -4850.09448  21765907.78548
  24477314.516 3   -334525.527 3  -1007968.33247  24477312.29747
  20196303.008 7   -959373.273 7   -733177.01649  20196303.33249
  22596020.867 6   -850770.867 6   -648036.93049  22596019.93449
  21969634.313 6  -2108478.676 6  -1625616.93448  21969632.20348
  21894806.000 6   -125000.270 6    -96790.35548  21894803.49648
  23486844.227 5     70642.750 5     52259.99247  23486844.50847
  20481059.422 7     19392.363 7     14821.86349  20481058.91849
 20  5 16  2 16  8.0000000  0  8G04G07G08G09G11G16G26G27            -0.000409637
  21765913.391 6     -6076.941 6     -4833.14548  21765911.95748
  24476356.813 2   -339559.336 2  -1011890.78147  24476354.54747
  20195923.609 7   -961368.137 7   -734731.46149  20195923.10249
  22595683.086 6   -852542.605 6   -649417.50849  22595682.87949
  21968747.398 6  -2113139.625 6  -1629248.84448  21968745.43048
  21894742.602 6   -125334.227 6    -97050.57848  21894739.75448
  23486860.367 6     70729.582 6     52327.65647  23486861.02747
  20481072.734 7     19462.809 7     14876.75849  20481071.88749
 20  5 16  2 16  9.0000000  0  8G04G07G08G09G11G16G26G27            -0.000410696
  21765917.594 6     -6055.215 6     -4816.21948  21765916.27748
  24475398.703 3   -344593.688 3  -1015813.65247  24475396.32047
  20195543.852 7   -963362.922 7   -736285.83249  20195543.95349
  22595345.461 6   -854314.227 6   -650797.99649  22595346.00049
  21967860.078 6  -2117800.742 6  -1632880.88348  21967858.00048
  21894679.188 6   -125668.602 6    -97311.13748  21894676.05948
  23486876.625 6     70816.000 6     52394.99247  23486877.36747
  20481086.109 7     19533.234 7     14931.63749  20481085.46149
 20  5 16  2 16 10.0000000  0  8G04G07G08G09G11G16G26G27            -0.000411755
  21765921.922 6     -6033.379 6     -4799.21148  21765920.34448
  24474441.266 3   -349628.422 3  -1019736.82047  24474438.57847
  20195164.336 7   -965357.523 7   -737840.06649  20195164.21949
  22595009.047 6   -856085.641 6   -652178.31349  22595009.02049
  21966972.977 6  -2122461.891 6  -1636512.94548  21966971.35948
  21894615.477 6   -126003.289 6    -97571.92648  21894612.46548
  23486892.633 6     70902.102 6     52462.07447  23486893.85547
  20481099.734 7     19603.730 7     14986.56349  20481098.85549
 20  5 16  2 16 11.0000000  0  8G04G07G08G09G11G16G26G27            -0.000412815
  21765926.055 6     -6011.188 6     -4781.91848  21765924.87148
  24473483.156 4   -354663.227 4  -1023660.03947  24473480.08247
  20194784.906 7   -967351.711 7   -739393.97749  20194784.67649
  22594672.344 6   -857856.547 6   -653558.24249  22594671.92249
  21966086.453 6  -2127122.867 6  -1640144.87548  21966084.27348
  21894551.836 6   -126338.016 6    -97832.74647  21894548.81647
  23486909.086 5     70988.109 5     52529.10247  23486910.20747
  20481113.055 7     19674.555 7     15041.74649  20481112.55549
 20  5 16  2 16 12.0000000  0  8G04G07G08G09G11G16G26G27            -0.000413874
  21765930.328 6     -5988.844 6     -4764.50848  21765929.31348
  24472524.055 2   -359698.375 2  -1027583.50847  24472522.23047
  20194405.141 7   -969345.656 7   -740947.70749  20194405.71149
  22594335.078 6   -859627.207 6   -654937.98449  22594334.78149
  21965199.750 6  -2131783.832 6  -1643776.80148  21965197.02748
  21894487.711 6   -126672.965 6    -98093.72347  21894485.28547
  23486926.484 3     71073.918 3     52595.97746  23486926.46546
  20481126.648 6     19745.527 6     15097.05149  20481126.07449
 20  5 16  2 16 13.0000000  0  8G04G07G08G09G11G16G26G27            -0.000414934
  21765934.461 6     -5966.332 6     -4746.97348  21765933.64148
  24471567.117 2   -364733.820 2  -1031507.21147  24471563.34047
  20194026.039 7   -971339.352 7   -742501.23049  20194025.96549
  22593998.219 6   -861397.578 6   -656317.50449  22593998.05549
  21964312.305 6  -2136444.809 6  -1647408.73848  21964310.30148
  21894424.180 6   -127008.270 6    -98355.00047  21894421.32847
  23486942.188 3     71159.438 3     52662.61346  23486943.10546
  20481139.891 6     19816.621 6     15152.44949  20481138.99249
 20  5 16  2 16 14.0000000  0  8G04G07G08G09G11G16G26G27            -0.000415993
  21765938.516 6     -5943.855 6     -4729.45748  21765937.60548
  24470609.148 3   -369769.738 3  -1035431.30947  24470605.36747
  20193646.797 7   -973332.941 7   -744054.67649  20193646.71549
  22593660.906 6   -863167.828 6   -657696.91849  22593661.24649
  21963424.906 6  -2141105.992 6  -1651040.83248  21963423.21548
  21894360.164 6   -127344.059 6    -98616.66447  21894357.35247
  23486957.789 6     71244.457 6     52728.87547  23486959.06647
  20481153.820 7     19887.688 7     15207.82849  20481152.74649
 20  5 16  2 16 15.0000000  0  8G04G07G08G09G11G16G26G27            -0.000417053
  21765942.875 6     -5921.273 6     -4711.85548  21765941.91848
  24469651.180 3   -374806.070 3  -1039355.75047  24469646.92247
  20193267.313 7   -975326.355 7   -745607.98449  20193267.35549
  22593324.039 6   -864937.863 6   -659076.15649  22593324.43849
  21962538.422 6  -2145767.188 6  -1654672.92248  21962536.20348
  21894296.313 6   -127680.066 6    -98878.51248  21894293.46948
  23486973.641 5     71329.180 5     52794.87547  23486975.45347
  20481167.141 7     19958.879 7     15263.29749  20481166.78949
 20  5 16  2 16 16.0000000  0  8G04G07G08G09G11G16G26G27            -0.000418114
  21765947.602 6     -5898.473 6     -4694.09048  21765946.29748
  24468691.422 3   -379842.668 3  -1043280.39147  24468688.48847
  20192887.758 7   -977319.484 7   -747161.07049  20192887.84049
  22592987.125 6   -866707.594 6   -660455.16049  22592987.29749
  21961651.414 6  -2150428.367 6  -1658305.00448  21961649.63348
  21894232.211 6   -128016.309 6    -99140.52748  21894229.46548
  23486989.750 6     71413.711 6     52860.72747  23486991.25047
  20481180.906 7     20030.184 7     15318.85549  20481180.09449
 20  5 16  2 16 17.0000000  0  8G04G07G08G09G11G16G26G27            -0.000419174
  21765951.656 6     -5875.535 6     -4676.21548  21765950.58248
  24467733.438 3   -384879.598 3  -1047205.28547  24467730.32847
  20192508.453 7   -979312.387 7   -748713.98449  20192508.47749
  22592650.656 6   -868477.012 6   -661833.92249  22592650.76649
  21960764.570 6  -2155089.527 6  -1661937.07048  21960762.63348
  21894168.039 6   -128352.789 6    -99402.72748  21894165.46148
  23487006.500 5     71497.980 5     52926.37547  23487007.35547
  20481194.602 7     20101.648 7     15374.53949  20481193.67249
 20  5 16  2 16 18.0000000  0  8G04G07G08G09G11G16G26G27            -0.000420235
  21765956.078 6     -5852.441 6     -4658.21948  21765955.38748
  24466774.484 2   -389916.863 2  -1051130.42247  24466771.46147
  20192129.492 7   -981305.078 7   -750266.73049  20192129.26249
  22592314.000 6   -870246.219 6   -663212.53549  22592314.18849
  21959877.711 6  -2159750.711 6  -1665569.16848  21959875.64148
  21894103.719 6   -128689.574 6    -99665.15248  21894101.09848
  23487022.422 6     71581.926 6     52991.78547  23487023.48847
  20481208.172 7     20173.234 7     15430.32049  20481207.65649
 20  5 16  2 16 19.0000000  0  8G04G07G08G09G11G16G26G27            -0.000421297
  21765961.031 6     -5829.258 6     -4640.15248  21765959.64848
  24465815.883 3   -394954.473 3  -1055055.82047  24465813.16847
  20191750.367 7   -983297.543 7   -751819.30549  20191750.09849
  22591977.656 6   -872015.152 6   -664590.92649  22591977.64549
  21958991.008 6  -2164411.926 6  -1669201.27748  21958988.80148
  21894039.727 6   -129026.645 6    -99927.80148  21894037.26648
  23487038.180 5     71665.590 5     53056.97347  23487039.04747
  20481221.570 7     20244.906 7     15486.16849  20481220.88349
 20  5 16  2 16 20.0000000  0  8G04G07G08G09G11G16G26G27            -0.000422358
  21765964.984 6     -5805.891 6     -4621.94948  21765963.81348
  24464857.523 3   -399992.336 3  -1058981.41847  24464854.47347
  20191371.125 7   -985289.770 7   -753371.68849  20191371.23449
  22591640.813 6   -873783.773 6   -665969.07049  22591640.72749
  21958103.656 6  -2169073.137 6  -1672833.39148  21958101.55948
  21893975.305 6   -129363.941 6   -100190.63748  21893973.04348
  23487054.445 5     71749.008 5     53121.98047  23487055.19947
  20481235.133 7     20316.742 7     15542.14549  20481234.40249
 20  5 16  2 16 21.0000000  0  8G04G07G08G09G11G16G26G27            -0.000423418
  21765969.297 6     -5782.316 6     -4603.58248  21765968.43848
  24463897.758 3   -405030.551 3  -1062907.30147  24463895.92647
  20190992.117 7   -987281.715 7   -754923.84849  20190991.82849
  22591304.555 6   -875552.078 6   -667346.96949  22591304.47749
  21957216.875 6  -2173734.289 6  -1676465.45748  21957215.05548
  21893910.992 6   -129701.469 6   -100453.64848  21893908.57048
  23487070.141 5     71832.227 5     53186.83247  23487071.04747
  20481249.180 7     20388.750 7     15598.25449  20481248.41849
 20  5 16  2 16 22.0000000  0  8G04G07G08G09G11G16G26G27            -0.000424480
  21765974.109 6     -5758.602 6     -4585.10548  21765972.70348
  24462939.477 2   -410069.125 2  -1066833.46147  24462937.05147
  20190613.328 7   -989273.465 7   -756475.86349  20190612.92649
  22590967.867 6   -877320.137 6   -668724.68049  22590968.01249
  21956330.000 6  -2178395.480 6  -1680097.55148  21956327.69148
  21893847.109 6   -130039.293 6   -100716.89148  21893844.30948
  23487085.695 5     71915.125 5     53251.42647  23487086.70747
  20481262.766 7     20460.855 7     15654.43849  20481261.52749
 20  5 16  2 16 23.0000000  0  8G04G07G08G09G11G16G26G27            -0.000425541
  21765978.406 6     -5734.750 6     -4566.52048  21765977.71548
  24461979.977 2   -415107.977 2  -1070759.84047  24461978.35547
  20190234.289 7   -991264.984 7   -758027.69949  20190234.33649
  22590631.523 6   -879087.922 6   -670102.18049  22590631.12949
  21955443.039 6  -2183056.688 6  -1683729.66048  21955440.72348
  21893782.328 6   -130377.367 6   -100980.32848  21893779.65648
  23487101.133 6     71997.766 6     53315.82447  23487102.07047
  20481276.523 7     20533.094 7     15710.72349  20481275.67249
 20  5 16  2 16 24.0000000  0  8G04G07G08G09G11G16G26G27            -0.000426603
  21765983.078 6     -5710.754 6     -4547.82448  21765982.52048
  24461021.438 2   -420147.148 2  -1074686.46947  24461018.69547
  20189855.313 7   -993256.234 7   -759579.32049  20189855.32849
  22590295.344 6   -880855.441 6   -671479.47349  22590295.30549
  21954555.992 6  -2187717.887 6  -1687361.75448  21954553.84448
  21893718.133 6   -130715.695 6   -101243.95748  21893715.49248
  23487117.406 5     72080.117 5     53379.99647  23487118.03547
  20481290.422 7     20605.461 7     15767.11749  20481289.68849
 20  5 16  2 16 25.0000000  0  8G04G07G08G09G11G16G26G27            -0.000427666
  21765987.633 6     -5686.598 6     -4529.00048  21765987.08248
  24460061.867 3   -425186.703 3  -1078613.39147  24460059.52047
  20189476.477 7   -995247.227 7   -761130.75049  20189476.31649
  22589959.391 6   -882622.664 6   -672856.52749  22589958.87549
  21953668.875 6  -2192379.066 6  -1690993.84848  21953666.49648
  21893653.734 6   -131054.285 6   -101507.79748  21893650.95748
  23487132.438 5     72162.242 5     53443.98047  23487133.68047
  20481304.039 7     20678.004 7     15823.64149  20481303.44949
 20  5 16  2 16 26.0000000  0  8G04G07G08G09G11G16G26G27            -0.000428728
  21765992.258 6     -5662.332 6     -4510.09848  21765991.20348
  24459103.461 3   -430226.605 3  -1082540.58647  24459100.94547
  20189097.563 7   -997238.035 7   -762682.02749  20189097.73849
  22589623.211 6   -884389.656 6   -674233.39849  22589622.67649
  21952781.828 6  -2197040.316 6  -1694625.99248  21952779.44148
  21893589.063 6   -131393.172 6   -101771.87148  21893586.67248
  23487147.953 5     72244.004 5     53507.69147  23487149.38347
  20481317.695 7     20750.586 7     15880.19949  20481317.34049
 20  5 16  2 16 27.0000000  0  8G04G07G08G09G11G16G26G27            -0.000429790
  21765996.867 6     -5638.035 6     -4491.16048  21765996.15248
  24458143.734 2   -435266.910 2  -1086468.09847  24458141.59047
  20188718.945 7   -999228.734 7   -764233.22749  20188718.87149
  22589286.875 6   -886156.531 6   -675610.18049  22589285.99249
  21951894.914 6  -2201701.699 6  -1698258.23448  21951892.57448
  21893524.859 6   -131732.477 6   -102036.26248  21893522.11748
  23487163.570 5     72325.414 5     53571.13747  23487164.75447
  20481331.313 7     20823.168 7     15936.76249  20481330.96949
 20  5 16  2 16 28.0000000  0  8G04G07G08G09G11G16G26G27            -0.000430853
  21766001.578 6     -5613.539 6     -4472.07448  21766000.80148
  24457184.773 2   -440307.508 2  -1090395.83247  24457182.42647
  20188339.555 7  -1001219.105 7   -765784.16449  20188339.64549
  22588951.008 6   -887923.039 6   -676986.67649  22588950.39149
  21951008.039 6  -2206363.023 6  -1701890.43848  21951005.63348
  21893459.742 6   -132071.973 6   -102300.80948  21893457.45748
  23487178.891 5     72406.594 5     53634.39147  23487180.06347
  20481345.492 7     20895.961 7     15993.47349  20481344.62549
 20  5 16  2 16 29.0000000  0  8G04G07G08G09G11G16G26G27            -0.000431915
  21766006.648 6     -5588.664 6     -4452.69948  21766005.76248
  24456225.844 2   -445348.223 2  -1094323.66047  24456223.03547
  20187961.078 7  -1003209.047 7   -767334.76649  20187961.18849
  22588614.602 6   -889689.047 6   -678362.78949  22588614.10949
  21950121.195 6  -2211024.133 6  -1705522.46548  21950118.77048
  21893395.680 6   -132411.527 6   -102565.38748  21893393.01648
  23487194.461 5     72487.723 5     53697.60247  23487195.81347
  20481359.211 7     20969.109 7     16050.47749  20481358.54749
 20  5 16  2 16 30.0000000  0  8G04G07G08G09G11G16G26G27            -0.000432978
  21766011.031 6     -5563.594 6     -4433.16448  21766010.66048
  24455266.031 2   -450389.219 2  -1098251.70747  24455264.09447
  20187582.703 7  -1005198.727 7   -768885.16449  20187582.61749
  22588278.422 6   -891454.754 6   -679738.66449  22588277.98849
  21949233.648 6  -2215685.203 6  -1709154.46948  21949231.87148
  21893331.008 6   -132751.266 6   -102830.12948  21893328.37948
  23487209.883 5     72568.625 5     53760.64147  23487210.95347
  20481373.133 7     21042.418 7     16107.59849  20481372.48449
 20  5 16  2 16 31.0000000  0  8G04G07G08G09G11G16G26G27            -0.000434042
  21766015.969 6     -5538.414 6     -4413.54348  21766015.03948
  24454307.508 2   -455430.539 2  -1102180.01247  24454304.56347
  20187204.156 7  -1007188.176 7   -770435.38349  20187204.18449
  22587942.461 6   -893220.211 6   -681114.34449  22587941.89549
  21948346.883 6  -2220346.309 6  -1712786.50048  21948344.78948
  21893265.984 6   -133091.324 6   -103095.11748  21893263.46548
  23487225.492 5     72649.258 5     53823.47747  23487226.33647
  20481387.117 7     21115.828 7     16164.80149  20481386.55949
 20  5 16  2 16 32.0000000  0  8G04G07G08G09G11G16G26G27            -0.000435104
  21766020.672 6     -5512.914 6     -4393.67648  21766020.10548
  24453347.227 2   -460472.094 2  -1106108.49647  24453345.16447
  20186825.727 7  -1009177.277 7   -771985.32849  20186825.30149
  22587606.883 6   -894985.262 6   -682489.71549  22587606.27749
  21947459.703 6  -2225007.277 6  -1716418.42248  21947458.12548
  21893201.266 6   -133431.504 6   -103360.19548  21893199.10248
  23487240.805 5     72729.711 5     53886.16447  23487241.61747
  20481401.156 7     21189.504 7     16222.21549  20481400.73049
 20  5 16  2 16 33.0000000  0  8G04G07G08G09G11G16G26G27            -0.000436169
  21766025.883 6     -5487.309 6     -4373.73048  21766024.69948
  24452388.727 2   -465513.879 2  -1110037.14847  24452385.87947
  20186446.977 7  -1011166.109 7   -773535.07449  20186447.03949
  22587271.109 6   -896750.039 6   -683864.86349  22587270.21949
  21946573.172 6  -2229668.254 6  -1720050.34848  21946570.99248
  21893136.430 6   -133771.961 6   -103625.48048  21893133.91048
  23487255.680 5     72809.934 5     53948.68447  23487257.06647
  20481414.813 7     21263.309 7     16279.71949  20481414.37949
 20  5 16  2 16 34.0000000  0  8G04G07G08G09G11G16G26G27            -0.000437231
  21766030.578 6     -5461.484 6     -4353.60948  21766029.68048
  24451428.609 2   -470556.020 2  -1113966.07447  24451426.18447
  20186068.891 7  -1013154.676 7   -775084.60949  20186068.31349
  22586935.172 6   -898514.477 6   -685239.75449  22586934.56649
  21945685.883 6  -2234329.176 6  -1723682.23448  21945683.53548
  21893071.938 6   -134112.617 6   -103890.93448  21893069.34048
  23487271.141 5     72889.906 5     54010.98847  23487272.39547
  20481429.359 7     21337.285 7     16337.36349  20481428.58249
 20  5 16  2 16 35.0000000  0  8G04G07G08G09G11G16G26G27            -0.000438295
  21766035.750 6     -5435.621 6     -4333.44948  21766034.62148
  24450469.203 2   -475598.609 2  -1117895.36347  24450466.56347
  20185690.273 7  -1015143.137 7   -776634.05549  20185690.15649
  22586599.539 6   -900278.781 6   -686614.53949  22586598.95749
  21944798.836 6  -2238990.227 6  -1727314.22348  21944796.76248
  21893007.039 6   -134453.668 6   -104156.68848  21893004.38348
  23487286.578 5     72969.508 5     54073.00847  23487287.23447
  20481443.430 7     21411.273 7     16395.02049  20481442.68449
 20  5 16  2 16 36.0000000  0  8G04G07G08G09G11G16G26G27            -0.000439360
  21766040.094 6     -5409.555 6     -4313.14148  21766039.41448
  24449509.438 2   -480641.414 2  -1121824.82447  24449506.82047
  20185312.172 7  -1017131.301 7   -778183.27049  20185311.80149
  22586263.508 6   -902042.750 6   -687989.05149  22586263.24649
  21943911.703 6  -2243651.242 6  -1730946.18048  21943910.16848
  21892941.977 6   -134794.891 6   -104422.57048  21892939.09048
  23487301.500 5     73048.906 5     54134.88347  23487302.64147
  20481457.477 7     21485.465 7     16452.82849  20481457.14149
 20  5 16  2 16 37.0000000  0  8G04G07G08G09G11G16G26G27            -0.000440424
  21766045.852 6     -5383.270 6     -4292.66848  21766044.84448
  24448550.094 2   -485684.551 2  -1125754.53947  24448547.46947
  20184933.625 7  -1019119.184 7   -779732.27749  20184933.28149
  22585927.883 6   -903806.359 6   -689363.29749  22585927.35549
  21943024.617 6  -2248312.180 6  -1734578.08648  21943023.12948
  21892877.055 6   -135136.332 6   -104688.63348  21892874.35948
  23487316.563 5     73128.113 5     54196.60547  23487317.31647
  20481471.406 7     21559.820 7     16510.77049  20481471.19549
 20  5 16  2 16 38.0000000  0  8G04G07G08G09G11G16G26G27            -0.000441488
  21766050.531 6     -5356.934 6     -4272.14548  21766049.64148
  24447591.164 2   -490728.008 2  -1129684.50447  24447587.62947
  20184555.594 7  -1021106.934 7   -781281.16849  20184555.24249
  22585591.734 6   -905569.809 6   -690737.41449  22585591.85949
  21942138.156 6  -2252973.219 6  -1738210.06648  21942136.02748
  21892812.281 6   -135478.148 6   -104954.98448  21892809.23048
  23487331.617 5     73206.941 5     54258.03547  23487332.11747
  20481485.742 7     21634.250 7     16568.76249  20481485.49649
 20  5 16  2 16 39.0000000  0  8G04G07G08G09G11G16G26G27            -0.000442553
  21766055.742 6     -5330.383 6     -4251.45748  21766054.65648
  24446630.359 2   -495771.746 2  -1133614.71947  24446627.92647
  20184177.211 7  -1023094.371 7   -782829.81649  20184177.11749
  22585256.820 6   -907332.887 6   -692111.24249  22585256.51249
  21941251.188 6  -2257634.207 6  -1741842.00448  21941249.64848
  21892747.047 6   -135820.133 6   -105221.46548  21892744.27048
  23487346.977 5     73285.559 5     54319.28147  23487347.72747
  20481500.039 7     21708.844 7     16626.88349  20481499.04749
 20  5 16  2 16 40.0000000  0  8G04G07G08G09G11G16G26G27            -0.000443617
  21766061.023 6     -5303.684 6     -4230.64848  21766059.73848
  24445670.305 2   -500815.891 2  -1137545.21947  24445668.23047
  20183799.172 7  -1025081.574 7   -784378.28549  20183798.71949
  22584921.945 6   -909095.727 6   -693484.88749  22584921.05949
  21940364.391 6  -2262295.164 6  -1745473.92248  21940362.17248
  21892682.484 6   -136162.387 6   -105488.15648  21892678.86748
  23487360.922 5     73363.891 5     54380.30547  23487362.31347
  20481514.242 7     21783.563 7     16685.10949  20481513.71549
 20  5 16  2 16 41.0000000  0  8G04G07G08G09G11G16G26G27            -0.000444683
  21766065.289 6     -5276.832 6     -4209.72748  21766064.93048
  24444711.047 2   -505860.270 2  -1141475.88747  24444708.30547
  20183421.172 7  -1027068.520 7   -785926.55549  20183420.70349
  22584586.000 6   -910858.266 6   -694858.29749  22584585.69949
  21939477.391 6  -2266956.141 6  -1749105.85248  21939475.07048
  21892616.555 6   -136504.906 6   -105755.05948  21892614.08248
  23487375.984 5     73441.988 5     54441.17247  23487377.39847
  20481528.523 7     21858.441 7     16743.45349  20481527.70749
 20  5 16  2 16 42.0000000  0  8G04G07G08G09G11G16G26G27            -0.000445747
  21766070.844 6     -5249.832 6     -4188.69548  21766069.97748
  24443751.391 2   -510905.000 2  -1145406.83647  24443748.59847
  20183042.969 7  -1029055.219 7   -787474.63749  20183042.81349
  22584250.813 6   -912620.551 6   -696231.50449  22584250.33649
  21938590.383 6  -2271617.125 6  -1752737.78948  21938588.25048
  21892551.539 6   -136847.719 6   -106022.18848  21892548.80548
  23487391.070 5     73519.773 5     54501.78147  23487391.88347
  20481542.969 7     21933.406 7     16801.87149  20481541.87949
 20  5 16  2 16 43.0000000  0  8G04G07G08G09G11G16G26G27            -0.000446814
  21766075.859 6     -5222.789 6     -4167.62148  21766075.28548
  24442790.773 2   -515950.117 2  -1149338.09847  24442787.99647
  20182664.953 7  -1031041.789 7   -789022.60949  20182664.84449
  22583915.328 6   -914382.656 6   -697604.57049  22583915.00049
  21937703.625 6  -2276278.219 6  -1756369.81648  21937701.46548
  21892486.375 6   -137190.867 6   -106289.57048  21892483.91848
  23487405.742 5     73597.211 5     54562.11347  23487406.76247
  20481557.219 7     22008.434 7     16860.32849  20481556.43049
 20  5 16  2 16 44.0000000  0  8G04G07G08G09G11G16G26G27            -0.000447878
  21766081.039 6     -5195.699 6     -4146.51648  21766080.46148
  24441831.055 2   -520995.707 2  -1153269.72747  24441828.12947
  20182287.109 7  -1033028.207 7   -790570.46949  20182286.94949
  22583580.000 6   -916144.574 6   -698977.48849  22583579.59449
  21936816.922 6  -2280939.414 6  -1760001.92248  21936814.61348
  21892421.172 6   -137534.379 6   -106557.24248  21892418.49248
  23487420.219 5     73674.258 5     54622.16847  23487421.69947
  20481571.063 7     22083.457 7     16918.79749  20481570.64549
 20  5 16  2 16 45.0000000  0  8G04G07G08G09G11G16G26G27            -0.000448944
  21766086.234 6     -5168.332 6     -4125.18848  21766085.46148
  24440870.266 2   -526041.566 2  -1157201.57847  24440867.67247
  20181909.070 7  -1035014.285 7   -792118.06649  20181908.96549
  22583244.750 6   -917906.117 6   -700350.12549  22583244.37149
  21935929.641 6  -2285600.508 6  -1763633.93848  21935927.46148
  21892356.406 6   -137878.043 6   -106825.03148  21892352.54348
  23487435.359 5     73751.191 5     54682.10947  23487436.83647
  20481585.680 7     22158.738 7     16977.45349  20481584.62149
 20  5 16  2 16 46.0000000  0  8G04G07G08G09G11G16G26G27            -0.000450010
  21766091.469 6     -5140.695 6     -4103.65248  21766091.01248
  24439910.523 2   -531087.477 2  -1161133.45748  24439907.87548
  20181531.164 7  -1036999.980 7   -793665.35949  20181531.21549
  22582909.445 6   -919667.266 6   -701722.45749  22582909.53949
  21935042.672 6  -2290261.438 6  -1767265.84048  21935040.48848
  21892290.141 6   -138221.840 6   -107092.91848  21892287.25448
  23487449.773 5     73827.973 5     54741.91047  23487451.27047
  20481600.141 7     22234.293 7     17036.32849  20481599.07049
 20  5 16  2 16 47.0000000  0  8G04G07G08G09G11G16G26G27            -0.000451077
  21766097.164 6     -5112.824 6     -4081.94148  21766096.40248
  24438950.102 2   -536133.758 2  -1165065.62947  24438946.96547
  20181153.469 7  -1038985.352 7   -795212.40649  20181153.50849
  22582574.273 6   -921428.027 6   -703094.48449  22582574.20349
  21934155.797 6  -2294922.328 6  -1770897.69948  21934153.36748
  21892224.695 6   -138565.793 6   -107360.93048  21892221.85248
  23487464.547 5     73904.566 5     54801.61347  23487465.73847
  20481614.594 7     22310.047 7     17095.35949  20481613.36749
 20  5 16  2 16 48.0000000  0  8G04G07G08G09G11G16G26G27            -0.000452143
  21766102.297 6     -5084.816 6     -4060.11748  21766101.36348
  24437989.758 2   -541180.230 2  -1168997.94147  24437987.27347
  20180775.328 7  -1040970.523 7   -796759.28949  20180775.48849
  22582239.352 6   -923188.566 6   -704466.32849  22582239.52349
  21933269.305 6  -2299583.215 6  -1774529.55548  21933266.30948
  21892159.047 6   -138910.055 6   -107629.18848  21892156.46548
  23487478.883 5     73980.883 5     54861.12947  23487480.99647
  20481629.008 7     22385.914 7     17154.47749  20481628.18449
 20  5 16  2 16 49.0000000  0  8G04G07G08G09G11G16G26G27            -0.000453209
  21766107.367 6     -5056.676 6     -4038.19148  21766106.56348
  24437029.117 2   -546227.141 2  -1172930.60547  24437026.84847
  20180397.805 7  -1042955.473 7   -798306.00049  20180397.84049
  22581904.641 6   -924948.832 6   -705837.96149  22581904.46549
  21932381.961 6  -2304244.129 6  -1778161.43048  21932379.92648
  21892093.828 6   -139254.586 6   -107897.66448  21892090.50448
  23487493.195 5     74056.926 5     54920.46147  23487495.50047
  20481643.398 7     22461.895 7     17213.67649  20481642.63749
 20  5 16  2 16 50.0000000  0  8G04G07G08G09G11G16G26G27            -0.000454275
  21766112.836 6     -5028.391 6     -4016.14848  21766111.87948
  24436068.750 1   -551274.324 1  -1176863.46547  24436066.27047
  20180020.047 7  -1044940.180 7   -799852.52749  20180019.97349
  22581569.539 6   -926708.813 6   -707209.36749  22581569.53149
  21931494.859 6  -2308905.055 6  -1781793.32048  21931492.50048
  21892028.086 6   -139599.406 6   -108166.35548  21892025.23048
  23487507.258 5     74132.656 5     54979.47347  23487509.95347
  20481657.906 7     22538.000 7     17272.97749  20481657.27049
 20  5 16  2 16 51.0000000  0  8G04G07G08G09G11G16G26G27            -0.000455341
  21766118.383 6     -5000.043 6     -3994.06648  21766117.31348
  24435108.141 1   -556322.043 1  -1180796.74647  24435105.74247
  20179642.859 7  -1046924.758 7   -801398.94949  20179642.30949
  22581234.844 6   -928468.617 6   -708580.64549  22581234.81349
  21930607.742 6  -2313566.035 6  -1785425.25048  21930605.54748
  21891962.406 6   -139944.535 6   -108435.28548  21891959.62948
  23487521.430 5     74208.094 5     55038.21547  23487524.09847
  20481672.234 7     22614.145 7     17332.30949  20481671.75449
 20  5 16  2 16 52.0000000  0  8G04G07G08G09G11G16G26G27            -0.000456409
  21766123.961 6     -4971.488 6     -3971.80948  21766122.65648
  24434147.984 2   -561369.859 2  -1184730.10947  24434145.13747
  20179264.617 7  -1048909.031 7   -802945.13749  20179264.48449
  22580900.234 6   -930228.082 6   -709951.66049  22580899.72749
  21929720.875 6  -2318227.004 6  -1789057.17248  21929718.83248
  21891896.797 6   -140289.867 6   -108704.38348  21891893.59848
  23487536.422 5     74283.266 5     55096.72747  23487538.95747
  20481686.430 7     22690.488 7     17391.79349  20481686.03149
 20  5 16  2 16 53.0000000  0  8G04G07G08G09G11G16G26G27            -0.000457476
  21766129.523 6     -4942.836 6     -3949.48848  21766128.24648
  24433186.938 1   -566418.102 1  -1188663.81347  24433184.57047
  20178887.148 7  -1050893.152 7   -804491.21149  20178887.12149
  22580565.133 6   -931987.336 6   -711322.50449  22580564.83649
  21928833.742 6  -2322887.996 6  -1792689.11348  21928831.77048
  21891830.531 6   -140635.531 6   -108973.73048  21891828.07448
  23487551.109 5     74358.125 5     55154.96947  23487553.77047
  20481701.320 7     22766.906 7     17451.34449  20481700.81349
 20  5 16  2 16 54.0000000  0  8G04G07G08G09G11G16G26G27            -0.000458544
  21766134.719 6     -4914.027 6     -3927.03548  21766133.63748
  24432226.328 2   -571466.711 2  -1192597.79747  24432223.65647
  20178509.852 7  -1052877.043 7   -806037.10249  20178509.60949
  22580230.703 6   -933746.316 6   -712693.13749  22580229.79749
  21927946.922 6  -2327548.992 6  -1796321.05948  21927944.69948
  21891765.453 6   -140981.480 6   -109243.30148  21891762.52348
  23487564.734 5     74432.758 5     55213.12947  23487567.57847
  20481715.695 7     22843.430 7     17510.97349  20481715.60549
 20  5 16  2 16 55.0000000  0  8G04G07G08G09G11G16G26G27            -0.000459612
  21766140.188 6     -4885.016 6     -3904.43048  21766138.98848
  24431265.867 2   -576515.539 2  -1196531.95347  24431263.03947
  20178132.289 7  -1054860.613 7   -807582.73449  20178132.29349
  22579895.992 6   -935504.961 6   -714063.51249  22579895.39549
  21927059.867 6  -2332209.945 6  -1799952.96148  21927057.94948
  21891699.148 6   -141327.617 6   -109513.02048  21891696.32848
  23487579.422 5     74507.129 5     55271.08647  23487581.08647
  20481730.508 7     22920.148 7     17570.75449  20481730.01249
 20  5 16  2 16 56.0000000  0  8G04G07G08G09G11G16G26G27            -0.000460680
  21766145.680 6     -4855.863 6     -3881.72348  21766144.35248
  24430304.578 2   -581564.684 2  -1200466.34847  24430302.42247
  20177754.711 7  -1056843.973 7   -809128.20749  20177754.88749
  22579561.375 6   -937263.328 6   -715433.66449  22579560.99249
  21926172.992 6  -2336870.887 6  -1803584.86348  21926170.52048
  21891632.969 6   -141674.023 6   -109782.94548  21891630.96948
  23487592.781 5     74581.258 5     55328.87547  23487595.35247
  20481745.125 7     22996.992 7     17630.63349  20481744.45749
 20  5 16  2 16 57.0000000  0  8G04G07G08G09G11G16G26G27            -0.000461746
  21766151.586 6     -4826.691 6     -3858.98448  21766150.34848
  24429343.656 1   -586614.305 1  -1204401.12147  24429341.42647
  20177377.648 7  -1058827.188 7   -810673.57049  20177377.39149
  22579227.078 6   -939021.531 6   -716803.69149  22579226.27349
  21925285.789 6  -2341531.965 6  -1807216.87548  21925283.81348
  21891567.313 6   -142020.789 6   -110053.15248  21891564.55148
  23487606.836 5     74655.000 5     55386.32047  23487609.93447
  20481759.883 7     23073.848 7     17690.52049  20481759.39149
 20  5 16  2 16 58.0000000  0  8G04G07G08G09G11G16G26G27            -0.000462816
  21766156.781 6     -4797.219 6     -3836.02748  21766155.66448
  24428382.594 2   -591664.117 2  -1208336.03947  24428380.44147
  20177000.227 7  -1060810.070 7   -812218.67649  20177000.41449
  22578891.938 6   -940779.340 6   -718173.41449  22578891.67249
  21924398.922 6  -2346192.914 6  -1810848.79348  21924396.94948
  21891501.000 6   -142367.707 6   -110323.47748  21891498.45748
  23487620.820 5     74728.582 5     55443.68047  23487623.09047
  20481774.633 7     23150.961 7     17750.60549  20481773.90249
 20  5 16  2 16 59.0000000  0  8G04G07G08G09G11G16G26G27            -0.000463884
  21766162.414 6     -4767.695 6     -3813.02048  21766161.35248
  24427422.242 1   -596714.305 1  -1212271.24647  24427419.55947
  20176622.664 7  -1062792.789 7   -813763.65249  20176622.95749
  22578557.430 6   -942536.969 6   -719543.00049  22578557.56349
  21923511.891 6  -2350853.930 6  -1814480.75448  21923509.85248
  21891434.945 6   -142714.973 6   -110594.06648  21891432.53948
  23487635.156 5     74801.848 5     55500.77347  23487636.91447
  20481789.195 7     23228.109 7     17810.71549  20481788.89849
 20  5 16  2 17  0.0000000  0  8G04G07G08G09G11G16G26G27            -0.000464952
  21766167.883 6     -4738.020 6     -3789.90248  21766167.04348
  24426460.875 1   -601764.863 1  -1216206.74247  24426458.44547
  20176245.641 7  -1064775.293 7   -815308.45349  20176245.61349
  22578223.234 6   -944294.320 6   -720912.37149  22578223.23449
  21922624.805 6  -2355514.973 6  -1818112.73848  21922622.96548
  21891368.703 6   -143062.512 6   -110864.87948  21891366.66048
  23487648.664 5     74874.793 5     55557.60947  23487651.62147
  20481804.086 7     23305.379 7     17870.93049  20481803.71149
 20  5 16  2 17  1.0000000  0  8G04G07G08G09G11G16G26G27            -0.000466021
  21766173.609 6     -4708.242 6     -3766.69548  21766172.45748
  24425499.727 1   -606815.781 1  -1220142.51647  24425497.07047
  20175868.617 7  -1066757.574 7   -816853.09049  20175868.32049
  22577888.914 6   -946051.430 6   -722281.54749  22577888.72749
  21921737.953 6  -2360176.035 6  -1821744.73448  21921735.95348
  21891302.383 6   -143410.328 6   -111135.91048  21891299.99248
  23487661.688 5     74947.492 5     55614.24647  23487664.69547
  20481818.859 7     23382.742 7     17931.21149  20481818.29749
 20  5 16  2 17  2.0000000  0  8G04G07G08G09G11G16G26G27            -0.000467091
  21766179.680 6     -4678.316 6     -3743.37548  21766178.06648
  24424538.352 2   -611867.023 2  -1224078.53947  24424535.66847
  20175491.250 7  -1068739.625 7   -818397.54349  20175491.00049
  22577554.469 6   -947808.270 6   -723650.51249  22577554.02349
  21920851.031 6  -2364837.117 6  -1825376.74648  21920849.03948
  21891236.188 6   -143758.418 6   -111407.14848  21891233.84448
  23487675.641 5     75019.859 5     55670.63347  23487678.15247
  20481833.531 7     23460.242 7     17991.60549  20481833.18449
 20  5 16  2 17  3.0000000  0  8G04G07G08G09G11G16G26G27            -0.000468159
  21766185.141 6     -4648.309 6     -3719.99248  21766184.21948
  24423577.531 1   -616918.527 1  -1228014.77747  24423574.20347
  20175114.102 7  -1070721.480 7   -819941.84849  20175114.14549
  22577220.406 6   -949564.898 6   -725019.30949  22577220.19549
  21919964.109 6  -2369498.207 6  -1829008.75848  21919962.12948
  21891169.711 6   -144106.832 6   -111678.64848  21891167.04348
  23487690.102 5     75091.941 5     55726.78947  23487692.39547
  20481848.109 7     23537.809 7     18052.04749  20481847.64149
 20  5 16  2 17  4.0000000  0  8G04G07G08G09G11G16G26G27            -0.000469229
  21766191.094 6     -4618.188 6     -3696.52348  21766189.79748
  24422616.680 2   -621970.555 2  -1231951.43047  24422612.78547
  20174736.922 7  -1072703.215 7   -821486.06349  20174736.87949
  22576886.211 6   -951321.313 6   -726387.93849  22576885.91049
  21919077.367 6  -2374159.434 6  -1832640.88348  21919074.87148
  21891103.367 6   -144455.586 6   -111950.41048  21891101.17648
  23487703.188 5     75163.664 5     55782.67647  23487706.00447
  20481862.828 7     23615.414 7     18112.51649  20481862.28149
 20  5 16  2 17  5.0000000  0  8G04G07G08G09G11G16G26G27            -0.000470299
  21766196.625 6     -4587.828 6     -3672.87148  21766195.53948
  24421655.234 2   -627022.699 2  -1235888.16847  24421651.56347
  20174359.805 7  -1074684.523 7   -823029.93849  20174359.81349
  22576551.828 6   -953077.324 6   -727756.26249  22576552.00049
  21918190.039 6  -2378820.504 6  -1836272.88348  21918188.33248
  21891037.500 6   -144804.453 6   -112222.25848  21891034.68048
  23487716.930 5     75235.301 5     55838.50847  23487719.85247
  20481877.914 7     23693.301 7     18173.20749  20481877.56349
 20  5 16  2 17  6.0000000  0  8G04G07G08G09G11G16G26G27            -0.000471369
  21766202.367 6     -4557.410 6     -3649.17248  21766201.63748
  24420692.938 2   -632075.313 2  -1239825.26247  24420690.02047
  20173983.164 7  -1076665.750 7   -824573.75049  20173982.79349
  22576217.938 6   -954833.172 6   -729124.44949  22576217.66049
  21917303.250 6  -2383481.699 6  -1839904.98448  21917300.97348
  21890970.719 6   -145153.730 6   -112494.42248  21890968.46548
  23487729.906 5     75306.508 5     55893.97347  23487733.56647
  20481892.633 7     23771.172 7     18233.88349  20481892.19549
 20  5 16  2 17  7.0000000  0  8G04G07G08G09G11G16G26G27            -0.000472437
  21766208.070 6     -4526.852 6     -3625.36348  21766207.38348
  24419731.758 2   -637128.223 2  -1243762.58647  24419728.41447
  20173605.969 7  -1078646.719 7   -826117.36349  20173605.94549
  22575883.797 6   -956588.758 6   -730492.43849  22575883.20349
  21916416.234 6  -2388142.883 6  -1843537.07848  21916413.74648
  21890904.156 6   -145503.230 6   -112766.75848  21890901.57448
  23487743.867 5     75377.469 5     55949.27747  23487747.12947
  20481907.352 7     23849.215 7     18294.69549  20481906.92649
 20  5 16  2 17  8.0000000  0  8G04G07G08G09G11G16G26G27            -0.000473509
  21766214.180 6     -4495.996 6     -3601.32448  21766212.80948
  24418770.516 2   -642181.363 2  -1247700.10247  24418767.17247
  20173228.938 7  -1080627.367 7   -827660.72349  20173229.03149
  22575549.992 6   -958343.945 6   -731860.11349  22575549.04349
  21915529.211 6  -2392803.961 6  -1847169.08648  21915527.04348
  21890837.680 6   -145852.906 6   -113039.23048  21890835.31348
  23487757.625 5     75448.234 5     56004.41447  23487760.08247
  20481922.539 7     23927.465 7     18355.66849  20481922.29349
 20  5 16  2 17  9.0000000  0  8G04G07G08G09G11G16G26G27            -0.000474579
  21766219.977 6     -4464.910 6     -3577.10248  21766219.18448
  24417808.766 2   -647234.715 2  -1251637.78547  24417805.45747
  20172852.461 7  -1082607.609 7   -829203.77049  20172852.47749
  22575215.867 6   -960098.695 6   -733227.45349  22575215.40649
  21914642.602 6  -2397464.871 6  -1850800.96548  21914639.84048
  21890770.953 6   -146202.691 6   -113311.79748  21890768.82048
  23487770.758 5     75518.926 5     56059.50047  23487773.29747
  20481937.539 7     24006.000 7     18416.86749  20481936.73449
 20  5 16  2 17 10.0000000  0  8G04G07G08G09G11G16G26G27            -0.000475649
  21766225.789 6     -4433.742 6     -3552.81648  21766224.91048
  24416847.203 2   -652288.352 2  -1255575.68047  24416844.10947
  20172475.391 7  -1084587.699 7   -830746.69549  20172475.29749
  22574881.578 6   -961853.297 6   -734594.67649  22574881.33649
  21913755.781 6  -2402125.891 6  -1854432.93048  21913753.00048
  21890704.602 6   -146552.840 6   -113584.63748  21890701.93048
  23487784.258 4     75589.211 4     56114.28147  23487786.40647
  20481952.383 7     24084.551 7     18478.07049  20481952.02749
 20  5 16  2 17 11.0000000  0  8G04G07G08G09G11G16G26G27            -0.000476719
  21766232.328 6     -4402.352 6     -3528.37148  21766230.85248
  24415885.461 2   -657342.383 2  -1259513.88347  24415882.14547
  20172098.727 7  -1086567.504 7   -832289.40649  20172098.94549
  22574548.219 6   -963607.547 6   -735961.63749  22574547.80949
  21912868.227 6  -2406786.871 6  -1858064.86348  21912865.81348
  21890637.281 6   -146903.176 6   -113857.62948  21890635.41848
  23487797.375 5     75659.328 5     56168.91047  23487799.93847
  20481967.234 7     24163.301 7     18539.43449  20481966.78149
 20  5 16  2 17 12.0000000  0  8G04G07G08G09G11G16G26G27            -0.000477791
  21766238.180 6     -4370.945 6     -3503.89148  21766236.87148
  24414923.625 2   -662396.781 2  -1263452.36747  24414920.30147
  20171721.766 7  -1088547.176 7   -833832.00449  20171721.97749
  22574214.289 6   -965361.613 6   -737328.43449  22574214.39149
  21911981.422 6  -2411447.926 6  -1861696.85248  21911978.65248
  21890571.102 6   -147253.883 6   -114130.91048  21890568.38748
  23487810.844 4     75729.066 4     56223.24647  23487813.29347
  20481982.305 7     24242.082 7     18600.82449  20481981.48849
 20  5 16  2 17 13.0000000  0  8G04G07G08G09G11G16G26G27            -0.000478861
  21766244.133 6     -4339.277 6     -3479.21948  21766243.03148
  24413961.766 2   -667451.414 2  -1267391.03947  24413958.20347
  20171345.383 7  -1090526.531 7   -835374.35949  20171345.25849
  22573880.727 6   -967115.328 6   -738694.95749  22573880.05949
  21911094.531 6  -2416108.906 6  -1865328.78948  21911091.92248
  21890504.156 6   -147604.762 6   -114404.31647  21890501.82047
  23487823.695 5     75798.613 5     56277.43847  23487826.34047
  20481997.219 7     24321.086 7     18662.38749  20481996.94549
 20  5 16  2 17 14.0000000  0  8G04G07G08G09G11G16G26G27            -0.000479933
  21766250.281 6     -4307.320 6     -3454.32048  21766249.31348
  24412999.992 2   -672506.199 2  -1271329.83247  24412996.69547
  20170968.906 7  -1092505.480 7   -836916.39849  20170968.51649
  22573547.313 6   -968868.613 6   -740061.15249  22573547.03549
  21910207.438 6  -2420769.754 6  -1868960.61348  21910204.88348
  21890437.102 6   -147955.738 6   -114677.80548  21890435.05948
  23487837.172 4     75868.082 4     56331.58247  23487839.52347
  20482012.109 7     24400.359 7     18724.14849  20482012.03549
 20  5 16  2 17 15.0000000  0  8G04G07G08G09G11G16G26G27            -0.000481003
  21766256.406 6     -4275.094 6     -3429.20748  21766255.40648
  24412037.461 2   -677561.246 2  -1275268.82847  24412034.44547
  20170592.094 7  -1094484.078 7   -838458.16449  20170592.07449
  22573213.938 6   -970621.527 6   -741427.06349  22573213.10249
  21909321.102 6  -2425430.438 6  -1872592.31348  21909318.41848
  21890370.188 6   -148306.875 6   -114951.42648  21890368.00848
  23487850.023 4     75937.387 4     56385.59047  23487852.51647
  20482027.438 7     24479.879 7     18786.10949  20482027.08249
 20  5 16  2 17 16.0000000  0  8G04G07G08G09G11G16G26G27            -0.000482075
  21766262.648 6     -4242.762 6     -3404.01648  21766261.26648
  24411075.766 3   -682616.574 3  -1279208.03947  24411072.36747
  20170215.828 7  -1096462.492 7   -839999.79349  20170215.84449
  22572880.109 6   -972374.191 6   -742792.77349  22572879.03149
  21908433.813 6  -2430091.195 6  -1876224.07048  21908431.48448
  21890303.930 6   -148658.320 6   -115225.28548  21890301.17648
  23487863.586 5     76006.336 5     56439.32047  23487865.66447
  20482042.594 7     24559.457 7     18848.11749  20482042.35549
 20  5 16  2 17 17.0000000  0  8G04G07G08G09G11G16G26G27            -0.000483147
  21766268.477 6     -4210.414 6     -3378.80548  21766267.48048
  24410113.695 3   -687672.379 3  -1283147.63347  24410110.48847
  20169839.305 7  -1098440.773 7   -841541.30549  20169839.21149
  22572546.508 6   -974126.688 6   -744158.35249  22572546.39849
  21907547.102 6  -2434752.063 6  -1879855.91448  21907544.64848
  21890236.914 6   -149010.145 6   -115499.43448  21890234.37548
  23487876.773 4     76074.914 4     56492.75847  23487878.75847
  20482057.633 7     24639.039 7     18910.12949  20482057.35549
 20  5 16  2 17 18.0000000  0  8G04G07G08G09G11G16G26G27            -0.000484219
  21766274.727 6     -4177.930 6     -3353.49248  21766273.64148
  24409151.172 2   -692728.539 2  -1287087.49247  24409148.17247
  20169462.758 7  -1100418.852 7   -843082.66849  20169462.84449
  22572213.211 6   -975878.949 6   -745523.75049  22572212.58649
  21906660.242 6  -2439412.953 6  -1883487.77748  21906657.53148
  21890170.109 6   -149362.270 6   -115773.82048  21890167.38348
  23487889.445 4     76143.250 4     56545.99647  23487891.70347
  20482072.336 7     24718.754 7     18972.24249  20482072.16449
