     2.10           OBSERVATION DATA    Mixed(MIXED)        RINEX VERSION / TYPE
cnvtToRINEX 3.07.0  convertToRINEX OPR  19-May-20 12:30 UTC PGM / RUN BY / DATE 
----------------------------------------------------------- COMMENT             
G051                                                        MARKER NAME         
G051                                                        MARKER NUMBER       
GNSS Observer       Trimble                                 OBSERVER / AGENCY   
0220379195          5700                2.32                REC # / TYPE / VERS 
                    TRM39105.00                             ANT # / TYPE        
 -3050787.3122  4927445.1096  2654515.8738                  APPROX POSITION XYZ 
       -0.0460        0.0000        0.0000                  ANTENNA: DELTA H/E/N
     1     1     0                                          WAVELENGTH FACT L1/2
     4    C1    L1    L2    P2                              # / TYPES OF OBSERV 
  2020     5    16     3    27   56.0000000     GPS         TIME OF FIRST OBS   
  2020     5    16     5     0   45.0000000     GPS         TIME OF LAST OBS    
     0                                                      RCV CLOCK OFFS APPL 
    18                                                      LEAP SECONDS        
    12                                                      # OF SATELLITES     
   G01  5570  5570  5570  5570                              PRN / # OF OBS      
   G03  1826  1826  1826  1826                              PRN / # OF OBS      
   G04  1801  1801  1801  1801                              PRN / # OF OBS      
   G07  5570  5570  5570  5570                              PRN / # OF OBS      
   G08  5570  5570  5570  5570                              PRN / # OF OBS      
   G09  1014   997  1014  1014                              PRN / # OF OBS      
   G11  5547  5547  5547  5547                              PRN / # OF OBS      
   G16  4905  4893  4815  4815                              PRN / # OF OBS      
   G22  3453  3440  3376  3376                              PRN / # OF OBS      
   G27  4520  4520  4520  4520                              PRN / # OF OBS      
   G28  1659  1643  1588  1588                              PRN / # OF OBS      
   G30  5546  5546  5546  5546                              PRN / # OF OBS      
CARRIER PHASE MEASUREMENTS: PHASE SHIFTS REMOVED            COMMENT             
                                                            END OF HEADER       
 20  5 16  3 27 56.0000000  0  3G01G07G08                            0.000427191
  22081099.75016    -51415.26216    -20683.64859  22081102.60959
  22142304.05516    -45372.11716    -14844.55959  22142301.58659
  20990285.68017     -2749.50817      -893.62559  20990282.01659
 20  5 16  3 27 57.0000000  0  3G01G07G08                            0.000426107
  22080160.977 6    -56349.984 6    -24528.87549  22080163.39549
  22141475.219 6    -49727.145 6    -18238.09049  22141472.87149
  20990235.078 7     -3014.160 7     -1099.82449  20990235.70349
 20  5 16  3 27 58.0000000  0  3G01G07G08                            0.000425032
  22079221.711 6    -61287.293 6    -28376.12949  22079223.55549
  22140645.789 6    -54084.723 6    -21633.60949  22140643.97349
  20990184.227 7     -3281.516 7     -1308.15249  20990184.15649
 20  5 16  3 27 59.0000000  0  3G01G07G08                            0.000423944
  22078281.734 6    -66227.250 6    -32225.44949  22078284.07049
  22139816.211 6    -58444.867 6    -25031.12149  22139813.81349
  20990132.906 7     -3551.523 7     -1518.53949  20990133.15249
 20  5 16  3 28  0.0000000  0  3G01G07G08                            0.000422857
  22077341.031 6    -71169.820 6    -36076.80149  22077343.35549
  22138985.938 6    -62807.641 6    -28430.68849  22138983.66049
  20990081.133 7     -3824.316 7     -1731.10949  20990080.60549
 20  5 16  3 28  1.0000000  0  3G01G07G08                            0.000421766
  22076399.883 6    -76115.152 6    -39930.30949  22076402.10249
  22138155.391 6    -67173.109 6    -31832.34849  22138152.62149
  20990028.813 7     -4099.922 7     -1945.86749  20990028.54749
 20  5 16  3 28  2.0000000  0  3G01G07G08                            0.000420677
  22075458.727 6    -81063.098 6    -43785.84849  22075460.67649
  22137324.180 6    -71541.145 6    -35236.00849  22137321.63749
  20989975.586 7     -4378.230 7     -2162.73849  20989975.26649
 20  5 16  3 28  3.0000000  0  3G01G07G08                            0.000419584
  22074516.641 6    -86013.621 6    -47643.41049  22074518.65249
  22136492.516 6    -75911.711 6    -38641.64849  22136489.91049
  20989922.164 7     -4659.211 7     -2381.68849  20989921.66449
 20  5 16  3 28  4.0000000  0  3G01G07G08                            0.000418491
  22073573.680 6    -90966.586 6    -51502.85949  22073576.11349
  22135660.164 6    -80284.691 6    -42049.16849  22135657.46549
  20989868.383 7     -4942.723 7     -2602.60249  20989868.18449
 20  5 16  3 28  5.0000000  0  3G01G07G08                            0.000417395
  22072630.820 6    -95921.895 6    -55364.13749  22072632.43049
  22134827.547 6    -84659.988 6    -45458.48849  22134825.10549
  20989813.695 7     -5228.680 7     -2825.43449  20989813.57449
 20  5 16  3 28  6.0000000  0  3G01G07G08                            0.000416298
  22071687.680 6   -100879.637 6    -59227.30549  22071689.59449
  22133994.352 6    -89037.664 6    -48869.67249  22133992.03949
  20989758.836 7     -5517.160 7     -3050.21949  20989758.74649
 20  5 16  3 28  7.0000000  0  3G01G07G08                            0.000415197
  22070743.969 6   -105839.449 6    -63092.10249  22070745.35249
  22133161.195 6    -93417.410 6    -52282.46149  22133158.64849
  20989703.539 7     -5807.828 7     -3276.71549  20989703.33649
 20  5 16  3 28  8.0000000  0  3G01G07G08                            0.000414097
  22069799.430 6   -110801.379 6    -66958.53949  22069801.41449
  22132326.992 6    -97799.207 6    -55696.84849  22132324.92649
  20989647.773 7     -6100.695 7     -3504.92649  20989647.85249
 20  5 16  3 28  9.0000000  0  3G01G07G08                            0.000412994
  22068854.828 6   -115765.215 6    -70826.45749  22068857.08649
  22131493.086 6   -102182.879 6    -59112.69549  22131490.63349
  20989591.805 7     -6395.539 7     -3734.67249  20989591.31349
 20  5 16  3 28 10.0000000  0  3G01G07G08                            0.000411892
  22067909.813 6   -120730.809 6    -74695.75449  22067912.06349
  22130658.773 6   -106568.270 6    -62529.87949  22130656.13749
  20989535.164 7     -6692.234 7     -3965.86349  20989534.91049
 20  5 16  3 28 11.0000000  0  3G01G07G08                            0.000410786
  22066964.516 6   -125698.074 6    -78566.34849  22066966.78949
  22129823.883 6   -110955.289 6    -65948.34849  22129821.51249
  20989478.492 7     -6990.676 7     -4198.41849  20989478.62549
 20  5 16  3 28 12.0000000  0  3G01G07G08                            0.000409681
  22066018.680 6   -130666.858 6    -82438.12849  22066020.93049
  22128988.930 6   -115343.789 6    -69367.96149  22128986.05549
  20989421.195 7     -7290.730 7     -4432.23449  20989421.52349
 20  5 16  3 28 13.0000000  0  3G01G07G08                            0.000408573
  22065073.203 6   -135637.004 6    -86310.97349  22065074.89149
  22128153.188 6   -119733.621 6    -72788.60949  22128150.53549
  20989364.141 7     -7592.273 7     -4667.20349  20989363.97749
 20  5 16  3 28 14.0000000  0  3G01G07G08                            0.000407465
  22064127.383 6   -140608.480 6    -90184.84449  22064129.03549
  22127317.625 6   -124124.738 6    -76210.25449  22127315.62949
  20989306.477 7     -7895.215 7     -4903.26249  20989306.77349
 20  5 16  3 28 15.0000000  0  3G01G07G08                            0.000406357
  22063181.031 6   -145580.992 6    -94059.52349  22063182.97349
  22126481.969 6   -128516.910 6    -79632.72749  22126479.35949
  20989248.352 7     -8199.309 7     -5140.21949  20989248.36349
 20  5 16  3 28 16.0000000  0  3G01G07G08                            0.000405247
  22062234.563 6   -150554.594 6    -97935.05949  22062236.31349
  22125646.195 6   -132910.105 6    -83055.99249  22125643.37549
  20989190.445 7     -8504.598 7     -5378.10949  20989190.31349
 20  5 16  3 28 17.0000000  0  3G01G07G08                            0.000404135
  22061288.344 6   -155529.230 6   -101811.39849  22061290.11749
  22124810.180 6   -137304.234 6    -86479.98849  22124807.14149
  20989132.391 7     -8810.945 7     -5616.82049  20989132.12549
 20  5 16  3 28 18.0000000  0  3G01G07G08                            0.000403025
  22060341.883 6   -160504.582 6   -105688.30149  22060342.68849
  22123973.758 6   -141699.141 6    -89904.58649  22123970.76249
  20989073.586 7     -9118.168 7     -5856.21549  20989073.74249
 20  5 16  3 28 19.0000000  0  5G01G04G07G08G11                      0.000401911
  22059394.688 6   -165480.629 6   -109565.73849  22059396.21149
  23936153.63314     26058.44514     11521.82856  23936154.64856
  22123136.938 6   -146094.664 6    -93329.66849  22123134.14849
  20989015.500 7     -9426.172 7     -6096.22349  20989015.49249
  20477146.63316    -83830.15216    -46453.35259  20477144.31659
 20  5 16  3 28 20.0000000  0  8G01G04G07G08G11G16G27G30             0.000400799
  22058446.969 6   -170457.320 6   -113443.68449  22058448.81649
  23936322.836 5     26945.902 5     12213.34046  23936323.39846
  22122300.789 6   -150490.750 6    -96755.19149  22122297.69949
  20988956.500 7     -9734.887 7     -6336.77749  20988956.60549
  20476619.555 6    -86599.566 6    -48611.33249  20476617.34449
  23325052.32016     -4123.13716     -2489.10257  23325050.40657
  22682700.03116     34564.12116     22115.04359  22682701.01659
  24719090.57815   -170210.12115    -68463.99257  24719089.65657
 20  5 16  3 28 21.0000000  0  8G01G04G07G08G11G16G27G30             0.000399685
  22057500.375 6   -175434.586 6   -117322.06649  22057501.93449
  23936491.188 4     27832.445 4     12904.15246  23936492.07046
  22121464.164 6   -154887.383 6   -100181.14149  22121461.27349
  20988897.563 7    -10044.273 7     -6577.85949  20988897.62949
  20476092.898 6    -89369.313 6    -50769.57849  20476090.38349
  23325021.992 6     -4281.855 6     -2612.78547  23325020.62147
  22682884.219 6     35535.953 6     22872.30949  22682885.69949
  24718103.648 4   -175393.824 4    -72503.24247  24718103.46547
 20  5 16  3 28 22.0000000  0  8G01G04G07G08G11G16G27G30             0.000398571
  22056552.891 6   -180412.320 6   -121200.81649  22056554.63749
  23936660.086 4     28718.090 4     13594.25846  23936661.02746
  22120627.031 6   -159284.492 6   -103607.46149  22120624.28949
  20988838.633 7    -10354.242 7     -6819.39549  20988838.73049
  20475565.594 6    -92139.359 6    -52928.05949  20475563.31649
  23324991.445 6     -4441.332 6     -2737.05547  23324989.96147
  22683069.102 6     36507.000 6     23628.96549  22683070.29749
  24717117.250 4   -180578.270 4    -76543.04347  24717116.82047
 20  5 16  3 28 23.0000000  0  8G01G04G07G08G11G16G27G30             0.000397457
  22055605.531 6   -185390.453 6   -125079.87949  22055607.12949
  23936828.000 4     29603.000 4     14283.78946  23936829.10246
  22119790.516 6   -163681.957 6   -107034.05149  22119787.66049
  20988779.617 7    -10664.707 7     -7061.31349  20988779.96549
  20475038.305 6    -94909.574 6    -55086.67249  20475035.78549
  23324961.484 6     -4601.418 6     -2861.79747  23324959.41447
  22683253.961 6     37477.316 6     24385.05949  22683255.38749
  24716130.758 4   -185763.301 4    -80583.32847  24716130.02347
 20  5 16  3 28 24.0000000  0  8G01G04G07G08G11G16G27G30             0.000396343
  22054658.172 6   -190368.902 6   -128959.19149  22054659.53549
  23936996.484 4     30487.285 4     14972.84446  23936997.73046
  22118953.359 6   -168079.680 6   -110460.84849  22118950.89149
  20988720.391 7    -10975.555 7     -7303.53549  20988720.85249
  20474511.188 6    -97679.875 6    -57245.34448  20474508.73448
  23324930.992 6     -4762.086 6     -2987.00447  23324928.99247
  22683438.016 6     38447.063 6     25140.69949  22683439.46549
  24715144.297 5   -190948.863 5    -84624.03947  24715143.32447
 20  5 16  3 28 25.0000000  0  8G01G04G07G08G11G16G27G30             0.000395227
  22053711.281 6   -195347.598 6   -132838.69149  22053712.52049
  23937165.031 5     31370.934 5     15661.39546  23937165.60246
  22118116.563 6   -172477.609 6   -113887.81349  22118114.22349
  20988661.148 7    -11286.738 7     -7546.01649  20988661.09849
  20473984.109 6   -100450.168 6    -59404.02048  20473981.63748
  23324900.234 6     -4923.188 6     -3112.54347  23324898.34447
  22683623.086 6     39416.242 6     25895.90249  22683624.42249
  24714156.828 4   -196134.906 4    -88665.11747  24714156.71947
 20  5 16  3 28 26.0000000  0  8G01G04G07G08G11G16G27G30             0.000394112
  22052763.297 6   -200326.438 6   -136718.30949  22052765.05149
  23937333.500 4     32254.035 4     16349.51246  23937333.87546
  22117279.609 6   -176875.645 6   -117314.84849  22117276.98049
  20988601.875 7    -11598.160 7     -7788.68049  20988602.19549
  20473456.805 6   -103220.414 6    -61562.64848  20473454.48048
  23324868.883 6     -5084.723 6     -3238.40647  23324867.15247
  22683807.344 6     40385.000 6     26650.77349  22683808.77049
  24713169.680 4   -201321.301 4    -92706.46947  24713169.49647
 20  5 16  3 28 27.0000000  0  8G01G04G07G08G11G16G27G30             0.000392996
  22051815.672 6   -205305.363 6   -140597.99249  22051817.12949
  23937500.766 4     33136.684 4     17037.29346  23937501.85946
  22116442.633 6   -181273.758 6   -120741.95349  22116439.97349
  20988542.867 7    -11909.809 7     -8031.52749  20988542.78149
  20472930.125 6   -105990.535 6    -63721.18048  20472927.62948
  23324838.688 6     -5246.578 6     -3364.52747  23324836.89847
  22683991.547 6     41353.328 6     27405.31349  22683993.25049
  24712182.344 4   -206508.070 4    -96748.11347  24712182.78547
 20  5 16  3 28 28.0000000  0  8G01G04G07G08G11G16G27G30             0.000391880
  22050868.500 6   -210284.363 6   -144477.73049  22050869.91449
  23937668.914 4     34018.926 4     17724.75846  23937669.93846
  22115605.945 6   -185671.875 6   -124169.05549  22115603.36749
  20988483.242 7    -12221.609 7     -8274.49249  20988483.58249
  20472402.578 6   -108760.496 6    -65879.59048  20472400.10248
  23324807.594 6     -5408.723 6     -3490.87947  23324805.62147
  22684175.398 6     42321.305 6     28159.57449  22684176.95349
  24711195.773 5   -211695.066 5   -100789.92247  24711195.84047
 20  5 16  3 28 29.0000000  0  8G01G04G07G08G11G16G27G30             0.000390764
  22049921.531 6   -215263.348 6   -148357.45349  22049922.54749
  23937836.453 5     34900.809 5     18411.91846  23937837.46146
  22114768.633 6   -190069.973 6   -127596.14149  22114766.78949
  20988423.797 7    -12533.488 7     -8517.50849  20988424.50849
  20471875.656 6   -111530.230 6    -68037.82448  20471873.59048
  23324777.133 6     -5571.129 6     -3617.42647  23324774.98847
  22684359.836 6     43288.980 6     28913.60949  22684360.92249
  24710208.727 5   -216882.297 5   -104831.93047  24710208.63347
 20  5 16  3 28 30.0000000  0  8G01G04G07G08G11G16G27G30             0.000389648
  22048973.148 6   -220242.293 6   -152237.15249  22048974.98449
  23938004.258 5     35782.367 5     19098.83246  23938005.54746
  22113931.609 6   -194467.969 6   -131023.15249  22113929.26249
  20988364.477 7    -12845.430 7     -8760.57849  20988364.82849
  20471348.320 6   -114299.707 6    -70195.85548  20471345.98848
  23324746.156 6     -5733.707 6     -3744.11747  23324743.98447
  22684544.039 6     44256.395 6     29667.44549  22684545.55549
  24709221.898 5   -222069.719 5   -108874.08647  24709221.80947
 20  5 16  3 28 31.0000000  0  8G01G04G07G08G11G16G27G30             0.000388531
  22048026.195 6   -225221.117 6   -156116.74649  22048027.49249
  23938171.258 4     36663.680 4     19785.55546  23938173.12946
  22113094.781 6   -198865.813 6   -134450.04349  22113092.64149
  20988305.414 7    -13157.352 7     -9003.63349  20988305.36749
  20470821.930 6   -117068.859 6    -72353.64148  20470819.28148
  23324715.172 6     -5896.426 6     -3870.91047  23324712.75847
  22684728.195 6     45223.637 6     30421.14149  22684728.98849
  24708234.766 5   -227257.313 5   -112916.38347  24708234.83247
 20  5 16  3 28 32.0000000  0  8G01G04G07G08G11G16G27G30             0.000387415
  22047078.656 6   -230199.789 6   -159996.23449  22047080.32049
  23938339.688 4     37544.844 4     20472.18446  23938340.57846
  22112257.906 6   -203263.480 6   -137876.79749  22112255.92649
  20988245.953 7    -13469.219 7     -9246.64149  20988246.24249
  20470294.711 6   -119837.617 6    -74511.11748  20470292.41848
  23324683.992 6     -6059.250 6     -3997.77746  23324682.00446
  22684912.055 6     46190.734 6     31174.72349  22684913.18849
  24707246.281 5   -232444.957 5   -116958.69947  24707247.59847
 20  5 16  3 28 33.0000000  0  8G01G04G07G08G11G16G27G30             0.000386297
  22046131.219 6   -235178.277 6   -163875.56649  22046132.93049
  23938507.734 2     38425.668 2     21158.55546  23938508.50046
  22111421.383 6   -207660.965 6   -141303.41049  22111418.84449
  20988186.414 7    -13780.996 7     -9489.59049  20988186.84049
  20469768.000 6   -122606.016 6    -76668.31348  20469765.57848
  23324652.867 6     -6222.137 6     -4124.69947  23324650.62947
  22685096.125 6     47157.664 6     31928.17649  22685097.25049
  24706259.344 4   -237632.586 4   -121001.00047  24706260.46547
 20  5 16  3 28 34.0000000  0  8G01G04G07G08G11G16G27G30             0.000385181
  22045183.695 6   -240156.625 6   -167754.79749  22045185.35249
  23938674.547 4     39306.406 4     21844.87546  23938676.40246
  22110584.539 6   -212058.215 6   -144729.83649  22110581.71949
  20988127.273 7    -14092.699 7     -9732.48049  20988127.54749
  20469241.219 6   -125373.996 6    -78825.18448  20469238.93848
  23324621.539 6     -6385.070 6     -4251.66046  23324619.93446
  22685280.273 6     48124.508 6     32681.55949  22685281.57849
  24705272.273 3   -242820.316 3   -125043.37147  24705273.08247
 20  5 16  3 28 35.0000000  0  8G01G04G07G08G11G16G27G30             0.000384064
  22044236.648 6   -245134.664 6   -171633.79749  22044238.08649
  23938842.336 3     40186.973 3     22531.03546  23938843.92646
  22109747.852 6   -216455.133 6   -148156.00449  22109745.63749
  20988068.148 7    -14404.227 7     -9975.22349  20988068.52349
  20468714.656 6   -128141.496 6    -80981.67248  20468712.04348
  23324590.563 6     -6547.992 6     -4378.60547  23324588.86747
  22685464.234 6     49091.367 6     33434.94549  22685464.98849
  24704285.039 3   -248007.980 3   -129085.71147  24704285.87547
 20  5 16  3 28 36.0000000  0  8G01G04G07G08G11G16G27G30             0.000382946
  22043288.984 6   -250112.418 6   -175512.55549  22043290.68449
  23939009.313 3     41067.551 3     23217.18446  23939011.25446
  22108910.938 6   -220851.730 6   -151581.92249  22108908.84449
  20988009.031 7    -14715.559 7    -10217.81649  20988009.45349
  20468187.938 6   -130908.449 6    -83137.73848  20468185.76648
  23324559.703 6     -6710.855 6     -4505.50447  23324557.84447
  22685648.727 6     50058.160 6     34188.28549  22685648.59049
  24703298.203 3   -253195.621 3   -133128.00846  24703298.42646
 20  5 16  3 28 37.0000000  0  8G01G04G07G08G11G16G27G30             0.000381830
  22042342.031 6   -255089.824 6   -179391.04749  22042343.69949
  23939177.117 3     41948.063 3     23903.30146  23939178.69946
  22108074.766 6   -225247.953 6   -155007.55949  22108072.27349
  20987949.688 7    -15026.637 7    -10460.21549  20987950.06649
  20467661.766 6   -133674.902 6    -85293.41448  20467659.54748
  23324528.891 6     -6873.613 6     -4632.30947  23324527.06347
  22685832.289 6     51025.004 6     34941.67649  22685832.89149
  24702310.484 3   -258383.074 3   -137170.15246  24702311.67646
 20  5 16  3 28 38.0000000  0  8G01G04G07G08G11G16G27G30             0.000380713
  22041394.984 6   -260066.926 6   -183269.31349  22041396.34049
  23939344.773 3     42828.555 3     24589.39546  23939346.68046
  22107238.047 6   -229643.809 6   -158432.89549  22107235.80149
  20987890.586 7    -15337.516 7    -10702.46549  20987890.79749
  20467135.188 6   -136440.773 6    -87448.64549  20467133.32049
  23324497.664 6     -7036.285 6     -4759.08647  23324495.62947
  22686015.680 6     51991.867 6     35695.07049  22686016.29749
  24701323.859 4   -263570.449 4   -141212.27746  24701324.56646
 20  5 16  3 28 39.0000000  0  8G01G04G07G08G11G16G27G30             0.000379595
  22040447.938 6   -265043.637 6   -187147.26249  22040449.17649
  23939512.961 2     43709.055 2     25275.50846  23939514.13746
  22106401.602 6   -234039.293 6   -161857.94549  22106399.36349
  20987831.336 7    -15648.125 7    -10944.50049  20987832.23449
  20466609.102 6   -139206.102 6    -89603.44549  20466606.89849
  23324466.430 5     -7198.824 5     -4885.73847  23324464.80947
  22686200.094 6     52958.734 6     36448.46949  22686200.15649
  24700336.203 4   -268757.730 4   -145254.31647  24700337.54347
 20  5 16  3 28 40.0000000  0  8G01G04G07G08G11G16G27G30             0.000378479
  22039501.063 6   -270020.023 6   -191024.95749  22039502.87949
  23939680.805 1     44589.500 1     25961.62146  23939681.91846
  22105565.211 6   -238434.398 6   -165282.70349  22105562.68849
  20987772.500 7    -15958.504 7    -11186.35949  20987772.57049
  20466082.898 6   -141970.820 6    -91757.77348  20466080.60548
  23324435.641 6     -7361.309 6     -5012.36347  23324433.73847
  22686383.602 5     53925.695 5     37201.96549  22686385.51649
  24699348.797 4   -273944.910 4   -149296.27347  24699350.20347
 20  5 16  3 28 41.0000000  0  8G01G04G07G08G11G16G27G30             0.000377361
  22038554.070 6   -274995.988 6   -194902.31649  22038555.98849
  23939848.078 2     45469.918 2     26647.64146  23939849.71146
  22104729.430 6   -242829.027 6   -168707.07049  22104726.78149
  20987713.203 7    -16268.500 7    -11427.91849  20987713.41849
  20465556.930 6   -144734.930 6    -93911.61748  20465554.61748
  23324404.594 6     -7523.594 6     -5138.85547  23324402.81647
  22686567.914 6     54892.801 6     37955.55949  22686569.83249
  24698361.836 4   -279131.844 4   -153338.07047  24698362.94547
 20  5 16  3 28 42.0000000  0  8G01G04G07G08G11G16G27G30             0.000376245
  22037607.008 6   -279971.480 6   -198779.32049  22037609.15249
  23940016.422 2     46350.480 2     27333.78146  23940017.47746
  22103892.789 6   -247223.180 6   -172131.06649  22103890.73449
  20987654.609 7    -16578.148 7    -11669.20749  20987654.77049
  20465031.516 6   -147498.363 6    -96064.94948  20465028.73848
  23324373.938 6     -7685.656 6     -5265.16047  23324372.33647
  22686752.297 6     55860.023 6     38709.23449  22686753.46149
  24697374.023 4   -284318.535 4   -157379.65247  24697376.19947
 20  5 16  3 28 43.0000000  0  8G01G04G07G08G11G16G27G30             0.000375128
  22036660.461 5   -284946.563 5   -202656.00049  22036662.51649
  23940183.258 4     47231.113 4     28020.00445  23940184.88345
  22103056.602 6   -251616.844 6   -175554.69149  22103054.58649
  20987595.734 7    -16887.477 7    -11910.23449  20987595.87549
  20464505.563 6   -150261.133 6    -98217.75048  20464502.71548
  23324342.617 6     -7847.586 6     -5391.35247  23324341.38747
  22686936.508 6     56827.313 6     39462.95749  22686937.23449
  24696387.359 4   -289505.125 4   -161421.13347  24696388.60547
 20  5 16  3 28 44.0000000  0  8G01G04G07G08G11G16G27G30             0.000374012
  22035713.836 6   -289921.164 6   -206532.30949  22035715.81649
  23940350.680 4     48111.914 4     28706.27045  23940352.98845
  22102220.578 6   -256009.992 6   -178977.93449  22102218.74249
  20987536.891 7    -17196.410 7    -12150.94949  20987537.14849
  20463979.734 6   -153023.195 6   -100370.00848  20463977.43848
  23324312.109 6     -8009.184 6     -5517.26647  23324310.12547
  22687120.461 6     57794.906 6     40216.93049  22687121.14149
  24695400.422 4   -294691.363 4   -165462.31347  24695402.61347
 20  5 16  3 28 45.0000000  0  8G01G04G07G08G11G16G27G30             0.000372894
  22034767.156 6   -294895.250 6   -210408.21949  22034768.98049
  23940517.734 4     48992.766 4     29392.57445  23940520.53545
  22101384.641 6   -260402.598 6   -182400.75049  22101382.53149
  20987478.266 7    -17504.973 7    -12391.39149  20987478.39849
  20463454.461 6   -155784.578 6   -102521.73848  20463451.71548
  23324281.438 6     -8170.566 6     -5643.01247  23324280.08247
  22687304.664 6     58762.637 6     40971.00049  22687305.13749
  24694413.516 4   -299877.395 4   -169503.36747  24694415.14147
 20  5 16  3 28 46.0000000  0  8G01G04G07G08G11G16G27G30             0.000371778
  22033820.867 5   -299868.836 5   -214283.74249  22033822.87949
  23940686.156 4     49873.789 4     30079.03545  23940688.22345
  22100549.250 6   -264794.676 6   -185823.15249  22100547.07849
  20987419.406 7    -17813.121 7    -12631.50049  20987419.69549
  20462929.156 6   -158545.234 6   -104672.89848  20462926.38348
  23324250.859 5     -8331.707 5     -5768.57047  23324249.37547
  22687488.781 6     59730.523 6     41725.19549  22687488.26249
  24693426.953 4   -305063.145 4   -173544.22347  24693428.80547
 20  5 16  3 28 47.0000000  0  8G01G04G07G08G11G16G27G30             0.000370661
  22032874.484 5   -304841.934 5   -218158.88349  22032876.08249
  23940853.484 5     50754.922 5     30765.61745  23940855.35545
  22099713.367 6   -269186.215 6   -189245.14849  22099710.88349
  20987360.883 7    -18120.879 7    -12871.30149  20987361.29349
  20462404.047 6   -161305.160 6   -106823.49648  20462401.29348
  23324219.953 5     -8492.586 5     -5893.90247  23324218.87547
  22687673.242 6     60698.645 6     42479.59049  22687673.01249
  24692440.945 4   -310248.617 4   -177584.81346  24692441.95346
 20  5 16  3 28 48.0000000  0  8G01G04G07G08G11G16G27G30             0.000369545
  22031928.578 5   -309814.539 5   -222033.63749  22031929.87549
  23941021.359 5     51636.203 5     31452.33245  23941023.34045
  22098877.602 6   -273577.219 6   -192666.71949  22098875.36749
  20987302.484 7    -18428.215 7    -13110.77749  20987302.70749
  20461878.922 6   -164064.383 6   -108973.54348  20461876.02048
  23324189.344 5     -8653.211 5     -6019.05547  23324187.64847
  22687857.594 6     61666.965 6     43234.13749  22687856.90649
  24691453.695 4   -315433.801 4   -181625.17646  24691455.09846
 20  5 16  3 28 49.0000000  0  8G01G04G07G08G11G16G27G30             0.000368429
  22030982.313 5   -314786.613 5   -225907.98048  22030983.59448
  23941188.992 5     52517.656 5     32139.18445  23941191.07845
  22098042.289 6   -277967.641 6   -196087.82849  22098040.02049
  20987244.109 7    -18735.137 7    -13349.93849  20987244.48449
  20461353.789 6   -166822.848 6   -111122.99648  20461351.00048
  23324158.859 5     -8813.523 5     -6143.97346  23324157.40246
  22688041.820 6     62635.523 6     43988.86349  22688041.53549
  24690466.813 3   -320618.676 3   -185665.31646  24690468.44546
 20  5 16  3 28 50.0000000  0  8G01G04G07G08G11G16G27G30             0.000367311
  22030035.805 5   -319758.074 5   -229781.84448  22030037.39548
  23941357.383 5     53399.344 5     32826.25045  23941359.03145
  22097206.758 6   -282357.434 6   -199508.44149  22097204.71549
  20987185.984 7    -19041.551 7    -13588.70749  20987186.05949
  20460829.133 6   -169580.488 6   -113271.80548  20460826.37548
  23324127.992 5     -8973.480 5     -6268.62146  23324127.23046
  22688226.023 6     63604.355 6     44743.79749  22688226.03149
  24689480.539 3   -325803.211 3   -189705.19146  24689481.66046
 20  5 16  3 28 51.0000000  0  8G01G04G07G08G11G16G27G30             0.000366198
  22029089.719 5   -324728.961 5   -233655.25848  22029091.78548
  23941524.594 5     54281.203 5     33513.40645  23941526.50045
  22096371.438 6   -286746.648 6   -202928.60949  22096369.43049
  20987127.578 7    -19347.496 7    -13827.10549  20987127.95349
  20460304.477 6   -172337.391 6   -115420.03948  20460302.00048
  23324098.594 5     -9133.145 5     -6393.03946  23324096.78146
  22688410.422 6     64573.461 6     45498.94149  22688409.78549
  24688494.398 4   -330987.391 4   -193744.79346  24688495.01246
 20  5 16  3 28 52.0000000  0  8G01G04G07G08G11G16G27G30             0.000365082
  22028143.938 5   -329699.277 5   -237528.22748  22028145.59048
  23941693.148 5     55163.270 5     34200.71545  23941694.69545
  22095536.141 6   -291135.211 6   -206348.26649  22095534.33649
  20987069.289 7    -19652.945 7    -14065.11749  20987069.66449
  20459780.180 6   -175093.438 6   -117567.60948  20459777.36348
  23324068.563 5     -9292.445 5     -6517.17246  23324066.05546
  22688594.734 6     65542.840 6     46254.30549  22688593.95349
  24687507.445 3   -336171.219 3   -197784.12946  24687509.02046
 20  5 16  3 28 53.0000000  0  8G01G04G07G08G11G16G27G30             0.000363966
  22027197.883 4   -334669.012 4   -241400.74648  22027199.60248
  23941860.680 4     56045.578 4     34888.22745  23941862.95345
  22094701.406 6   -295523.184 6   -209767.46949  22094699.56349
  20987011.078 7    -19957.930 7    -14302.76249  20987011.31649
  20459255.766 6   -177848.715 6   -119714.57848  20459252.75848
  23324037.750 5     -9451.418 5     -6641.03946  23324035.75046
  22688779.344 6     66512.480 6     47009.86749  22688778.51249
  24686521.375 3   -341354.699 3   -201823.21146  24686522.70746
 20  5 16  3 28 54.0000000  0  8G01G04G07G08G11G16G27G30             0.000362850
  22026251.938 5   -339638.133 5   -245272.78148  22026254.20348
  23942028.289 5     56928.156 5     35575.93045  23942030.86745
  22093866.641 6   -299910.488 6   -213186.14849  22093864.76649
  20986952.945 7    -20262.398 7    -14540.01249  20986953.99649
  20458731.672 6   -180603.148 6   -121860.89148  20458728.52348
  23324007.695 5     -9610.008 5     -6764.62146  23324005.85946
  22688963.805 6     67482.453 6     47765.68449  22688962.93449
  24685534.898 3   -346537.828 3   -205862.02746  24685536.55146
 20  5 16  3 28 55.0000000  0  8G01G04G07G08G11G16G27G30             0.000361734
  22025307.477 5   -344606.676 5   -249144.37948  22025308.90248
  23942196.711 5     57810.887 5     36263.75045  23942198.95745
  22093031.773 6   -304297.172 6   -216604.33649  22093029.68449
  20986895.516 7    -20566.406 7    -14776.90649  20986895.96949
  20458208.039 6   -183356.805 6   -124006.59848  20458204.67248
  23323978.195 6     -9768.254 6     -6887.93046  23323975.88346
  22689148.477 6     68452.707 6     48521.71949  22689147.23849
  24684549.258 4   -351720.586 4   -209900.56346  24684550.31646
 20  5 16  3 28 56.0000000  0  8G01G04G07G08G11G16G27G30             0.000360619
  22024362.547 6   -349574.773 6   -253015.62149  22024363.82049
  23942365.172 3     58693.875 3     36951.81345  23942366.92245
  22092197.664 6   -308683.313 6   -220022.10549  22092194.92649
  20986837.641 7    -20869.969 7    -15013.44949  20986838.05149
  20457684.281 6   -186109.727 6   -126151.73448  20457681.12948
  23323948.078 6     -9926.141 6     -7010.96547  23323946.09447
  22689333.227 6     69423.219 6     49277.94149  22689332.67249
  24683562.508 4   -356903.004 4   -213938.84847  24683564.16847
 20  5 16  3 28 57.0000000  0  8G01G04G07G08G11G16G27G30             0.000359505
  22023417.398 6   -354542.199 6   -256886.36749  22023418.68449
  23942532.844 3     59577.035 3     37640.04345  23942534.65645
  22091362.727 6   -313068.805 6   -223439.37949  22091361.34049
  20986780.164 7    -21173.023 7    -15249.61749  20986780.66049
  20457160.523 6   -188861.785 6   -128296.19948  20457157.51248
  23323918.039 6    -10083.793 6     -7133.82446  23323915.86346
  22689517.063 6     70393.953 6     50034.35249  22689518.04749
  24682576.586 4   -362085.109 4   -217976.88347  24682578.25447
 20  5 16  3 28 58.0000000  0  8G01G04G07G08G11G16G27G30             0.000358389
  22022472.039 6   -359508.938 6   -260756.57449  22022473.72749
  23942700.500 5     60460.453 5     38328.44545  23942702.48445
  22090528.500 6   -317453.617 6   -226856.12549  22090526.49249
  20986722.547 7    -21475.504 7    -15485.32849  20986723.25449
  20456636.492 6   -191613.020 6   -130440.02348  20456633.71548
  23323888.211 5    -10240.973 5     -7256.30147  23323885.67247
  22689702.211 6     71365.063 6     50791.06649  22689702.58649
  24681591.117 3   -367266.762 3   -222014.53947  24681592.07447
 20  5 16  3 28 59.0000000  0  8G01G04G07G08G11G16G27G30             0.000357275
  22021527.344 6   -364475.117 6   -264626.32049  22021528.38749
  23942868.828 5     61344.094 5     39016.97746  23942871.09446
  22089693.938 6   -321837.781 6   -230272.35949  22089692.17249
  20986664.766 7    -21777.531 7    -15720.67249  20986665.37149
  20456112.906 6   -194363.418 6   -132583.19148  20456110.75848
  23323858.563 6    -10397.820 6     -7378.51647  23323856.10947
  22689887.203 6     72336.445 6     51547.98849  22689887.65249
  24680605.070 4   -372448.086 4   -226051.91447  24680606.07847
 20  5 16  3 29  0.0000000  0  8G01G04G07G08G11G16G27G30             0.000356161
  22020581.602 6   -369440.734 6   -268495.63349  22020583.09449
  23943036.641 5     62227.918 5     39705.64546  23943038.95346
  22088860.063 6   -326221.344 6   -233688.12149  22088858.46549
  20986607.703 7    -22079.086 7    -15955.64849  20986608.22349
  20455590.266 6   -197113.055 6   -134725.76248  20455587.53548
  23323828.352 6    -10554.367 6     -7500.50447  23323826.26247
  22690072.258 6     73308.102 6     52305.12149  22690072.75449
  24679618.984 3   -377629.063 3   -230089.03547  24679620.29747
 20  5 16  3 29  1.0000000  0  8G01G04G07G08G11G16G27G30             0.000355045
  22019637.164 6   -374405.703 6   -272364.43449  22019638.47349
  23943205.484 4     63111.984 4     40394.51646  23943207.33646
  22088025.906 6   -330604.262 6   -237103.38749  22088023.78949
  20986550.625 7    -22380.145 7    -16190.23849  20986550.79349
  20455066.375 6   -199861.844 6   -136867.68048  20455064.39548
  23323798.883 6    -10710.520 6     -7622.18047  23323796.37147
  22690257.523 6     74280.063 6     53062.49649  22690257.78149
  24678632.922 3   -382809.660 3   -234125.86347  24678634.46947
 20  5 16  3 29  2.0000000  0  8G01G04G07G08G11G16G27G30             0.000353931
  22018692.211 6   -379369.984 6   -276232.69549  22018694.12949
  23943373.125 4     63996.379 4     41083.64846  23943375.53946
  22087192.367 6   -334986.441 6   -240518.07449  22087189.84449
  20986493.297 7    -22680.629 7    -16424.38349  20986493.62949
  20454544.203 6   -202609.715 6   -139008.87148  20454541.53948
  23323769.336 5    -10866.230 5     -7743.51247  23323766.93047
  22690442.781 6     75252.402 6     53820.16449  22690443.43449
  24677647.391 3   -387989.816 3   -238162.35947  24677648.36347
 20  5 16  3 29  3.0000000  0  8G01G04G07G08G11G16G27G30             0.000352818
  22017747.461 6   -384333.629 6   -280100.46949  22017749.66849
  23943541.594 4     64881.047 4     41772.99646  23943543.87546
  22086358.422 6   -339367.953 6   -243932.23449  22086356.21949
  20986435.891 7    -22980.523 7    -16658.06649  20986436.45349
  20454020.844 6   -205356.738 6   -141149.41048  20454018.36748
  23323739.484 6    -11021.527 6     -7864.52346  23323737.19146
  22690627.883 6     76225.098 6     54578.10549  22690627.99649
  24676661.781 3   -393169.484 3   -242198.46947  24676662.65647
 20  5 16  3 29  4.0000000  0  8G01G04G07G08G11G16G27G30             0.000351704
  22016803.656 6   -389296.656 6   -283967.76249  22016805.32449
  23943710.016 4     65765.965 4     42462.53546  23943712.45746
  22085524.539 6   -343748.816 6   -247345.89149  22085522.44549
  20986378.938 7    -23279.914 7    -16891.35249  20986379.53149
  20453498.578 6   -208102.949 6   -143289.31648  20453496.19148
  23323710.148 6    -11176.484 6     -7985.26247  23323708.19547
  22690813.039 6     77198.102 6     55336.28949  22690812.93049
  24675676.328 4   -398348.809 4   -246234.31347  24675677.29747
 20  5 16  3 29  5.0000000  0  8G01G04G07G08G11G16G27G30             0.000350590
  22015859.227 6   -394259.074 6   -287834.58249  22015860.99649
  23943878.578 5     66651.090 5     43152.24446  23943881.17246
  22084691.125 6   -348129.020 6   -250759.03549  22084688.75849
  20986322.148 7    -23578.832 7    -17124.28149  20986322.48049
  20452976.258 6   -210848.316 6   -145428.56348  20452973.45348
  23323680.844 6    -11331.055 6     -8105.70747  23323678.48447
  22690998.172 6     78171.398 6     56094.69549  22690998.33249
  24674691.320 4   -403527.762 4   -250269.85247  24674691.53547
 20  5 16  3 29  6.0000000  0  8G01G04G07G08G11G16G27G30             0.000349478
  22014914.719 6   -399220.891 6   -291700.93849  22014916.77349
  23944046.891 5     67536.500 5     43842.17646  23944048.95746
  22083857.594 6   -352508.570 6   -254171.67649  22083855.29749
  20986265.359 7    -23877.219 7    -17356.78949  20986265.76249
  20452454.195 6   -213592.859 6   -147567.17248  20452451.64848
  23323651.898 6    -11485.258 6     -8225.85947  23323649.21947
  22691183.398 6     79145.012 6     56853.35549  22691183.28149
  24673705.977 4   -408706.316 4   -254305.09847  24673705.73847
 20  5 16  3 29  7.0000000  0  8G01G04G07G08G11G16G27G30             0.000348364
  22013970.344 6   -404182.027 6   -295566.75849  22013972.60949
  23944215.859 5     68422.227 5     44532.34446  23944218.02346
  22083024.367 6   -356887.410 6   -257583.76249  22083022.07449
  20986208.820 7    -24175.051 7    -17588.86749  20986208.89549
  20451931.727 6   -216336.500 6   -149705.07048  20451929.21948
  23323622.641 6    -11639.043 6     -8345.68847  23323620.03147
  22691368.781 6     80118.973 6     57612.28549  22691368.63349
  24672720.563 4   -413884.441 4   -258340.00847  24672720.55147
 20  5 16  3 29  8.0000000  0  8G01G04G07G08G11G16G27G30             0.000347250
  22013027.109 6   -409142.512 6   -299432.07049  22013029.17649
  23944383.789 4     69308.148 4     45222.67246  23944386.54746
  22082191.289 6   -361265.594 6   -260995.33249  22082188.97749
  20986152.289 7    -24472.344 7    -17820.52349  20986152.48449
  20451409.680 6   -219079.313 6   -151842.33249  20451407.64549
  23323592.945 6    -11792.434 6     -8465.21947  23323590.84447
  22691553.742 6     81093.246 6     58371.46149  22691553.97749
  24671735.313 4   -419062.168 4   -262374.60547  24671735.58647
 20  5 16  3 29  9.0000000  0  8G01G04G07G08G11G16G27G30             0.000346138
  22012083.055 6   -414102.391 6   -303296.91049  22012084.61749
  23944552.867 5     70194.344 5     45913.20746  23944554.68846
  22081358.188 6   -365643.102 6   -264406.37949  22081355.84849
  20986095.789 7    -24769.090 7    -18051.75449  20986096.19149
  20450887.852 6   -221821.238 6   -153978.89848  20450885.46548
  23323563.734 6    -11945.426 6     -8584.42647  23323561.71947
  22691739.453 6     82067.902 6     59130.93049  22691739.30549
  24670749.648 4   -424239.445 4   -266408.85947  24670750.13747
 20  5 16  3 29 10.0000000  0  8G01G04G07G08G11G16G27G30             0.000345026
  22011138.453 6   -419061.559 6   -307161.19549  22011141.51249
  23944721.836 5     71080.879 5     46604.00846  23944723.55546
  22080525.500 6   -370019.906 6   -267816.87949  22080523.00849
  20986039.547 7    -25065.273 7    -18282.54349  20986039.53549
  20450366.570 6   -224562.324 6   -156114.80148  20450364.38348
  23323534.719 6    -12098.004 6     -8703.32047  23323532.78147
  22691925.289 6     83042.859 6     59890.62949  22691924.94549
  24669764.813 4   -429416.320 4   -270442.79747  24669765.00447
 20  5 16  3 29 11.0000000  0  8G01G04G07G08G11G16G27G30             0.000343912
  22010194.984 6   -424020.105 6   -311024.99649  22010197.60249
  23944890.711 4     71967.625 4     47294.98446  23944892.39146
  22079692.891 6   -374396.031 6   -271226.84049  22079690.09049
  20985983.141 7    -25360.914 7    -18512.91849  20985983.33649
  20449844.984 6   -227302.516 6   -158250.02048  20449842.56348
  23323505.734 6    -12250.176 6     -8821.90647  23323503.96947
  22692110.422 6     84018.191 6     60650.63349  22692110.73049
  24668780.336 4   -434592.754 4   -274476.38347  24668780.02347
 20  5 16  3 29 12.0000000  0  8G01G04G07G08G11G16G27G30             0.000342800
  22009251.703 6   -428978.059 6   -314888.34049  22009254.31349
  23945059.016 4     72854.656 4     47986.16846  23945061.34046
  22078859.984 6   -378771.480 6   -274636.27749  22078857.48849
  20985926.953 7    -25656.027 7    -18742.88349  20985927.23049
  20449323.945 6   -230041.887 6   -160384.59049  20449321.41449
  23323476.734 6    -12401.984 6     -8940.20347  23323475.38347
  22692296.180 6     84993.805 6     61410.84849  22692296.08249
  24667795.188 4   -439768.863 4   -278509.72347  24667795.02747
 20  5 16  3 29 13.0000000  0  8G01G04G07G08G11G16G27G30             0.000341688
  22008308.898 6   -433935.262 6   -318751.09449  22008311.48849
  23945228.063 4     73741.996 4     48677.60246  23945230.02046
  22078027.844 6   -383146.207 6   -278045.15249  22078025.31349
  20985870.820 7    -25950.566 7    -18972.39149  20985870.91049
  20448803.016 6   -232780.309 6   -162518.43048  20448800.07448
  23323448.406 6    -12553.316 6     -9058.12947  23323446.35247
  22692482.180 6     85969.844 6     62171.39849  22692482.21949
  24666810.859 4   -444944.445 4   -282542.64547  24666810.04747
 20  5 16  3 29 14.0000000  0  8G01G04G07G08G11G16G27G30             0.000340576
  22007365.289 6   -438891.875 6   -322613.38349  22007367.95349
  23945397.602 4     74629.594 4     49369.21946  23945398.76246
  22077195.445 6   -387520.297 6   -281453.53549  22077193.21149
  20985814.445 7    -26244.605 7    -19201.51649  20985814.74649
  20448282.094 6   -235517.969 6   -164651.66849  20448279.43049
  23323419.773 6    -12704.305 6     -9175.77747  23323417.46547
  22692667.625 6     86946.156 6     62932.15649  22692667.46549
  24665825.570 3   -450119.684 3   -286575.29346  24665825.12146
 20  5 16  3 29 15.0000000  0  8G01G04G07G08G11G16G27G30             0.000339464
  22006422.078 6   -443847.879 6   -326475.19949  22006424.84049
  23945565.883 4     75517.422 4     50061.02746  23945568.04746
  22076362.984 6   -391893.711 6   -284861.39849  22076360.64549
  20985758.711 7    -26538.125 7    -19430.23449  20985759.11749
  20447761.070 6   -238254.746 6   -166784.22349  20447758.49649
  23323390.852 6    -12854.922 6     -9293.13747  23323389.02747
  22692853.555 6     87922.797 6     63693.17249  22692853.19149
  24664841.164 4   -455294.469 4   -290607.59046  24664840.23446
 20  5 16  3 29 16.0000000  0  8G01G04G07G08G11G16G27G30             0.000338352
  22005479.117 6   -448803.176 6   -330336.46949  22005481.52049
  23945734.531 5     76405.535 5     50753.06346  23945736.68846
  22075531.289 6   -396266.410 6   -288268.69949  22075528.63349
  20985702.914 7    -26831.059 7    -19658.49249  20985703.17649
  20447240.328 6   -240990.652 6   -168916.09849  20447237.81349
  23323362.344 6    -13005.082 6     -9410.14847  23323360.37547
  22693039.961 6     88899.805 6     64454.48049  22693038.83649
  24663855.992 3   -460468.816 3   -294639.54746  24663856.11746
 20  5 16  3 29 17.0000000  0  8G01G04G07G08G11G16G27G30             0.000337242
  22004536.398 6   -453757.852 6   -334197.25449  22004539.23049
  23945903.914 4     77293.941 4     51445.32446  23945905.77346
  22074698.602 6   -400638.445 6   -291675.48049  22074696.35549
  20985647.602 7    -27123.484 7    -19886.35549  20985648.03149
  20446719.883 6   -243725.688 6   -171047.29349  20446717.62949
  23323333.547 6    -13154.840 6     -9526.84447  23323331.72747
  22693225.609 6     89877.152 6     65216.04349  22693225.42249
  24662871.344 4   -465642.750 4   -298671.16846  24662871.24246
 20  5 16  3 29 18.0000000  0  8G01G04G07G08G11G16G27G30             0.000336130
  22003593.250 6   -458711.910 6   -338057.55949  22003596.21149
  23946073.266 5     78182.555 5     52137.75846  23946075.79346
  22073867.063 6   -405009.832 6   -295081.76249  22073864.53549
  20985591.961 7    -27415.398 7    -20113.82049  20985592.07049
  20446199.531 6   -246459.910 6   -173177.86349  20446197.20749
  23323305.305 6    -13304.266 6     -9643.28547  23323303.47747
  22693411.813 6     90854.762 6     65977.81349  22693411.65249
  24661886.813 4   -470816.363 4   -302702.53547  24661886.42247
 20  5 16  3 29 19.0000000  0  8G01G04G07G08G11G16G27G30             0.000335020
  22002650.938 6   -463665.398 6   -341917.42249  22002653.79349
  23946241.742 5     79071.371 5     52830.35246  23946244.04346
  22073035.594 6   -409380.613 6   -298487.57049  22073032.99249
  20985536.414 7    -27706.840 7    -20340.91849  20985536.84449
  20445679.484 6   -249193.352 6   -175307.81349  20445677.04749
  23323277.133 6    -13453.336 6     -9759.44547  23323275.57447
  22693597.695 6     91832.664 6     66739.81649  22693597.69949
  24660902.344 4   -475989.578 4   -306733.60247  24660902.55547
 20  5 16  3 29 20.0000000  0  8G01G04G07G08G11G16G27G30             0.000333908
  22001708.539 6   -468618.238 6   -345776.77349  22001711.19149
  23946411.180 4     79960.504 4     53523.17246  23946413.48846
  22072203.953 6   -413750.695 6   -301892.83249  22072201.05149
  20985480.766 7    -27997.703 7    -20567.56649  20985481.24249
  20445159.742 6   -251925.887 6   -177437.06349  20445156.89549
  23323248.719 6    -13601.984 6     -9875.27747  23323247.02047
  22693783.664 6     92810.926 6     67502.10249  22693783.72349
  24659918.195 4   -481162.367 4   -310764.33247  24659917.72347
 20  5 16  3 29 21.0000000  0  8G01G04G07G08G11G16G27G30             0.000332798
  22000766.211 6   -473570.434 6   -349635.62549  22000768.86749
  23946580.320 4     80849.875 4     54216.18046  23946582.45746
  22071372.523 6   -418120.090 6   -305297.55949  22071369.69149
  20985425.875 7    -28288.047 7    -20793.80549  20985426.02349
  20444639.844 6   -254657.586 6   -179565.65648  20444637.32848
  23323220.742 6    -13750.273 6     -9990.82847  23323218.69947
  22693969.938 6     93789.508 6     68264.63349  22693970.39549
  24658933.359 5   -486334.754 5   -314794.76247  24658933.51247
 20  5 16  3 29 22.0000000  0  8G01G04G07G08G11G16G27G30             0.000331688
  21999824.063 6   -478521.941 6   -353493.94149  21999826.59049
  23946749.758 4     81739.516 4     54909.39846  23946751.96546
  22070540.922 6   -422488.816 6   -308701.76249  22070538.39849
  20985370.391 7    -28577.863 7    -21019.64149  20985371.05549
  20444120.023 6   -257388.434 6   -181693.59849  20444117.73049
  23323192.086 6    -13898.148 6    -10106.05547  23323190.58247
  22694156.531 6     94768.422 6     69027.41849  22694156.46549
  24657949.117 4   -491506.723 4   -318824.86747  24657949.30947
 20  5 16  3 29 23.0000000  0  8G01G04G07G08G11G16G27G30             0.000330578
  21998882.484 6   -483472.805 6   -357351.75849  21998884.27349
  23946918.641 5     82629.488 5     55602.89146  23946921.21546
  22069709.641 6   -426856.789 6   -312105.37549  22069707.26649
  20985315.188 7    -28867.059 7    -21244.98849  20985315.46549
  20443600.734 6   -260118.348 6   -183820.80549  20443597.97749
  23323164.156 6    -14045.578 6    -10220.94547  23323162.58647
  22694342.898 6     95747.742 6     69790.52049  22694342.84849
  24656965.219 4   -496678.238 4   -322854.61347  24656965.56647
 20  5 16  3 29 24.0000000  0  8G01G04G07G08G11G16G27G30             0.000329468
  21997940.109 6   -488423.027 6   -361209.07049  21997942.41449
  23947088.734 5     83519.688 5     56296.53546  23947090.63346
  22068878.820 6   -431224.133 6   -315508.49649  22068876.04749
  20985260.383 6    -29155.727 6    -21469.92249  20985261.24649
  20443080.844 6   -262847.445 6   -185947.37149  20443078.57449
  23323136.141 6    -14192.602 6    -10335.50847  23323134.55947
  22694529.148 6     96727.348 6     70553.85249  22694529.10249
  24655981.031 4   -501849.355 4   -326884.05547  24655981.29747
 20  5 16  3 29 25.0000000  0  8G01G04G07G08G11G16G27G30             0.000328358
  21996998.203 6   -493372.684 6   -365065.94949  21997000.27349
  23947258.055 4     84410.090 4     56990.34446  23947260.11346
  22068047.789 6   -435590.848 6   -318911.13349  22068045.18049
  20985205.938 7    -29443.969 7    -21694.52749  20985206.29349
  20442561.992 6   -265575.770 6   -188073.33649  20442559.07449
  23323108.242 6    -14339.352 6    -10449.85247  23323106.57447
  22694715.703 6     97707.223 6     71317.39149  22694715.39149
  24654997.453 4   -507020.160 4   -330913.26247  24654997.71947
 20  5 16  3 29 26.0000000  0  8G01G04G07G08G11G16G27G30             0.000327248
  21996056.188 6   -498321.789 6   -368922.39549  21996058.85249
  23947427.094 5     85300.688 5     57684.32046  23947429.21946
  22067217.031 6   -439956.953 6   -322313.29349  22067214.54349
  20985151.148 6    -29731.734 6    -21918.76249  20985151.28949
  20442043.008 6   -268303.293 6   -190198.67649  20442040.46149
  23323080.367 6    -14485.742 6    -10563.92247  23323078.39147
  22694901.766 6     98687.348 6     72081.12949  22694901.78149
  24654012.984 4   -512190.578 4   -334942.15247  24654013.02747
 20  5 16  3 29 27.0000000  0  8G01G04G07G08G11G16G27G30             0.000326138
  21995114.648 6   -503270.250 6   -372778.33249  21995117.15649
  23947596.953 4     86191.527 4     58378.48046  23947599.17646
  22066386.180 6   -444322.422 6   -325714.96549  22066383.52749
  20985096.359 6    -30018.988 6    -22142.59449  20985096.66449
  20441523.922 6   -271029.988 6   -192323.37549  20441521.24249
  23323052.859 6    -14631.781 6    -10677.71947  23323050.99647
  22695088.531 6     99667.766 6     72845.09049  22695088.66049
  24653029.000 4   -517360.656 4   -338970.78947  24653029.46147
 20  5 16  3 29 28.0000000  0  8G01G04G07G08G11G16G27G30             0.000325027
  21994173.273 6   -508218.109 6   -376633.80949  21994175.49649
  23947766.609 4     87082.578 4     59072.81346  23947768.77746
  22065556.070 6   -448687.262 6   -329116.14549  22065553.07849
  20985041.945 7    -30305.793 7    -22366.07049  20985042.39149
  20441005.133 6   -273755.875 6   -194447.44549  20441002.92649
  23323024.758 6    -14777.453 6    -10791.23047  23323023.09447
  22695275.164 6    100648.508 6     73609.30549  22695275.62149
  24652045.695 4   -522530.328 4   -342999.10547  24652046.00447
 20  5 16  3 29 29.0000000  0  8G01G04G07G08G11G16G27G30             0.000323919
  21993232.523 6   -513165.316 6   -380488.77049  21993234.33649
  23947936.336 4     87973.887 4     59767.32846  23947938.12546
  22064725.336 6   -453051.406 6   -332516.78549  22064722.74649
  20984987.289 6    -30592.039 6    -22589.12149  20984987.87549
  20440486.813 6   -276480.891 6   -196570.83249  20440484.40649
  23322997.922 6    -14922.719 6    -10904.43847  23322995.16047
  22695461.781 6    101629.566 6     74373.75449  22695461.91049
  24651061.758 4   -527699.563 4   -347027.09047  24651062.20747
 20  5 16  3 29 30.0000000  0  8G01G04G07G08G11G16G27G30             0.000322809
  21992291.102 6   -518111.824 6   -384343.18849  21992292.84449
  23948105.797 4     88865.543 4     60462.12146  23948107.85546
  22063894.930 6   -457414.809 6   -335916.83649  22063892.59049
  20984932.891 6    -30877.676 6    -22811.69949  20984933.27049
  20439968.250 6   -279204.992 6   -198693.51249  20439965.66049
  23322969.984 6    -15067.535 6    -11017.28547  23322967.54347
  22695648.734 6    102611.012 6     75138.51649  22695648.82849
  24650078.172 4   -532868.363 4   -351054.71147  24650079.10247
 20  5 16  3 29 31.0000000  0  8G01G04G07G08G11G16G27G30             0.000321701
  21991349.391 6   -523057.703 6   -388197.11749  21991351.67249
  23948275.820 5     89757.477 5     61157.12946  23948277.55146
  22063064.883 6   -461777.551 6   -339316.36749  22063062.29749
  20984878.758 7    -31162.797 7    -23033.87949  20984879.10949
  20439450.141 6   -281928.266 6   -200815.54349  20439447.51249
  23322942.406 6    -15211.969 6    -11129.82847  23322940.31647
  22695835.867 6    103592.820 6     75903.55949  22695835.44549
  24649094.734 4   -538036.738 4   -355082.01247  24649095.01247
 20  5 16  3 29 32.0000000  0  8G01G04G07G08G11G16G27G30             0.000320593
  21990408.594 6   -528002.977 6   -392050.58249  21990410.22749
  23948446.070 4     90649.551 4     61852.25046  23948447.84446
  22062234.750 6   -466139.676 6   -342715.42249  22062232.17649
  20984824.453 7    -31447.449 7    -23255.68449  20984824.80949
  20438931.930 6   -284650.723 6   -202936.93849  20438929.51649
  23322914.633 6    -15356.055 6    -11242.11347  23322912.54747
  22696022.656 6    104574.848 6     76668.77049  22696022.08249
  24648110.750 4   -543204.750 4   -359109.01647  24648111.20347
 20  5 16  3 29 33.0000000  0  8G01G04G07G08G11G16G27G30             0.000319483
  21989467.586 6   -532947.715 6   -395903.62549  21989469.60549
  23948615.336 5     91541.867 5     62547.54746  23948616.96546
  22061404.633 6   -470501.180 6   -346113.98449  22061402.07449
  20984770.281 7    -31731.613 7    -23477.10949  20984770.82049
  20438414.250 6   -287372.383 6   -205057.71949  20438411.41449
  23322887.586 6    -15499.813 6    -11354.12947  23322885.42647
  22696209.383 6    105557.160 6     77434.21149  22696209.46949
  24647127.578 5   -548372.465 5   -363135.78947  24647128.18447
 20  5 16  3 29 34.0000000  0  8G01G04G07G08G11G16G27G30             0.000318375
  21988526.547 6   -537891.770 6   -399756.13349  21988528.85549
  23948785.234 5     92434.426 5     63243.04746  23948786.78546
  22060574.797 6   -474861.992 6   -349512.02349  22060572.03949
  20984716.234 7    -32015.238 7    -23698.11749  20984717.05949
  20437896.313 6   -290093.203 6   -207177.83248  20437893.99248
  23322860.102 6    -15643.164 6    -11465.82447  23322857.87547
  22696396.352 6    106539.816 6     78199.92249  22696396.34449
  24646143.391 4   -553539.707 4   -367162.19947  24646144.41447
 20  5 16  3 29 35.0000000  0  8G01G04G07G08G11G16G27G30             0.000317266
  21987585.961 6   -542835.199 6   -403608.15249  21987588.19149
  23948954.453 5     93327.281 5     63938.78146  23948956.44546
  22059745.203 6   -479222.145 6   -352909.53949  22059742.64849
  20984662.383 7    -32298.316 7    -23918.69549  20984663.23449
  20437378.844 6   -292813.141 6   -209297.26649  20437376.09849
  23322832.602 6    -15786.125 6    -11577.21547  23322830.71147
  22696583.656 6    107522.789 6     78965.87149  22696583.44149
  24645160.695 4   -558706.555 4   -371188.30947  24645161.52347
 20  5 16  3 29 36.0000000  0  8G01G04G07G08G11G16G27G30             0.000316158
  21986645.352 6   -547778.031 6   -407459.71149  21986647.59449
  23949125.109 5     94220.332 5     64634.65646  23949126.81346
  22058915.492 6   -483581.633 6   -356306.54749  22058912.94549
  20984608.711 7    -32580.914 7    -24138.89849  20984609.80549
  20436861.602 6   -295532.293 6   -211416.08249  20436858.66049
  23322805.516 6    -15928.738 6    -11688.34447  23322803.38747
  22696770.539 6    108506.031 6     79732.03149  22696770.98049
  24644177.641 4   -563873.035 4   -375214.13747  24644178.19947
 20  5 16  3 29 37.0000000  0  8G01G04G07G08G11G16G27G30             0.000315050
  21985704.961 6   -552720.180 6   -411310.73449  21985706.81649
  23949294.781 5     95113.664 5     65330.75846  23949296.21546
  22058086.148 6   -487940.430 6   -359703.01249  22058083.78949
  20984555.117 6    -32862.941 6    -24358.66449  20984555.83249
  20436343.836 6   -298250.531 6   -213534.18848  20436341.43448
  23322778.609 6    -16070.934 6    -11799.15247  23322776.46147
  22696957.094 6    109489.656 6     80498.49649  22696957.78549
  24643194.273 4   -569039.113 4   -379239.66047  24643195.03147
 20  5 16  3 29 38.0000000  0  8G01G04G07G08G11G16G27G30             0.000313942
  21984764.516 6   -557661.719 6   -415161.27749  21984766.58249
  23949465.234 4     96007.289 4     66027.08246  23949466.60246
  22057256.383 6   -492298.570 6   -363098.96149  22057254.23449
  20984501.555 7    -33144.449 7    -24578.02349  20984502.38349
  20435826.852 6   -300967.941 6   -215651.65249  20435824.23049
  23322751.453 6    -16212.730 6    -11909.64847  23322749.74647
  22697144.875 6    110473.605 6     81265.20749  22697144.97349
  24642211.219 4   -574204.777 4   -383264.85247  24642212.14847
 20  5 16  3 29 39.0000000  0  8G01G04G07G08G11G16G27G30             0.000312836
  21983824.227 6   -562602.656 6   -419011.35549  21983826.05949
  23949634.688 4     96901.074 4     66723.52746  23949636.93446
  22056427.406 6   -496656.082 6   -366494.41849  22056424.85549
  20984448.109 7    -33425.488 7    -24797.01649  20984448.63749
  20435310.133 6   -303684.543 6   -217768.48049  20435307.35249
  23322725.094 6    -16354.203 6    -12019.89847  23322722.68447
  22697332.234 6    111457.797 6     82032.10249  22697332.62549
  24641228.547 4   -579370.047 4   -387289.73847  24641228.82847
 20  5 16  3 29 40.0000000  0  8G01G04G07G08G11G16G27G30             0.000311728
  21982884.219 6   -567543.000 6   -422860.97749  21982886.23049
  23949805.414 4     97795.102 4     67420.17246  23949806.91046
  22055598.594 6   -501012.961 6   -369889.38749  22055596.16849
  20984395.055 7    -33706.059 7    -25015.64549  20984395.37149
  20434792.914 6   -306400.363 6   -219884.70749  20434790.62949
  23322698.289 6    -16495.309 6    -12129.84847  23322695.32847
  22697519.414 6    112442.293 6     82799.23449  22697519.81649
  24640245.109 3   -584534.957 3   -391314.34447  24640246.25047
 20  5 16  3 29 41.0000000  0  8G01G04G07G08G11G16G27G30             0.000310621
  21981944.422 6   -572482.754 6   -426710.13749  21981946.06349
  23949975.313 4     98689.309 4     68116.94946  23949976.85246
  22054769.281 6   -505369.219 6   -373283.87549  22054766.73849
  20984341.398 7    -33986.141 7    -25233.89149  20984342.23449
  20434276.273 6   -309115.371 6   -222000.30149  20434273.82449
  23322671.133 6    -16636.078 6    -12239.53547  23322669.10947
  22697706.547 6    113427.035 6     83566.56349  22697707.41049
  24639262.344 4   -589699.559 4   -395338.69547  24639263.53547
 20  5 16  3 29 42.0000000  0  8G01G04G07G08G11G16G27G30             0.000309513
  21981004.438 6   -577421.871 6   -430558.80549  21981006.21949
  23950145.898 4     99583.785 4     68813.94146  23950147.18046
  22053940.695 6   -509724.809 6   -376677.84449  22053937.99249
  20984288.336 7    -34265.676 7    -25451.71149  20984289.14549
  20433759.953 6   -311829.535 6   -224115.23049  20433757.84449
  23322644.297 6    -16776.480 6    -12348.94547  23322642.16047
  22697894.203 6    114412.137 6     84334.17249  22697894.56349
  24638280.164 4   -594863.672 4   -399362.67647  24638280.83247
 20  5 16  3 29 43.0000000  0  8G01G04G07G08G11G16G27G30             0.000308407
  21980064.641 6   -582360.375 6   -434406.98449  21980066.41849
  23950315.414 4    100478.512 4     69511.12946  23950317.53146
  22053111.547 6   -514079.730 6   -380071.28949  22053109.55149
  20984235.133 7    -34544.695 7    -25669.12949  20984235.95349
  20433243.758 6   -314542.859 6   -226229.50849  20433241.66849
  23322617.469 6    -16916.504 6    -12458.05147  23322615.27747
  22698081.969 6    115397.527 6     85102.01249  22698082.24249
  24637297.500 4   -600027.441 4   -403386.38747  24637298.14147
 20  5 16  3 29 44.0000000  0  8G01G04G07G08G11G16G27G30             0.000307301
  21979125.133 6   -587298.242 6   -438254.67249  21979126.55149
  23950486.305 4    101373.473 4     70208.49646  23950487.40246
  22052283.648 6   -518434.004 6   -383464.23449  22052280.78949
  20984182.039 7    -34823.199 7    -25886.14149  20984182.80149
  20432727.359 6   -317255.340 6   -228343.13349  20432724.85949
  23322591.297 6    -17056.129 6    -12566.85247  23322588.91847
  22698269.297 6    116383.238 6     85870.09449  22698269.75849
  24636314.570 4   -605190.859 4   -407409.82847  24636315.68847
 20  5 16  3 29 45.0000000  0  8G01G04G07G08G11G16G27G30             0.000306194
  21978185.547 6   -592235.527 6   -442101.91049  21978187.67649
  23950656.406 4    102268.645 4     70906.02746  23950658.18446
  22051454.641 6   -522787.652 6   -386856.68449  22051452.44949
  20984129.609 7    -35101.234 7    -26102.79349  20984129.97749
  20432211.398 6   -319967.016 6   -230456.12549  20432208.92249
  23322564.922 6    -17195.426 6    -12675.39146  23322562.25446
  22698457.055 6    117369.203 6     86638.37949  22698457.58249
  24635332.680 4   -610353.840 4   -411432.93047  24635333.14147
 20  5 16  3 29 46.0000000  0  8G01G04G07G08G11G16G27G30             0.000305086
  21977246.133 6   -597172.211 6   -445948.67249  21977247.75849
  23950826.516 4    103164.039 4     71603.73846  23950828.28946
  22050626.625 6   -527140.648 6   -390248.62949  22050623.99249
  20984076.594 7    -35378.785 7    -26319.07049  20984077.56649
  20431695.625 6   -322677.914 6   -232568.51649  20431693.11749
  23322538.469 6    -17334.379 6    -12783.66847  23322536.18847
  22698644.711 6    118355.465 6     87406.89149  22698645.25849
  24634349.719 4   -615516.496 4   -415455.78547  24634350.41847
 20  5 16  3 29 47.0000000  0  8G01G04G07G08G11G16G27G30             0.000303980
  21976306.672 6   -602108.320 6   -449794.98849  21976308.57049
  23950996.914 4    104059.617 4     72301.59046  23950998.70346
  22049798.008 6   -531493.039 6   -393640.10249  22049795.62149
  20984023.727 7    -35655.852 7    -26534.96549  20984024.41849
  20431180.164 6   -325387.988 6   -234680.25849  20431177.39849
  23322512.172 6    -17472.980 6    -12891.67247  23322509.52347
  22698831.898 6    119342.039 6     88175.64849  22698832.66849
  24633367.266 4   -620678.805 4   -419478.36747  24633368.17247
 20  5 16  3 29 48.0000000  0  8G01G04G07G08G11G16G27G30             0.000302874
  21975367.523 6   -607043.750 6   -453640.77749  21975369.48849
  23951167.344 4    104955.457 4     72999.63746  23951169.03946
  22048969.797 6   -535844.734 6   -397031.02749  22048967.64549
  20983971.406 7    -35932.414 7    -26750.46949  20983971.75049
  20430664.297 6   -328097.219 6   -236791.34849  20430661.90649
  23322485.633 6    -17611.180 6    -12999.37147  23322483.53547
  22699019.797 6    120328.863 6     88944.59849  22699020.49649
  24632385.367 4   -625840.723 4   -423500.63747  24632385.99247
 20  5 16  3 29 49.0000000  0  8G01G04G07G08G11G16G27G30             0.000301769
  21974428.594 6   -611978.613 6   -457486.12149  21974430.26649
  23951337.773 4    105851.547 4     73697.87946  23951339.50446
  22048141.898 6   -540195.809 6   -400421.46949  22048139.85249
  20983918.766 7    -36208.496 7    -26965.60549  20983919.46949
  20430148.984 6   -330805.621 6   -238901.79349  20430146.68849
  23322459.227 5    -17749.055 5    -13106.80546  23322456.86746
  22699207.563 6    121316.027 6     89713.81649  22699208.39549
  24631403.422 4   -631002.223 4   -427522.57847  24631403.55147
 20  5 16  3 29 50.0000000  0  8G01G04G07G08G11G16G27G30             0.000300663
  21973489.117 6   -616912.828 6   -461330.96149  21973491.21549
  23951508.430 4    106747.902 4     74396.32846  23951510.14546
  22047314.477 6   -544546.211 6   -403811.39549  22047311.92649
  20983866.063 7    -36484.035 7    -27180.31349  20983867.00049
  20429633.922 6   -333513.199 6   -241011.59849  20429631.12549
  23322433.063 5    -17886.516 5    -13213.92647  23322431.13747
  22699396.000 6    122303.480 6     90483.26249  22699396.46549
  24630420.898 3   -636163.363 3   -431544.24247  24630421.73847
 20  5 16  3 29 51.0000000  0  8G01G04G07G08G11G16G27G30             0.000299557
  21972551.086 6   -621846.422 6   -465175.32049  21972552.47749
  23951679.250 4    107644.430 4     75094.91846  23951680.73446
  22046486.508 6   -548895.953 6   -407200.80549  22046484.10949
  20983814.016 7    -36759.063 7    -27394.61349  20983814.94549
  20429118.750 6   -336219.914 6   -243120.72748  20429116.30548
  23322407.320 6    -18023.625 6    -13320.75847  23322405.08647
  22699583.547 6    123291.242 6     91252.94149  22699584.56349
  24629439.336 4   -641324.090 4   -435565.59047  24629439.78947
 20  5 16  3 29 52.0000000  0  8G01G04G07G08G11G16G27G30             0.000298452
  21971611.961 6   -626779.379 6   -469019.17649  21971614.32049
  23951850.336 4    108541.246 4     75793.73846  23951851.41446
  22045658.734 6   -553245.035 6   -410589.69949  22045656.52049
  20983761.711 7    -37033.535 7    -27608.49249  20983762.39849
  20428603.750 6   -338925.809 6   -245229.21949  20428600.98449
  23322380.766 6    -18160.344 6    -13427.28547  23322378.69547
  22699771.789 6    124279.367 6     92022.91049  22699772.73449
  24628457.453 4   -646484.395 4   -439586.60547  24628457.88747
 20  5 16  3 29 53.0000000  0  8G01G04G07G08G11G16G27G30             0.000297346
  21970673.836 6   -631711.711 6   -472862.55549  21970675.26249
  23952020.680 4    109438.297 4     76492.73046  23952022.00446
  22044831.383 6   -557593.453 6   -413978.07049  22044828.83249
  20983709.555 7    -37307.543 7    -27822.00849  20983710.35249
  20428088.938 6   -341630.855 6   -247337.04748  20428086.11748
  23322355.031 6    -18296.695 6    -13533.52746  23322352.68846
  22699960.133 6    125267.746 6     92793.07849  22699960.60549
  24627475.938 4   -651644.332 4   -443607.34047  24627475.66047
 20  5 16  3 29 54.0000000  0  8G01G04G07G08G11G16G27G30             0.000296242
  21969735.336 6   -636643.465 6   -476705.47749  21969736.83249
  23952191.313 4    110335.547 4     77191.88746  23952192.38746
  22044004.133 6   -561941.254 6   -417365.97349  22044001.78149
  20983657.617 7    -37581.078 7    -28035.14549  20983658.41049
  20427574.125 6   -344335.133 6   -249444.27349  20427571.77749
  23322328.688 6    -18432.691 6    -13639.50447  23322327.12547
  22700148.094 6    126256.414 6     93563.46549  22700149.15249
  24626494.055 4   -656803.898 4   -447627.77747  24626494.28947
 20  5 16  3 29 55.0000000  0  8G01G04G07G08G11G16G27G30             0.000295137
  21968796.563 6   -641574.648 6   -480547.95749  21968798.72349
  23952362.211 4    111232.984 4     77891.18046  23952362.90646
  22043176.680 6   -566288.438 6   -420753.38349  22043174.42249
  20983605.531 7    -37854.164 7    -28247.94549  20983606.41449
  20427060.320 6   -347038.617 6   -251550.88349  20427057.67649
  23322303.086 6    -18568.363 6    -13745.23447  23322301.35247
  22700336.047 6    127245.320 6     94334.03949  22700337.16049
  24625512.203 4   -661963.121 4   -451647.95747  24625512.13747
 20  5 16  3 29 56.0000000  0  8G01G04G07G08G11G16G27G30             0.000294031
  21967858.375 6   -646505.238 6   -484389.97749  21967860.10949
  23952533.000 4    112130.645 4     78590.66046  23952534.01246
  22042349.570 6   -570634.988 6   -424140.30949  22042347.02049
  20983553.602 7    -38126.723 7    -28460.32449  20983554.64549
  20426545.539 6   -349741.277 6   -253656.84849  20426543.29749
  23322277.734 6    -18703.707 6    -13850.70346  23322275.60246
  22700524.727 6    128234.555 6     95104.85549  22700525.41049
  24624530.898 4   -667121.992 4   -455667.86347  24624530.53547
 20  5 16  3 29 57.0000000  0  8G01G04G07G08G11G16G27G30             0.000292927
  21966920.359 6   -651435.211 6   -488231.50849  21966921.98049
  23952703.586 4    113028.516 4     79290.29746  23952704.95346
  22041522.719 6   -574980.898 6   -427526.73849  22041520.58649
  20983502.016 7    -38398.793 7    -28672.32449  20983503.00849
  20426031.203 6   -352443.129 6   -255762.19149  20426029.16449
  23322251.711 6    -18838.648 6    -13955.85247  23322249.46947
  22700712.969 6    129224.043 6     95875.88749  22700713.74649
  24623548.789 4   -672280.445 4   -459687.44147  24623549.09847
 20  5 16  3 29 58.0000000  0  8G01G04G07G08G11G16G27G30             0.000291822
  21965982.406 6   -656364.637 6   -492072.62149  21965983.87949
  23952875.180 4    113926.543 4     79990.05946  23952875.88746
  22040695.156 6   -579326.227 6   -430912.70749  22040693.25449
  20983450.289 7    -38670.434 7    -28883.99249  20983450.83249
  20425517.156 6   -355144.227 6   -257866.94149  20425515.07049
  23322225.781 5    -18973.355 5    -14060.81647  23322223.70747
  22700901.461 6    130213.750 6     96647.09049  22700901.67649
  24622566.648 4   -677438.641 4   -463706.80147  24622567.44947
 20  5 16  3 29 59.0000000  0  8G01G04G07G08G11G16G27G30             0.000290718
  21965044.156 6   -661293.434 6   -495913.24249  21965045.96949
  23953045.898 4    114824.820 4     80690.00446  23953046.67646
  22039869.016 6   -583670.883 6   -434298.15249  22039866.57849
  20983398.711 7    -38941.563 7    -29095.26249  20983399.51249
  20425003.797 6   -357844.488 6   -259971.04748  20425001.26648
  23322200.148 5    -19107.660 5    -14165.47346  23322198.54746
  22701090.086 6    131203.762 6     97418.52349  22701090.44949
  24621585.625 4   -682596.438 4   -467725.85947  24621585.95347
 20  5 16  3 30  0.0000000  0  8G01G04G07G08G11G16G27G30             0.000289614
  21964106.516 6   -666221.617 6   -499753.37949  21964108.16049
  23953216.680 4    115723.324 4     81390.13346  23953217.67646
  22039042.367 6   -588014.898 6   -437683.09449  22039039.71549
  20983346.953 7    -39212.199 7    -29306.15249  20983347.90649
  20424489.750 6   -360543.918 6   -262074.49649  20424487.46549
  23322174.719 5    -19241.582 5    -14269.83246  23322172.79346
  22701278.203 6    132194.090 6     98190.21949  22701278.60949
  24620604.828 4   -687753.836 4   -471744.60547  24620604.71547
 20  5 16  3 30  1.0000000  0  8G01G04G07G08G11G16G27G30             0.000288509
  21963168.867 6   -671149.219 6   -503593.07049  21963170.17249
  23953387.828 4    116622.035 4     82090.42246  23953388.54746
  22038215.836 6   -592358.277 6   -441067.54749  22038213.57049
  20983295.797 7    -39482.363 7    -29516.66449  20983296.23049
  20423976.086 6   -363242.570 6   -264177.34849  20423973.96949
  23322149.258 5    -19375.168 5    -14373.93046  23322147.40646
  22701466.953 6    133184.711 6     98962.12149  22701467.41049
  24619623.477 4   -692910.879 4   -475763.07447  24619623.47747
 20  5 16  3 30  2.0000000  0  8G01G04G07G08G11G16G27G30             0.000287407
  21962231.141 6   -676076.172 6   -507432.25049  21962232.69149
  23953558.906 4    117521.004 4     82790.91446  23953559.82446
  22037389.742 6   -596701.000 6   -444451.49249  22037386.80149
  20983244.602 7    -39752.000 7    -29726.77049  20983245.38349
  20423463.469 6   -365940.320 6   -266279.49249  20423460.55949
  23322123.930 5    -19508.359 5    -14477.71946  23322122.00046
  22701655.203 6    134175.621 6     99734.25449  22701655.90249
  24618642.117 4   -698067.523 4   -479781.24247  24618641.69947
 20  5 16  3 30  3.0000000  0  8G01G04G07G08G11G16G27G30             0.000286303
  21961293.656 6   -681002.473 6   -511270.92249  21961295.65649
  23953729.438 4    118420.242 4     83491.62146  23953731.04346
  22036563.445 6   -601043.012 6   -447834.87949  22036561.20749
  20983193.320 7    -40021.094 7    -29936.46149  20983194.20349
  20422950.055 6   -368637.262 6   -268381.00048  20422947.54748
  23322098.805 5    -19641.164 5    -14581.19946  23322096.87146
  22701843.461 6    135166.902 6    100506.68049  22701844.91049
  24617661.234 4   -703223.730 4   -483799.07047  24617660.93447
 20  5 16  3 30  4.0000000  0  8G01G04G07G08G11G16G27G30             0.000285198
  21960356.703 6   -685928.188 6   -515109.14549  21960357.91849
  23953900.930 4    119319.699 4     84192.48446  23953902.39546
  22035737.477 6   -605384.402 6   -451217.77349  22035734.48849
  20983141.898 7    -40289.668 7    -30145.73449  20983143.01249
  20422436.781 6   -371333.391 6   -270481.87548  20422434.21948
  23322073.570 5    -19773.621 5    -14684.39847  23322071.92647
  22702032.164 6    136158.434 6    101279.30149  22702033.59049
  24616679.297 4   -708379.590 4   -487816.62947  24616679.69147
 20  5 16  3 30  5.0000000  0  8G01G04G07G08G11G16G27G30             0.000284096
  21959419.094 6   -690853.301 6   -518946.88749  21959420.55549
  23954072.883 5    120219.363 5     84893.51246  23954073.81646
  22034911.477 6   -609725.160 6   -454600.18849  22034908.94149
  20983091.195 7    -40557.789 7    -30354.66049  20983091.94549
  20421923.656 6   -374028.691 6   -272582.11348  20421921.30148
  23322048.414 5    -19905.738 5    -14787.34447  23322046.59847
  22702220.648 6    137150.246 6    102052.14149  22702221.92249
  24615698.711 3   -713535.074 3   -491833.88747  24615698.93047
 20  5 16  3 30  6.0000000  0  8G01G04G07G08G11G16G27G30             0.000282991
  21958482.125 6   -695777.797 6   -522784.15649  21958483.58649
  23954243.727 5    121119.207 5     85594.67646  23954244.48446
  22034085.469 6   -614065.277 6   -457982.09449  22034082.80949
  20983040.320 7    -40825.445 7    -30563.22749  20983040.91849
  20421411.086 6   -376723.188 6   -274681.71948  20421408.79348
  23322023.391 5    -20037.496 5    -14890.02347  23322021.66847
  22702410.070 6    138142.336 6    102825.19549  22702411.06349
  24614717.625 3   -718690.227 3   -495850.89147  24614717.84847
 20  5 16  3 30  7.0000000  0  8G01G04G07G08G11G16G27G30             0.000281889
  21957545.289 6   -700701.648 6   -526620.92249  21957546.96949
  23954415.227 5    122019.367 5     86296.09446  23954416.00046
  22033259.688 6   -618404.730 6   -461363.48049  22033256.91849
  20982989.258 7    -41092.570 7    -30771.37549  20982990.15249
  20420898.734 6   -379416.848 6   -276780.68448  20420896.14548
  23321997.883 5    -20168.828 5    -14992.36347  23321996.30947
  22702598.820 6    139134.762 6    103598.50849  22702599.96949
  24613737.586 4   -723844.902 4   -499867.53147  24613737.04347
 20  5 16  3 30  8.0000000  0  8G01G04G07G08G11G16G27G30             0.000280787
  21956608.477 6   -705624.867 6   -530457.19549  21956609.70349
  23954586.297 4    122919.715 4     86997.66046  23954586.87946
  22032433.930 6   -622743.520 6   -464744.36349  22032431.35549
  20982938.313 7    -41359.164 7    -30979.11349  20982939.27349
  20420386.109 6   -382109.652 6   -278878.97749  20420384.14149
  23321972.813 5    -20299.816 5    -15094.44147  23321971.07447
  22702787.602 6    140127.488 6    104372.07049  22702788.80949
  24612756.523 4   -728999.203 4   -503883.88347  24612755.78147
 20  5 16  3 30  9.0000000  0  8G01G04G07G08G11G16G27G30             0.000279684
  21955671.359 6   -710547.527 6   -534293.03549  21955672.99249
  23954757.453 5    123820.305 5     87699.41846  23954758.49646
  22031608.180 6   -627081.672 6   -468124.74249  22031605.63349
  20982887.797 7    -41625.277 7    -31186.47349  20982888.56649
  20419873.844 6   -384801.652 6   -280976.63749  20419871.35949
  23321948.391 5    -20430.461 5    -15196.24247  23321946.56347
  22702976.313 6    141120.504 6    105145.84449  22702976.95749
  24611775.742 4   -734153.164 4   -507899.95347  24611775.34047
 20  5 16  3 30 10.0000000  0  8G01G04G07G08G11G16G27G30             0.000278582
  21954734.906 6   -715469.535 6   -538128.36749  21954736.39149
  23954929.180 5    124721.117 5     88401.34846  23954929.74646
  22030782.727 6   -631419.164 6   -471504.60949  22030780.14549
  20982837.211 7    -41890.902 7    -31393.45349  20982838.27049
  20419361.867 6   -387492.824 6   -283073.65248  20419359.34848
  23321923.805 5    -20560.742 5    -15297.76646  23321922.07446
  22703165.594 6    142113.801 6    105919.84049  22703166.63349
  24610794.492 4   -739306.711 4   -511915.69547  24610794.76647
 20  5 16  3 30 11.0000000  0  8G01G04G07G08G11G16G27G30             0.000277479
  21953798.719 6   -720391.000 6   -541963.26649  21953799.89149
  23955100.258 5    125622.078 5     89103.39546  23955101.24246
  22029957.695 6   -635756.094 6   -474884.03549  22029954.93449
  20982787.195 7    -42156.047 7    -31600.05949  20982787.53949
  20418849.773 6   -390183.230 6   -285170.07049  20418846.85249
  23321899.078 5    -20690.695 5    -15399.02346  23321897.32046
  22703354.531 6    143107.340 6    106694.03149  22703355.88349
  24609813.922 4   -744459.945 4   -515931.19947  24609814.12147
 20  5 16  3 30 12.0000000  0  8G01G04G07G08G11G16G27G30             0.000276377
  21952862.117 6   -725311.875 6   -545797.71949  21952863.77049
  23955272.039 4    126523.254 4     89805.61346  23955272.84446
  22029132.305 6   -640092.363 6   -478262.94149  22029129.98049
  20982736.641 7    -42420.754 7    -31806.32849  20982737.28549
  20418338.273 6   -392872.848 6   -287265.88349  20418335.74249
  23321874.633 5    -20820.332 5    -15500.04746  23321872.61746
  22703543.594 6    144101.152 6    107468.43449  22703544.46549
  24608833.906 4   -749612.789 4   -519946.39547  24608833.54347
 20  5 16  3 30 13.0000000  0  8G01G04G07G08G11G16G27G30             0.000275274
  21951925.945 6   -730232.203 6   -549631.73849  21951927.18449
  23955443.477 5    127424.594 5     90507.94146  23955444.28546
  22028307.742 6   -644428.063 6   -481641.41049  22028304.74249
  20982686.500 7    -42685.020 7    -32012.25049  20982687.05149
  20417826.453 6   -395561.727 6   -289361.11349  20417823.90249
  23321849.453 5    -20949.652 5    -15600.82046  23321848.08646
  22703733.375 6    145095.195 6    108243.01249  22703733.74249
  24607852.766 4   -754765.324 4   -523961.34847  24607853.25447
 20  5 16  3 30 14.0000000  0  8G01G04G07G08G11G16G27G30             0.000274172
  21950989.797 6   -735151.895 6   -553465.26649  21950991.32449
  23955615.133 4    128326.164 4     91210.45746  23955615.66846
  22027482.281 6   -648763.094 6   -485019.35949  22027479.87549
  20982635.953 7    -42948.781 7    -32217.77749  20982636.58649
  20417314.648 6   -398249.746 6   -291455.67248  20417312.07448
  23321825.258 5    -21078.602 5    -15701.30547  23321823.31347
  22703922.023 6    146089.551 6    109017.82849  22703922.91049
  24606873.227 4   -759917.480 4   -527976.00847  24606872.57447
 20  5 16  3 30 15.0000000  0  8G01G04G07G08G11G16G27G30             0.000273071
  21950053.750 6   -740070.984 6   -557298.31649  21950055.02349
  23955786.891 5    129227.949 5     91913.14146  23955787.55946
  22026657.594 6   -653097.484 6   -488396.80949  22026655.04349
  20982586.172 7    -43212.020 7    -32422.89849  20982586.88749
  20416803.781 6   -400936.934 6   -293549.58648  20416801.02748
  23321800.516 5    -21207.195 5    -15801.49246  23321798.63346
  22704111.055 6    147084.188 6    109792.87149  22704112.26249
  24605891.508 4   -765069.238 4   -531990.35947  24605892.21547
 20  5 16  3 30 16.0000000  0  8G01G04G07G08G11G16G27G30             0.000271969
  21949117.383 6   -744989.508 6   -561130.93849  21949118.89849
  23955958.336 5    130129.934 5     92615.98046  23955959.01246
  22025833.063 6   -657431.289 6   -491773.80149  22025830.39849
  20982535.781 7    -43474.840 7    -32627.69549  20982536.85249
  20416292.414 6   -403623.379 6   -295642.91848  20416290.11748
  23321776.250 5    -21335.473 5    -15901.44546  23321774.13346
  22704300.352 6    148079.059 6    110568.09449  22704301.50449
  24604911.617 4   -770220.680 4   -536004.46947  24604911.94947
 20  5 16  3 30 17.0000000  0  8G01G04G07G08G11G16G27G30             0.000270866
  21948181.438 6   -749907.430 6   -564963.07849  21948183.12949
  23956131.023 5    131032.078 5     93318.95346  23956130.57846
  22025007.961 6   -661764.457 6   -495150.28949  22025005.77349
  20982485.930 7    -43737.184 7    -32832.12149  20982486.68849
  20415781.016 6   -406309.016 6   -297735.62148  20415778.34448
  23321752.367 5    -21463.410 5    -16001.13746  23321749.53546
  22704490.242 6    149074.188 6    111343.52349  22704491.10249
  24603931.523 4   -775371.770 4   -540018.30547  24603931.82447
 20  5 16  3 30 18.0000000  0  8G01G04G07G08G11G16G27G30             0.000269766
  21947246.016 6   -754824.781 6   -568794.78149  21947247.68849
  23956302.734 5    131934.461 5     94022.11346  23956302.20346
  22024183.438 6   -666097.012 6   -498526.30149  22024181.25849
  20982436.336 7    -43999.082 7    -33036.19949  20982436.57849
  20415270.211 6   -408993.863 6   -299827.70748  20415267.42648
  23321728.000 5    -21591.031 5    -16100.58646  23321725.56346
  22704679.453 6    150069.609 6    112119.17649  22704680.48849
  24602950.719 4   -780522.539 4   -544031.89147  24602951.92247
 20  5 16  3 30 19.0000000  0  8G01G04G07G08G11G16G27G30             0.000268665
  21946310.102 6   -759741.551 6   -572626.02349  21946311.65249
  23956474.055 5    132837.031 5     94725.40646  23956474.23846
  22023359.336 6   -670428.934 6   -501901.82849  22023356.87949
  20982386.461 7    -44260.496 7    -33239.89549  20982386.85549
  20414759.250 6   -411677.898 6   -301919.16048  20414756.88748
  23321704.016 5    -21718.309 5    -16199.76646  23321701.29746
  22704868.773 5    151065.297 5    112895.04349  22704870.09849
  24601971.344 4   -785672.887 4   -548045.14547  24601971.35547
 20  5 16  3 30 20.0000000  0  8G01G04G07G08G11G16G27G30             0.000267563
  21945374.531 6   -764657.715 6   -576456.80149  21945376.50849
  23956645.055 5    133739.770 5     95428.84046  23956646.08246
  22022535.492 6   -674760.258 6   -505276.88349  22022532.68849
  20982337.039 7    -44521.461 7    -33443.24249  20982337.26249
  20414248.477 6   -414361.148 6   -304010.01248  20414246.40648
  23321679.484 5    -21845.254 5    -16298.69546  23321677.44546
  22705058.789 6    152061.227 6    113671.09049  22705059.63749
  24600990.734 4   -790822.941 4   -552058.17247  24600991.64547
 20  5 16  3 30 21.0000000  0  8G01G04G07G08G11G16G27G30             0.000266462
  21944439.328 6   -769573.285 6   -580287.11349  21944440.93049
  23956817.523 5    134642.719 5     96132.42646  23956817.94546
  22021711.305 6   -679090.934 6   -508651.43849  22021708.87949
  20982287.180 7    -44781.922 7    -33646.20749  20982287.65249
  20413738.711 6   -417043.621 6   -306100.25049  20413735.87149
  23321655.680 5    -21971.840 5    -16397.33646  23321653.54346
  22705248.266 5    153057.449 5    114447.36349  22705249.17649
  24600011.492 4   -795972.590 4   -556070.87547  24600011.98047
 20  5 16  3 30 22.0000000  0  8G01G04G07G08G11G16G27G30             0.000265362
  21943504.555 6   -774488.266 6   -584116.96949  21943505.89549
  23956988.977 5    135545.922 5     96836.22746  23956989.67646
  22020887.000 6   -683420.961 6   -512025.48449  22020885.05149
  20982237.594 7    -45041.883 7    -33848.77349  20982238.23049
  20413228.156 6   -419725.234 6   -308189.82448  20413225.48048
  23321631.156 5    -22098.090 5    -16495.70346  23321629.68446
  22705437.547 5    154053.957 5    115223.86749  22705438.98449
  24599030.773 3   -801121.855 3   -560083.28947  24599032.29747
 20  5 16  3 30 23.0000000  0  8G01G04G07G08G11G16G27G30             0.000264261
  21942568.672 6   -779402.691 6   -587946.38749  21942570.48849
  23957161.266 5    136449.270 5     97540.11746  23957161.82846
  22020063.016 6   -687750.395 6   -515399.06649  22020061.10549
  20982188.461 7    -45301.410 7    -34051.00049  20982188.59449
  20412718.055 6   -422406.113 6   -310278.82048  20412715.45748
  23321607.469 5    -22224.016 5    -16593.83646  23321605.60946
  22705627.281 5    155050.695 5    116000.54349  22705628.25049
  24598050.977 3   -806270.824 3   -564095.47747  24598052.23447
 20  5 16  3 30 24.0000000  0  8G01G04G07G08G11G16G27G30             0.000263161
  21941633.773 6   -784316.477 6   -591775.31349  21941635.45349
  23957333.086 5    137352.859 5     98244.20746  23957333.46546
  22019239.688 6   -692079.152 6   -518772.12949  22019237.31349
  20982139.273 7    -45560.426 7    -34252.83249  20982139.34449
  20412208.000 6   -425086.133 6   -312367.14549  20412205.90249
  23321583.734 5    -22349.582 5    -16691.68446  23321581.39146
  22705817.055 5    156047.727 5    116777.44949  22705818.80149
  24597071.273 3   -811419.402 3   -568107.35247  24597072.34047
 20  5 16  3 30 25.0000000  0  8G01G04G07G08G11G16G27G30             0.000262060
  21940698.852 6   -789229.727 6   -595603.81649  21940700.88349
  23957505.211 5    138256.617 5     98948.44146  23957506.05946
  22018416.109 6   -696407.348 6   -522144.75049  22018413.81649
  20982089.961 7    -45819.016 7    -34454.33249  20982090.19949
  20411697.984 6   -427765.430 6   -314454.91049  20411695.61749
  23321559.828 5    -22474.844 5    -16789.28546  23321557.58246
  22706006.805 5    157045.023 5    117554.56649  22706007.80949
  24596091.391 4   -816567.645 4   -572118.96147  24596092.93447
 20  5 16  3 30 26.0000000  0  8G01G04G07G08G11G16G27G30             0.000260960
  21939763.859 6   -794142.363 6   -599431.84449  21939765.54349
  23957677.383 5    139160.543 5     99652.80146  23957677.66446
  22017592.750 6   -700734.918 6   -525516.87549  22017590.29749
  20982041.008 7    -46077.145 7    -34655.47349  20982040.94549
  20411188.797 6   -430443.906 6   -316542.02749  20411185.54349
  23321535.773 5    -22599.766 5    -16886.62547  23321533.73847
  22706196.477 5    158042.535 5    118331.85249  22706197.61349
  24595112.375 3   -821715.547 3   -576130.31647  24595113.09447
 20  5 16  3 30 27.0000000  0  8G01G04G07G08G11G16G27G30             0.000259861
  21938829.102 6   -799054.414 6   -603259.41049  21938831.03949
  23957849.344 5    140064.711 5    100357.33646  23957849.72746
  22016768.938 6   -705061.863 6   -528888.52349  22016766.96549
  20981991.961 7    -46334.816 7    -34856.25449  20981992.21149
  20410679.008 6   -433121.594 6   -318628.53948  20410676.36348
  23321512.141 5    -22724.352 5    -16983.69146  23321509.90646
  22706386.383 5    159040.367 5    119109.38349  22706387.93849
  24594132.734 3   -826863.090 3   -580141.38347  24594133.24247
 20  5 16  3 30 28.0000000  0  8G01G04G07G08G11G16G27G30             0.000258760
  21937894.609 6   -803965.859 6   -607086.51249  21937896.32049
  23958021.016 4    140969.039 4    101062.00446  23958022.25046
  22015945.703 6   -709388.172 6   -532259.67649  22015943.92649
  20981942.703 7    -46591.988 7    -35056.64549  20981943.09049
  20410169.555 6   -435798.469 6   -320714.42249  20410166.80149
  23321488.625 5    -22848.602 5    -17080.51246  23321486.39546
  22706576.773 5    160038.441 5    119887.10249  22706578.27349
  24593152.508 3   -832010.207 3   -584152.12147  24593153.71947
 20  5 16  3 30 29.0000000  0  8G01G04G07G08G11G16G27G30             0.000257660
  21936959.750 6   -808876.766 6   -610913.18449  21936961.75849
  23958193.758 5    141873.590 5    101766.84846  23958194.48846
  22015122.750 6   -713713.852 6   -535630.33649  22015120.39149
  20981893.945 7    -46848.711 7    -35256.68849  20981893.96549
  20409660.258 6   -438474.570 6   -322799.69149  20409657.55149
  23321464.445 5    -22972.508 5    -17177.05546  23321462.78946
  22706766.133 5    161036.773 5    120665.02349  22706767.76649
  24592173.352 3   -837157.023 3   -588162.62947  24592174.59047
 20  5 16  3 30 30.0000000  0  8G01G04G07G08G11G16G27G30             0.000256561
  21936025.945 6   -813787.008 6   -614739.34449  21936027.50849
  23958365.766 5    142778.355 5    102471.85246  23958366.63346
  22014299.289 6   -718038.898 6   -539000.50449  22014297.35249
  20981845.188 7    -47104.930 7    -35456.34049  20981845.28549
  20409151.617 6   -441149.836 6   -324884.31349  20409148.80549
  23321441.406 5    -23096.082 5    -17273.36346  23321439.11746
  22706956.688 5    162035.398 5    121443.17249  22706958.20349
  24591193.977 3   -842303.438 3   -592172.81647  24591195.32447
 20  5 16  3 30 31.0000000  0  8G01G04G07G08G11G16G27G30             0.000255461
  21935091.547 6   -818696.695 6   -618565.07849  21935093.14149
  23958537.328 5    143683.273 5    103176.97746  23958538.47346
  22013476.531 6   -722363.328 6   -542370.18449  22013474.52749
  20981796.586 7    -47360.672 7    -35655.62549  20981796.63349
  20408642.352 6   -443824.328 6   -326968.33649  20408639.79749
  23321418.102 5    -23219.301 5    -17369.37146  23321416.01646
  22707146.406 5    163034.273 5    122221.52349  22707148.20749
  24590214.656 3   -847449.523 3   -596182.74647  24590216.15647
 20  5 16  3 30 32.0000000  0  8G01G04G07G08G11G16G27G30             0.000254362
  21934157.242 6   -823605.813 6   -622390.36349  21934159.04349
  23958709.938 5    144588.383 5    103882.25046  23958711.28946
  22012653.367 6   -726687.164 6   -545739.41449  22012652.03949
  20981747.750 7    -47616.000 7    -35854.57849  20981748.34049
  20408133.688 6   -446498.051 6   -329051.75849  20408131.02349
  23321394.438 5    -23342.227 5    -17465.15246  23321392.14146
  22707336.539 5    164033.418 5    123000.07049  22707337.71949
  24589235.000 3   -852595.313 3   -600192.44947  24589236.63747
 20  5 16  3 30 33.0000000  0  9G01G04G07G08G11G16G27G30S22          0.000253263
  21933223.414 6   -828514.402 6   -626215.23449  21933225.32049
  23958881.953 5    145493.656 5    104587.64846  23958883.36746
  22011831.328 6   -731010.406 6   -549108.16849  22011828.97349
  20981699.367 7    -47870.895 7    -36053.19949  20981699.77749
  20407624.734 6   -449171.023 6   -331134.59049  20407622.22749
  23321370.945 5    -23464.859 5    -17560.70746  23321368.89146
  22707526.828 5    165032.746 5    123778.77349  22707528.37149
  24588256.352 3   -857740.742 3   -604201.86747  24588257.25447
  36879369.45316    -13230.05916                
 20  5 16  3 30 34.0000000  0  9G01G04G07G08G11G16G27G30S22          0.000252163
  21932288.891 6   -833422.445 6   -630039.68449  21932291.07049
  23959054.727 5    146399.090 5    105293.18446  23959055.49246
  22011008.797 6   -735333.086 6   -552476.48849  22011006.70749
  20981651.156 7    -48125.363 7    -36251.48849  20981651.56349
  20407116.195 6   -451843.246 6   -333216.84449  20407113.47349
  23321347.984 5    -23587.215 5    -17656.05146  23321345.89546
  22707717.250 5    166032.297 5    124557.64849  22707718.78149
  24587277.727 3   -862885.891 3   -608211.07047  24587278.35547
  36879038.031 6    -15003.719 6                
 20  5 16  3 30 35.0000000  0  9G01G04G07G08G11G16G27G30S22          0.000251064
  21931355.133 6   -838329.910 6   -633863.68049  21931357.26249
  23959227.117 5    147304.648 5    105998.81346  23959227.85946
  22010186.094 6   -739655.168 6   -555844.34449  22010183.85549
  20981602.898 7    -48379.363 7    -36449.41849  20981603.03549
  20406608.016 6   -454514.684 6   -335298.48449  20406605.46149
  23321324.938 5    -23709.230 5    -17751.11746  23321322.58646
  22707907.438 5    167032.094 5    125336.71149  22707909.04349
  24586298.414 3   -868030.672 3   -612219.98047  24586299.15247
  36878700.969 6    -16777.070 6                
 20  5 16  3 30 36.0000000  0  9G01G04G07G08G11G16G27G30S22          0.000249966
  21930421.383 6   -843236.813 6   -637687.23849  21930423.39849
  23959398.938 5    148210.441 5    106704.62946  23959400.10246
  22009363.906 6   -743976.613 6   -559211.70349  22009361.79349
  20981554.391 7    -48632.910 7    -36646.98449  20981554.38749
  20406100.055 6   -457185.359 6   -337379.53149  20406096.97349
  23321301.617 5    -23830.926 5    -17845.94946  23321299.68446
  22708097.734 5    168032.160 5    126115.98849  22708099.64849
  24585319.000 3   -873175.172 3   -616228.68447  24585320.50847
  36878359.328 6    -18550.418 6                
 20  5 16  3 30 37.0000000  0  9G01G04G07G08G11G16G27G30S22          0.000248867
  21929487.906 6   -848143.113 6   -641510.33249  21929489.44949
  23959571.180 5    149116.406 5    107410.57046  23959572.86746
  22008541.398 6   -748297.453 6   -562578.58649  22008539.42249
  20981506.063 7    -48885.984 7    -36844.18849  20981506.04749
  20405591.703 6   -459855.242 6   -339459.95749  20405588.97349
  23321278.211 5    -23952.313 5    -17940.53546  23321276.20746
  22708288.430 5    169032.473 5    126895.45349  22708289.62949
  24584340.547 3   -878319.270 3   -620237.07047  24584341.30947
  36878025.688 6    -20323.105 6                
 20  5 16  3 30 38.0000000  0  9G01G04G07G08G11G16G27G30S22          0.000247768
  21928554.359 6   -853048.828 6   -645332.95749  21928555.90649
  23959744.359 5    150022.555 5    108116.65646  23959745.10946
  22007719.258 6   -752617.691 6   -565945.00849  22007717.09449
  20981458.195 7    -49138.605 7    -37041.04349  20981458.16049
  20405083.984 6   -462524.324 6   -341539.75849  20405081.64549
  23321255.273 5    -24073.348 5    -18034.84046  23321253.53546
  22708478.906 5    170033.074 5    127675.14549  22708479.88349
  24583361.484 3   -883463.035 3   -624245.20347  24583362.34047
  36877686.516 6    -22096.332 6                
 20  5 16  3 30 39.0000000  0  9G01G04G07G08G11G16G27G30S22          0.000246670
  21927620.891 6   -857953.930 6   -649155.11749  21927622.61749
  23959916.422 5    150928.906 5    108822.89146  23959917.54346
  22006897.477 6   -756937.266 6   -569310.91449  22006895.53949
  20981410.367 7    -49390.758 7    -37237.51649  20981410.21549
  20404575.781 6   -465192.621 6   -343618.95349  20404573.76249
  23321232.406 5    -24194.063 5    -18128.90646  23321230.57446
  22708669.422 5    171033.898 5    128455.00849  22708670.82849
  24582382.813 3   -888606.402 3   -628253.02747  24582383.68847
  36877350.297 6    -23868.734 6                
 20  5 16  3 30 40.0000000  0  9G01G04G07G08G11G16G27G30S22          0.000245571
  21926687.938 6   -862858.441 6   -652976.81349  21926689.64849
  23960089.422 5    151835.496 5    109529.31646  23960090.17246
  22006075.320 6   -761256.203 6   -572676.31649  22006073.55949
  20981362.422 7    -49642.410 7    -37433.60949  20981362.62549
  20404068.680 6   -467860.051 6   -345697.46548  20404066.12148
  23321209.313 5    -24314.355 5    -18222.64146  23321207.54746
  22708859.523 5    172035.059 5    129235.13349  22708861.22349
  24581404.492 3   -893749.406 3   -632260.56647  24581404.77047
  36877012.625 6    -25641.441 6                
 20  5 16  3 30 41.0000000  0  9G01G04G07G08G11G16G27G30S22          0.000244474
  21925754.188 6   -867762.340 6   -656798.03149  21925756.40649
  23960261.586 5    152742.301 5    110235.91046  23960262.60946
  22005253.914 6   -765574.480 6   -576041.21149  22005251.47349
  20981314.789 7    -49893.574 7    -37629.32449  20981314.69549
  20403561.227 6   -470526.695 6   -347775.37548  20403558.77748
  23321186.773 5    -24434.320 5    -18316.12546  23321185.02746
  22709050.039 5    173036.480 5    130015.46149  22709052.00049
  24580426.414 3   -898892.039 3   -636267.80947  24580426.14147
  36876672.969 6    -27413.508 6                
 20  5 16  3 30 42.0000000  0  9G01G04G07G08G11G16G27G30S22          0.000243376
  21924821.281 6   -872665.621 6   -660618.77049  21924823.12149
  23960434.234 5    153649.289 5    110942.66046  23960435.44546
  22004432.156 6   -769892.148 6   -579405.62949  22004429.69949
  20981266.938 7    -50144.273 7    -37824.68049  20981266.99249
  20403053.594 6   -473192.543 6   -349852.65648  20403051.23448
  23321163.633 5    -24553.977 5    -18409.36346  23321162.27046
  22709241.039 6    174038.172 6    130795.99649  22709242.20749
  24579448.133 3   -904034.305 3   -640274.76247  24579447.53547
  36876337.813 6    -29185.555 6                
 20  5 16  3 30 43.0000000  0  9G01G04G07G08G11G16G27G30S22          0.000242277
  21923888.328 6   -877568.395 6   -664439.10949  21923889.98849
  23960606.695 5    154556.434 5    111649.52746  23960608.28946
  22003611.188 6   -774209.230 6   -582769.58249  22003608.63749
  20981219.125 7    -50394.563 7    -38019.71549  20981219.46949
  20402546.945 6   -475857.633 6   -351929.35248  20402544.16848
  23321141.039 5    -24673.320 5    -18502.36746  23321139.62146
  22709431.398 6    175040.113 6    131576.73049  22709432.75449
  24578469.305 3   -909176.254 3   -644281.48047  24578468.86747
  36876001.359 6    -30957.344 6                
 20  5 16  3 30 44.0000000  0  9G01G04G07G08G11G16G27G30S22          0.000241180
  21922955.258 6   -882470.555 6   -668258.97349  21922957.64149
  23960778.664 5    155463.801 5    112356.56646  23960780.88346
  22002789.281 6   -778525.672 6   -586133.04349  22002787.33649
  20981171.758 7    -50644.336 7    -38214.34849  20981171.91049
  20402039.398 6   -478521.895 6   -354005.40248  20402037.06648
  23321117.891 5    -24792.313 5    -18595.09046  23321117.10946
  22709622.180 6    176042.305 6    132357.65249  22709623.67249
  24577491.031 3   -914317.848 3   -648287.92247  24577491.14147
  36875659.609 6    -32728.617 6                
 20  5 16  3 30 45.0000000  0  9G01G04G07G08G11G16G27G30S22          0.000240084
  21922022.625 6   -887372.133 6   -672078.38349  21922024.62549
  23960951.828 5    156371.313 5    113063.71146  23960953.51646
  22001967.828 6   -782841.512 6   -589496.04349  22001965.80549
  20981124.313 7    -50893.695 7    -38408.65649  20981124.49249
  20401532.711 6   -481185.414 6   -356080.86748  20401530.15248
  23321095.805 5    -24910.977 5    -18687.54747  23321094.77347
  22709812.781 6    177044.715 6    133138.75049  22709814.48049
  24576511.875 3   -919459.098 3   -652294.09847  24576512.69547
  36875325.063 5    -34499.852 5                
 20  5 16  3 30 46.0000000  0  9G01G04G07G08G11G16G27G30S22          0.000238985
  21921090.320 6   -892273.195 6   -675897.39149  21921091.97749
  23961124.578 5    157279.000 5    113770.99646  23961126.34046
  22001146.961 6   -787156.785 6   -592858.59049  22001144.67249
  20981076.813 7    -51142.629 7    -38602.63349  20981076.98049
  20401026.086 6   -483848.176 6   -358155.75048  20401023.26648
  23321072.578 5    -25029.379 5    -18779.80146  23321072.26646
  22710003.844 6    178047.367 6    133920.03949  22710005.15649
  24575533.969 3   -924600.008 3   -656300.00847  24575533.53147
  36874994.078 6    -36270.652 6                
 20  5 16  3 30 47.0000000  0  9G01G04G07G08G11G16G27G30S22          0.000237888
  21920157.500 6   -897173.668 6   -679715.94149  21920159.41049
  23961297.398 5    158186.852 5    114478.42646  23961299.36346
  22000325.602 6   -791471.438 6   -596220.66049  22000323.66849
  20981029.617 7    -51391.121 7    -38796.26249  20981030.16449
  20400519.672 6   -486510.156 6   -360230.02348  20400517.22748
  23321051.297 5    -25147.445 5    -18871.80147  23321049.45747
  22710194.727 6    179050.273 6    134701.52749  22710196.20349
  24574556.297 3   -929740.621 3   -660305.67647  24574555.77347
  36874651.969 6    -38041.531 6                
 20  5 16  3 30 48.0000000  0  9G01G04G07G08G11G16G27G30S22          0.000236792
  21919224.914 6   -902073.570 6   -683534.04749  21919227.16849
  23961470.430 5    159094.852 5    115185.95346  23961472.18846
  21999504.625 6   -795785.484 6   -599582.25849  21999502.50049
  20980982.594 7    -51639.164 7    -38989.54349  20980983.00449
  20400012.688 6   -489171.352 6   -362303.67648  20400010.36348
  23321028.367 5    -25265.211 5    -18963.56346  23321027.58246
  22710384.984 6    180053.395 6    135483.18449  22710386.97749
  24573577.867 4   -934880.867 4   -664311.04347  24573577.87947
  36874315.953 6    -39811.836 6                
 20  5 16  3 30 49.0000000  0  9G01G04G07G08G11G16G27G30S22          0.000235693
  21918292.633 6   -906972.871 6   -687351.68449  21918294.97349
  23961642.570 5    160003.102 5    115893.66446  23961644.83646
  21998683.906 6   -800098.891 6   -602943.34849  21998682.09449
  20980935.430 7    -51886.680 7    -39182.41849  20980935.64149
  20399506.555 6   -491831.746 6   -364376.71148  20399504.27748
  23321006.023 5    -25382.605 5    -19055.04347  23321005.49647
  22710576.641 6    181056.840 6    136265.08249  22710577.64849
  24572599.945 4   -940020.742 4   -668316.12947  24572599.37147
  36873976.453 6    -41581.945 6                
 20  5 16  3 30 50.0000000  0  9G01G04G07G08G11G16G27G30S22          0.000234596
  21917360.477 6   -911871.582 6   -691168.85949  21917362.35949
  23961815.883 5    160911.508 5    116601.51646  23961817.70746
  21997863.641 6   -804411.695 6   -606303.97749  21997861.65249
  20980888.156 7    -52133.773 7    -39374.96149  20980888.39549
  20399000.758 6   -494491.379 6   -366449.16048  20398998.08648
  23320983.578 5    -25499.680 5    -19146.27746  23320982.86746
  22710766.938 6    182060.508 6    137047.16449  22710768.88749
  24571621.914 4   -945160.266 4   -672320.94147  24571621.75047
  36873635.547 6    -43351.914 6                
 20  5 16  3 30 51.0000000  0  9G01G04G07G08G11G16G27G30S22          0.000233500
  21916428.273 6   -916769.645 6   -694985.52749  21916430.69949
  23961988.258 5    161820.160 5    117309.55146  23961990.33646
  21997042.789 6   -808723.813 6   -609664.07049  21997040.71149
  20980841.148 7    -52380.352 7    -39567.10549  20980841.39149
  20398494.625 6   -497150.121 6   -368520.90648  20398492.30948
  23320961.453 5    -25616.355 5    -19237.19546  23320960.17246
  22710958.539 6    183064.508 6    137829.49649  22710960.10949
  24570644.453 4   -950299.398 4   -676325.45347  24570643.42647
  36873303.422 6    -45121.559 6                
 20  5 16  3 30 52.0000000  0  9G01G04G07G08G11G16G27G30S22          0.000232405
  21915496.602 6   -921667.168 6   -698801.77749  21915498.89849
  23962161.305 5    162728.980 5    118017.71546  23962163.38346
  21996222.484 6   -813035.340 6   -613023.69949  21996220.09449
  20980794.414 7    -52626.500 7    -39758.90649  20980794.96149
  20397988.813 6   -499808.129 6   -370592.07848  20397986.83248
  23320939.523 5    -25732.723 5    -19327.86747  23320938.29747
  22711149.531 6    184068.723 6    138612.00449  22711151.11749
  24569665.914 4   -955438.223 4   -680329.73447  24569665.62947
  36872971.500 6    -46891.156 6                
 20  5 16  3 30 53.0000000  0  9G01G04G07G08G11G16G27G30S22          0.000231308
  21914564.586 6   -926564.199 6   -702617.64549  21914566.74249
  23962334.391 5    163637.902 5    118725.98046  23962336.46946
  21995401.992 6   -817346.348 6   -616382.92649  21995399.89849
  20980747.961 7    -52872.281 7    -39950.42649  20980748.19949
  20397483.188 6   -502465.449 6   -372662.71548  20397480.70348
  23320917.344 5    -25848.887 5    -19418.38747  23320916.40247
  22711340.648 6    185073.098 6    139394.63349  22711342.19949
  24568688.648 4   -960576.770 4   -684333.78947  24568687.74647
  36872627.375 6    -48660.422 6                
 20  5 16  3 30 54.0000000  0  9G01G04G07G08G11G16G27G30S22          0.000230211
  21913632.984 6   -931460.605 6   -706433.02749  21913634.90649
  23962507.047 4    164547.016 4    119434.37946  23962509.35946
  21994581.820 6   -821656.715 6   -619741.64849  21994579.70749
  20980701.102 7    -53117.594 7    -40141.57849  20980701.38349
  20396977.578 6   -505121.945 6   -374732.71149  20396975.50049
  23320895.469 5    -25964.699 5    -19508.62946  23320894.12146
  22711531.891 6    186077.762 6    140177.48449  22711533.41049
  24567711.156 4   -965714.918 4   -688337.54347  24567710.02747
  36872295.641 6    -50429.469 6                
 20  5 16  3 30 55.0000000  0  9G01G04G07G08G11G16G27G30S22          0.000229115
  21912701.672 6   -936356.402 6   -710247.93449  21912703.51649
  23962680.695 5    165456.352 5    120142.94546  23962682.56346
  21993761.781 6   -825966.418 6   -623099.85949  21993759.37149
  20980654.172 7    -53362.430 7    -40332.35949  20980654.79349
  20396472.328 6   -507777.625 6   -376802.07448  20396469.98848
  23320873.906 6    -26080.133 6    -19598.57847  23320872.25447
  22711723.125 6    187082.699 6    140960.55549  22711725.08249
  24566732.867 4   -970852.707 4   -692341.02047  24566732.08247
  36871955.813 6    -52198.336 6                
 20  5 16  3 30 56.0000000  0  9G01G04G07G08G11G16G27G30S22          0.000228018
  21911770.203 6   -941251.617 6   -714062.39149  21911771.95349
  23962854.125 4    166365.922 4    120851.70346  23962855.42246
  21992941.867 6   -830275.520 6   -626457.60249  21992939.76249
  20980608.086 7    -53606.766 7    -40522.74649  20980608.70749
  20395967.125 6   -510432.504 6   -378870.80948  20395964.68848
  23320851.555 5    -26195.246 5    -19688.27346  23320850.33246
  22711914.375 6    188087.902 6    141743.83249  22711915.62949
  24565755.469 4   -975990.172 4   -696344.23847  24565754.69947
  36871621.500 6    -53967.004 6                
 20  5 16  3 30 57.0000000  0  9G01G04G07G08G11G16G27G30S22          0.000226923
  21910838.930 6   -946146.320 6   -717876.43849  21910840.50449
  23963026.641 4    167275.563 4    121560.50846  23963028.56346
  21992121.727 6   -834584.066 6   -629814.91049  21992119.57449
  20980561.508 7    -53850.738 7    -40712.85949  20980561.98049
  20395461.781 6   -513086.664 6   -380938.98848  20395459.42248
  23320829.828 5    -26310.055 5    -19777.74246  23320828.54746
  22712105.055 6    189093.309 6    142527.26249  22712106.95349
  24564777.492 4   -981127.309 4   -700347.19547  24564776.84047
  36871281.219 6    -55735.469 6                
 20  5 16  3 30 58.0000000  0  9G01G04G07G08G11G16G27G30S22          0.000225828
  21909907.352 6   -951040.406 6   -721690.00849  21909909.10949
  23963199.930 4    168185.406 4    122269.46946  23963202.03146
  21991301.914 6   -838891.980 6   -633171.71949  21991299.88749
  20980515.336 7    -54094.211 7    -40902.57449  20980515.72749
  20394957.078 6   -515740.027 6   -383006.54748  20394954.52748
  23320807.445 5    -26424.551 5    -19866.96146  23320806.49246
  22712296.984 6    190098.973 6    143310.89849  22712297.91849
  24563799.891 4   -986264.109 4   -704349.87947  24563799.21147
  36870947.953 6    -57503.898 6                
 20  5 16  3 30 59.0000000  0  9G01G04G07G08G11G16G27G30S22          0.000224731
  21908976.336 6   -955933.953 6   -725503.16049  21908977.81349
  23963373.102 4    169095.371 4    122978.52346  23963375.10946
  21990482.531 6   -843199.313 6   -636528.09049  21990480.59049
  20980468.766 7    -54337.289 7    -41091.98449  20980469.43449
  20394452.344 6   -518392.645 6   -385073.52048  20394450.00848
  23320785.984 5    -26538.773 5    -19955.96947  23320784.92647
  22712488.750 6    191104.844 6    144094.68849  22712489.72749
  24562822.516 4   -991400.613 4   -708352.34447  24562821.81347
  36870608.250 6    -59271.863 6                
 20  5 16  3 31  0.0000000  0  9G01G04G07G08G11G16G27G30S22          0.000223635
  21908045.070 6   -960826.922 6   -729315.86349  21908046.67249
  23963546.234 5    170005.578 5    123687.77046  23963548.49246
  21989662.797 6   -847506.020 6   -639883.96549  21989660.55949
  20980422.594 7    -54579.859 7    -41281.00049  20980423.40649
  20393947.898 6   -521044.445 6   -387139.85548  20393945.46948
  23320764.391 5    -26652.617 5    -20044.67646  23320763.23446
  22712680.023 6    192111.004 6    144878.70349  22712681.43849
  24561845.758 4   -996536.695 4   -712354.47747  24561844.45747
  36870270.406 6    -61040.047 6                
 20  5 16  3 31  1.0000000  0  9G01G04G07G08G11G16G27G30S22          0.000222540
  21907114.039 6   -965719.328 6   -733128.12549  21907115.75049
  23963720.141 5    170915.938 5    124397.13746  23963721.76246
  21988843.469 6   -851812.121 6   -643239.36749  21988841.24249
  20980376.789 7    -54822.035 7    -41469.71149  20980377.81649
  20393443.188 6   -523695.504 6   -389205.61348  20393440.82448
  23320742.914 6    -26766.195 6    -20133.17247  23320741.68047
  22712871.180 6    193117.398 6    145662.90649  22712872.75449
  24560868.438 4  -1001672.496 4   -716356.40247  24560867.48847
  36869933.641 6    -62807.578 6                
 20  5 16  3 31  2.0000000  0  9G01G04G07G08G11G16G27G30S22          0.000221445
  21906183.109 6   -970611.168 6   -736939.94549  21906184.89549
  23963893.055 5    171826.477 5    125106.64146  23963895.10946
  21988024.547 6   -856117.641 6   -646594.32049  21988021.85949
  20980330.648 7    -55063.750 7    -41658.06349  20980331.52049
  20392939.109 6   -526345.789 6   -391270.77348  20392936.13348
  23320721.609 6    -26879.461 6    -20221.42647  23320720.02747
  22713063.203 6    194123.996 6    146447.27049  22713064.41449
  24559890.859 4  -1006807.973 4   -720358.07047  24559890.05547
  36869601.344 6    -64575.188 6                
 20  5 16  3 31  3.0000000  0  9G01G04G07G08G11G16G27G30S22          0.000220350
  21905252.039 6   -975502.457 6   -740751.34049  21905254.12149
  23964066.008 4    172737.105 4    125816.22346  23964067.85246
  21987205.000 6   -860422.590 6   -649948.83249  21987202.57449
  20980284.406 7    -55305.051 7    -41846.08649  20980285.35249
  20392434.789 6   -528995.328 6   -393335.34448  20392432.21148
  23320700.023 6    -26992.434 6    -20309.46146  23320698.62946
  22713254.430 6    195130.832 6    147231.81349  22713255.34849
  24558912.820 4  -1011943.113 4   -724359.47747  24558912.59047
  36869267.641 6    -66342.309 6                
 20  5 16  3 31  4.0000000  0  9G01G04G07G08G11G16G27G30S22          0.000219255
  21904321.680 6   -980393.199 6   -744562.30549  21904323.84049
  23964240.039 4    173647.898 4    126525.92646  23964241.43846
  21986385.648 6   -864726.934 6   -653302.86749  21986383.89149
  20980238.984 7    -55545.918 7    -42033.77749  20980239.65249
  20391930.594 6   -531644.094 6   -395399.32048  20391928.24248
  23320678.156 6    -27105.086 6    -20397.24647  23320676.75847
  22713445.789 6    196137.887 6    148016.52749  22713447.58649
  24557936.984 4  -1017077.902 4   -728360.61347  24557936.09447
  36868925.469 6    -68109.363 6                
 20  5 16  3 31  5.0000000  0  9G01G04G07G08G11G16G27G30S22          0.000218161
  21903391.000 6   -985283.332 6   -748372.80549  21903392.92649
  23964413.375 4    174558.934 4    127235.82446  23964414.64846
  21985566.813 6   -869030.645 6   -656656.40649  21985564.56649
  20980193.039 7    -55786.320 7    -42221.10249  20980194.17249
  20391426.648 6   -534292.055 6   -397462.66848  20391424.21548
  23320656.953 6    -27217.410 6    -20484.77747  23320655.65647
  22713638.055 6    197145.223 6    148801.45349  22713638.84449
  24556959.133 4  -1022212.363 4   -732361.48447  24556958.70347
  36868596.547 6    -69876.297 6                
 20  5 16  3 31  6.0000000  0  9G01G04G07G08G11G16G27G30S22          0.000217066
  21902460.695 6   -990172.906 6   -752182.85549  21902462.75449
  23964585.844 4    175470.098 4    127945.81346  23964588.30546
  21984747.406 6   -873333.762 6   -660009.47749  21984745.42249
  20980147.328 7    -56026.281 7    -42408.09049  20980148.46149
  20390923.453 6   -536939.281 6   -399525.44548  20390920.89848
  23320635.305 6    -27329.434 6    -20572.07047  23320634.14147
  22713829.648 6    198152.766 6    149586.55149  22713830.91449
  24555982.703 4  -1027346.473 4   -736362.08247  24555981.89147
  36868260.563 6    -71642.773 6                
 20  5 16  3 31  7.0000000  0  9G01G04G07G08G11G16G27G30S22          0.000215971
  21901530.172 6   -995061.930 6   -755992.48449  21901532.18449
  23964759.297 4    176381.445 4    128655.94946  23964761.85246
  21983929.344 6   -877636.297 6   -663362.10249  21983927.09049
  20980101.641 7    -56265.828 7    -42594.74249  20980102.78549
  20390419.586 6   -539585.738 6   -401587.61748  20390417.26248
  23320614.555 6    -27441.145 6    -20659.10946  23320612.83246
  22714021.219 6    199160.539 6    150371.83249  22714022.44549
  24555005.250 4  -1032480.320 4   -740362.47347  24555004.99247
  36867921.500 6    -73409.461 6                
 20  5 16  3 31  8.0000000  0  9G01G04G07G08G11G16G27G30S22          0.000214876
  21900599.859 6   -999950.395 6   -759801.68049  21900601.61349
  23964933.172 4    177292.922 4    129366.17646  23964935.40246
  21983110.008 6   -881938.230 6   -666714.26249  21983108.34849
  20980055.844 6    -56504.941 6    -42781.07049  20980057.55549
  20389916.273 6   -542231.434 6   -403649.19548  20389913.65648
  23320593.172 5    -27552.563 5    -20745.93446  23320591.43846
  22714213.500 6    200168.555 6    151157.28949  22714214.21549
  24554028.570 4  -1037613.789 4   -744362.57047  24554028.10247
  36867585.797 6    -75175.285 6                
 20  5 16  3 31  9.0000000  0  9G01G04G07G08G11G16G27G30S22          0.000213781
  21899669.836 6  -1004838.242 6   -763610.38749  21899671.83649
  23965106.414 5    178204.664 5    130076.62546  23965109.09046
  21982291.797 6   -886239.500 6   -670065.90249  21982289.64549
  20980010.953 6    -56743.563 6    -42967.00849  20980012.17249
  20389413.000 6   -544876.285 6   -405710.12148  20389410.25048
  23320572.180 5    -27663.613 5    -20832.46947  23320570.34847
  22714405.297 6    201176.855 6    151942.98049  22714406.24649
  24553051.461 4  -1042746.906 4   -748362.39547  24553050.98847
  36867247.703 6    -76941.281 6                
 20  5 16  3 31 10.0000000  0  9G01G04G07G08G11G16G27G30S22          0.000212688
  21898739.805 6  -1009725.578 6   -767418.70349  21898741.72349
  23965280.461 4    179116.484 4    130787.14146  23965282.51246
  21981473.438 6   -890540.238 6   -673417.12549  21981471.42649
  20979964.984 6    -56981.777 6    -43152.62149  20979966.67649
  20388909.180 6   -547520.430 6   -407770.49248  20388907.12148
  23320551.320 6    -27774.422 6    -20918.81347  23320549.43447
  22714597.195 6    202185.348 6    152728.81649  22714597.63749
  24552074.406 4  -1047879.711 4   -752361.97747  24552073.96147
  36866910.578 5    -78706.680 5                
 20  5 16  3 31 11.0000000  0  9G01G04G07G08G11G16G27G30S22          0.000211596
  21897810.203 6  -1014612.359 6   -771226.57849  21897811.27049
  23965453.727 4    180028.457 4    131497.76246  23965455.78946
  21980655.250 6   -894840.395 6   -676767.89549  21980653.17249
  20979920.047 7    -57219.594 7    -43337.93449  20979921.16849
  20388406.477 6   -550163.840 6   -409830.28948  20388403.82848
  23320530.180 6    -27884.922 6    -21004.91846  23320528.32846
  22714788.875 6    203194.047 6    153514.81349  22714789.55549
  24551097.852 4  -1053012.219 4   -756361.32047  24551097.55947
  36866578.281 6    -80472.137 6                
 20  5 16  3 31 12.0000000  0  9G01G04G07G08G11G16G27G30S22          0.000210503
  21896879.844 6  -1019498.539 6   -775033.99249  21896882.07849
  23965627.211 4    180940.629 4    132208.53946  23965629.22346
  21979837.242 6   -899139.906 6   -680118.16449  21979834.94149
  20979874.859 7    -57456.941 7    -43522.87949  20979876.05949
  20387903.727 6   -552806.410 6   -411889.43848  20387900.99248
  23320508.797 5    -27995.090 5    -21090.76646  23320507.23446
  22714981.453 6    204203.012 6    154301.02049  22714981.83649
  24550121.313 4  -1058144.359 4   -760360.38347  24550120.99647
  36866241.547 6    -82237.449 6                
 20  5 16  3 31 13.0000000  0  9G01G04G07G08G11G16G27G30S22          0.000209410
  21895950.055 6  -1024384.117 6   -778840.93049  21895952.27349
  23965801.320 4    181852.957 4    132919.43846  23965803.00846
  21979019.203 6   -903438.797 6   -683467.94549  21979016.77049
  20979830.063 7    -57693.805 7    -43707.44549  20979831.50449
  20387401.055 6   -555448.246 6   -413948.01248  20387398.37148
  23320488.164 5    -28104.918 5    -21176.35246  23320486.75046
  22715173.156 6    205212.227 6    155087.41849  22715173.77049
  24549144.219 4  -1063276.168 4   -764359.19547  24549143.97347
  36865906.000 6    -84002.227 6                
 20  5 16  3 31 14.0000000  0  9G01G04G07G08G11G16G27G30S22          0.000208315
  21895020.594 6  -1029269.160 6   -782647.45749  21895022.55549
  23965974.617 4    182765.473 4    133630.49246  23965976.67246
  21978201.031 6   -907737.113 6   -686817.28549  21978198.77349
  20979785.117 7    -57930.258 7    -43891.69549  20979786.37549
  20386898.320 6   -558089.285 6   -416005.96548  20386896.03948
  23320467.070 5    -28214.453 5    -21261.70746  23320466.00046
  22715365.234 6    206221.688 6    155874.01249  22715365.66849
  24548167.727 4  -1068407.602 4   -768357.71547  24548167.59047
  36865568.703 6    -85767.172 6                
 20  5 16  3 31 15.0000000  0  9G01G04G07G08G11G16G27G30S22          0.000207220
  21894091.234 6  -1034153.645 6   -786453.55149  21894092.93049
  23966148.344 4    183678.133 4    134341.63746  23966150.35546
  21977383.430 6   -912034.848 6   -690166.16849  21977381.08249
  20979739.945 7    -58166.309 7    -44075.62949  20979741.34049
  20386395.898 6   -560729.590 6   -418063.34048  20386393.28548
  23320446.539 5    -28323.676 5    -21346.82446  23320444.92246
  22715557.469 6    207231.348 6    156660.76249  22715558.12549
  24547191.570 3  -1073538.766 3   -772356.03147  24547191.66047
  36865235.859 6    -87531.496 6                
 20  5 16  3 31 16.0000000  0  9G01G04G07G08G11G16G27G30S22          0.000206127
  21893161.328 6  -1039037.559 6   -790259.19549  21893163.73449
  23966322.242 5    184590.941 5    135052.91446  23966323.78146
  21976565.727 6   -916331.957 6   -693514.56649  21976563.66849
  20979695.195 7    -58401.895 7    -44259.19949  20979696.49249
  20385893.531 6   -563369.125 6   -420120.12548  20385891.51648
  23320425.844 6    -28432.605 6    -21431.71146  23320424.26246
  22715749.523 6    208241.242 6    157447.69149  22715750.35249
  24546214.805 3  -1078669.563 3   -776354.05547  24546215.39147
  36864897.359 6    -89295.883 6                
 20  5 16  3 31 17.0000000  0  9G01G04G07G08G11G16G27G30S22          0.000205032
  21892232.648 6  -1043920.879 6   -794064.37549  21892234.68049
  23966496.070 4    185504.000 4    135764.38746  23966497.05146
  21975747.922 6   -920628.465 6   -696862.49649  21975745.89849
  20979650.727 7    -58637.012 7    -44442.41049  20979651.59049
  20385391.375 6   -566007.840 6   -422176.26248  20385389.14848
  23320405.156 6    -28541.184 6    -21516.32046  23320403.77046
  22715941.477 6    209251.418 6    158234.83649  22715942.26249
  24545238.289 4  -1083800.012 4   -780351.80147  24545239.05947
  36864563.500 6    -91059.926 6                
 20  5 16  3 31 18.0000000  0  9G01G04G07G08G11G16G27G30S22          0.000203938
  21891302.984 6  -1048803.633 6   -797869.11749  21891305.59849
  23966669.367 5    186417.180 5    136475.96546  23966671.37146
  21974930.445 6   -924924.363 6   -700209.94949  21974928.26249
  20979605.945 7    -58871.695 7    -44625.27749  20979607.17649
  20384889.609 6   -568645.785 6   -424231.80548  20384887.33248
  23320384.727 6    -28649.477 6    -21600.69947  23320383.10247
  22716134.305 6    210261.809 6    159022.15249  22716134.84849
  24544261.898 4  -1088930.129 4   -784349.28947  24544262.91047
  36864228.203 6    -92824.020 6                
 20  5 16  3 31 19.0000000  0  9G01G04G07G08G11G16G27G30S22          0.000202845
  21890374.016 6  -1053685.785 6   -801673.39549  21890376.51649
  23966842.984 5    187330.578 5    137187.68846  23966844.88746
  21974112.805 6   -929219.609 6   -703556.89149  21974111.25849
  20979561.469 7    -59105.898 7    -44807.77349  20979562.19549
  20384387.852 6   -571282.949 6   -426286.73448  20384385.26648
  23320363.844 6    -28757.398 6    -21684.78947  23320362.39547
  22716326.297 6    211272.523 6    159809.71949  22716326.98449
  24543286.438 4  -1094059.836 4   -788346.46547  24543286.62547
  36863893.313 6    -94588.016 6                
 20  5 16  3 31 20.0000000  0  9G01G04G07G08G11G16G27G30S22          0.000201752
  21889445.406 6  -1058567.387 6   -805477.23849  21889447.60249
  23967017.492 4    188244.074 4    137899.50446  23967018.78146
  21973295.711 6   -933514.293 6   -706903.39849  21973293.41849
  20979516.773 7    -59339.668 7    -44989.93849  20979518.28549
  20383885.797 6   -573919.367 6   -428341.09448  20383883.44548
  23320343.555 6    -28865.027 6    -21768.65647  23320341.85547
  22716518.297 6    212283.391 6    160597.39849  22716519.14849
  24542310.391 4  -1099189.305 4   -792343.44547  24542310.44547
  36863551.734 6    -96351.660 6                
 20  5 16  3 31 21.0000000  0  9G01G04G07G08G11G16G27G30S22          0.000200659
  21888516.688 6  -1063448.445 6   -809280.66849  21888518.45349
  23967191.219 5    189157.785 5    138611.48446  23967192.69146
  21972478.992 6   -937808.359 6   -710249.42249  21972476.61749
  20979472.406 7    -59573.008 7    -45171.75449  20979473.70349
  20383384.570 6   -576555.020 6   -430394.84848  20383381.80548
  23320323.148 6    -28972.383 6    -21852.31646  23320321.77046
  22716711.016 6    213294.492 6    161385.26249  22716711.37149
  24541333.617 3  -1104318.375 3   -796340.11747  24541334.32047
  36863220.391 6    -98115.164 6                
 20  5 16  3 31 22.0000000  0  9G01G04G07G08G11G16G27G30S22          0.000199566
  21887588.016 6  -1068328.855 6   -813083.57849  21887589.83649
  23967365.430 4    190071.656 4    139323.58246  23967366.18846
  21971661.938 6   -942101.785 6   -713594.94549  21971659.56349
  20979428.203 7    -59805.863 7    -45353.19949  20979429.14149
  20382883.508 6   -579189.836 6   -432447.96148  20382880.53948
  23320302.945 5    -29079.352 5    -21935.68046  23320301.39846
  22716903.063 6    214305.910 6    162173.37949  22716903.91049
  24540357.680 3  -1109447.094 3   -800336.52047  24540358.58647
  36862885.906 6    -99878.480 6                
 20  5 16  3 31 23.0000000  0  9G01G04G07G08G11G16G27G30S22          0.000198475
  21886658.633 6  -1073208.723 6   -816886.07049  21886660.91849
  23967539.273 4    190985.707 4    140035.82046  23967540.57846
  21970844.703 6   -946394.621 6   -716940.01649  21970842.75849
  20979383.875 7    -60038.293 7    -45534.31349  20979385.27349
  20382381.742 6   -581823.930 6   -434500.49648  20382379.11748
  23320282.242 5    -29186.016 5    -22018.79747  23320280.84847
  22717095.641 6    215317.496 6    162961.62949  22717096.48849
  24539382.234 3  -1114575.520 3   -804332.69547  24539382.52747
  36862545.641 6   -101641.566 6                
 20  5 16  3 31 24.0000000  0  9G01G04G07G08G11G16G27G30S22          0.000197382
  21885730.883 6  -1078088.023 6   -820688.12149  21885732.73449
  23967712.992 4    191899.957 4    140748.22346  23967714.23446
  21970028.406 6   -950686.852 6   -720284.60549  21970025.81649
  20979339.719 7    -60270.270 7    -45715.07849  20979340.85549
  20381880.531 6   -584457.195 6   -436552.39148  20381877.91048
  23320261.977 5    -29292.367 5    -22101.66447  23320260.99647
  22717288.859 6    216329.387 6    163750.12149  22717288.77049
  24538406.125 3  -1119703.563 3   -808328.57447  24538406.43447
  36862213.250 6   -103404.238 6                
 20  5 16  3 31 25.0000000  0  9G01G04G07G08G11G16G27G30S22          0.000196289
  21884802.297 6  -1082966.734 6   -824489.71549  21884804.51649
  23967887.125 4    192814.324 4    141460.70346  23967888.12146
  21969211.844 6   -954978.449 6   -723628.70349  21969209.40249
  20979295.242 7    -60501.820 7    -45895.50449  20979296.60549
  20381380.164 6   -587089.719 6   -438603.70748  20381377.52748
  23320242.078 6    -29398.391 6    -22184.27746  23320240.80946
  22717481.281 6    217341.500 6    164538.78149  22717481.39149
  24537429.867 3  -1124831.262 3   -812324.19147  24537430.85947
  36861881.359 6   -105166.977 6                
 20  5 16  3 31 26.0000000  0  9G01G04G07G08G11G16G27G30S22          0.000195196
  21883874.000 6  -1087844.879 6   -828290.87149  21883876.43849
  23968061.773 4    193728.895 4    142173.35946  23968062.20746
  21968395.172 6   -959269.461 6   -726972.35249  21968393.16049
  20979251.469 7    -60732.910 7    -46075.57049  20979252.64849
  20380878.805 6   -589721.465 6   -440654.41848  20380876.34448
  23320222.156 5    -29504.121 5    -22266.66046  23320220.66846
  22717673.695 6    218353.848 6    165327.62149  22717673.87949
  24536455.195 3  -1129958.633 3   -816319.55147  24536455.53947
  36861542.750 6   -106929.145 6                
 20  5 16  3 31 27.0000000  0  9G01G04G07G08G11G16G27G30S22          0.000194105
  21882945.398 6  -1092722.527 6   -832091.63349  21882948.24649
  23968235.383 5    194643.578 5    142886.09046  23968236.23446
  21967578.273 6   -963559.934 6   -730315.57849  21967576.25449
  20979207.297 7    -60963.660 7    -46255.37149  20979209.17649
  20380378.266 6   -592352.492 6   -442704.56648  20380375.30948
  23320202.320 6    -29609.598 6    -22348.85547  23320201.07047
  22717866.180 6    219366.383 6    166116.60249  22717866.71549
  24535478.680 3  -1135085.742 3   -820314.69947  24535479.46947
  36861204.141 6   -108691.590 6                
 20  5 16  3 31 28.0000000  0  9G01G04G07G08G11G16G27G30S22          0.000193014
  21882018.250 6  -1097599.609 6   -835891.95349  21882019.70749
  23968409.477 5    195558.367 5    143598.88746  23968410.46546
  21966762.031 6   -967849.816 6   -733658.34449  21966760.00849
  20979163.563 7    -61193.973 7    -46434.83649  20979165.00049
  20379877.516 6   -594982.793 6   -444754.15648  20379875.08248
  23320181.539 6    -29714.781 6    -22430.82846  23320180.98046
  22718058.906 6    220379.094 6    166905.72749  22718059.60949
  24534504.094 3  -1140212.539 3   -824309.60947  24534504.48847
  36860874.828 6   -110453.602 6                
 20  5 16  3 31 29.0000000  0  9G01G04G07G08G11G16G27G30S22          0.000191921
  21881089.773 6  -1102476.258 6   -839691.93849  21881091.93449
  23968583.219 5    196473.242 5    144311.78946  23968584.19546
  21965946.008 6   -972139.211 6   -737000.72349  21965943.58649
  20979119.898 7    -61423.930 7    -46614.02349  20979121.14849
  20379377.164 6   -597612.430 6   -446803.22348  20379374.53548
  23320161.773 5    -29819.766 5    -22512.63346  23320160.82046
  22718251.688 6    221391.953 6    167694.96949  22718251.80149
  24533527.758 3  -1145339.129 3   -828304.35547  24533528.52747
  36860540.281 6   -112215.516 6                
 20  5 16  3 31 30.0000000  0  9G01G04G07G08G11G16G27G30S22          0.000190830
  21880161.844 6  -1107352.289 6   -843491.44549  21880163.90649
  23968757.828 4    197388.270 4    145024.79746  23968758.59046
  21965129.828 6   -976427.969 6   -740342.61749  21965127.24649
  20979076.305 7    -61653.434 7    -46792.85249  20979077.25449
  20378876.930 6   -600241.242 6   -448851.64848  20378874.45748
  23320141.781 5    -29924.422 5    -22594.19147  23320140.78547
  22718444.195 6    222405.074 6    168484.41449  22718444.79749
  24532551.594 3  -1150465.301 3   -832298.77747  24532553.09047
  36860205.594 6   -113977.215 6                
 20  5 16  3 31 31.0000000  0  9G01G04G07G08G11G16G27G30S22          0.000189739
  21879234.563 6  -1112227.781 6   -847290.52749  21879236.34049
  23968931.422 5    198303.453 5    145737.93046  23968932.55546
  21964313.641 6   -980716.148 6   -743684.05949  21964311.41849
  20979032.664 7    -61882.555 7    -46971.38749  20979034.14149
  20378376.742 6   -602869.332 6   -450899.51648  20378374.18048
  23320122.008 6    -30028.797 6    -22675.51646  23320120.78946
  22718637.508 6    223418.410 6    169274.02049  22718637.75849
  24531577.250 3  -1155591.223 3   -836293.00447  24531577.97747
  36859863.453 6   -115738.578 6                
 20  5 16  3 31 32.0000000  0  9G01G04G07G08G11G16G27G30S22          0.000188646
  21878306.492 6  -1117102.629 6   -851089.11349  21878308.49249
  23969105.867 5    199218.859 5    146451.22746  23969106.31646
  21963497.633 6   -985003.684 6   -747025.00449  21963495.75849
  20978989.281 6    -62111.125 6    -47149.49249  20978990.60549
  20377876.633 6   -605496.594 6   -452946.72748  20377874.26248
  23320103.117 5    -30132.762 5    -22756.52747  23320101.44547
  22718830.656 6    224432.031 6    170063.84849  22718830.19949
  24530601.938 3  -1160716.715 3   -840286.89147  24530602.56347
  36859528.594 6   -117500.000 6                
 20  5 16  3 31 33.0000000  0  9G01G04G07G08G11G16G27G30S22          0.000187555
  21877378.867 6  -1121976.934 6   -854887.27749  21877381.09049
  23969280.195 5    200134.410 5    147164.62946  23969281.00046
  21962682.313 6   -989290.621 6   -750365.46949  21962679.68849
  20978946.133 6    -62339.309 6    -47327.29749  20978947.06649
  20377377.273 6   -608123.105 6   -454993.35948  20377374.97348
  23320082.422 5    -30236.469 5    -22837.34047  23320081.48047
  22719023.445 6    225445.891 6    170853.86749  22719023.16849
  24529626.695 3  -1165841.895 3   -844280.54347  24529627.29347
  36859195.047 6   -119260.848 6                
 20  5 16  3 31 34.0000000  0  9G01G04G07G08G11G16G27G30S22          0.000186464
  21876451.820 6  -1126850.730 6   -858685.03949  21876453.66449
  23969454.180 4    201050.117 4    147878.16446  23969455.57846
  21961866.445 6   -993576.992 6   -753705.50049  21961864.24649
  20978902.328 6    -62567.090 6    -47504.79349  20978903.56649
  20376877.313 6   -610748.867 6   -457039.40648  20376875.02348
  23320063.398 5    -30339.855 5    -22917.90247  23320061.68047
  22719216.508 6    226459.922 6    171644.02749  22719216.51249
  24528652.156 3  -1170966.758 3   -848273.93847  24528652.32447
  36858858.000 6   -121021.875 6                
 20  5 16  3 31 35.0000000  0  9G01G04G07G08G11G16G27G30S22          0.000185373
  21875523.961 6  -1131723.961 6   -862482.35249  21875526.21549
  23969628.859 4    201965.930 4    148591.77746  23969629.59846
  21961050.898 6   -997862.742 6   -757045.05949  21961048.66449
  20978858.977 7    -62794.461 7    -47681.96149  20978860.12549
  20376377.945 6   -613373.867 6   -459084.86348  20376375.94948
  23320043.422 6    -30442.980 6    -22998.26247  23320042.08647
  22719409.367 6    227474.191 6    172434.36349  22719409.06349
  24527677.000 3  -1176091.324 3   -852267.10947  24527677.47347
  36858525.922 6   -122782.238 6                
 20  5 16  3 31 36.0000000  0  9G01G04G07G08G11G16G27G30S22          0.000184282
  21874597.016 6  -1136596.629 6   -866279.23849  21874598.92249
  23969802.484 5    202881.906 5    149305.52046  23969803.62546
  21960235.547 6  -1002147.957 6   -760384.19949  21960232.71549
  20978815.977 6    -63021.402 6    -47858.80549  20978816.75449
  20375878.750 6   -615998.141 6   -461129.75048  20375876.17648
  23320023.242 5    -30545.824 5    -23078.40247  23320022.65647
  22719602.258 6    228488.660 6    173224.85249  22719602.21949
  24526702.117 3  -1181215.539 3   -856260.02047  24526701.89547
  36858189.969 6   -124542.762 6                
 20  5 16  3 31 37.0000000  0  9G01G04G07G08G11G16G27G30S22          0.000183191
  21873669.523 6  -1141468.652 6   -870075.61749  21873671.71949
  23969977.492 5    203798.129 5    150019.46546  23969977.95346
  21959420.016 6  -1006432.477 6   -763722.78549  21959417.86349
  20978772.984 6    -63247.844 6    -48035.25049  20978774.09449
  20375379.531 6   -618621.578 6   -463173.98848  20375376.68448
  23320004.125 5    -30648.262 5    -23158.22347  23320003.34047
  22719795.430 6    229503.453 6    174015.59849  22719794.73449
  24525727.016 3  -1186339.414 3   -860252.66047  24525727.12147
  36857852.297 6   -126302.887 6                
 20  5 16  3 31 38.0000000  0  9G01G04G07G08G11G16G27G30S22          0.000182100
  21872743.148 6  -1146340.129 6   -873871.57049  21872744.69549
  23970151.773 4    204714.500 4    150733.51246  23970152.15646
  21958604.797 6  -1010716.395 6   -767060.89849  21958602.50049
  20978729.875 6    -63473.859 6    -48211.36749  20978730.57449
  20374880.586 6   -621244.230 6   -465217.61748  20374878.04748
  23319984.461 5    -30750.395 5    -23237.80547  23319983.48047
  22719988.852 6    230518.434 6    174806.49649  22719988.78949
  24524751.695 3  -1191462.891 3   -864244.97747  24524751.99647
  36857516.766 6   -128062.750 6                
 20  5 16  3 31 39.0000000  0  9G01G04G07G08G11G16G27G30S22          0.000181011
  21871815.945 6  -1151211.023 6   -877667.07849  21871817.39549
  23970326.352 5    205631.023 5    151447.68446  23970326.82846
  21957790.203 6  -1014999.707 6   -770398.54349  21957787.28949
  20978687.063 6    -63699.426 6    -48387.13749  20978687.77749
  20374381.664 6   -623866.133 6   -467260.65648  20374378.70348
  23319964.789 5    -30852.250 5    -23317.17247  23319964.05147
  22720181.766 6    231533.676 6    175597.59449  22720181.74649
  24523776.930 4  -1196586.074 4   -868237.07447  24523777.28147
  36857188.781 6   -129822.793 6                
 20  5 16  3 31 40.0000000  0  9G01G04G07G08G11G16G27G30S22          0.000179920
  21870889.352 6  -1156081.352 6   -881462.13349  21870891.52749
  23970500.695 5    206547.738 5    152162.00446  23970501.09046
  21956974.523 6  -1019282.426 6   -773735.72349  21956972.71549
  20978644.398 6    -63924.555 6    -48562.55549  20978645.25449
  20373882.289 6   -626487.242 6   -469303.07848  20373880.34048
  23319945.953 5    -30953.773 5    -23396.28547  23319945.03947
  22720374.938 6    232549.148 6    176388.87549  22720374.65249
  24522802.352 3  -1201708.910 3   -872228.88347  24522802.55147
  36856848.500 6   -131582.266 6                
 20  5 16  3 31 41.0000000  0  9G01G04G07G08G11G16G27G30S22          0.000178829
  21869962.266 6  -1160951.152 6   -885256.78549  21869964.04349
  23970674.625 4    207464.500 4    152876.35246  23970675.72346
  21956159.867 6  -1023564.609 6   -777072.48449  21956157.75449
  20978601.164 7    -64149.320 7    -48737.69949  20978602.05549
  20373384.016 6   -629107.656 6   -471344.96148  20373381.46948
  23319926.602 5    -31055.027 5    -23475.18047  23319925.71947
  22720568.586 6    233564.797 6    177180.28949  22720568.29349
  24521827.219 3  -1206831.441 3   -876220.45347  24521827.56347
  36856518.953 6   -133342.055 6                
 20  5 16  3 31 42.0000000  0  9G01G04G07G08G11G16G27G30S22          0.000177740
  21869035.914 6  -1165820.438 6   -889051.03149  21869037.82049
  23970849.617 4    208381.457 4    153590.86746  23970849.87146
  21955345.148 6  -1027846.176 6   -780408.77349  21955343.28949
  20978558.859 7    -64373.652 7    -48912.50449  20978559.11349
  20372885.852 6   -631727.305 6   -473386.24248  20372883.10548
  23319907.469 5    -31155.980 5    -23553.84847  23319906.19147
  22720761.086 6    234580.684 6    177971.89549  22720761.64149
  24520852.852 3  -1211953.668 3   -880211.79747  24520852.40647
  36856176.203 6   -135101.379 6                
 20  5 16  3 31 43.0000000  0  9G01G04G07G08G11G16G27G30S22          0.000176649
  21868109.148 6  -1170689.027 6   -892844.73049  21868111.31349
  23971023.523 5    209298.648 5    154305.54346  23971024.81346
  21954530.375 6  -1032127.078 6   -783744.53549  21954527.98849
  20978516.203 7    -64597.461 7    -49086.90249  20978516.74649
  20372387.125 6   -634346.090 6   -475426.85248  20372384.67248
  23319888.641 5    -31256.590 5    -23632.24647  23319887.17247
  22720955.211 6    235596.852 6    178763.70749  22720954.85949
  24519878.203 4  -1217075.473 4   -884202.81647  24519878.25047
  36855843.047 6   -136860.543 6                
 20  5 16  3 31 44.0000000  0  9G01G04G07G08G11G16G27G30S22          0.000175560
  21867182.992 6  -1175557.133 6   -896638.06349  21867185.01649
  23971198.359 5    210215.965 5    155020.32846  23971199.31646
  21953715.883 6  -1036407.438 6   -787079.87949  21953713.68449
  20978473.594 7    -64820.898 7    -49261.01649  20978474.38749
  20371889.055 6   -636964.199 6   -477466.94148  20371886.50848
  23319869.523 5    -31356.926 5    -23710.43447  23319868.11747
  22721148.375 6    236613.234 6    179555.69149  22721148.32049
  24518904.031 4  -1222197.012 4   -888193.62547  24518903.46947
  36855509.000 6   -138619.355 6                
 20  5 16  3 31 45.0000000  0  9G01G04G07G08G11G16G27G30S22          0.000174471
  21866256.477 6  -1180424.676 6   -900430.94549  21866258.47749
  23971372.336 4    211133.358 4    155735.17746  23971373.84446
  21952901.859 6  -1040687.188 6   -790414.75849  21952899.42249
  20978431.422 7    -65043.891 7    -49434.77349  20978431.83649
  20371390.977 6   -639581.523 6   -479506.41049  20371388.32049
  23319850.258 5    -31456.953 5    -23788.37546  23319848.94946
  22721341.570 6    237629.801 6    180347.82449  22721341.66049
  24517929.406 4  -1227318.238 4   -892184.18447  24517929.16847
  36855174.594 6   -140377.988 6                
 20  5 16  3 31 46.0000000  0  9G01G04G07G08G11G16G27G30S22          0.000173380
  21865330.500 6  -1185291.633 6   -904223.37949  21865332.62949
  23971547.422 4    212050.984 4    156450.20746  23971547.96546
  21952087.063 6  -1044966.352 6   -793749.18049  21952084.60549
  20978389.141 7    -65266.477 7    -49608.22749  20978389.83249
  20370892.898 6   -642198.078 6   -481545.28548  20370889.99248
  23319831.188 5    -31556.664 5    -23866.07446  23319830.07046
  22721535.398 6    238646.633 6    181140.16049  22721535.07449
  24516955.047 4  -1232439.102 4   -896174.46147  24516954.58647
  36854839.531 6   -142136.703 6                
 20  5 16  3 31 47.0000000  0  9G01G04G07G08G11G16G27G30S22          0.000172291
  21864404.945 6  -1190158.020 6   -908015.35949  21864405.64549
  23971722.414 5    212968.777 5    157165.37546  23971723.18846
  21951273.266 6  -1049244.875 6   -797083.09449  21951270.68049
  20978346.648 7    -65488.598 7    -49781.30549  20978347.30949
  20370395.320 6   -644813.867 6   -483583.55948  20370392.85248
  23319812.242 5    -31656.047 5    -23943.51647  23319811.12147
  22721728.875 6    239663.699 6    181932.68449  22721728.79749
  24515979.984 4  -1237559.633 4   -900164.48047  24515980.55147
  36854504.063 6   -143894.852 6                
 20  5 16  3 31 48.0000000  0  9G01G04G07G08G11G16G27G30S22          0.000171202
  21863478.781 6  -1195023.797 6   -911806.87549  21863480.32849
  23971896.508 5    213886.742 5    157880.66846  23971897.47346
  21950459.320 6  -1053522.758 6   -800416.50849  21950456.88349
  20978304.750 7    -65710.281 7    -49954.05549  20978304.95349
  20369897.586 6   -647428.844 6   -485621.20348  20369895.17648
  23319793.328 5    -31755.117 5    -24020.70746  23319792.11346
  22721922.375 6    240681.043 6    182725.41449  22721922.53149
  24515005.961 5  -1242679.793 5   -904154.21147  24515006.00847
  36854172.906 6   -145653.316 6                
 20  5 16  3 31 49.0000000  0  9G01G04G07G08G11G16G27G30S22          0.000170113
  21862552.148 6  -1199888.977 6   -915597.93849  21862554.45349
  23972071.383 5    214804.898 5    158596.10246  23972072.35246
  21949645.008 6  -1057800.047 6   -803749.45749  21949642.64149
  20978262.375 7    -65931.492 7    -50126.42649  20978263.14149
  20369400.438 6   -650043.023 6   -487658.22348  20369398.08248
  23319774.977 5    -31853.848 5    -24097.63746  23319773.41846
  22722116.320 6    241698.633 6    183518.33649  22722116.30549
  24514031.477 5  -1247799.582 5   -908143.65247  24514031.61747
  36853839.016 6   -147411.039 6                
 20  5 16  3 31 50.0000000  0  9G01G04G07G08G11G16G27G30S22          0.000169024
  21861626.930 6  -1204753.680 6   -919388.61349  21861628.86749
  23972246.461 5    215723.129 5    159311.59446  23972246.87146
  21948831.336 6  -1062076.801 6   -807081.99649  21948828.87949
  20978220.391 7    -66152.352 7    -50298.52349  20978220.90249
  20368902.758 6   -652656.531 6   -489694.72748  20368900.25448
  23319756.133 5    -31952.324 5    -24174.37546  23319754.24646
  22722309.852 6    242716.363 6    184311.37149  22722310.11349
  24513057.578 4  -1252919.125 4   -912132.90647  24513057.44547
  36853500.953 6   -149168.922 6                
 20  5 16  3 31 51.0000000  0  9G01G04G07G08G11G16G27G30S22          0.000167934
  21860701.102 6  -1209617.848 6   -923178.87149  21860703.26649
  23972421.313 4    216641.488 4    160027.19146  23972421.78546
  21948017.516 6  -1066352.992 6   -810414.09049  21948015.18049
  20978178.523 7    -66372.805 7    -50470.30549  20978179.00449
  20368405.484 6   -655269.293 6   -491730.65248  20368403.07048
  23319737.328 5    -32050.551 5    -24250.91446  23319735.88746
  22722503.398 6    243734.305 6    185104.57049  22722503.54749
  24512083.289 4  -1258038.375 4   -916121.93847  24512082.98847
  36853168.016 6   -150926.613 6                
 20  5 16  3 31 52.0000000  0  9G01G04G07G08G11G16G27G30S22          0.000166845
  21859776.180 6  -1214481.488 6   -926968.71549  21859777.19949
  23972595.406 4    217559.973 4    160742.87946  23972596.33246
  21947204.273 6  -1070628.617 6   -813745.74649  21947201.73449
  20978136.367 7    -66592.852 7    -50641.77349  20978136.82049
  20367908.555 6   -657881.320 6   -493765.99648  20367906.07048
  23319718.883 5    -32148.480 5    -24327.23046  23319716.96946
  22722697.414 6    244752.430 6    185897.91049  22722697.50049
  24511108.648 4  -1263157.332 4   -920110.74247  24511109.20747
  36852838.031 6   -152684.137 6                
 20  5 16  3 31 53.0000000  0  9G01G04G07G08G11G16G27G30S22          0.000165756
  21858850.703 6  -1219344.543 6   -930758.10549  21858852.02049
  23972771.047 4    218478.617 4    161458.69946  23972771.17646
  21946390.766 6  -1074903.637 6   -817076.92649  21946388.37149
  20978094.703 7    -66812.457 7    -50812.88749  20978095.27749
  20367411.836 6   -660492.605 6   -495800.76648  20367408.85548
  23319700.508 5    -32246.129 5    -24403.32446  23319698.62546
  22722890.992 6    245770.758 6    186691.41449  22722891.12549
  24510135.141 5  -1268275.961 5   -924099.27047  24510135.11347
  36852500.203 6   -154441.566 6                
 20  5 16  3 31 54.0000000  0  9G01G04G07G08G11G16G27G30S22          0.000164667
  21857924.891 6  -1224207.066 6   -934547.07849  21857926.79349
  23972945.422 4    219397.375 4    162174.63346  23972946.17646
  21945577.883 6  -1079178.082 6   -820407.66849  21945574.79749
  20978053.000 7    -67031.695 7    -50983.72349  20978053.45349
  20366915.047 6   -663103.133 6   -497834.93848  20366912.64148
  23319681.453 5    -32343.484 5    -24479.18846  23319679.88746
  22723085.273 6    246789.309 6    187485.09449  22723085.00449
  24509160.789 5  -1273394.273 5   -928087.55547  24509160.88747
  36852166.875 6   -156198.602 6                
 20  5 16  3 31 55.0000000  0  9G01G04G07G08G11G16G27G30S22          0.000163580
  21856999.969 6  -1229068.992 6   -938335.59449  21857001.22749
  23973120.352 4    220316.320 4    162890.70346  23973121.23046
  21944764.133 6  -1083451.918 6   -823737.92249  21944761.48849
  20978011.555 7    -67250.395 7    -51154.14149  20978011.78549
  20366418.164 6   -665712.895 6   -499868.52348  20366416.02348
  23319663.211 5    -32440.504 5    -24554.78947  23319661.45747
  22723279.320 6    247808.129 6    188278.98449  22723278.66049
  24508186.391 4  -1278512.177 4   -932075.53947  24508186.75447
  36851832.344 6   -157955.766 6                
 20  5 16  3 31 56.0000000  0  9G01G04G07G08G11G16G27G30S22          0.000162491
  21856074.773 6  -1233930.418 6   -942123.71549  21856076.43449
  23973295.141 4    221235.406 4    163606.87946  23973296.42646
  21943950.906 6  -1087725.156 6   -827067.72349  21943948.23449
  20977969.828 7    -67468.734 7    -51324.27749  20977969.74249
  20365921.633 6   -668321.887 6   -501901.50448  20365919.13748
  23319645.398 5    -32537.277 5    -24630.19547  23319642.79347
  22723472.945 6    248827.117 6    189073.00449  22723472.73449
  24507212.500 5  -1283629.879 5   -936063.35547  24507212.96547
  36851501.500 6   -159712.492 6                
 20  5 16  3 31 57.0000000  0  9G01G04G07G08G11G16G27G30S22          0.000161402
  21855150.023 6  -1238791.277 6   -945911.40249  21855151.28549
  23973470.406 4    222154.590 4    164323.12546  23973471.29746
  21943138.305 6  -1091997.840 6   -830397.09049  21943135.16049
  20977928.453 7    -67686.645 7    -51494.07849  20977928.65649
  20365425.617 6   -670930.160 6   -503933.91848  20365422.98848
  23319626.695 5    -32633.730 5    -24705.35546  23319625.02746
  22723666.602 6    249846.332 6    189867.19949  22723666.51649
  24506239.320 5  -1288747.203 5   -940050.87547  24506239.15647
  36851160.953 6   -161469.266 6                
 20  5 16  3 31 58.0000000  0  9G01G04G07G08G11G16G27G30S22          0.000160315
  21854224.672 6  -1243651.637 6   -949698.69149  21854226.52049
  23973645.141 4    223073.879 4    165039.44146  23973646.04746
  21942324.984 6  -1096269.992 6   -833726.03149  21942322.24649
  20977887.133 7    -67904.211 7    -51663.60949  20977887.26649
  20364929.117 6   -673537.730 6   -505965.78948  20364926.60548
  23319608.023 5    -32729.969 5    -24780.34046  23319606.37946
  22723859.992 6    250865.711 6    190661.51649  22723860.49649
  24505265.219 5  -1293864.293 5   -944038.21547  24505265.54347
  36850828.719 6   -163225.629 6                
 20  5 16  3 31 59.0000000  0  9G01G04G07G08G11G16G27G30S22          0.000159225
  21853300.359 6  -1248511.438 6   -953485.54749  21853301.95749
  23973820.281 4    223993.332 4    165755.89546  23973821.18846
  21941512.148 6  -1100541.555 6   -837054.52349  21941509.32849
  20977845.672 7    -68121.344 7    -51832.80549  20977845.78949
  20364433.031 6   -676144.555 6   -507997.08648  20364430.61348
  23319590.133 5    -32825.902 5    -24855.09846  23319588.13346
  22724054.336 6    251885.301 6    191455.99649  22724054.26649
  24504291.219 4  -1298981.035 4   -948025.28947  24504291.43047
  36850497.281 6   -164981.570 6                
 20  5 16  3 32  0.0000000  0  9G01G04G07G08G11G16G27G30S22          0.000158138
  21852375.492 6  -1253370.688 6   -957271.98049  21852376.96149
  23973994.961 4    224912.910 4    166472.43846  23973996.49646
  21940699.266 6  -1104812.527 6   -840382.55149  21940696.73049
  20977804.375 6    -68338.078 6    -52001.69149  20977804.66049
  20363937.094 6   -678750.633 6   -510027.79748  20363934.99648
  23319571.734 5    -32921.566 5    -24929.64146  23319570.12946
  22724248.250 6    252905.066 6    192250.62149  22724248.51649
  24503317.930 5  -1304097.465 5   -952012.10247  24503317.89847
  36850160.641 6   -166737.742 6                
 20  5 16  3 32  1.0000000  0  9G01G04G07G08G11G16G27G30S22          0.000157049
  21851451.063 6  -1258229.387 6   -961057.98049  21851452.45749
  23974169.945 4    225832.586 4    167189.05946  23974170.78546
  21939886.258 6  -1109082.918 6   -843710.12549  21939884.17649
  20977763.258 6    -68554.430 6    -52170.27749  20977763.57449
  20363441.641 6   -681355.984 6   -512057.94548  20363439.02348
  23319553.797 6    -33016.941 6    -25003.96146  23319551.43446
  22724442.305 5    253925.051 5    193045.41049  22724442.91049
  24502344.453 4  -1309213.602 4   -955998.70747  24502344.63747
  36849823.859 6   -168493.332 6                
 20  5 16  3 32  2.0000000  0  9G01G04G07G08G11G16G27G30S22          0.000155962
  21850526.445 6  -1263087.633 6   -964843.62549  21850527.96149
  23974345.102 4    226752.324 4    167905.73046  23974346.43446
  21939074.289 6  -1113352.848 6   -847037.35249  21939071.68849
  20977721.953 6    -68770.461 6    -52338.60949  20977722.44549
  20362945.797 6   -683960.672 6   -514087.56648  20362943.37548
  23319536.250 6    -33112.117 6    -25078.11347  23319533.47347
  22724636.750 5    254945.195 5    193840.32049  22724636.84449
  24501369.984 4  -1314329.535 4   -959985.14847  24501370.76647
  36849499.578 6   -170249.223 6                
 20  5 16  3 32  3.0000000  0  9G01G04G07G08G11G16G27G30S22          0.000154873
  21849601.945 6  -1267945.363 6   -968628.87149  21849603.93049
  23974519.742 4    227672.207 4    168622.51646  23974521.57046
  21938261.508 6  -1117622.156 6   -850364.09049  21938259.18849
  20977681.234 6    -68986.082 6    -52506.62949  20977681.41049
  20362450.219 6   -686564.598 6   -516116.59848  20362447.94548
  23319517.719 6    -33206.992 6    -25152.04747  23319515.75847
  22724830.516 5    255965.473 5    194635.32849  22724830.88749
  24500396.539 4  -1319445.109 4   -963971.31347  24500397.30547
  36849160.203 6   -172004.332 6                
 20  5 16  3 32  4.0000000  0  9G01G04G07G08G11G16G27G30S22          0.000153786
  21848678.148 6  -1272802.563 6   -972413.70349  21848679.79349
  23974694.953 4    228592.172 4    169339.37946  23974696.57446
  21937449.023 6  -1121890.977 6   -853690.44949  21937446.68849
  20977640.328 6    -69201.340 6    -52674.36749  20977640.56349
  20361954.938 6   -689167.852 6   -518145.10948  20361952.66848
  23319500.133 6    -33301.641 6    -25225.80147  23319497.51647
  22725024.703 5    256985.961 5    195430.52049  22725024.96949
  24499423.898 4  -1324560.469 4   -967957.30947  24499423.85247
  36848822.078 6   -173759.391 6                
 20  5 16  3 32  5.0000000  0  9G01G04G07G08G11G16G27G30S22          0.000152699
  21847753.906 6  -1277659.191 6   -976198.08249  21847755.14549
  23974870.086 4    229512.277 4    170056.34846  23974871.65646
  21936636.711 6  -1126159.180 6   -857016.31649  21936634.80149
  20977599.406 7    -69416.172 7    -52841.77349  20977599.46949
  20361459.852 6   -691770.348 6   -520173.03148  20361457.46148
  23319481.672 6    -33395.969 6    -25299.31347  23319479.73847
  22725219.164 5    258006.656 5    196225.86749  22725219.42249
  24498450.477 4  -1329675.469 4   -971943.00447  24498450.32047
  36848490.797 6   -175514.539 6                
 20  5 16  3 32  6.0000000  0  9G01G04G07G08G11G16G27G30S22          0.000151611
  21846829.555 6  -1282515.289 6   -979982.05549  21846831.10249
  23975045.820 4    230432.543 4    170773.44146  23975046.64846
  21935824.484 6  -1130426.758 6   -860341.69549  21935822.64849
  20977558.383 7    -69630.602 7    -53008.86349  20977558.66849
  20360964.484 6   -694372.063 6   -522200.34448  20360962.19148
  23319463.336 6    -33489.996 6    -25372.57447  23319461.71547
  22725413.273 6    259027.578 6    197021.39549  22725413.41049
  24497476.898 5  -1334790.152 5   -975928.46547  24497477.23847
  36848164.094 6   -177269.004 6                
 20  5 16  3 32  7.0000000  0  9G01G04G07G08G11G16G27G30S22          0.000150524
  21845905.688 6  -1287370.820 6   -983765.58249  21845907.21149
  23975220.375 4    231352.926 4    171490.60546  23975221.89846
  21935012.625 6  -1134693.805 6   -863666.66849  21935010.55949
  20977517.633 7    -69844.637 7    -53175.63749  20977518.03149
  20360469.680 6   -696973.055 6   -524227.09048  20360467.33648
  23319446.141 6    -33583.777 6    -25445.65247  23319444.60547
  22725608.453 5    260048.703 5    197817.06349  22725607.82449
  24496503.805 5  -1339904.527 5   -979913.69147  24496504.03547
  36847824.172 6   -179023.809 6                
 20  5 16  3 32  8.0000000  0  9G01G04G07G08G11G16G27G30S22          0.000149437
  21844981.773 6  -1292225.879 6   -987548.73849  21844983.61749
  23975395.664 4    232273.406 4    172207.85546  23975397.07446
  21934200.531 6  -1138960.320 6   -866991.22749  21934198.22349
  20977476.766 6    -70058.305 6    -53342.13749  20977477.76249
  20359974.719 6   -699573.352 6   -526253.28948  20359972.39848
  23319428.539 6    -33677.309 6    -25518.53547  23319426.18047
  22725801.930 6    261069.957 6    198612.84049  22725802.28949
  24495530.805 4  -1345018.660 4   -983898.72747  24495530.43847
  36847486.703 6   -180777.824 6                
 20  5 16  3 32  9.0000000  0  9G01G04G07G08G11G16G27G30S22          0.000148350
  21844058.016 6  -1297080.395 6   -991331.48049  21844059.71149
  23975571.398 4    233194.008 4    172925.19946  23975572.73846
  21933388.984 6  -1143226.227 6   -870315.29749  21933386.88349
  20977436.336 6    -70271.566 6    -53508.31349  20977436.48449
  20359479.922 6   -702172.898 6   -528278.91048  20359477.90248
  23319410.625 6    -33770.555 6    -25591.19947  23319408.57847
  22725996.992 6    262091.438 6    199408.80949  22725997.16449
  24494557.695 5  -1350132.477 5   -987883.52347  24494557.81647
  36847158.000 6   -182532.078 6                
 20  5 16  3 32 10.0000000  0  9G01G04G07G08G11G16G27G30S22          0.000147263
  21843134.156 6  -1301934.297 6   -995113.74249  21843135.96949
  23975746.328 4    234114.758 4    173642.67246  23975747.91046
  21932577.141 6  -1147491.555 6   -873638.93049  21932575.03549
  20977395.656 6    -70484.395 6    -53674.15649  20977396.55549
  20358985.242 6   -704771.691 6   -530303.94948  20358983.42248
  23319393.000 6    -33863.488 6    -25663.61347  23319390.66447
  22726191.086 5    263113.156 5    200204.95349  22726191.33249
  24493583.711 4  -1355245.930 4   -991868.04347  24493584.53947
  36846821.719 6   -184285.879 6                
 20  5 16  3 32 11.0000000  0  9G01G04G07G08G11G16G27G30S22          0.000146175
  21842210.227 6  -1306787.699 6   -998895.61349  21842212.37949
  23975921.305 4    235035.664 4    174360.25846  23975923.23846
  21931765.422 6  -1151756.309 6   -876962.10949  21931763.27349
  20977355.320 7    -70696.820 7    -53839.68049  20977355.77049
  20358490.945 6   -707369.742 6   -532328.39848  20358489.11748
  23319374.938 6    -33956.129 6    -25735.80947  23319373.24247
  22726385.273 5    264135.059 5    201001.23849  22726385.58649
  24492611.234 4  -1360359.098 4   -995852.34047  24492611.10547
  36846483.156 5   -186039.395 5                
 20  5 16  3 32 12.0000000  0  9G01G04G07G08G11G16G27G30S22          0.000145088
  21841286.977 6  -1311640.555 6  -1002677.05549  21841289.01249
  23976095.844 4    235956.648 4    175077.90646  23976098.52746
  21930954.164 6  -1156020.488 6   -880284.84849  21930952.14549
  20977314.859 6    -70908.875 6    -54004.91449  20977315.74249
  20357997.094 6   -709967.066 6   -534352.28948  20357994.54348
  23319357.844 6    -34048.531 6    -25807.81347  23319355.60247
  22726579.711 5    265157.117 5    201797.64849  22726579.98849
  24491638.180 4  -1365471.969 4   -999836.40247  24491638.72747
  36846153.531 5   -187793.035 5                
 20  5 16  3 32 13.0000000  0  9G01G04G07G08G11G16G27G30S22          0.000144001
  21840363.617 6  -1316492.824 6  -1006458.04749  21840365.59049
  23976271.727 4    236877.832 4    175795.69146  23976273.86346
  21930142.727 6  -1160284.043 6   -883607.09449  21930140.67649
  20977274.586 6    -71120.430 6    -54169.76649  20977275.21149
  20357502.711 6   -712563.633 6   -536375.58648  20357500.42248
  23319339.414 6    -34140.602 6    -25879.56347  23319338.02347
  22726774.492 5    266179.484 5    202594.30149  22726774.26249
  24490665.523 4  -1370584.492 4  -1003820.18847  24490665.74247
  36845822.797 6   -189546.012 6                
 20  5 16  3 32 14.0000000  0  9G01G04G07G08G11G16G27G30S22          0.000142916
  21839440.141 6  -1321344.578 6  -1010238.63349  21839442.42249
  23976447.445 4    237799.129 4    176513.59046  23976449.46946
  21929331.695 6  -1164547.047 6   -886928.92649  21929329.57449
  20977234.781 6    -71331.668 6    -54334.37149  20977235.21549
  20357008.750 6   -715159.453 6   -538398.30148  20357006.39148
  23319322.016 6    -34232.406 6    -25951.09447  23319320.34447
  22726969.180 6    267201.984 6    203391.05549  22726969.32449
  24489692.398 4  -1375696.734 4  -1007803.75847  24489692.48447
  36845486.609 6   -191299.438 6                
 20  5 16  3 32 15.0000000  0  9G01G04G07G08G11G16G27G30S22          0.000141829
  21838517.320 6  -1326195.816 6  -1014018.81649  21838519.09449
  23976622.195 4    238720.488 4    177231.55146  23976624.98846
  21928520.633 6  -1168809.512 6   -890250.32849  21928518.67649
  20977194.289 6    -71542.492 6    -54498.64549  20977195.10549
  20356515.422 6   -717754.566 6   -540420.46948  20356512.54348
  23319304.430 6    -34323.949 6    -26022.43047  23319303.15247
  22727163.977 6    268224.680 6    204187.96149  22727163.95349
  24488719.750 4  -1380808.664 4  -1011787.06347  24488719.64847
  36845147.266 6   -193052.078 6                
 20  5 16  3 32 16.0000000  0  9G01G04G07G08G11G16G27G30S22          0.000140743
  21837594.156 6  -1331046.441 6  -1017798.52049  21837596.29749
  23976797.445 4    239642.059 4    177949.64546  23976800.21146
  21927709.828 6  -1173071.309 6   -893571.21549  21927707.68049
  20977154.195 6    -71752.855 6    -54662.56649  20977155.21949
  20356020.891 6   -720348.867 6   -542442.00048  20356018.91448
  23319287.344 6    -34415.156 6    -26093.50447  23319285.89847
  22727358.547 6    269247.629 6    204985.06349  22727358.61749
  24487747.477 4  -1385920.263 4  -1015770.12847  24487746.82047
  36844813.672 6   -194804.902 6                
 20  5 16  3 32 17.0000000  0  9G01G04G07G08G11G16G27G30S22          0.000139656
  21836671.328 6  -1335896.512 6  -1021577.79349  21836673.44949
  23976973.125 4    240563.777 4    178667.85946  23976975.52346
  21926898.859 6  -1177332.547 6   -896891.65649  21926896.75049
  20977114.250 6    -71962.820 6    -54826.17649  20977114.90249
  20355527.852 6   -722942.438 6   -544462.96548  20355525.77048
  23319270.664 5    -34506.090 5    -26164.36347  23319269.13747
  22727553.227 6    270270.797 6    205782.33249  22727553.34449
  24486774.859 4  -1391031.500 4  -1019752.90247  24486774.85947
  36844487.078 6   -196557.402 6                
 20  5 16  3 32 18.0000000  0  9G01G04G07G08G11G16G27G30S22          0.000138571
  21835748.508 6  -1340746.074 6  -1025356.67249  21835750.50849
  23977148.836 4    241485.594 4    179386.15646  23977150.92246
  21926088.195 6  -1181593.230 6   -900211.66849  21926085.49649
  20977074.609 6    -72172.406 6    -54989.49649  20977075.62149
  20355033.977 6   -725535.277 6   -546483.35948  20355031.94148
  23319252.859 5    -34596.758 5    -26235.02346  23319251.54346
  22727748.086 6    271294.121 6    206579.73049  22727748.16049
  24485802.117 4  -1396142.473 4  -1023735.47747  24485801.95747
  36844149.766 6   -198310.117 6                
 20  5 16  3 32 19.0000000  0  9G01G04G07G08G11G16G27G30S22          0.000137484
  21834825.938 6  -1345595.047 6  -1029135.09049  21834827.72749
  23977323.961 4    242407.543 4    180104.55546  23977326.89546
  21925277.344 6  -1185853.297 6   -903531.19549  21925275.19549
  20977034.414 6    -72381.547 6    -55152.46149  20977035.26649
  20354541.242 6   -728127.379 6   -548503.18448  20354538.98448
  23319235.836 5    -34687.129 5    -26305.45746  23319234.03146
  22727943.164 6    272317.684 6    207377.31349  22727943.02049
  24484829.266 4  -1401253.133 4  -1027717.81647  24484829.10547
  36843816.781 6   -200062.719 6                
 20  5 16  3 32 20.0000000  0  9G01G04G07G08G11G16G27G30S22          0.000136398
  21833903.219 6  -1350443.516 6  -1032913.11749  21833904.99649
  23977499.164 4    243329.613 4    180823.05546  23977502.05546
  21924466.914 6  -1190112.809 6   -906850.29749  21924464.27049
  20976994.828 6    -72590.270 6    -55315.10549  20976995.99249
  20354047.961 6   -730718.730 6   -550522.41048  20354045.61348
  23319218.320 5    -34777.223 5    -26375.66046  23319216.62946
  22728137.938 6    273341.426 6    208175.03549  22728138.07449
  24483857.102 4  -1406363.465 4  -1031699.89847  24483856.88747
  36843484.797 6   -201814.898 6                
 20  5 16  3 32 21.0000000  0  9G01G04G07G08G11G16G27G30S22          0.000135313
  21832980.555 6  -1355291.406 6  -1036690.69149  21832982.68849
  23977674.922 4    244251.859 4    181541.67646  23977677.53146
  21923656.609 6  -1194371.719 6   -910168.93449  21923654.18849
  20976955.289 6    -72798.590 6    -55477.43049  20976956.24649
  20353555.070 6   -733309.320 6   -552541.05148  20353552.41848
  23319201.555 5    -34867.008 5    -26445.61746  23319199.85946
  22728332.922 6    274365.402 6    208972.94549  22728332.91049
  24482885.070 4  -1411473.469 4  -1035681.72347  24482884.22747
  36843152.344 6   -203567.340 6                
 20  5 16  3 32 22.0000000  0  9G01G04G07G08G11G16G27G30S22          0.000134226
  21832057.836 6  -1360138.734 6  -1040467.83249  21832059.89849
  23977850.859 4    245174.223 4    182260.38346  23977853.41846
  21922846.109 6  -1198630.078 6   -913487.13349  21922843.55149
  20976915.766 6    -73006.488 6    -55639.42249  20976916.35249
  20353062.055 6   -735899.188 6   -554559.12948  20353060.00048
  23319184.375 5    -34956.500 5    -26515.34846  23319182.74646
  22728527.234 6    275389.574 6    209771.00049  22728527.68849
  24481912.406 4  -1416583.164 4  -1039663.30947  24481911.57047
  36842816.328 6   -205319.219 6                
 20  5 16  3 32 23.0000000  0  9G01G04G07G08G11G16G27G30S22          0.000133141
  21831135.664 6  -1364985.535 6  -1044244.55549  21831137.94149
  23978025.789 4    246096.723 4    182979.21546  23978028.89546
  21922035.914 6  -1202887.801 6   -916804.84449  21922033.60249
  20976876.164 6    -73213.988 6    -55801.10949  20976876.96549
  20352569.359 6   -738488.277 6   -556576.60548  20352567.12548
  23319167.367 5    -35045.711 5    -26584.85947  23319165.75847
  22728722.555 6    276413.977 6    210569.23049  22728722.64849
  24480940.633 4  -1421692.523 4  -1043644.63747  24480939.44947
  36842486.625 6   -207071.262 6                
 20  5 16  3 32 24.0000000  0  9G01G04G07G08G11G16G27G30S22          0.000132055
  21830213.742 6  -1369831.781 6  -1048020.84849  21830215.47749
  23978201.375 4    247019.316 4    183698.11746  23978204.05146
  21921225.500 6  -1207144.992 6   -920122.13749  21921223.18449
  20976836.711 6    -73421.094 6    -55962.50049  20976837.34049
  20352077.203 6   -741076.656 6   -558593.52348  20352074.95748
  23319150.477 5    -35134.652 5    -26654.16546  23319149.14146
  22728917.195 6    277438.547 6    211367.59849  22728917.34849
  24479968.852 4  -1426801.648 4  -1047625.78147  24479967.33247
  36842144.031 6   -208822.914 6                
 20  5 16  3 32 25.0000000  0  9G01G04G07G08G11G16G27G30S22          0.000130970
  21829291.242 6  -1374677.527 6  -1051796.75449  21829293.57449
  23978377.375 4    247942.047 4    184417.12546  23978380.02346
  21920415.781 6  -1211401.613 6   -923438.98049  21920413.48449
  20976797.266 6    -73627.789 6    -56123.55949  20976798.29749
  20351584.766 6   -743664.324 6   -560609.89148  20351582.12548
  23319133.656 5    -35223.336 5    -26723.27046  23319132.33246
  22729111.953 6    278463.320 6    212166.12149  22729112.71149
  24478995.750 4  -1431910.418 4  -1051606.62947  24478995.30547
  36841814.078 6   -210574.414 6                
 20  5 16  3 32 26.0000000  0  9G01G04G07G08G11G16G27G30S22          0.000129885
  21828369.523 6  -1379522.723 6  -1055572.23049  21828371.62549
  23978553.211 4    248864.910 4    185136.23046  23978555.84446
  21919605.664 6  -1215657.668 6   -926755.38749  21919603.35249
  20976758.328 6    -73834.105 6    -56284.32449  20976759.12549
  20351091.758 6   -746251.242 6   -562625.66848  20351089.79348
  23319116.453 5    -35311.773 5    -26792.18847  23319115.21547
  22729307.133 6    279488.285 6    212964.79349  22729307.53949
  24478023.891 4  -1437018.926 4  -1055587.27347  24478023.06347
  36841483.453 6   -212325.895 6                
 20  5 16  3 32 27.0000000  0  9G01G04G07G08G11G16G27G30S22          0.000128799
  21827447.438 6  -1384367.379 6  -1059347.28549  21827449.77349
  23978728.836 4    249787.820 4    185855.38346  23978731.68046
  21918795.898 6  -1219913.156 6   -930071.34849  21918793.62149
  20976719.359 6    -74040.035 6    -56444.78949  20976720.08649
  20350600.367 6   -748837.461 6   -564640.90248  20350597.72348
  23319100.445 5    -35399.883 5    -26860.85246  23319098.21546
  22729502.281 6    280513.379 6    213763.56649  22729502.49649
  24477052.383 5  -1442127.125 5  -1059567.69147  24477050.75847
  36841148.438 6   -214077.059 6                
 20  5 16  3 32 28.0000000  0  9G01G04G07G08G11G16G27G30S22          0.000127716
  21826525.625 6  -1389211.488 6  -1063121.91849  21826527.84049
  23978904.383 4    250710.902 4    186574.67246  23978907.32846
  21917986.383 6  -1224168.043 6   -933386.84849  21917984.04349
  20976680.164 6    -74245.563 6    -56604.94149  20976680.97749
  20350108.367 6   -751422.902 6   -566655.53548  20350105.59848
  23319083.445 5    -35487.762 5    -26929.32046  23319082.13746
  22729697.594 6    281538.746 6    214562.55149  22729697.59449
  24476080.016 5  -1447235.000 5  -1063547.85247  24476078.70747
  36840818.375 6   -215828.242 6                
 20  5 16  3 32 29.0000000  0  9G01G04G07G08G11G16G27G30S22          0.000126631
  21825604.492 6  -1394055.105 6  -1066896.16449  21825605.83649
  23979079.672 3    251634.094 3    187294.04346  23979082.60946
  21917176.555 6  -1228422.434 6   -936701.96149  21917174.41449
  20976640.688 6    -74450.762 6    -56764.84049  20976641.69949
  20349616.148 6   -754007.660 6   -568669.63348  20349613.35948
  23319067.063 5    -35575.367 5    -26997.58647  23319065.30947
  22729892.664 6    282564.242 6    215361.64149  22729892.95349
  24475107.945 4  -1452342.617 4  -1067527.82447  24475106.80147
  36840480.156 6   -217578.984 6                
 20  5 16  3 32 30.0000000  0  9G01G04G07G08G11G16G27G30S22          0.000125546
  21824682.742 6  -1398898.133 6  -1070669.94949  21824684.57049
  23979255.727 4    252557.383 4    188013.48846  23979258.46946
  21916367.102 6  -1232676.203 6   -940016.59049  21916365.33649
  20976602.125 6    -74655.527 6    -56924.39549  20976603.10949
  20349124.242 6   -756591.660 6   -570683.14148  20349121.98848
  23319049.727 5    -35662.680 5    -27065.61346  23319048.54346
  22730087.727 6    283589.949 6    216160.89149  22730088.02349
  24474135.938 5  -1457449.895 5  -1071507.52347  24474134.96147
  36840150.188 6   -219330.004 6                
 20  5 16  3 32 31.0000000  0  9G01G04G07G08G11G16G27G30S22          0.000124460
  21823760.891 6  -1403740.602 6  -1074443.29749  21823762.78149
  23979431.734 4    253480.883 4    188733.07446  23979434.09446
  21915557.797 6  -1236929.352 6   -943330.73449  21915555.48049
  20976563.070 6    -74859.840 6    -57083.60249  20976564.14149
  20348632.945 6   -759174.863 6   -572696.02748  20348630.23448
  23319033.383 5    -35749.664 5    -27133.39546  23319031.76246
  22730283.117 6    284615.938 6    216960.36749  22730283.39549
  24473164.945 4  -1462556.867 4  -1075486.98047  24473163.39547
  36839818.766 6   -221080.488 6                
 20  5 16  3 32 32.0000000  0  9G01G04G07G08G11G16G27G30S22          0.000123375
  21822839.281 6  -1408582.590 6  -1078216.27749  21822841.78149
  23979606.852 4    254404.398 4    189452.69146  23979609.66046
  21914748.508 6  -1241182.012 6   -946644.49249  21914746.34449
  20976524.641 6    -75063.844 6    -57242.56649  20976525.48449
  20348141.578 6   -761757.434 6   -574708.42248  20348138.94548
  23319017.094 5    -35836.480 5    -27201.04747  23319015.54747
  22730478.102 6    285641.992 6    217759.87949  22730478.61749
  24472192.750 5  -1467663.563 5  -1079466.21547  24472191.52047
  36839483.203 6   -222831.125 6                
 20  5 16  3 32 33.0000000  0  9G01G04G07G08G11G16G27G30S22          0.000122292
  21821918.180 6  -1413424.047 6  -1081988.83649  21821920.37949
  23979782.617 4    255328.043 4    190172.40646  23979785.25046
  21913939.391 6  -1245434.113 6   -949957.81349  21913937.04749
  20976485.656 6    -75267.457 6    -57401.22349  20976486.69549
  20347649.938 6   -764339.293 6   -576720.25848  20347647.73848
  23319000.688 5    -35922.996 5    -27268.45747  23318998.97347
  22730673.125 6    286668.262 6    218559.55949  22730673.87149
  24471220.539 5  -1472769.973 5  -1083445.23047  24471220.05147
  36839151.563 6   -224581.141 6                
 20  5 16  3 32 34.0000000  0  9G01G04G07G08G11G16G27G30S22          0.000121206
  21820997.320 6  -1418264.980 6  -1085760.99249  21820999.21149
  23979958.367 4    256251.785 4    190892.20346  23979961.16846
  21913130.031 6  -1249685.629 6   -953270.68049  21913128.11749
  20976447.266 7    -75470.672 7    -57559.57849  20976448.10549
  20347159.289 6   -766920.406 6   -578731.51648  20347156.77048
  23318983.688 5    -36009.242 5    -27335.66046  23318982.71946
  22730868.930 6    287694.699 6    219359.37949  22730868.94949
  24470249.719 5  -1477876.090 5  -1087424.01247  24470248.66047
  36838820.797 5   -226330.945 5                
 20  5 16  3 32 35.0000000  0  9G01G04G07G08G11G16G27G30S22          0.000120123
  21820075.875 6  -1423105.383 6  -1089532.73049  21820077.77749
  23980134.797 5    257175.637 5    191612.09046  23980137.12546
  21912321.531 6  -1253936.598 6   -956583.12149  21912319.39149
  20976408.703 7    -75673.496 7    -57717.62149  20976409.14849
  20346667.711 6   -769500.773 6   -580742.18848  20346665.80948
  23318967.813 5    -36095.223 5    -27402.66047  23318966.03547
  22731064.656 6    288721.340 6    220159.35949  22731064.84849
  24469277.609 5  -1482981.902 5  -1091402.56647  24469277.18447
  36838493.500 6   -228080.746 6                
 20  5 16  3 32 36.0000000  0  9G01G04G07G08G11G16G27G30S22          0.000119038
  21819154.805 6  -1427945.316 6  -1093304.10949  21819156.88349
  23980310.445 4    258099.574 4    192332.04746  23980312.95746
  21911512.828 6  -1258187.063 6   -959895.16849  21911510.43049
  20976370.055 7    -75875.996 7    -57875.41849  20976370.83649
  20346177.023 6   -772080.492 6   -582752.36348  20346174.66048
  23318951.180 5    -36180.984 5    -27469.50046  23318950.00846
  22731259.602 6    289748.133 6    220959.46149  22731260.08649
  24468305.734 5  -1488087.469 5  -1095380.93447  24468305.52347
  36838149.063 6   -229830.172 6                
 20  5 16  3 32 37.0000000  0  9G01G04G07G08G11G16G27G30S22          0.000117954
  21818234.102 6  -1432784.688 6  -1097075.05149  21818236.07849
  23980486.344 4    259023.594 4    193052.05946  23980488.49246
  21910703.688 6  -1262436.953 6   -963206.77749  21910701.43049
  20976331.609 7    -76078.105 7    -58032.90649  20976332.57449
  20345686.492 6   -774659.477 6   -584761.95748  20345684.04348
  23318935.234 5    -36266.477 5    -27536.11746  23318933.59846
  22731455.477 6    290775.063 6    221759.67249  22731455.75449
  24467334.461 5  -1493192.738 5  -1099359.06347  24467334.09447
  36837815.453 6   -231579.820 6                
 20  5 16  3 32 38.0000000  0  9G01G04G07G08G11G16G27G30S22          0.000116869
  21817313.156 6  -1437623.551 6  -1100845.59049  21817315.67649
  23980662.586 4    259947.773 4    193772.19546  23980664.37546
  21909895.500 6  -1266686.258 6   -966517.93049  21909893.16849
  20976292.953 7    -76279.824 7    -58190.09049  20976293.50849
  20345195.531 6   -777237.727 6   -586770.98448  20345192.79748
  23318919.063 5    -36351.723 5    -27602.53946  23318917.50846
  22731650.359 6    291802.199 6    222560.03149  22731650.94949
  24466362.992 5  -1498297.719 5  -1103336.96547  24466362.45747
  36837484.109 6   -233328.852 6                
 20  5 16  3 32 39.0000000  0  9G01G04G07G08G11G16G27G30S22          0.000115786
  21816392.547 6  -1442461.816 6  -1104615.66449  21816395.10549
  23980838.227 4    260872.059 4    194492.39146  23980840.39146
  21909087.047 6  -1270934.957 6   -969828.60549  21909084.41449
  20976255.242 7    -76481.074 7    -58346.90649  20976255.88349
  20344705.555 6   -779815.191 6   -588779.40248  20344702.74648
  23318902.289 5    -36436.613 5    -27668.69546  23318901.44946
  22731846.789 6    292829.578 6    223360.59049  22731846.62949
  24465391.836 5  -1503402.344 5  -1107314.59447  24465390.89847
  36837155.516 5   -235077.938 5                
 20  5 16  3 32 40.0000000  0  9G01G04G07G08G11G16G27G30S22          0.000114702
  21815472.234 6  -1447299.590 6  -1108385.35549  21815474.41049
  23981014.375 4    261796.477 4    195212.72746  23981015.81346
  21908278.617 6  -1275183.141 6   -973138.87149  21908276.04749
  20976216.664 6    -76681.988 6    -58503.46549  20976217.43049
  20344215.375 6   -782391.980 6   -590787.28949  20344212.15249
  23318886.547 5    -36521.309 5    -27734.67647  23318885.19547
  22732041.180 6    293857.117 6    224161.26249  22732042.28149
  24464420.328 5  -1508506.695 5  -1111292.00447  24464419.36347
  36836817.875 6   -236826.938 6                
 20  5 16  3 32 41.0000000  0  9G01G04G07G08G11G16G27G30S22          0.000113619
  21814551.367 6  -1452136.832 6  -1112154.63749  21814553.30149
  23981190.055 4    262720.953 4    195933.10246  23981191.74246
  21907470.359 6  -1279430.727 6   -976448.68449  21907467.87949
  20976178.813 6    -76882.516 6    -58659.71549  20976179.65649
  20343724.781 6   -784968.059 6   -592794.62548  20343722.26648
  23318870.875 5    -36605.676 5    -27800.42247  23318868.76247
  22732237.031 6    294884.840 6    224962.08249  22732237.55549
  24463449.359 5  -1513610.793 5  -1115269.21547  24463448.52047
  36836483.469 6   -238575.688 6                
 20  5 16  3 32 42.0000000  0  9G01G04G07G08G11G16G27G30S22          0.000112535
  21813631.258 6  -1456973.438 6  -1115923.41449  21813633.44549
  23981366.000 4    263645.664 4    196653.66046  23981368.14546
  21906662.320 6  -1283677.668 6   -979757.98849  21906659.64849
  20976140.547 7    -77082.563 7    -58815.59849  20976141.23449
  20343234.750 6   -787543.301 6   -594801.30548  20343232.02348
  23318854.695 5    -36689.738 5    -27865.93047  23318853.26247
  22732433.070 6    295912.813 6    225763.09449  22732432.95749
  24462477.266 5  -1518714.477 5  -1119246.10547  24462477.37947
  36836154.203 6   -240324.250 6                
 20  5 16  3 32 43.0000000  0  9G01G04G07G08G11G16G27G30S22          0.000111452
  21812710.914 6  -1461809.535 6  -1119691.79749  21812713.22349
  23981541.977 4    264570.438 4    197374.25446  23981544.16046
  21905854.102 6  -1287924.078 6   -983066.88749  21905851.61749
  20976102.625 7    -77282.273 7    -58971.21949  20976103.37949
  20342744.914 6   -790117.855 6   -596807.44948  20342742.28548
  23318838.813 5    -36773.551 5    -27931.23446  23318836.96146
  22732628.742 6    296940.980 6    226564.26649  22732628.97349
  24461506.313 5  -1523817.895 5  -1123222.79747  24461506.33647
  36835818.063 6   -242072.559 6                
 20  5 16  3 32 44.0000000  0  9G01G04G07G08G11G16G27G30S22          0.000110369
  21811790.477 6  -1466645.172 6  -1123459.82849  21811792.59849
  23981717.680 4    265495.285 4    198094.90646  23981720.10546
  21905046.164 6  -1292169.965 6   -986375.36349  21905043.69949
  20976064.750 7    -77481.621 7    -59126.55149  20976065.50049
  20342255.289 6   -792691.727 6   -598813.06648  20342252.31348
  23318822.820 5    -36857.164 5    -27996.38746  23318821.42646
  22732823.953 6    297969.270 6    227365.52749  22732824.86349
  24460535.242 5  -1528921.063 5  -1127199.30147  24460535.02047
  36835480.172 6   -243820.777 6                
 20  5 16  3 32 45.0000000  0  9G01G04G07G08G11G16G27G30S22          0.000109285
  21810870.000 6  -1471480.305 6  -1127227.46149  21810872.57849
  23981893.758 5    266420.238 5    198815.63346  23981895.85946
  21904238.047 6  -1296415.289 6   -989683.41049  21904235.93049
  20976026.938 7    -77680.598 7    -59281.59849  20976027.42649
  20341765.531 6   -795264.898 6   -600818.13748  20341762.49248
  23318806.914 5    -36940.500 5    -28061.33246  23318805.15646
  22733019.625 6    298997.715 6    228166.91449  22733020.48849
  24459564.078 5  -1534023.969 5  -1131175.59847  24459563.98847
  36835154.484 6   -245568.762 6                
 20  5 16  3 32 46.0000000  0  9G01G04G07G08G11G16G27G30S22          0.000108202
  21809950.383 6  -1476314.832 6  -1130994.62549  21809952.60549
  23982070.211 5    267345.309 5    199536.46146  23982072.02346
  21903430.758 7  -1300660.063 7   -992991.02349  21903428.06649
  20975989.211 7    -77879.176 7    -59436.34049  20975990.01249
  20341275.805 6   -797837.293 6   -602822.59848  20341273.22348
  23318791.016 5    -37023.500 5    -28126.00447  23318789.72347
  22733215.453 6    300026.371 6    228968.46549  22733216.31349
  24458593.438 5  -1539126.508 5  -1135151.60947  24458593.32447
  36834822.328 5   -247316.699 5                
 20  5 16  3 32 47.0000000  0  9G01G04G07G08G11G16G27G30S22          0.000107119
  21809030.664 6  -1481148.895 6  -1134761.42249  21809032.69949
  23982245.859 4    268270.473 4    200257.35946  23982248.14146
  21902622.602 6  -1304904.281 6   -996298.20749  21902620.18049
  20975951.297 7    -78077.391 7    -59590.79349  20975952.44549
  20340786.242 6   -800409.027 6   -604826.54348  20340783.45748
  23318775.281 5    -37106.336 5    -28190.55946  23318773.81346
  22733411.719 6    301055.203 6    229770.15249  22733412.28549
  24457622.297 4  -1544228.813 4  -1139127.42647  24457622.38747
  36834483.734 5   -249064.266 5                
 20  5 16  3 32 48.0000000  0  9G01G04G07G08G11G16G27G30S22          0.000106035
  21808110.914 6  -1485982.387 6  -1138527.77349  21808113.13349
  23982422.789 4    269195.789 4    200978.36746  23982424.27746
  21901815.609 6  -1309147.883 6   -999604.90649  21901812.95349
  20975913.859 7    -78275.184 7    -59744.91849  20975914.27349
  20340297.219 6   -802979.984 6   -606829.88748  20340294.68848
  23318759.516 5    -37188.832 5    -28254.83646  23318758.21946
  22733606.813 6    302084.238 6    230571.99649  22733607.38349
  24456651.320 4  -1549330.781 4  -1143102.98047  24456651.89547
  36834153.078 6   -250812.211 6                
 20  5 16  3 32 49.0000000  0  9G01G04G07G08G11G16G27G30S22          0.000104952
  21807191.250 6  -1490815.352 6  -1142293.72749  21807193.69149
  23982598.359 4    270121.180 4    201699.45746  23982600.15646
  21901007.883 6  -1313390.969 6  -1002911.20749  21901005.46149
  20975876.180 7    -78472.621 7    -59898.76249  20975877.17249
  20339807.836 6   -805550.242 6   -608832.68448  20339805.50848
  23318743.945 5    -37271.102 5    -28318.92646  23318742.75846
  22733803.094 6    303113.441 6    231373.96949  22733803.35249
  24455681.063 5  -1554432.469 5  -1147078.30947  24455680.98047
  36833824.906 5   -252559.980 5                
 20  5 16  3 32 50.0000000  0  9G01G04G07G08G11G16G27G30S22          0.000103868
  21806271.391 6  -1495647.707 6  -1146059.19549  21806273.97749
  23982774.734 5    271046.730 5    202420.66446  23982776.32446
  21900200.844 6  -1317633.395 6  -1006216.98849  21900198.02049
  20975838.914 7    -78669.578 7    -60052.23449  20975839.91049
  20339318.938 6   -808119.695 6   -610834.85548  20339316.89548
  23318728.563 5    -37353.012 5    -28382.75846  23318726.72746
  22733999.234 6    304142.895 6    232176.13749  22733999.71149
  24454709.805 5  -1559533.809 5  -1151053.37147  24454710.56647
  36833488.391 6   -254307.473 6                
 20  5 16  3 32 51.0000000  0  9G01G04G07G08G11G16G27G30S22          0.000102787
  21805351.906 6  -1500479.590 6  -1149824.29749  21805354.39849
  23982950.391 4    271972.371 4    203141.93846  23982952.44946
  21899393.500 7  -1321875.328 7  -1009522.39849  21899390.93449
  20975801.320 7    -78866.215 7    -60205.45749  20975802.14149
  20338830.070 6   -810688.492 6   -612836.52348  20338827.68448
  23318712.977 5    -37434.738 5    -28446.44546  23318711.44946
  22734195.180 6    305172.473 6    232978.40249  22734195.59849
  24453739.461 4  -1564634.863 4  -1155028.21947  24453739.86747
  36833161.547 6   -256054.949 6                
 20  5 16  3 32 52.0000000  0  9G01G04G07G08G11G16G27G30S22          0.000101704
  21804432.844 6  -1505310.965 6  -1153589.00049  21804434.85249
  23983126.242 5    272898.078 5    203863.27046  23983128.32846
  21898586.375 6  -1326116.699 6  -1012827.36749  21898583.87949
  20975763.781 7    -79062.457 7    -60358.37149  20975764.32849
  20338341.750 6   -813256.566 6   -614837.61748  20338339.17248
  23318697.148 5    -37516.195 5    -28509.92646  23318696.08246
  22734391.078 6    306202.238 6    233780.80949  22734391.34449
  24452768.914 4  -1569735.672 4  -1159002.89147  24452769.59847
  36832821.938 6   -257802.160 6                
 20  5 16  3 32 53.0000000  0  9G01G04G07G08G11G16G27G30S22          0.000100622
  21803513.359 6  -1510141.801 6  -1157353.28549  21803515.66449
  23983303.148 5    273823.910 5    204584.69146  23983304.54346
  21897779.109 6  -1330357.516 6  -1016131.89149  21897776.68849
  20975726.797 7    -79258.344 7    -60511.01249  20975727.26249
  20337853.273 6   -815823.926 6   -616838.15648  20337850.50448
  23318682.297 5    -37597.371 5    -28573.18446  23318680.21946
  22734587.164 6    307232.141 6    234583.32849  22734587.05549
  24451797.906 4  -1574836.176 4  -1162977.31347  24451798.74647
  36832492.547 5   -259549.457 5                
 20  5 16  3 32 54.0000000  0  9G01G04G07G08G11G16G27G30S22          0.000099539
  21802593.961 6  -1514972.105 6  -1161117.15649  21802596.78549
  23983479.102 4    274749.930 4    205306.26046  23983480.77046
  21896972.305 7  -1334597.734 7  -1019435.96549  21896970.00049
  20975689.445 7    -79453.836 7    -60663.34049  20975690.05149
  20337364.859 6   -818390.555 6   -618838.12548  20337362.06348
  23318666.883 5    -37678.285 5    -28636.23447  23318664.68447
  22734783.063 6    308262.289 6    235386.03549  22734783.00049
  24450827.227 4  -1579936.344 4  -1166951.46947  24450828.48047
  36832158.719 6   -261296.273 6                
 20  5 16  3 32 55.0000000  0  9G01G04G07G08G11G16G27G30S22          0.000098457
  21801675.141 6  -1519801.820 6  -1164880.57449  21801677.48849
  23983655.406 4    275675.977 4    206027.84846  23983656.91446
  21896165.617 7  -1338837.387 7  -1022739.59849  21896163.09449
  20975652.289 7    -79648.930 7    -60815.36349  20975653.09049
  20336876.203 6   -820956.426 6   -620837.50448  20336873.82848
  23318651.453 5    -37758.918 5    -28699.05946  23318649.28946
  22734978.945 6    309292.625 6    236188.89149  22734978.73849
  24449856.367 4  -1585036.250 4  -1170925.41847  24449858.18447
  36831832.172 5   -263043.145 5                
 20  5 16  3 32 56.0000000  0  9G01G04G07G08G11G16G27G30S22          0.000097374
  21800756.055 6  -1524631.027 6  -1168643.59049  21800758.44549
  23983831.250 4    276602.176 4    206749.55946  23983832.96546
  21895358.828 7  -1343076.457 7  -1026042.76649  21895356.47349
  20975615.406 7    -79843.609 7    -60967.05949  20975616.34049
  20336388.211 6   -823521.559 6   -622836.30948  20336385.59448
  23318636.117 5    -37839.246 5    -28761.65646  23318633.91046
  22735174.695 6    310323.152 6    236991.90249  22735175.19149
  24448886.164 4  -1590135.816 4  -1174899.10247  24448887.77747
  36831497.719 6   -264789.648 6                
 20  5 16  3 32 57.0000000  0  9G01G04G07G08G11G16G27G30S22          0.000096292
  21799837.219 6  -1529459.660 6  -1172406.16049  21799839.44949
  23984007.445 4    277528.508 4    207471.36746  23984009.48846
  21894552.578 7  -1347314.957 7  -1029345.49249  21894549.78549
  20975578.492 7    -80037.891 7    -61118.44949  20975579.22349
  20335900.117 7   -826085.949 7   -624834.54748  20335897.97348
  23318620.781 5    -37919.320 5    -28824.05147  23318619.13347
  22735371.555 6    311353.898 6    237795.07849  22735371.06349
  24447915.680 4  -1595235.031 4  -1178872.50447  24447917.37947
  36831162.469 6   -266536.039 6                
 20  5 16  3 32 58.0000000  0  9G01G04G07G08G11G16G27G30S22          0.000095211
  21798918.758 6  -1534287.750 6  -1176168.31349  21798920.46149
  23984184.070 4    278455.000 4    208193.30946  23984185.62146
  21893745.922 6  -1351552.820 6  -1032647.72749  21893743.57049
  20975541.336 7    -80231.750 7    -61269.51249  20975542.20349
  20335412.180 7   -828649.563 7   -626832.16448  20335409.73448
  23318605.891 5    -37999.035 5    -28886.16446  23318604.03146
  22735567.859 6    312384.852 6    238598.42649  22735567.55149
  24446945.984 4  -1600333.971 4  -1182845.71347  24446946.91447
  36830833.078 6   -268282.172 6                
 20  5 16  3 32 59.0000000  0  9G01G04G07G08G11G16G27G30S22          0.000094130
  21798000.195 6  -1539115.273 6  -1179930.01249  21798002.04349
  23984360.836 5    279381.590 5    208915.31646  23984361.85946
  21892939.742 6  -1355790.148 6  -1035949.53549  21892936.96149
  20975504.867 7    -80425.191 7    -61420.24649  20975505.80549
  20334924.953 7   -831212.473 7   -628829.23848  20334922.30548
  23318590.656 5    -38078.551 5    -28948.13346  23318588.91046
  22735764.250 6    313415.988 6    239401.91049  22735763.81349
  24445975.586 4  -1605432.566 4  -1186818.66447  24445976.46947
  36830500.781 6   -270027.820 6                
 20  5 16  3 33  0.0000000  0  9G01G04G07G08G11G16G27G30S22          0.000093046
  21797081.453 6  -1543942.289 6  -1183691.32449  21797083.28949
  23984536.883 4    280308.258 4    209637.39546  23984538.34846
  21892133.633 6  -1360026.910 6  -1039250.90649  21892131.00049
  20975467.961 7    -80618.297 7    -61570.71949  20975468.85549
  20334437.266 6   -833774.676 6   -630825.75849  20334434.50849
  23318575.414 5    -38157.781 5    -29009.87547  23318573.71147
  22735960.461 6    314447.293 6    240205.52749  22735959.78549
  24445005.453 4  -1610530.887 4  -1190791.38747  24445006.17247
  36830171.281 6   -271773.594 6                
 20  5 16  3 33  1.0000000  0  9G01G04G07G08G11G16G27G30S22          0.000091965
  21796163.141 6  -1548768.719 6  -1187452.18049  21796165.24649
  23984712.438 5    281235.109 5    210359.61346  23984714.37546
  21891327.273 6  -1364263.074 6  -1042551.82049  21891324.96549
  20975431.023 7    -80810.973 7    -61720.85949  20975431.74249
  20333949.859 6   -836336.105 6   -632821.67248  20333947.31648
  23318560.375 5    -38236.703 5    -29071.37547  23318558.63747
  22736156.023 6    315478.855 6    241009.34049  22736155.99249
  24444035.148 4  -1615628.855 4  -1194763.82447  24444036.23847
  36829840.797 6   -273519.016 6                
 20  5 16  3 33  2.0000000  0  9G01G04G07G08G11G16G27G30S22          0.000090883
  21795244.563 6  -1553594.609 6  -1191212.61749  21795246.70349
  23984889.453 5    282162.078 5    211081.93046  23984891.09446
  21890521.453 7  -1368498.648 7  -1045852.27049  21890518.76249
  20975394.555 7    -81003.281 7    -61870.70749  20975395.27749
  20333462.641 6   -838896.789 6   -634817.01248  20333460.10948
  23318545.578 5    -38315.352 5    -29132.66047  23318543.46947
  22736352.719 6    316510.551 6    241813.25849  22736352.84449
  24443065.336 4  -1620726.563 4  -1198736.05947  24443065.88747
  36829505.734 6   -275264.410 6                
 20  5 16  3 33  3.0000000  0  9G01G04G07G08G11G16G27G30S22          0.000089802
  21794326.023 6  -1558420.016 6  -1194972.66849  21794328.77049
  23985065.891 4    283089.074 4    211804.25846  23985066.91446
  21889715.445 6  -1372733.715 6  -1049152.32049  21889712.74649
  20975358.289 7    -81195.203 7    -62020.25049  20975359.07049
  20332975.328 6   -841456.809 6   -636811.83248  20332972.58648
  23318529.602 5    -38393.793 5    -29193.77746  23318528.98846
  22736549.078 6    317542.402 6    242617.28549  22736548.82449
  24442095.773 4  -1625823.965 4  -1202708.05947  24442096.41447
  36829175.125 6   -277009.586 6                
 20  5 16  3 33  4.0000000  0  9G01G04G07G08G11G16G27G30S22          0.000088720
  21793408.102 6  -1563244.887 6  -1198732.30549  21793410.33249
  23985242.313 4    284016.215 4    212526.70346  23985243.45746
  21888909.945 6  -1376968.223 6  -1052451.93849  21888907.25449
  20975321.492 7    -81386.754 7    -62169.51649  20975322.27049
  20332488.281 6   -844016.113 6   -638806.09848  20332485.65648
  23318515.641 5    -38471.934 5    -29254.66846  23318513.57046
  22736745.719 6    318574.457 6    243421.48849  22736744.64849
  24441125.414 4  -1630921.113 4  -1206679.86747  24441125.98847
  36828843.281 6   -278754.547 6                
 20  5 16  3 33  5.0000000  0  9G01G04G07G08G11G16G27G30S22          0.000087639
  21792490.125 6  -1568069.215 6  -1202491.52349  21792492.40649
  23985418.906 4    284943.430 4    213249.19946  23985420.07446
  21888104.219 6  -1381202.141 6  -1055751.09449  21888101.86349
  20975284.969 7    -81577.938 7    -62318.49249  20975286.16049
  20332001.352 6   -846574.684 6   -640799.78548  20331998.92248
  23318500.461 5    -38549.832 5    -29315.36746  23318498.80146
  22736941.594 6    319606.660 6    244225.80149  22736941.42249
  24440156.102 4  -1636017.926 4  -1210651.40247  24440156.27347
  36828512.031 6   -280499.453 6                
 20  5 16  3 33  6.0000000  0  9G01G04G07G08G11G16G27G30S22          0.000086557
  21791572.266 6  -1572893.023 6  -1206250.32849  21791574.57449
  23985595.898 4    285870.781 4    213971.79746  23985596.26246
  21887298.445 6  -1385435.508 6  -1059049.82449  21887295.84049
  20975248.813 7    -81768.695 7    -62467.14149  20975249.79349
  20331514.523 6   -849132.527 6   -642792.91448  20331512.06648
  23318486.086 5    -38627.434 5    -29375.84047  23318484.14547
  22737138.805 6    320639.078 6    245030.28149  22737137.81649
  24439185.563 4  -1641114.441 4  -1214622.70747  24439186.54747
  36828175.125 6   -282244.195 6                
 20  5 16  3 33  7.0000000  0  9G01G04G07G08G11G16G27G30S22          0.000085478
  21790654.297 6  -1577716.250 6  -1210008.68849  21790656.42649
  23985771.953 4    286798.277 4    214694.52346  23985772.75446
  21886492.719 6  -1389668.262 6  -1062348.07049  21886490.34049
  20975212.891 7    -81959.047 7    -62615.46149  20975213.38749
  20331028.531 6   -851689.617 6   -644785.45348  20331025.69948
  23318471.656 5    -38704.754 5    -29436.09047  23318469.59447
  22737335.141 6    321671.734 6    245834.95349  22737334.28949
  24438216.023 4  -1646210.703 4  -1218593.81647  24438216.55947
  36827845.063 6   -283988.750 6                
 20  5 16  3 33  8.0000000  0  9G01G04G07G08G11G16G27G30S22          0.000084396
  21789736.477 6  -1582538.941 6  -1213766.62949  21789738.90249
  23985948.008 4    287725.875 4    215417.32446  23985949.11746
  21885687.406 6  -1393900.465 6  -1065645.89149  21885685.01249
  20975176.461 7    -82149.031 7    -62763.50449  20975177.44549
  20330541.445 6   -854245.988 6   -646777.43449  20330539.20349
  23318456.484 5    -38781.820 5    -29496.14146  23318454.75446
  22737531.258 6    322704.520 6    246639.71549  22737530.92649
  24437246.391 4  -1651306.566 4  -1222564.60247  24437246.56647
  36827515.266 6   -285733.211 6                
 20  5 16  3 33  9.0000000  0  9G01G04G07G08G11G16G27G30S22          0.000083315
  21788818.984 6  -1587361.086 6  -1217524.14849  21788821.27349
  23986124.555 4    288653.590 4    216140.20346  23986125.54346
  21884882.586 6  -1398132.078 6  -1068943.25049  21884879.74649
  20975140.227 7    -82338.574 7    -62911.19949  20975141.18849
  20330055.359 6   -856801.605 6   -648768.82049  20330052.62949
  23318442.070 6    -38858.563 6    -29555.94146  23318439.82846
  22737728.055 6    323737.539 6    247444.66049  22737727.42249
  24436277.172 4  -1656402.148 4  -1226535.17647  24436277.37147
  36827185.359 6   -287477.395 6                
 20  5 16  3 33 10.0000000  0  9G01G04G07G08G11G16G27G30S22          0.000082235
  21787901.359 6  -1592182.750 6  -1221281.28549  21787903.51649
  23986300.938 4    289581.328 4    216863.12146  23986301.90646
  21884076.727 6  -1402363.160 6  -1072240.19549  21884074.57049
  20975104.656 7    -82527.828 7    -63058.66449  20975105.60949
  20329568.953 6   -859356.559 6   -650759.69549  20329566.53949
  23318427.703 5    -38935.117 5    -29615.59046  23318425.61746
  22737924.602 6    324770.684 6    248249.70349  22737924.16449
  24435307.281 4  -1661497.488 4  -1230505.56347  24435307.37947
  36826853.125 6   -289221.508 6                
 20  5 16  3 33 11.0000000  0  9G01G04G07G08G11G16G27G30S22          0.000081154
  21786983.875 6  -1597003.852 6  -1225037.98849  21786986.34849
  23986477.406 4    290509.254 4    217586.18846  23986478.89546
  21883271.836 6  -1406593.648 6  -1075536.67649  21883269.68049
  20975068.453 7    -82716.645 7    -63205.79349  20975069.34449
  20329083.148 6   -861910.738 6   -652749.96549  20329080.44949
  23318412.758 5    -39011.348 5    -29674.99647  23318411.18047
  22738121.375 6    325804.035 6    249054.91849  22738120.82049
  24434337.273 4  -1666592.500 4  -1234475.70747  24434338.07447
  36826515.703 6   -290965.500 6                
 20  5 16  3 33 12.0000000  0  9G01G04G07G08G11G16G27G30S22          0.000080074
  21786066.328 6  -1601824.383 6  -1228794.24249  21786069.10249
  23986653.695 4    291437.316 4    218309.34846  23986655.08246
  21882467.016 6  -1410823.559 6  -1078832.71549  21882464.86749
  20975032.547 7    -82905.094 7    -63352.64549  20975033.45749
  20328597.125 6   -864464.164 6   -654739.64149  20328594.33249
  23318398.383 5    -39087.316 5    -29734.19547  23318396.47747
  22738317.766 6    326837.609 6    249860.29749  22738317.30949
  24433368.734 5  -1671687.191 5  -1238445.59447  24433368.61747
  36826188.750 6   -292709.117 6                
 20  5 16  3 33 13.0000000  0  9G01G04G07G08G11G16G27G30S22          0.000078993
  21785149.391 6  -1606644.398 6  -1232550.09849  21785151.82449
  23986829.766 4    292365.465 4    219032.57846  23986831.93046
  21881662.188 6  -1415052.922 6  -1082128.31649  21881659.87149
  20974996.672 7    -83093.141 7    -63499.16849  20974997.41449
  20328111.688 6   -867016.914 6   -656728.79748  20328109.02748
  23318384.492 5    -39163.055 5    -29793.21547  23318382.13347
  22738514.742 6    327871.332 6    250665.79349  22738514.31349
  24432398.742 5  -1676781.566 5  -1242415.24647  24432398.90247
  36825856.953 6   -294452.773 6                
 20  5 16  3 33 14.0000000  0  9G01G04G07G08G11G16G27G30S22          0.000077913
  21784232.375 6  -1611463.867 6  -1236305.52349  21784234.64849
  23987007.125 3    293293.711 3    219755.87546  23987008.78146
  21880857.484 6  -1419281.664 6  -1085423.44549  21880854.90649
  20974960.984 7    -83280.770 7    -63645.37549  20974961.86749
  20327625.859 6   -869568.887 6   -658717.35248  20327623.31648
  23318369.578 5    -39238.449 5    -29851.96547  23318367.54747
  22738711.031 6    328905.262 6    251471.44549  22738710.89549
  24431429.648 4  -1681875.641 4  -1246384.65247  24431430.14147
  36825519.500 5   -296196.133 5                
 20  5 16  3 33 15.0000000  0  9G01G04G07G08G11G16G27G30S22          0.000076832
  21783315.766 6  -1616282.824 6  -1240060.55549  21783317.75449
  23987183.633 4    294222.047 4    220479.25446  23987184.96546
  21880053.008 6  -1423509.891 6  -1088718.16849  21880050.52049
  20974925.492 7    -83468.066 7    -63791.31649  20974926.07049
  20327140.570 6   -872120.191 6   -660705.38349  20327138.01249
  23318355.289 5    -39313.633 5    -29910.55946  23318353.32846
  22738908.016 6    329939.324 6    252277.19949  22738907.81649
  24430459.984 5  -1686969.457 5  -1250353.85947  24430460.30147
  36825191.141 5   -297939.316 5                
 20  5 16  3 33 16.0000000  0  9G01G04G07G08G11G16G27G30S22          0.000075752
  21782398.250 6  -1621101.246 6  -1243815.16849  21782400.87949
  23987361.609 4    295150.461 4    221202.68846  23987361.85246
  21879248.375 6  -1427737.555 6  -1092012.45749  21879245.98849
  20974890.016 7    -83654.957 7    -63936.94949  20974891.02349
  20326655.047 6   -874670.750 6   -662692.82849  20326652.43849
  23318341.352 5    -39388.559 5    -29968.94547  23318338.94947
  22739105.078 6    330973.598 6    253083.13749  22739105.09449
  24429490.828 4  -1692062.973 4  -1254322.83247  24429491.41847
  36824859.766 5   -299682.535 5                
 20  5 16  3 33 17.0000000  0  9G01G04G07G08G11G16G27G30S22          0.000074673
  21781481.547 6  -1625919.152 6  -1247569.38349  21781484.14149
  23987537.492 3    296079.008 3    221926.23046  23987538.39146
  21878443.859 6  -1431964.656 6  -1095306.30149  21878441.69549
  20974854.320 7    -83841.508 7    -64082.31349  20974855.43049
  20326169.883 6   -877220.605 6   -664679.72749  20326167.36749
  23318327.313 5    -39463.195 5    -30027.10547  23318325.06347
  22739302.188 6    332008.023 6    253889.18049  22739301.89149
  24428521.750 5  -1697156.199 5  -1258291.57047  24428521.88347
  36824528.156 5   -301425.273 5                
 20  5 16  3 33 18.0000000  0  9G01G04G07G08G11G16G27G30S22          0.000073593
  21780565.313 6  -1630736.441 6  -1251323.10549  21780567.51649
  23987714.188 4    297007.758 4    222649.93846  23987715.30546
  21877639.766 6  -1436191.117 6  -1098599.64549  21877637.49649
  20974819.469 7    -84027.574 7    -64227.29349  20974820.32449
  20325684.633 6   -879769.660 6   -666666.00849  20325682.42249
  23318313.086 5    -39537.531 5    -30085.02346  23318310.66446
  22739499.195 6    333042.715 6    254695.43849  22739498.76649
  24427552.859 5  -1702249.094 5  -1262260.05947  24427552.97747
  36824196.688 5   -303168.164 5                
 20  5 16  3 33 19.0000000  0  9G01G04G07G08G11G16G27G30S22          0.000072512
  21779648.273 6  -1635553.250 6  -1255076.46549  21779650.94949
  23987890.469 4    297936.492 4    223373.61346  23987892.02046
  21876835.477 6  -1440417.059 6  -1101892.59049  21876833.42249
  20974783.688 7    -84213.336 7    -64372.04349  20974784.72749
  20325199.727 6   -882318.035 6   -668651.75048  20325197.16448
  23318298.813 5    -39611.617 5    -30142.75846  23318296.62146
  22739695.703 6    334077.555 6    255501.79749  22739695.53149
  24426583.688 5  -1707341.695 5  -1266228.30947  24426583.63347
  36823865.938 5   -304910.918 5                
 20  5 16  3 33 20.0000000  0  9G01G04G07G08G11G16G27G30S22          0.000071432
  21778731.750 6  -1640369.520 6  -1258829.40249  21778734.53149
  23988067.148 3    298865.363 3    224097.39546  23988068.59446
  21876031.578 6  -1444642.477 6  -1105185.12149  21876029.15649
  20974748.180 7    -84398.723 7    -64516.50849  20974749.20749
  20324714.672 6   -884865.727 6   -670636.96148  20324712.10548
  23318284.594 5    -39685.477 5    -30200.31346  23318282.56646
  22739892.328 6    335112.523 6    256308.26249  22739892.40649
  24425614.055 5  -1712434.043 5  -1270196.36347  24425614.06347
  36823536.375 5   -306653.445 5                
 20  5 16  3 33 21.0000000  0  9G01G04G07G08G11G16G27G30S22          0.000070353
  21777815.461 6  -1645185.313 6  -1262581.96549  21777817.81649
  23988245.031 4    299794.293 4    224821.23446  23988245.43046
  21875227.555 6  -1448867.348 6  -1108477.23049  21875225.02749
  20974713.164 7    -84583.766 7    -64660.69149  20974713.98449
  20324230.453 6   -887412.699 6   -672621.61748  20324227.72748
  23318270.977 5    -39759.105 5    -30257.68446  23318268.47746
  22740089.734 6    336147.637 6    257114.84049  22740089.56349
  24424645.211 5  -1717526.117 5  -1274164.20747  24424645.50447
  36823198.797 5   -308396.063 5                
 20  5 16  3 33 22.0000000  0  9G01G04G07G08G11G16G27G30S22          0.000069273
  21776899.234 6  -1650000.551 6  -1266334.09449  21776901.46949
  23988421.109 4    300723.352 4    225545.16846  23988422.46146
  21874423.781 6  -1453091.621 6  -1111768.86349  21874421.55949
  20974677.891 7    -84768.352 7    -64804.52749  20974679.04349
  20323746.219 6   -889958.957 6   -674605.71549  20323743.41449
  23318256.813 5    -39832.414 5    -30314.80946  23318254.92646
  22740286.797 6    337182.977 6    257921.59849  22740286.89849
  24423676.891 5  -1722617.832 5  -1278131.77747  24423676.67647
  36822872.906 5   -310138.305 5                
 20  5 16  3 33 23.0000000  0  9G01G04G07G08G11G16G27G30S22          0.000068193
  21775983.359 6  -1654815.289 6  -1270085.84449  21775985.47349
  23988597.258 3    301652.484 3    226269.16446  23988599.24246
  21873619.695 6  -1457315.359 6  -1115060.08649  21873617.34849
  20974643.117 7    -84952.629 7    -64948.12549  20974643.37949
  20323261.289 6   -892504.496 6   -676589.24648  20323258.76648
  23318242.523 5    -39905.523 5    -30371.77746  23318240.50846
  22740483.563 6    338218.414 6    258728.43449  22740483.66849
  24422707.719 5  -1727709.320 5  -1282099.17247  24422708.00847
  36822537.422 5   -311880.840 5                
 20  5 16  3 33 24.0000000  0  9G01G04G07G08G11G16G27G30S22          0.000067116
  21775066.352 6  -1659629.465 6  -1273837.14149  21775069.40249
  23988774.883 3    302581.727 3    226993.24646  23988776.02746
  21872816.234 6  -1461538.523 6  -1118350.87149  21872813.77049
  20974608.086 7    -85136.488 7    -65091.39549  20974608.56649
  20322777.188 6   -895049.301 6   -678572.21948  20322774.78148
  23318229.344 5    -39978.355 5    -30428.53947  23318226.85947
  22740680.734 6    339254.113 6    259535.47749  22740681.18849
  24421738.531 5  -1732800.500 5  -1286066.33647  24421738.81647
  36822208.703 5   -313622.953 5                
 20  5 16  3 33 25.0000000  0  9G01G04G07G08G11G16G27G30S22          0.000066034
  21774150.484 6  -1664443.129 6  -1277588.04749  21774153.08649
  23988951.875 3    303511.035 3    227717.39146  23988953.24246
  21872012.742 6  -1465761.152 6  -1121641.21949  21872010.37549
  20974573.063 7    -85320.020 7    -65234.41049  20974573.18049
  20322292.828 6   -897593.406 6   -680554.64149  20322290.25849
  23318214.797 5    -40050.934 5    -30485.08646  23318212.91046
  22740878.180 6    340289.934 6    260342.60949  22740878.27049
  24420770.086 5  -1737891.422 5  -1290033.28547  24420770.14547
  36821874.188 5   -315364.996 5                
 20  5 16  3 33 26.0000000  0  9G01G04G07G08G11G16G27G30S22          0.000064957
  21773234.773 6  -1669256.254 6  -1281338.53149  21773236.96949
  23989128.047 3    304440.512 3    228441.66846  23989130.06646
  21871209.469 6  -1469983.207 6  -1124931.13349  21871206.75449
  20974538.125 7    -85503.125 7    -65377.09049  20974538.92649
  20321808.945 6   -900136.770 6   -682536.48049  20321806.59449
  23318201.844 5    -40123.227 5    -30541.41447  23318199.18847
  22741075.133 6    341325.938 6    261149.87549  22741075.43849
  24419801.133 5  -1742982.008 5  -1293999.96947  24419801.20347
  36821542.984 5   -317107.039 5                
 20  5 16  3 33 27.0000000  0  9G01G04G07G08G11G16G27G30S22          0.000063877
  21772319.141 6  -1674068.797 6  -1285088.57049  21772321.52749
  23989304.492 3    305370.078 3    229165.99246  23989306.77746
  21870406.078 6  -1474204.648 6  -1128220.56649  21870403.33649
  20974503.422 7    -85685.816 7    -65519.44149  20974504.19949
  20321325.336 6   -902679.371 6   -684517.72349  20321322.85549
  23318187.477 5    -40195.223 5    -30597.50846  23318185.41046
  22741272.383 6    342362.191 6    261957.33649  22741272.51249
  24418831.680 5  -1748072.219 5  -1297966.35947  24418832.57047
  36821211.453 6   -318848.711 6                
 20  5 16  3 33 28.0000000  0  9G01G04G07G08G11G16G27G30S22          0.000062798
  21771403.625 6  -1678880.754 6  -1288838.14549  21771405.55549
  23989482.344 3    306299.832 3    229890.47346  23989483.80146
  21869602.820 6  -1478425.465 6  -1131509.52049  21869600.29349
  20974468.625 7    -85868.105 7    -65661.48049  20974469.48449
  20320841.117 6   -905221.203 6   -686498.37948  20320839.32448
  23318174.008 5    -40266.922 5    -30653.37946  23318171.58246
  22741469.500 6    343398.645 6    262764.95749  22741469.52049
  24417863.656 4  -1753162.172 4  -1301932.56347  24417864.02347
  36820876.313 6   -320590.207 6                
 20  5 16  3 33 29.0000000  0  9G01G04G07G08G11G16G27G30S22          0.000061720
  21770487.430 6  -1683692.207 6  -1292587.33249  21770490.23849
  23989658.945 3    307229.645 3    230614.98846  23989660.74646
  21868799.656 6  -1482645.734 6  -1134798.03549  21868797.07449
  20974434.258 7    -86050.020 7    -65803.23849  20974434.79349
  20320357.875 6   -907762.313 6   -688478.46148  20320355.64848
  23318160.586 5    -40338.348 5    -30709.02747  23318158.43847
  22741666.539 6    344435.281 6    263572.73049  22741666.90649
  24416895.055 4  -1758251.746 4  -1305898.45747  24416895.26647
  36820549.406 6   -322331.289 6                
 20  5 16  3 33 30.0000000  0  9G01G04G07G08G11G16G27G30S22          0.000060640
  21769572.156 6  -1688503.129 6  -1296336.10249  21769574.35949
  23989836.242 3    308159.566 3    231339.59846  23989837.76646
  21867996.766 6  -1486865.457 6  -1138086.13749  21867994.10549
  20974399.398 7    -86231.586 7    -65944.71149  20974400.23049
  20319874.586 6   -910302.730 6   -690458.00849  20319871.99649
  23318146.750 5    -40409.527 5    -30764.49646  23318144.88346
  22741863.766 6    345472.063 6    264380.60949  22741864.37549
  24415926.617 4  -1763341.102 4  -1309864.18447  24415926.48447
  36820219.375 6   -324072.465 6                
 20  5 16  3 33 31.0000000  0  9G01G04G07G08G11G16G27G30S22          0.000059563
  21768656.906 6  -1693313.516 6  -1300084.44549  21768659.11349
  23990012.789 3    309089.578 3    232064.27746  23990014.93446
  21867193.992 6  -1491084.590 6  -1141373.77749  21867191.21149
  20974365.164 7    -86412.758 7    -66085.88749  20974365.84449
  20319391.125 6   -912842.426 6   -692436.99648  20319388.69948
  23318133.703 5    -40480.414 5    -30819.73447  23318131.42647
  22742061.359 6    346509.059 6    265188.66049  22742061.41049
  24414958.047 5  -1768430.133 5  -1313829.66847  24414958.30947
  36819881.250 6   -325813.410 6                
 20  5 16  3 33 32.0000000  0  9G01G04G07G08G11G16G27G30S22          0.000058483
  21767741.422 6  -1698123.383 6  -1303832.39149  21767743.80949
  23990190.430 3    310019.715 3    232789.05146  23990191.65246
  21866390.656 6  -1495303.219 6  -1144661.01249  21866388.60249
  20974330.461 7    -86593.586 7    -66226.78549  20974331.44549
  20318907.836 6   -915381.430 6   -694415.43848  20318905.90248
  23318120.156 5    -40551.094 5    -30874.81347  23318117.59047
  22742258.539 6    347546.168 6    265996.79749  22742258.95349
  24413990.383 5  -1773518.902 5  -1317794.94147  24413989.77347
  36819552.188 6   -327554.188 6                
 20  5 16  3 33 33.0000000  0  9G01G04G07G08G11G16G27G30S22          0.000057405
  21766826.461 6  -1702932.660 6  -1307579.87949  21766828.67649
  23990367.297 3    310949.969 3    233513.93046  23990368.90246
  21865588.531 6  -1499521.211 6  -1147947.76649  21865586.32049
  20974296.406 7    -86773.973 7    -66367.35249  20974296.95349
  20318424.766 6   -917919.641 6   -696393.26248  20318422.41048
  23318106.375 5    -40621.449 5    -30929.63347  23318104.46147
  22742455.734 6    348583.520 6    266805.12149  22742455.99649
  24413021.367 5  -1778607.324 5  -1321759.94547  24413021.69147
  36819226.438 6   -329294.809 6                
 20  5 16  3 33 34.0000000  0  9G01G04G07G08G11G16G27G30S22          0.000056326
  21765911.430 6  -1707741.438 6  -1311326.98049  21765913.15649
  23990544.250 4    311880.313 4    234238.87146  23990545.80946
  21864785.969 6  -1503738.637 6  -1151234.07049  21864783.59849
  20974262.078 7    -86954.004 7    -66507.63349  20974262.72749
  20317942.000 6   -920457.141 6   -698370.53548  20317939.67648
  23318093.250 5    -40691.563 5    -30984.27047  23318090.65247
  22742653.617 6    349621.051 6    267613.58649  22742653.44549
  24412052.891 5  -1783695.418 5  -1325724.69547  24412053.20347
  36818892.000 6   -331035.203 6                
 20  5 16  3 33 35.0000000  0  9G01G04G07G08G11G16G27G30S22          0.000055248
  21764996.336 6  -1712549.711 6  -1315073.68449  21764998.34849
  23990721.430 3    312810.699 3    234963.84046  23990722.66846
  21863983.836 6  -1507955.543 6  -1154519.97349  21863980.82449
  20974227.867 7    -87133.691 7    -66647.65249  20974228.22349
  20317459.477 6   -922993.980 6   -700347.29348  20317457.25848
  23318079.914 5    -40761.430 5    -31038.71147  23318078.08647
  22742850.930 6    350658.719 6    268422.16049  22742851.11749
  24411085.367 4  -1788783.297 4  -1329689.27347  24411085.71547
  36818561.125 6   -332775.680 6                
 20  5 16  3 33 36.0000000  0  9G01G04G07G08G11G16G27G30S22          0.000054169
  21764081.805 6  -1717357.398 6  -1318819.93049  21764083.25049
  23990898.266 3    313741.266 3    235688.94546  23990900.08646
  21863181.352 6  -1512171.840 6  -1157805.40649  21863178.40649
  20974193.734 7    -87312.945 7    -66787.32849  20974194.24249
  20316976.758 6   -925530.055 6   -702323.45748  20316974.44548
  23318066.734 5    -40831.008 5    -31092.93847  23318064.56347
  22743048.203 6    351696.570 6    269230.87549  22743048.93449
  24410116.953 4  -1793870.832 4  -1333653.58247  24410116.91847
  36818226.781 6   -334515.766 6                
 20  5 16  3 33 37.0000000  0  9G01G04G07G08G11G16G27G30S22          0.000053091
  21763167.102 6  -1722164.621 6  -1322565.81649  21763168.79749
  23991075.836 3    314671.836 3    236414.06646  23991077.36346
  21862378.984 6  -1516387.645 6  -1161090.45349  21862376.33249
  20974159.727 6    -87491.875 6    -66926.75449  20974160.39849
  20316494.508 6   -928065.453 6   -704299.09048  20316492.23848
  23318053.336 5    -40900.344 5    -31146.96547  23318051.50047
  22743245.930 6    352734.594 6    270039.71949  22743246.29349
  24409148.523 4  -1798958.121 4  -1337617.69547  24409148.62547
  36817900.125 6   -336256.039 6                
 20  5 16  3 33 38.0000000  0  9G01G04G07G08G11G16G27G30S22          0.000052013
  21762251.828 6  -1726971.262 6  -1326311.25849  21762253.70349
  23991252.039 4    315602.535 4    237139.28946  23991254.32846
  21861576.695 6  -1520602.852 6  -1164375.03149  21861573.84449
  20974125.602 6    -87670.406 6    -67065.87549  20974126.47349
  20316012.148 6   -930600.102 6   -706274.14548  20316009.62948
  23318040.688 5    -40969.453 5    -31200.81347  23318038.38747
  22743443.305 6    353772.781 6    270848.69549  22743443.60549
  24408180.508 4  -1804045.074 4  -1341581.56647  24408180.77747
  36817569.625 6   -337995.406 6                
 20  5 16  3 33 39.0000000  0  9G01G04G07G08G11G16G27G30S22          0.000050936
  21761337.906 6  -1731777.434 6  -1330056.32449  21761339.46949
  23991429.625 4    316533.383 4    237864.61346  23991431.31346
  21860774.805 6  -1524817.516 6  -1167659.18049  21860772.25449
  20974091.445 7    -87848.566 7    -67204.70349  20974092.28949
  20315529.703 6   -933134.039 6   -708248.63748  20315527.15248
  23318027.164 5    -41038.273 5    -31254.43847  23318025.43047
  22743641.289 6    354811.129 6    271657.79749  22743641.49249
  24407212.672 4  -1809131.793 4  -1345545.23447  24407212.91447
  36817236.125 6   -339734.816 6                
 20  5 16  3 33 40.0000000  0  9G01G04G07G08G11G16G27G30S22          0.000049858
  21760423.055 6  -1736583.063 6  -1333800.96149  21760424.63749
  23991607.305 4    317464.238 4    238589.95346  23991608.61746
  21859972.648 6  -1529031.668 6  -1170942.92249  21859969.94149
  20974057.703 7    -88026.406 7    -67343.27749  20974058.48849
  20315047.820 6   -935667.313 6   -710222.61748  20315045.64148
  23318014.242 5    -41106.875 5    -31307.90247  23318012.14147
  22743838.477 6    355849.637 6    272467.02749  22743839.21149
  24406244.891 4  -1814218.219 4  -1349508.68447  24406244.78947
  36816910.438 6   -341474.180 6                
 20  5 16  3 33 41.0000000  0  9G01G04G07G08G11G16G27G30S22          0.000048780
  21759508.711 6  -1741388.199 6  -1337545.22349  21759510.70749
  23991784.938 4    318395.219 4    239315.38346  23991785.89146
  21859170.883 6  -1533245.215 6  -1174226.19149  21859168.51649
  20974024.156 7    -88203.867 7    -67481.55549  20974024.69549
  20314566.023 6   -938199.848 6   -712196.01648  20314563.33648
  23318000.531 5    -41175.211 5    -31361.15247  23317999.35947
  22744036.609 6    356888.309 6    273276.38349  22744036.46549
  24405277.281 4  -1819304.320 4  -1353471.86747  24405277.03547
  36816575.609 6   -343213.027 6                
 20  5 16  3 33 42.0000000  0  9G01G04G07G08G11G16G27G30S22          0.000047703
  21758594.461 6  -1746192.777 6  -1341289.05149  21758596.16849
  23991961.320 4    319326.293 4    240040.87946  23991963.05146
  21858369.578 6  -1537458.223 6  -1177509.05949  21858367.31349
  20973990.367 7    -88380.941 7    -67619.53549  20973991.36749
  20314084.125 6   -940731.672 6   -714168.87148  20314081.84848
  23317987.977 5    -41243.285 5    -31414.20746  23317986.52346
  22744234.000 6    357927.137 6    274085.85949  22744234.16849
  24404308.320 4  -1824390.172 4  -1357434.86747  24404308.66447
  36816243.359 6   -344952.191 6                
 20  5 16  3 33 43.0000000  0  9G01G04G07G08G11G16G27G30S22          0.000046625
  21757680.203 6  -1750996.914 6  -1345032.53949  21757681.60549
  23992138.898 4    320257.336 4    240766.35946  23992139.96946
  21857567.961 6  -1541670.734 6  -1180791.53549  21857565.27749
  20973956.570 7    -88557.762 7    -67757.31349  20973957.87949
  20313602.359 6   -943262.891 6   -716141.25048  20313599.87148
  23317974.711 5    -41311.203 5    -31467.12547  23317973.55147
  22744431.789 6    358966.063 6    274895.41449  22744432.08249
  24403341.289 4  -1829475.828 4  -1361397.71147  24403341.43447
  36815910.797 6   -346690.875 6                
 20  5 16  3 33 44.0000000  0  9G01G04G07G08G11G16G27G30S22          0.000045547
  21756766.219 6  -1755800.570 6  -1348775.64849  21756768.07049
  23992316.320 4    321188.496 4    241491.94546  23992317.73046
  21856766.273 6  -1545882.723 6  -1184073.60249  21856764.15249
  20973923.039 7    -88734.234 7    -67894.82849  20973924.03949
  20313121.078 6   -945793.383 6   -718113.06348  20313118.10548
  23317962.531 5    -41378.875 5    -31519.84847  23317960.81647
  22744629.211 6    360005.156 6    275705.09449  22744629.85949
  24402374.063 4  -1834561.195 4  -1365360.34047  24402373.69147
  36815574.484 6   -348429.652 6                
 20  5 16  3 33 45.0000000  0  9G01G04G07G08G11G16G27G30S22          0.000044470
  21755852.383 6  -1760603.754 6  -1352518.39149  21755853.87549
  23992493.539 4    322119.656 4    242217.52046  23992494.74646
  21855964.945 6  -1550094.234 6  -1187355.30149  21855962.25049
  20973889.375 7    -88910.387 7    -68032.08649  20973890.76649
  20312639.203 6   -948323.246 6   -720084.38349  20312636.94549
  23317949.438 5    -41446.359 5    -31572.44147  23317948.18847
  22744827.102 6    361044.309 6    276514.82449  22744827.99649
  24401406.336 4  -1839646.316 4  -1369322.77747  24401406.19547
  36815251.703 6   -350168.113 6                
 20  5 16  3 33 46.0000000  0  9G01G04G07G08G11G16G27G30S22          0.000043392
  21754938.297 6  -1765406.387 6  -1356260.69949  21754940.18049
  23992670.836 4    323050.906 4    242943.16446  23992671.78546
  21855163.664 6  -1554305.172 6  -1190636.55549  21855161.00849
  20973856.336 7    -89086.168 7    -68169.05949  20973857.14849
  20312158.156 6   -950852.410 6   -722055.16448  20312155.76248
  23317936.602 5    -41513.574 5    -31624.81647  23317935.37547
  22745024.914 6    362083.648 6    277324.68849  22745025.68049
  24400438.375 4  -1844731.172 4  -1373285.00447  24400438.94947
  36814917.031 6   -351906.590 6                
 20  5 16  3 33 47.0000000  0  9G01G04G07G08G11G16G27G30S22          0.000042315
  21754024.398 6  -1770208.570 6  -1360002.66049  21754026.37149
  23992847.992 4    323982.215 4    243668.86346  23992848.75846
  21854362.523 6  -1558515.574 6  -1193917.38349  21854359.56349
  20973822.727 7    -89261.625 7    -68305.78549  20973823.67649
  20311676.789 6   -953380.871 6   -724025.39149  20311674.22349
  23317924.000 5    -41580.574 5    -31677.02347  23317922.20347
  22745222.586 6    363123.121 6    278134.66449  22745223.15249
  24399471.047 4  -1849815.777 4  -1377247.03147  24399471.16447
  36814586.406 6   -353644.922 6                
 20  5 16  3 33 48.0000000  0  9G01G04G07G08G11G16G27G30S22          0.000041237
  21753110.438 6  -1775010.215 6  -1363744.19549  21753112.12549
  23993025.289 4    324913.613 4    244394.62946  23993026.49246
  21853561.430 6  -1562725.461 6  -1197197.82049  21853558.59849
  20973789.414 6    -89436.715 6    -68442.21549  20973790.34449
  20311195.703 6   -955908.645 6   -725995.08648  20311193.30148
  23317910.977 5    -41647.355 5    -31729.06646  23317909.94946
  22745420.609 6    364162.730 6    278944.75449  22745421.38349
  24398503.086 4  -1854900.098 4  -1381208.83647  24398503.26247
  36814262.016 6   -355383.324 6                
 20  5 16  3 33 49.0000000  0  9G01G04G07G08G11G16G27G30S22          0.000040159
  21752197.188 6  -1779811.332 6  -1367485.32849  21752198.43849
  23993202.422 5    325845.063 5    245120.43846  23993203.66846
  21852760.422 6  -1566934.789 6  -1200477.82049  21852757.74249
  20973756.453 6    -89611.457 6    -68578.38349  20973757.24649
  20310715.055 6   -958435.727 6   -727964.24648  20310712.27348
  23317898.313 5    -41713.855 5    -31780.88346  23317897.05546
  22745617.953 6    365202.508 6    279754.96149  22745618.71149
  24397535.789 4  -1859984.141 4  -1385170.43047  24397536.03947
  36813928.969 6   -357121.531 6                
 20  5 16  3 33 50.0000000  0  9G01G04G07G08G11G16G27G30S22          0.000039083
  21751283.641 6  -1784612.043 6  -1371226.14149  21751284.96149
  23993380.039 4    326776.523 4    245846.24646  23993381.18046
  21851959.461 6  -1571143.656 6  -1203757.44949  21851956.83249
  20973723.273 6    -89785.914 6    -68714.32049  20973723.82849
  20310234.289 6   -960962.184 6   -729932.91448  20310231.76248
  23317885.758 5    -41780.184 5    -31832.56647  23317884.59447
  22745816.102 6    366242.367 6    280565.24649  22745816.93849
  24396569.234 4  -1865067.931 4  -1389131.83247  24396568.45747
  36813595.203 6   -358859.727 6                
 20  5 16  3 33 51.0000000  0  9G01G04G07G08G11G16G27G30S22          0.000038006
  21750370.094 6  -1789412.199 6  -1374966.52049  21750371.33249
  23993556.586 4    327708.109 4    246572.14546  23993558.55146
  21851158.477 6  -1575351.941 6  -1207036.63349  21851155.84049
  20973690.250 6    -89959.984 6    -68849.96149  20973690.99649
  20309754.086 6   -963487.910 6   -731901.00848  20309751.16448
  23317873.047 5    -41846.289 5    -31884.07447  23317871.75447
  22746014.086 5    367282.398 5    281375.65649  22746015.17249
  24395601.688 4  -1870151.516 4  -1393093.06347  24395600.92647
  36813263.484 6   -360597.758 6                
 20  5 16  3 33 52.0000000  0  9G01G04G07G08G11G16G27G30S22          0.000036930
  21749456.711 6  -1794211.844 6  -1378706.49249  21749458.21549
  23993734.031 4    328639.723 4    247298.07446  23993735.69946
  21850357.766 6  -1579559.699 6  -1210315.40649  21850355.33249
  20973656.938 6    -90133.711 6    -68985.32449  20973657.83649
  20309272.953 6   -966012.961 6   -733868.58248  20309270.61748
  23317860.805 5    -41912.133 5    -31935.37946  23317859.78546
  22746211.984 5    368322.563 5    282186.17649  22746212.44949
  24394634.016 4  -1875234.793 4  -1397054.06347  24394633.87947
  36812935.031 6   -362335.664 6                
 20  5 16  3 33 53.0000000  0  9G01G04G07G08G11G16G27G30S22          0.000035852
  21748543.531 6  -1799011.023 6  -1382446.11349  21748544.97349
  23993911.039 4    329571.398 4    248024.04346  23993913.21546
  21849557.516 6  -1583766.918 6  -1213593.75449  21849554.76249
  20973624.258 6    -90307.102 6    -69120.43449  20973624.60949
  20308792.906 6   -968537.324 6   -735835.61748  20308790.29348
  23317848.227 5    -41977.773 5    -31986.52747  23317847.05947
  22746409.813 5    369362.879 5    282996.81649  22746410.78949
  24393666.992 4  -1880317.852 4  -1401014.88347  24393666.81347
  36812603.000 6   -364073.508 6                
 20  5 16  3 33 54.0000000  0  9G01G04G07G08G11G16G27G30S22          0.000034775
  21747630.352 6  -1803809.680 6  -1386185.33249  21747631.60249
  23994088.320 5    330503.164 5    248750.09046  23994090.28146
  21848756.898 6  -1587973.637 6  -1216871.71949  21848753.80549
  20973590.898 6    -90480.168 6    -69255.29349  20973591.67649
  20308312.586 6   -971061.008 6   -737802.11748  20308310.16448
  23317835.586 5    -42043.172 5    -32037.50047  23317834.57447
  22746607.609 6    370403.344 6    283807.57049  22746608.13749
  24392699.383 4  -1885400.617 4  -1404975.47347  24392699.55547
  36812272.750 6   -365811.059 6                
 20  5 16  3 33 55.0000000  0  9G01G04G07G08G11G16G27G30S22          0.000033699
  21746717.383 6  -1808607.840 6  -1389924.16049  21746718.73049
  23994265.742 5    331434.969 5    249476.17647  23994268.19147
  21847956.156 6  -1592179.809 6  -1220149.25049  21847953.61749
  20973558.219 6    -90652.859 6    -69389.85949  20973559.16049
  20307832.430 6   -973584.016 6   -739768.09448  20307829.81348
  23317823.227 5    -42108.340 5    -32088.27747  23317822.37547
  22746805.852 5    371443.906 5    284618.39549  22746806.35249
  24391732.828 4  -1890483.102 4  -1408935.84047  24391732.33647
  36811941.578 5   -367548.648 5                
 20  5 16  3 33 56.0000000  0  9G01G04G07G08G11G16G27G30S22          0.000032621
  21745804.430 6  -1813405.496 6  -1393662.59849  21745805.80549
  23994443.172 5    332366.848 5    250202.31647  23994445.39547
  21847155.680 6  -1596385.441 6  -1223426.36349  21847153.53149
  20973525.430 6    -90825.215 6    -69524.16449  20973526.18849
  20307352.539 6   -976106.320 6   -741733.53548  20307349.66848
  23317810.906 5    -42173.281 5    -32138.88346  23317809.72746
  22747003.508 5    372484.633 5    285429.34849  22747004.21549
  24390765.688 4  -1895565.363 4  -1412896.03947  24390765.32847
  36811609.844 6   -369286.129 6                
 20  5 16  3 33 57.0000000  0  9G01G04G07G08G11G16G27G30S22          0.000031546
  21744891.453 6  -1818202.676 6  -1397400.65649  21744893.11349
  23994620.477 5    333298.797 5    250928.50846  23994622.55946
  21846356.156 6  -1600590.570 6  -1226703.09449  21846353.61349
  20973492.563 6    -90997.238 6    -69658.20349  20973493.83249
  20306872.367 6   -978627.957 6   -743698.44948  20306870.12548
  23317798.531 5    -42238.008 5    -32189.31646  23317797.67246
  22747201.492 5    373525.496 5    286240.41049  22747201.86749
  24389798.352 4  -1900647.340 4  -1416856.01247  24389798.36347
  36811280.109 5   -371023.500 5                
 20  5 16  3 33 58.0000000  0  9G01G04G07G08G11G16G27G30S22          0.000030468
  21743979.023 6  -1822999.289 6  -1401138.27749  21743980.36349
  23994798.016 5    334230.813 5    251654.75046  23994799.85946
  21845555.789 6  -1604795.129 6  -1229979.36749  21845553.37549
  20973459.805 6    -91168.887 6    -69791.95749  20973461.08649
  20306392.969 6   -981148.859 6   -745662.78548  20306390.48048
  23317786.328 5    -42302.469 5    -32239.55547  23317785.66847
  22747400.063 5    374566.527 5    287051.60249  22747400.59849
  24388831.164 4  -1905729.012 4  -1420815.74647  24388831.41047
  36810950.906 6   -372760.742 6                
 20  5 16  3 33 59.0000000  0  9G01G04G07G08G11G16G27G30S22          0.000029392
  21743065.828 6  -1827795.383 6  -1404875.49249  21743067.72349
  23994975.609 5    335162.973 5    252381.09446  23994977.25446
  21844755.883 6  -1608999.078 6  -1233255.17649  21844753.26649
  20973427.508 7    -91340.152 7    -69925.41449  20973428.20749
  20305913.281 6   -983669.027 6   -747626.55548  20305910.49648
  23317774.109 5    -42366.637 5    -32289.54746  23317773.00046
  22747598.289 6    375607.754 6    287862.94549  22747598.48449
  24387864.359 4  -1910810.375 4  -1424775.23447  24387864.71547
  36810619.953 5   -374497.781 5                
 20  5 16  3 34  0.0000000  0  9G01G04G07G08G11G16G27G30S22          0.000028316
  21742153.273 6  -1832590.918 6  -1408612.27349  21742155.21149
  23995152.977 5    336095.234 5    253107.52346  23995155.17646
  21843955.969 6  -1613202.484 6  -1236530.55149  21843953.57049
  20973394.992 7    -91511.066 7    -70058.59449  20973395.81349
  20305433.734 6   -986188.480 6   -749589.75848  20305431.42648
  23317761.945 5    -42430.539 5    -32339.34447  23317760.87147
  22747796.578 6    376649.168 6    288674.44549  22747797.10249
  24386897.969 4  -1915891.441 4  -1428734.50447  24386897.43047
  36810284.516 5   -376234.750 5                
 20  5 16  3 34  1.0000000  0  9G01G04G07G08G11G16G27G30S22          0.000027239
  21741240.641 6  -1837385.945 6  -1412348.65649  21741242.59449
  23995329.703 4    337027.504 4    253833.95346  23995332.21146
  21843155.703 6  -1617405.359 6  -1239805.52349  21843153.39549
  20973362.445 6    -91681.648 6    -70191.52349  20973363.44549
  20304954.727 6   -988707.270 6   -751552.45348  20304952.21148
  23317749.453 5    -42494.250 5    -32388.99247  23317748.60947
  22747994.844 5    377690.680 5    289486.02049  22747995.02749
  24385930.531 4  -1920972.254 4  -1432693.57447  24385930.79747
  36809961.547 6   -377971.645 6                
 20  5 16  3 34  2.0000000  0  9G01G04G07G08G11G16G27G30S22          0.000026163
  21740328.852 6  -1842180.508 6  -1416084.67649  21740330.53949
  23995507.828 4    337959.934 4    254560.52046  23995509.67646
  21842356.492 6  -1621607.660 6  -1243080.05149  21842354.13349
  20973330.359 6    -91851.836 6    -70324.12949  20973330.99249
  20304475.289 6   -991225.348 6   -753514.59448  20304472.85248
  23317737.508 5    -42557.664 5    -32438.40647  23317736.52047
  22748193.102 6    378732.387 6    290297.74649  22748193.51649
  24384964.094 4  -1926052.770 4  -1436652.42247  24384963.96147
  36809625.109 6   -379708.379 6                
 20  5 16  3 34  3.0000000  0  9G01G04G07G08G11G16G27G30S22          0.000025087
  21739416.352 6  -1846974.547 6  -1419820.28949  21739418.05149
  23995685.305 5    338892.359 5    255287.08247  23995687.20347
  21841556.578 6  -1625809.465 6  -1246354.18049  21841554.28549
  20973297.727 6    -92021.688 6    -70456.48449  20973298.76649
  20303996.242 6   -993742.730 6   -755476.18448  20303993.75848
  23317726.047 5    -42620.879 5    -32487.67646  23317724.40246
  22748391.469 5    379774.219 5    291109.55549  22748391.38749
  24383997.602 4  -1931133.043 4  -1440611.07447  24383997.26647
  36809296.938 6   -381445.102 6                
 20  5 16  3 34  4.0000000  0  9G01G04G07G08G11G16G27G30S22          0.000024012
  21738504.469 6  -1851768.125 6  -1423555.54349  21738505.30949
  23995862.773 5    339824.793 5    256013.65247  23995864.58247
  21840757.188 6  -1630010.785 6  -1249627.93849  21840754.88349
  20973265.664 6    -92191.273 6    -70588.62949  20973266.48449
  20303517.359 6   -996259.500 6   -757437.30948  20303514.48048
  23317713.984 5    -42683.941 5    -32536.81347  23317712.28947
  22748590.242 5    380816.125 5    291921.43049  22748589.41449
  24383030.563 4  -1936213.113 4  -1444569.56647  24383031.00847
  36808966.078 5   -383181.641 5                
 20  5 16  3 34  5.0000000  0  9G01G04G07G08G11G16G27G30S22          0.000022936
  21737592.133 6  -1856561.242 6  -1427290.43849  21737593.60949
  23996039.711 5    340757.281 5    256740.27046  23996041.93446
  21839957.805 6  -1634211.582 6  -1252901.28949  21839955.27749
  20973233.227 6    -92360.539 6    -70720.52049  20973234.16849
  20303038.820 6   -998775.598 6   -759397.90248  20303036.13748
  23317701.820 5    -42746.777 5    -32585.76247  23317700.49247
  22748787.859 5    381858.152 5    292733.39849  22748787.45749
  24382063.523 4  -1941292.938 4  -1448527.86747  24382063.82847
  36808637.984 6   -384918.180 6                
 20  5 16  3 34  6.0000000  0  9G01G04G07G08G11G16G27G30S22          0.000021860
  21736679.859 6  -1861353.820 6  -1431024.91049  21736681.77749
  23996217.250 4    341689.859 4    257466.94946  23996219.44146
  21839158.508 6  -1638411.836 6  -1256174.21949  21839156.33649
  20973201.281 6    -92529.430 6    -70852.12949  20973202.30549
  20302559.922 6  -1001290.992 6   -761357.94948  20302557.24648
  23317689.422 5    -42809.379 5    -32634.54747  23317688.63347
  22748986.055 5    382900.332 5    293545.48849  22748986.09849
  24381097.070 4  -1946372.457 4  -1452485.92647  24381097.40647
  36808309.688 5   -386654.637 5                
 20  5 16  3 34  7.0000000  0  9G01G04G07G08G11G16G27G30S22          0.000020784
  21735768.133 6  -1866145.844 6  -1434758.95349  21735769.89149
  23996394.922 4    342622.535 4    258193.70346  23996396.83646
  21838359.750 6  -1642611.508 6  -1259446.68849  21838357.47749
  20973169.172 6    -92697.957 6    -70983.44549  20973170.00449
  20302081.414 6  -1003805.660 6   -763317.43048  20302078.85948
  23317678.156 5    -42871.664 5    -32683.07847  23317676.92247
  22749183.961 5    383942.695 5    294357.71949  22749184.13349
  24380130.508 4  -1951451.667 4  -1456443.75147  24380130.66847
  36807973.469 6   -388390.863 6                
 20  5 16  3 34  8.0000000  0  9G01G04G07G08G11G16G27G30S22          0.000019709
  21734856.156 6  -1870937.359 6  -1438492.59849  21734857.79749
  23996571.680 4    343555.297 4    258920.53146  23996574.34046
  21837560.297 6  -1646810.629 6  -1262718.72749  21837558.01649
  20973137.281 7    -92866.105 7    -71114.47749  20973138.34849
  20301602.852 6  -1006319.605 6   -765276.34448  20301600.32848
  23317665.930 5    -42933.746 5    -32731.46147  23317665.24247
  22749382.641 5    384985.207 5    295170.06649  22749382.51249
  24379164.125 4  -1956530.625 4  -1460401.38347  24379164.44547
  36807645.313 6   -390126.742 6                
 20  5 16  3 34  9.0000000  0  9G01G04G07G08G11G16G27G30S22          0.000018633
  21733944.297 6  -1875728.438 6  -1442225.90649  21733946.44549
  23996750.133 4    344488.039 4    259647.32846  23996751.82046
  21836761.539 6  -1651009.281 6  -1265990.39149  21836759.30149
  20973105.281 7    -93033.969 7    -71245.27749  20973106.68449
  20301124.711 6  -1008832.941 6   -767234.78148  20301122.33248
  23317654.281 5    -42995.629 5    -32779.68047  23317653.14847
  22749581.070 5    386027.813 5    295982.48849  22749581.33249
  24378197.148 5  -1961609.383 5  -1464358.85247  24378198.09847
  36807314.984 6   -391862.625 6                
 20  5 16  3 34 10.0000000  0  9G01G04G07G08G11G16G27G30S22          0.000017557
  21733033.000 6  -1880518.992 6  -1445958.80949  21733034.48049
  23996927.328 4    345420.871 4    260374.21946  23996929.30146
  21835962.430 6  -1655207.359 6  -1269261.62549  21835960.19149
  20973073.188 7    -93201.465 7    -71375.80149  20973074.46549
  20300646.453 6  -1011345.563 6   -769192.66848  20300644.41848
  23317642.555 5    -43057.281 5    -32827.72747  23317641.74247
  22749779.500 5    387070.613 5    296795.05549  22749779.77349
  24377231.461 4  -1966687.805 4  -1468316.05947  24377231.66847
  36806984.609 6   -393598.121 6                
 20  5 16  3 34 11.0000000  0  9G01G04G07G08G11G16G27G30S22          0.000016481
  21732121.945 6  -1885308.988 6  -1449691.27349  21732122.94149
  23997104.922 4    346353.855 4    261101.21947  23997107.13347
  21835163.625 7  -1659404.875 7  -1272532.41849  21835161.41449
  20973041.406 7    -93368.586 7    -71506.02349  20973042.23449
  20300168.648 6  -1013857.457 6   -771149.99648  20300166.01648
  23317631.109 5    -43118.656 5    -32875.55547  23317629.83647
  22749977.773 5    388113.555 5    297607.73449  22749978.09449
  24376264.406 4  -1971765.988 4  -1472273.08647  24376265.29747
  36806654.453 6   -395333.578 6                
 20  5 16  3 34 12.0000000  0  9G01G04G07G08G11G16G27G30S22          0.000015406
  21731209.797 6  -1890098.477 6  -1453423.34049  21731211.59849
  23997283.117 4    347286.895 4    261828.24246  23997284.67646
  21834364.828 6  -1663601.848 6  -1275802.78549  21834362.49249
  20973009.891 7    -93535.391 7    -71636.00049  20973010.99249
  20299690.570 6  -1016368.641 6   -773106.75848  20299687.75448
  23317619.406 5    -43179.777 5    -32923.18847  23317618.15647
  22750175.984 5    389156.645 5    298420.53949  22750176.12549
  24375298.117 4  -1976843.871 4  -1476229.87947  24375298.95747
  36806326.797 6   -397068.945 6                
 20  5 16  3 34 13.0000000  0  9G01G04G07G08G11G16G27G30S22          0.000014332
  21730298.695 6  -1894887.488 6  -1457155.03549  21730300.66049
  23997459.852 4    348220.009 4    262555.33646  23997462.33246
  21833566.297 6  -1667798.285 6  -1279072.73449  21833564.48049
  20972977.984 7    -93701.848 7    -71765.70349  20972978.71149
  20299212.961 6  -1018879.145 6   -775063.00048  20299210.06648
  23317608.031 5    -43240.680 5    -32970.64547  23317606.37147
  22750375.117 5    390199.895 5    299233.46549  22750374.89849
  24374331.867 4  -1981921.441 4  -1480186.42647  24374333.08247
  36805996.984 6   -398804.152 6                
 20  5 16  3 34 14.0000000  0  9G01G04G07G08G11G16G27G30S22          0.000013256
  21729387.156 6  -1899675.961 6  -1460886.31349  21729389.09049
  23997637.227 4    349153.090 4    263282.40646  23997639.57446
  21832767.648 6  -1671994.168 6  -1282342.25449  21832765.86749
  20972946.250 7    -93867.965 7    -71895.14149  20972947.41049
  20298735.273 6  -1021388.984 6   -777018.71948  20298732.74648
  23317596.242 5    -43301.359 5    -33017.92647  23317595.21947
  22750574.273 5    391243.293 5    300046.50449  22750573.16849
  24373365.852 4  -1986998.809 4  -1484142.83647  24373366.76247
  36805665.344 6   -400539.613 6                
 20  5 16  3 34 15.0000000  0  9G01G04G07G08G11G16G27G30S22          0.000012180
  21728476.195 6  -1904463.938 6  -1464617.19949  21728478.16049
  23997814.789 4    350086.297 4    264009.58246  23997817.67246
  21831969.219 6  -1676189.520 6  -1285611.35549  21831967.09049
  20972914.484 7    -94033.707 7    -72024.28549  20972916.23849
  20298257.836 6  -1023898.117 6   -778973.88348  20298254.87948
  23317584.648 5    -43361.801 5    -33065.02047  23317583.09447
  22750772.211 5    392286.773 5    300859.60549  22750771.76649
  24372400.664 4  -1992075.875 4  -1488099.00447  24372400.64847
  36805334.844 6   -402274.578 6                
 20  5 16  3 34 16.0000000  0  9G01G04G07G08G11G16G27G30S22          0.000011105
  21727565.008 6  -1909251.410 6  -1468347.69149  21727566.80149
  23997992.414 4    351019.590 4    264736.82446  23997994.96546
  21831171.203 6  -1680384.320 6  -1288880.03549  21831169.64849
  20972882.945 6    -94199.109 6    -72153.17649  20972884.44549
  20297780.281 6  -1026406.570 6   -780928.52348  20297777.85548
  23317573.508 5    -43421.980 5    -33111.91046  23317572.16446
  22750970.508 5    393330.449 5    301672.85949  22750970.35249
  24371433.633 4  -1997152.672 4  -1492054.94147  24371434.62947
  36805004.516 6   -404009.688 6                
 20  5 16  3 34 17.0000000  0  9G01G04G07G08G11G16G27G30S22          0.000010031
  21726654.242 6  -1914038.355 6  -1472077.78149  21726655.62949
  23998170.117 4    351952.918 4    265464.07846  23998172.69146
  21830373.133 6  -1684578.566 6  -1292148.27749  21830371.32449
  20972851.984 7    -94364.152 7    -72281.77349  20972853.23449
  20297303.406 6  -1028914.313 6   -782882.60248  20297300.61348
  23317562.688 5    -43481.930 5    -33158.62547  23317560.79747
  22751169.188 5    394374.285 5    302486.23849  22751169.05549
  24370468.070 4  -2002229.184 4  -1496010.65647  24370468.45747
  36804673.813 5   -405744.656 5                
 20  5 16  3 34 18.0000000  0  9G01G04G07G08G11G16G27G30S22          0.000008955
  21725743.594 6  -1918824.777 6  -1475807.45749  21725745.52049
  23998347.578 4    352886.406 4    266191.47346  23998350.35546
  21829575.156 6  -1688772.258 6  -1295416.08249  21829573.28949
  20972820.875 6    -94528.828 6    -72410.09049  20972821.67649
  20296826.414 6  -1031421.336 6   -784836.12948  20296823.34448
  23317549.828 5    -43541.648 5    -33205.15646  23317549.27346
  22751368.008 5    395418.258 5    303299.72349  22751367.69549
  24369501.906 4  -2007305.426 4  -1499966.16047  24369502.73047
  36804343.047 6   -407479.152 6                
 20  5 16  3 34 19.0000000  0  9G01G04G07G08G11G16G27G30S22          0.000007881
  21724832.836 6  -1923610.684 6  -1479536.73449  21724834.41049
  23998525.633 4    353819.898 4    266918.86346  23998528.02046
  21828777.086 6  -1692965.426 6  -1298683.48849  21828775.25449
  20972789.195 7    -94693.168 7    -72538.15249  20972790.25049
  20296349.531 6  -1033927.684 6   -786789.12948  20296346.35548
  23317539.680 5    -43601.098 5    -33251.49246  23317538.33246
  22751566.227 5    396462.410 5    304113.34049  22751566.62949
  24368535.430 4  -2012381.355 4  -1503921.43447  24368536.55547
  36804011.688 6   -409213.605 6                
 20  5 16  3 34 20.0000000  0  9G01G04G07G08G11G16G27G30S22          0.000006805
  21723922.195 6  -1928396.063 6  -1483265.60249  21723923.95349
  23998703.109 4    354753.480 4    267646.32046  23998705.46546
  21827978.891 6  -1697158.012 6  -1301950.43849  21827977.06649
  20972758.063 7    -94857.148 7    -72665.93049  20972759.09449
  20295872.648 6  -1036433.305 6   -788741.57048  20295869.99648
  23317528.523 5    -43660.285 5    -33297.61747  23317526.73847
  22751765.570 5    397506.691 5    304927.06649  22751764.58249
  24367570.188 4  -2017456.996 4  -1507876.47347  24367571.60247
  36803686.328 6   -410947.531 6                
 20  5 16  3 34 21.0000000  0  9G01G04G07G08G11G16G27G30S22          0.000005732
  21723011.688 6  -1933180.910 6  -1486994.05549  21723013.19149
  23998881.383 4    355687.172 4    268373.87146  23998883.12146
  21827181.492 6  -1701350.055 6  -1305216.96149  21827179.51649
  20972726.906 7    -95020.758 7    -72793.41849  20972727.89149
  20295396.023 6  -1038938.246 6   -790693.46548  20295392.83648
  23317516.789 5    -43719.227 5    -33343.54347  23317515.75447
  22751964.211 5    398551.160 5    305740.93849  22751963.63749
  24366603.734 4  -2022532.410 4  -1511831.33247  24366605.46947
  36803354.156 6   -412681.867 6                
 20  5 16  3 34 22.0000000  0  9G01G04G07G08G11G16G27G30S22          0.000004658
  21722101.313 6  -1937965.246 6  -1490722.10949  21722102.75849
  23999058.633 4    356620.898 4    269101.44546  23999060.42646
  21826384.242 6  -1705541.555 6  -1308483.05949  21826381.90649
  20972695.695 7    -95184.023 7    -72920.64149  20972696.99649
  20294919.070 6  -1041442.453 6   -792644.79748  20294916.72748
  23317506.125 5    -43777.961 5    -33389.32447  23317503.98447
  22752162.695 5    399595.738 5    306554.89849  22752162.67249
  24365638.266 4  -2027607.504 4  -1515785.94547  24365639.50447
  36803024.984 6   -414415.648 6                
 20  5 16  3 34 23.0000000  0  9G01G04G07G08G11G16G27G30S22          0.000003582
  21721191.227 6  -1942749.141 6  -1494449.81649  21721192.84849
  23999236.484 4    357554.668 4    269829.05546  23999238.46546
  21825586.188 6  -1709732.574 6  -1311748.80149  21825584.40649
  20972664.922 7    -95346.984 7    -73047.62149  20972666.07849
  20294442.773 6  -1043946.035 6   -794595.63748  20294440.04348
  23317495.297 5    -43836.480 5    -33434.91846  23317492.74646
  22752361.516 5    400640.438 5    307368.94549  22752360.90249
  24364672.547 4  -2032682.352 4  -1519740.37147  24364674.12547
  36802693.828 6   -416149.875 6                
 20  5 16  3 34 24.0000000  0  9G01G04G07G08G11G16G27G30S22          0.000002508
  21720280.977 6  -1947532.535 6  -1498177.13749  21720282.53949
  23999414.008 4    358488.473 4    270556.68846  23999416.33646
  21824788.766 6  -1713923.047 6  -1315014.10249  21824787.08649
  20972633.789 7    -95509.625 7    -73174.35249  20972634.81649
  20293966.914 6  -1046448.922 6   -796545.93848  20293964.16448
  23317483.727 5    -43894.770 5    -33480.34447  23317481.77047
  22752560.695 5    401685.289 5    308183.10949  22752560.03949
  24363706.383 4  -2037757.000 4  -1523694.65647  24363708.24647
  36802365.906 6   -417883.891 6                
 20  5 16  3 34 25.0000000  0  9G01G04G07G08G11G16G27G30S22          0.000001434
  21719370.445 6  -1952315.441 6  -1501904.07449  21719372.41849
  23999592.305 4    359422.316 4    271284.35546  23999594.16446
  21823991.594 6  -1718113.012 6  -1318279.01249  21823989.66049
  20972602.961 7    -95671.969 7    -73300.84849  20972604.23449
  20293490.523 6  -1048951.188 6   -798495.75448  20293487.58248
  23317472.602 5    -43952.887 5    -33525.62947  23317470.87547
  22752759.711 5    402730.219 5    308997.34049  22752758.84449
  24362741.203 4  -2042831.379 4  -1527648.71147  24362742.63347
  36802037.172 6   -419617.930 6                
 20  5 16  3 34 26.0000000  0  9G01G04G07G08G11G16G27G30S22          0.000000359
  21718460.430 6  -1957097.859 6  -1505630.63349  21718462.49249
  23999769.805 4    360356.242 4    272012.09046  23999771.66846
  21823194.641 6  -1722302.484 6  -1321543.53549  21823192.25449
  20972572.195 7    -95834.000 7    -73427.10549  20972573.16849
  20293014.242 6  -1051452.773 6   -800445.04348  20293011.77048
  23317461.711 5    -44010.785 5    -33570.74247  23317459.50847
  22752958.031 5    403775.273 5    309811.66449  22752957.70349
  24361775.734 4  -2047905.496 4  -1531602.55947  24361777.04347
  36801706.531 6   -421352.012 6                
 20  5 16  3 34 27.0000000  0  9G01G04G07G08G11G16G27G30S22         -0.000000715
  21717550.219 6  -1961879.727 6  -1509356.76249  21717552.96949
  23999947.172 4    361290.230 4    272739.86346  23999949.13346
  21822397.156 6  -1726491.367 6  -1324807.60249  21822394.88349
  20972541.555 7    -95995.633 7    -73553.05949  20972542.82049
  20292538.703 6  -1053953.613 6   -802393.74648  20292535.75048
  23317450.883 5    -44068.414 5    -33615.65247  23317449.14847
  22753156.914 5    404820.527 5    310626.14549  22753156.67249
  24360810.141 4  -2052979.348 4  -1535556.19947  24360811.87547
  36801370.406 6   -423085.621 6                
 20  5 16  3 34 28.0000000  0  9G01G04G07G08G11G16G27G30S22         -0.000001789
  21716640.602 6  -1966661.066 6  -1513082.48449  21716642.34049
  24000125.461 4    362224.281 4    273467.66846  24000126.70346
  21821600.359 6  -1730679.703 6  -1328071.24249  21821598.16449
  20972510.508 7    -96156.891 7    -73678.71549  20972511.72749
  20292062.719 6  -1056453.770 6   -804341.92248  20292060.09848
  23317440.141 6    -44125.777 6    -33660.35547  23317437.85247
  22753356.227 5    405865.906 5    311440.73049  22753355.68049
  24359844.750 4  -2058052.887 4  -1539509.59847  24359846.02347
  36801042.313 6   -424819.453 6                
 20  5 16  3 34 29.0000000  0  9G01G04G07G08G11G16G27G30S22         -0.000002863
  21715730.664 6  -1971441.930 6  -1516807.83249  21715732.65249
  24000302.703 4    363158.445 4    274195.58246  24000304.99646
  21820803.188 6  -1734867.469 6  -1331334.43849  21820801.11749
  20972480.320 7    -96317.816 7    -73804.11349  20972481.40249
  20291587.141 6  -1058953.207 6   -806289.53548  20291584.18448
  23317429.555 6    -44182.902 6    -33704.87547  23317427.19947
  22753555.273 5    406911.438 5    312255.43049  22753554.27349
  24358879.609 4  -2063126.164 4  -1543462.79747  24358880.90647
  36800719.016 6   -426552.934 6                
 20  5 16  3 34 30.0000000  0  9G01G04G07G08G11G16G27G30S22         -0.000003937
  21714821.398 6  -1976222.297 6  -1520532.78949  21714823.38349
  24000480.563 3    364092.594 3    274923.49246  24000482.58246
  21820006.594 6  -1739054.766 6  -1334597.26649  21820004.49249
  20972449.570 7    -96478.422 7    -73929.26249  20972450.75449
  20291111.391 6  -1061452.000 6   -808236.64848  20291108.90648
  23317418.180 6    -44239.852 6    -33749.25447  23317416.23847
  22753754.094 5    407957.074 5    313070.20749  22753753.43449
  24357913.508 4  -2068199.156 4  -1547415.76647  24357915.29747
  36800386.484 5   -428286.648 5                
 20  5 16  3 34 31.0000000  0  9G01G04G07G08G11G16G27G30S22         -0.000005011
  21713911.531 6  -1981002.172 6  -1524257.37149  21713913.67649
  24000658.117 3    365026.828 3    275651.48046  24000660.34446
  21819209.773 6  -1743241.512 6  -1337859.66849  21819207.97749
  20972419.141 7    -96638.715 7    -74054.16449  20972419.91049
  20290636.148 6  -1063950.129 6   -810183.23848  20290633.79348
  23317407.422 6    -44296.566 6    -33793.44547  23317405.27747
  22753953.289 5    409002.859 5    313885.10549  22753952.77349
  24356948.992 4  -2073271.961 4  -1551368.60247  24356949.97347
  36800060.563 6   -430020.039 6                
 20  5 16  3 34 32.0000000  0  9G01G04G07G08G11G16G27G30S22         -0.000006084
  21713001.898 6  -1985781.520 6  -1527981.53949  21713004.33649
  24000836.352 3    365961.137 3    276379.50846  24000837.98846
  21818413.359 6  -1747427.719 6  -1341121.64149  21818411.24649
  20972388.242 7    -96798.652 7    -74178.79349  20972389.64149
  20290160.938 6  -1066447.543 6   -812129.27348  20290157.93048
  23317396.563 5    -44353.047 5    -33837.45347  23317394.73447
  22754152.656 6    410048.805 6    314700.12149  22754151.38349
  24355983.609 4  -2078344.453 4  -1555321.18847  24355984.52747
  36799725.156 6   -431753.383 6                
 20  5 16  3 34 33.0000000  0  9G01G04G07G08G11G16G27G30S22         -0.000007158
  21712092.578 6  -1990560.355 6  -1531705.30549  21712094.80549
  24001013.695 3    366895.496 3    277107.57446  24001015.40246
  21817616.695 6  -1751613.402 6  -1344383.20749  21817614.54349
  20972358.211 7    -96958.230 7    -74303.13749  20972359.26649
  20289685.664 6  -1068944.270 6   -814074.77748  20289683.00448
  23317386.000 5    -44409.270 5    -33881.27047  23317384.37147
  22754351.617 6    411094.887 6    315515.25049  22754350.82849
  24355018.875 4  -2083416.641 4  -1559273.55147  24355019.62547
  36799394.719 6   -433486.488 6                
 20  5 16  3 34 34.0000000  0  9G01G04G07G08G11G16G27G30S22         -0.000008232
  21711183.406 6  -1995338.684 6  -1535428.68049  21711185.60949
  24001191.586 4    367829.898 4    277835.68446  24001193.79346
  21816820.508 6  -1755798.523 6  -1347644.34849  21816818.12549
  20972328.063 7    -97117.477 7    -74427.21949  20972329.18449
  20289210.477 6  -1071440.297 6   -816019.73448  20289208.34848
  23317375.438 5    -44465.266 5    -33924.90247  23317373.47747
  22754550.297 6    412141.090 6    316330.47349  22754549.95749
  24354053.477 4  -2088488.602 4  -1563225.72747  24354054.14147
  36799068.391 6   -435219.371 6                
 20  5 16  3 34 35.0000000  0  9G01G04G07G08G11G16G27G30S22         -0.000009306
  21710274.125 6  -2000116.469 6  -1539151.62949  21710276.39549
  24001368.859 4    368764.422 4    278563.87546  24001371.75446
  21816023.906 6  -1759983.086 6  -1350905.05149  21816022.06649
  20972297.648 7    -97276.348 7    -74551.01249  20972298.57049
  20288735.859 6  -1073935.629 6   -817964.15248  20288733.55948
  23317365.055 5    -44521.027 5    -33968.35547  23317362.97747
  22754749.375 6    413187.461 6    317145.83249  22754749.03949
  24353088.063 4  -2093560.266 4  -1567177.67647  24353089.27047
  36798736.391 6   -436952.203 6                
 20  5 16  3 34 36.0000000  0  9G01G04G07G08G11G16G27G30S22         -0.000010380
  21709365.008 6  -2004893.734 6  -1542874.17249  21709367.77049
  24001547.031 4    369699.035 4    279292.15246  24001549.03146
  21815227.578 6  -1764167.090 6  -1354165.31649  21815225.77049
  20972267.586 7    -97434.852 7    -74674.53149  20972268.63349
  20288261.102 6  -1076430.211 6   -819907.98049  20288258.90649
  23317354.273 5    -44576.477 5    -34011.55947  23317352.52747
  22754948.867 6    414233.992 6    317961.31649  22754948.04349
  24352123.508 4  -2098631.602 4  -1571129.36747  24352124.01647
  36798405.563 5   -438684.652 5                
 20  5 16  3 34 37.0000000  0  9G01G04G07G08G11G16G27G30S22         -0.000011454
  21708455.953 6  -2009670.527 6  -1546596.34449  21708458.61349
  24001724.984 4    370633.676 4    280020.43046  24001727.05946
  21814432.070 6  -1768350.559 6  -1357425.16049  21814429.45749
  20972237.430 7    -97593.043 7    -74797.79349  20972238.41049
  20287786.523 6  -1078924.176 6   -821851.32448  20287784.09848
  23317342.953 5    -44631.785 5    -34054.65647  23317342.13347
  22755147.805 6    415280.680 6    318776.91449  22755147.50849
  24351158.273 4  -2103702.699 4  -1575080.87547  24351158.93447
  36798073.172 6   -440417.352 6                
 20  5 16  3 34 38.0000000  0  9G01G04G07G08G11G16G27G30S22         -0.000012526
  21707547.148 6  -2014446.770 6  -1550318.09049  21707549.68449
  24001903.242 4    371568.391 4    280748.76646  24001904.88346
  21813635.875 6  -1772533.480 6  -1360684.57449  21813633.71949
  20972207.563 7    -97750.863 7    -74920.77349  20972208.40249
  20287312.133 6  -1081417.371 6   -823794.07048  20287309.97348
  23317333.164 5    -44686.785 5    -34097.51647  23317331.78147
  22755346.805 6    416327.523 6    319592.63749  22755346.44149
  24350193.156 4  -2108773.520 4  -1579032.16047  24350194.25047
  36797749.156 6   -442149.332 6                
 20  5 16  3 34 39.0000000  0  9G01G04G07G08G11G16G27G30S22         -0.000013599
  21706638.336 6  -2019222.480 6  -1554039.42249  21706640.99249
  24002080.656 3    372503.219 3    281477.21546  24002082.94146
  21812840.070 6  -1776715.848 6  -1363943.55949  21812837.69949
  20972177.242 7    -97908.344 7    -75043.48049  20972178.42249
  20286838.109 6  -1083909.875 6   -825736.28149  20286835.32849
  23317322.266 5    -44741.543 5    -34140.18847  23317321.33647
  22755546.227 6    417374.504 6    320408.45749  22755545.97749
  24349228.352 4  -2113844.063 4  -1582983.25047  24349228.75047
  36797417.391 5   -443881.039 5                
 20  5 16  3 34 40.0000000  0  9G01G04G07G08G11G16G27G30S22         -0.000014673
  21705729.281 6  -2023997.641 6  -1557760.31649  21705732.19149
  24002258.563 3    373438.145 3    282205.73446  24002260.95746
  21812044.328 6  -1780897.609 6  -1367202.07849  21812041.49649
  20972147.695 7    -98065.402 7    -75165.86749  20972148.64849
  20286363.656 6  -1086401.664 6   -827677.94148  20286361.19548
  23317312.125 5    -44796.039 5    -34182.64847  23317310.75447
  22755745.406 6    418421.676 6    321224.42649  22755744.59849
  24348263.523 4  -2118914.234 4  -1586934.03947  24348264.26247
  36797087.781 5   -445612.570 5                
 20  5 16  3 34 41.0000000  0  9G01G04G07G08G11G16G27G30S22         -0.000015745
  21704820.617 6  -2028772.355 6  -1561480.87149  21704823.29349
  24002436.500 4    374373.027 4    282934.20746  24002438.69546
  21811248.641 6  -1785078.906 6  -1370460.23849  21811246.17649
  20972117.984 7    -98222.188 7    -75288.03549  20972119.05149
  20285889.813 6  -1088892.809 6   -829619.09449  20285887.45349
  23317301.758 5    -44850.340 5    -34224.95747  23317300.49647
  22755945.398 6    419468.938 6    322040.47749  22755944.01249
  24347298.461 4  -2123984.242 4  -1590884.69147  24347299.15247
  36796757.953 6   -447344.109 6                
 20  5 16  3 34 42.0000000  0  9G01G04G07G08G11G16G27G30S22         -0.000016819
  21703912.570 6  -2033546.555 6  -1565201.03149  21703915.28549
  24002614.242 4    375308.012 4    283662.76246  24002616.98846
  21810452.906 6  -1789259.656 6  -1373717.96149  21810450.76649
  20972088.172 7    -98378.652 7    -75409.95749  20972088.93849
  20285415.555 6  -1091383.285 6   -831559.72348  20285413.39548
  23317291.352 5    -44904.445 5    -34267.11347  23317290.32847
  22756144.453 6    420516.328 6    322856.61349  22756144.03949
  24346333.898 4  -2129053.969 4  -1594835.12947  24346334.77347
  36796424.156 6   -449075.676 6                
 20  5 16  3 34 43.0000000  0  9G01G04G07G08G11G16G27G30S22         -0.000017891
  21703003.711 6  -2038320.289 6  -1568920.81649  21703006.86749
  24002792.844 4    376243.012 4    284391.32446  24002794.51246
  21809657.461 6  -1793439.918 6  -1376975.30549  21809655.39549
  20972058.438 7    -98534.797 7    -75531.63349  20972059.11349
  20284942.008 6  -1093873.109 6   -833499.84048  20284939.55948
  23317280.773 5    -44958.320 5    -34309.09847  23317279.97747
  22756343.117 6    421563.816 6    323672.84849  22756342.91449
  24345369.383 4  -2134123.477 4  -1598785.38747  24345369.74647
  36796094.734 6   -450806.918 6                
 20  5 16  3 34 44.0000000  0  9G01G04G07G08G11G16G27G30S22         -0.000018965
  21702095.445 6  -2043093.543 6  -1572640.23849  21702097.98049
  24002970.219 4    377178.047 4    285119.91446  24002972.24246
  21808862.305 6  -1797619.652 6  -1380232.24649  21808859.54749
  20972029.086 7    -98690.609 7    -75653.05149  20972029.66849
  20284468.727 6  -1096362.242 6   -835439.43048  20284465.73448
  23317270.992 5    -45011.980 5    -34350.91447  23317269.55947
  22756542.430 6    422611.418 6    324489.15249  22756542.32849
  24344404.945 4  -2139192.727 4  -1602735.44547  24344405.30547
  36795767.047 6   -452538.207 6                
 20  5 16  3 34 45.0000000  0  9G01G04G07G08G11G16G27G30S22         -0.000020037
  21701187.156 6  -2047866.277 6  -1576359.25449  21701190.55549
  24003148.023 4    378113.141 4    285848.56346  24003150.44946
  21808066.961 6  -1801798.863 6  -1383488.77749  21808064.87949
  20971998.875 7    -98846.113 7    -75774.22349  20971999.88749
  20283994.438 6  -1098850.723 6   -837378.50448  20283992.31648
  23317260.781 5    -45065.441 5    -34392.58247  23317259.59447
  22756741.422 5    423659.164 5    325305.57449  22756741.35949
  24343439.922 4  -2144261.730 4  -1606685.31347  24343440.43847
  36795436.578 6   -454269.250 6                
 20  5 16  3 34 46.0000000  0  9G01G04G07G08G11G16G27G30S22         -0.000021111
  21700279.383 6  -2052638.496 6  -1580077.86749  21700282.27349
  24003325.641 4    379048.309 4    286577.25846  24003328.29346
  21807271.820 6  -1805977.520 6  -1386744.87549  21807269.35549
  20971969.492 7    -99001.266 7    -75895.12549  20971970.62949
  20283521.742 6  -1101338.504 6   -839317.03948  20283519.05948
  23317250.602 5    -45118.660 5    -34434.04747  23317249.32047
  22756941.500 5    424707.047 5    326122.10549  22756940.99649
  24342474.633 4  -2149330.441 4  -1610634.96947  24342475.84447
  36795110.422 6   -456000.305 6                
 20  5 16  3 34 47.0000000  0  9G01G04G07G08G11G16G27G30S22         -0.000022182
  21699371.422 6  -2057410.270 6  -1583796.13349  21699373.65649
  24003504.758 4    379983.488 4    287305.96146  24003506.43446
  21806476.711 6  -1810155.691 6  -1390000.60249  21806474.61349
  20971940.391 7    -99156.109 7    -76015.78149  20971941.24649
  20283048.250 6  -1103825.605 6   -841255.03948  20283045.49248
  23317240.977 5    -45171.668 5    -34475.35247  23317239.10947
  22757141.320 6    425755.031 6    326938.72349  22757140.64849
  24341510.891 4  -2154398.910 4  -1614584.41447  24341511.52747
  36794780.219 5   -457731.328 5                
 20  5 16  3 34 48.0000000  0  9G01G04G07G08G11G16G27G30S22         -0.000023256
  21698463.672 6  -2062181.500 6  -1587513.97349  21698466.40249
  24003682.617 4    380918.766 4    288034.74246  24003684.39146
  21805681.984 6  -1814333.242 6  -1393255.84449  21805679.39549
  20971910.695 7    -99310.605 7    -76136.16849  20971911.74649
  20282574.898 6  -1106311.992 6   -843192.48448  20282572.56348
  23317230.953 5    -45224.398 5    -34516.44547  23317229.32847
  22757340.227 6    426803.211 6    327755.48049  22757340.27749
  24340546.953 4  -2159467.086 4  -1618533.62947  24340547.12547
  36794452.625 5   -459462.098 5                
 20  5 16  3 34 49.0000000  0  9G01G04G07G08G11G16G27G30S22         -0.000024328
  21697555.219 6  -2066952.234 6  -1591231.43449  21697557.83649
  24003860.281 4    381854.102 4    288763.57046  24003862.48046
  21804887.133 6  -1818510.305 6  -1396510.69949  21804884.52049
  20971881.570 7    -99464.773 7    -76256.30549  20971882.54749
  20282101.734 6  -1108797.730 6   -845129.41848  20282099.46548
  23317221.070 5    -45276.945 5    -34557.39147  23317219.13347
  22757540.281 6    427851.500 6    328572.33249  22757539.87949
  24339582.242 4  -2164535.027 4  -1622482.66847  24339582.39847
  36794120.969 6   -461192.934 6                
 20  5 16  3 34 50.0000000  0  9G01G04G07G08G11G16G27G30S22         -0.000025400
  21696648.273 6  -2071722.441 6  -1594948.47749  21696650.19949
  24004038.039 4    382789.461 4    289492.41846  24004040.41846
  21804092.391 6  -1822686.844 6  -1399765.14849  21804089.87549
  20971852.156 7    -99618.625 7    -76376.18449  20971852.89149
  20281629.453 6  -1111282.773 6   -847065.82048  20281626.76648
  23317211.047 5    -45329.266 5    -34598.16847  23317209.86747
  22757739.352 6    428899.898 6    329389.25849  22757739.23849
  24338618.000 4  -2169602.664 4  -1626431.47747  24338617.68447
  36793791.000 5   -462923.609 5                
 20  5 16  3 34 51.0000000  0  9G01G04G07G08G11G16G27G30S22         -0.000026474
  21695740.188 6  -2076492.191 6  -1598665.16049  21695742.65649
  24004217.078 4    383724.844 4    290221.28146  24004218.53946
  21803297.359 6  -1826862.875 6  -1403019.19149  21803295.09049
  20971822.945 7    -99772.152 7    -76495.81349  20971823.69149
  20281156.305 6  -1113767.164 6   -849001.70348  20281153.60248
  23317201.328 5    -45381.379 5    -34638.77747  23317199.30947
  22757938.789 6    429948.410 6    330206.27049  22757939.20749
  24337653.883 4  -2174670.094 4  -1630380.11747  24337653.43847
  36793460.094 6   -464654.316 6                
 20  5 16  3 34 52.0000000  0  9G01G04G07G08G11G16G27G30S22         -0.000027546
  21694832.445 6  -2081261.406 6  -1602381.42649  21694835.08249
  24004394.625 4    384660.352 4    290950.23846  24004396.34046
  21802502.836 6  -1831038.348 6  -1406272.80149  21802500.69949
  20971793.883 7    -99925.332 7    -76615.17249  20971794.35249
  20280683.680 6  -1116250.852 6   -850937.04748  20280681.35248
  23317191.375 5    -45433.238 5    -34679.18847  23317189.93847
  22758138.852 6    430997.055 6    331023.38749  22758138.45349
  24336688.828 4  -2179737.234 4  -1634328.52347  24336689.18447
  36793131.344 6   -466384.789 6                
 20  5 16  3 34 53.0000000  0  9G01G04G07G08G11G16G27G30S22         -0.000028618
  21693925.266 6  -2086030.184 6  -1606097.35249  21693927.90649
  24004572.070 4    385595.855 4    291679.19146  24004574.36746
  21801708.609 7  -1835213.297 7  -1409526.01249  21801706.38749
  20971764.992 7   -100078.203 7    -76734.29749  20971765.66449
  20280211.188 6  -1118733.887 6   -852871.87148  20280208.75848
  23317181.172 5    -45484.898 5    -34719.43847  23317179.64147
  22758338.438 6    432045.863 6    331840.63749  22758337.44949
  24335724.414 4  -2184804.137 4  -1638276.75847  24335724.87947
  36792812.531 6   -468114.871 6                
 20  5 16  3 34 54.0000000  0  9G01G04G07G08G11G16G27G30S22         -0.000029690
  21693017.938 6  -2090798.418 6  -1609812.85549  21693020.28949
  24004750.234 4    386531.383 4    292408.17647  24004752.56347
  21800914.023 6  -1839387.742 6  -1412778.82049  21800911.71149
  20971735.594 7   -100230.773 7    -76853.18849  20971736.67649
  20279738.656 6  -1121216.250 6   -854806.18048  20279736.43848
  23317171.211 5    -45536.355 5    -34759.53147  23317170.13347
  22758537.727 6    433094.754 6    332657.94949  22758537.44149
  24334760.398 4  -2189870.750 4  -1642224.75847  24334760.52347
  36792472.391 6   -469845.004 6                
 20  5 16  3 34 55.0000000  0  9G01G04G07G08G11G16G27G30S22         -0.000030762
  21692110.445 6  -2095566.227 6  -1613528.02749  21692112.96949
  24004928.031 4    387466.961 4    293137.18446  24004930.48046
  21800119.594 6  -1843561.695 6  -1416031.25049  21800117.27049
  20971706.727 7   -100383.055 7    -76971.85249  20971707.43049
  20279266.570 6  -1123697.988 6   -856740.00048  20279264.00048
  23317161.375 5    -45587.633 5    -34799.49247  23317160.03547
  22758737.289 6    434143.699 6    333475.30949  22758736.54349
  24333795.820 4  -2194937.160 4  -1646172.60547  24333796.44947
  36792148.766 5   -471574.992 5                
 20  5 16  3 34 56.0000000  0  9G01G04G07G08G11G16G27G30S22         -0.000031834
  21691203.320 6  -2100333.484 6  -1617242.77349  21691205.70749
  24005106.398 4    388402.559 4    293866.21146  24005108.80146
  21799325.344 6  -1847735.090 6  -1419283.24249  21799323.31649
  20971677.969 7   -100534.969 7    -77090.23049  20971678.65649
  20278794.125 6  -1126178.984 6   -858673.24648  20278791.56648
  23317151.797 5    -45638.637 5    -34839.24647  23317150.28947
  22758937.414 6    435192.863 6    334292.84849  22758936.81349
  24332832.070 4  -2200003.320 4  -1650120.25847  24332832.47747
  36791815.656 6   -473304.793 6                
 20  5 16  3 34 57.0000000  0  9G01G04G07G08G11G16G27G30S22         -0.000032907
  21690296.203 6  -2105100.301 6  -1620957.18049  21690298.80949
  24005284.570 4    389338.199 4    294595.27746  24005286.72346
  21798531.281 6  -1851907.969 6  -1422534.83649  21798529.48849
  20971648.969 7   -100686.590 7    -77208.37549  20971649.56349
  20278322.211 6  -1128659.359 6   -860606.00448  20278319.71948
  23317142.742 6    -45689.477 6    -34878.85547  23317140.93047
  22759137.172 6    436242.105 6    335110.44149  22759136.35549
  24331868.305 3  -2205069.184 3  -1654067.66047  24331868.56347
  36791487.922 5   -475034.570 5                
 20  5 16  3 34 58.0000000  0  9G01G04G07G08G11G16G27G30S22         -0.000033979
  21689389.414 6  -2109866.621 6  -1624671.19949  21689391.93049
  24005462.336 4    390273.891 4    295324.38346  24005464.81646
  21797737.398 6  -1856080.344 6  -1425786.03549  21797735.34849
  20971620.297 7   -100837.883 7    -77326.27049  20971621.12949
  20277850.406 6  -1131139.063 6   -862538.23848  20277847.87948
  23317133.102 6    -45740.102 6    -34918.30947  23317131.73447
  22759336.422 6    437291.461 6    335928.11749  22759335.70749
  24330903.859 3  -2210134.891 3  -1658014.96147  24330904.18447
  36791157.578 6   -476764.203 6                
 20  5 16  3 34 59.0000000  0  9G01G04G07G08G11G16G27G30S22         -0.000035051
  21688482.844 6  -2114632.395 6  -1628384.78549  21688485.23049
  24005640.367 4    391209.668 4    296053.55946  24005642.89546
  21796943.383 6  -1860252.152 6  -1429036.79349  21796941.40249
  20971591.609 7   -100988.805 7    -77443.86749  20971592.55149
  20277378.539 6  -1133618.043 6   -864469.91448  20277376.31348
  23317123.547 6    -45790.449 6    -34957.54747  23317121.44147
  22759535.859 6    438340.965 6    336745.90649  22759535.66049
  24329939.813 3  -2215200.203 3  -1661961.96147  24329940.57047
  36790824.547 5   -478493.773 5                
 20  5 16  3 35  0.0000000  0  9G01G04G07G08G11G16G27G30S22         -0.000036121
  21687576.055 6  -2119397.633 6  -1632097.95349  21687578.12549
  24005818.625 4    392145.531 4    296782.80146  24005821.12946
  21796150.180 6  -1864423.398 6  -1432287.11749  21796147.85949
  20971562.523 7   -101139.344 7    -77561.17249  20971563.68049
  20276907.297 6  -1136096.316 6   -866401.03548  20276904.67248
  23317113.531 6    -45840.563 6    -34996.59447  23317111.97747
  22759735.508 6    439390.660 6    337563.84849  22759735.29349
  24328975.813 3  -2220265.289 3  -1665908.77747  24328976.80947
  36790497.000 6   -480223.074 6                
 20  5 16  3 35  1.0000000  0  9G01G04G07G08G11G16G27G30S22         -0.000037193
  21686668.836 6  -2124162.426 6  -1635810.77349  21686671.41449
  24005996.359 4    393081.398 4    297512.04746  24005999.10246
  21795356.461 6  -1868594.164 6  -1435537.07049  21795353.80949
  20971533.992 7   -101289.605 7    -77678.25449  20971534.85949
  20276435.500 6  -1138573.961 6   -868331.66848  20276433.57848
  23317104.063 6    -45890.500 6    -35035.50447  23317102.78947
  22759935.367 6    440440.438 6    338381.84449  22759934.82449
  24328012.680 3  -2225330.102 3  -1669855.38747  24328013.05147
  36790173.953 5   -481952.508 5                
 20  5 16  3 35  2.0000000  0  9G01G04G07G08G11G16G27G30S22         -0.000038265
  21685762.469 6  -2128926.746 6  -1639523.23449  21685765.07049
  24006174.883 4    394017.262 4    298241.27746  24006177.39146
  21794562.453 6  -1872764.422 6  -1438786.62549  21794560.18049
  20971505.555 7   -101439.555 7    -77795.09449  20971506.74249
  20275964.063 6  -1141050.953 6   -870261.78948  20275961.80548
  23317094.414 6    -45940.223 6    -35074.24647  23317093.60247
  22760135.148 6    441490.297 6    339199.92649  22760134.16449
  24327048.906 3  -2230394.770 3  -1673801.89547  24327049.23047
  36789842.672 6   -483681.730 6                
 20  5 16  3 35  3.0000000  0  9G01G04G07G08G11G16G27G30S22         -0.000039337
  21684856.016 6  -2133690.547 6  -1643235.28149  21684858.30149
  24006353.109 4    394953.191 4    298970.56346  24006355.12946
  21793769.008 6  -1876934.145 6  -1442035.75849  21793766.45349
  20971476.883 7   -101589.180 7    -77911.69149  20971478.02749
  20275493.141 6  -1143527.242 6   -872191.36348  20275490.41848
  23317084.906 5    -45989.703 5    -35112.80947  23317083.70747
  22760334.922 6    442540.309 6    340018.11749  22760333.79349
  24326084.203 2  -2235459.070 2  -1677748.09847  24326085.50447
  36789513.906 6   -485411.043 6                
 20  5 16  3 35  4.0000000  0  9G01G04G07G08G11G16G27G30S22         -0.000040409
  21683949.234 6  -2138453.809 6  -1646946.92249  21683951.70749
  24006531.844 4    395889.188 4    299699.91046  24006534.25846
  21792975.656 6  -1881103.293 6  -1445284.44549  21792973.26249
  20971448.453 7   -101738.461 7    -78028.01249  20971449.61749
  20275022.148 6  -1146002.828 6   -874120.38748  20275019.27348
  23317075.781 5    -46038.941 5    -35151.18447  23317074.04747
  22760535.203 6    443590.461 6    340836.42649  22760533.89549
  24325121.000 2  -2240523.141 2  -1681694.12147  24325121.96547
  36789182.391 6   -487140.215 6                
 20  5 16  3 35  5.0000000  0  9G01G04G07G08G11G16G27G30S22         -0.000041481
  21683042.711 6  -2143216.668 6  -1650658.23849  21683045.79749
  24006709.047 4    396825.195 4    300429.26246  24006712.02746
  21792182.438 6  -1885271.992 6  -1448532.78949  21792179.94549
  20971420.133 7   -101887.477 7    -78144.12949  20971421.24649
  20274551.352 6  -1148477.820 6   -876048.95348  20274549.06348
  23317066.234 5    -46088.039 5    -35189.44147  23317065.06647
  22760734.234 6    444640.672 6    341654.77349  22760733.62949
  24324157.203 3  -2245586.984 3  -1685639.95747  24324158.75047
  36788855.047 6   -488869.465 6                
 20  5 16  3 35  6.0000000  0  9G01G04G07G08G11G16G27G30S22         -0.000042553
  21682136.672 6  -2147978.945 6  -1654369.10249  21682139.34449
  24006887.703 4    397761.266 4    301158.66846  24006889.87946
  21791389.563 6  -1889440.145 6  -1451780.69549  21791387.03549
  20971391.828 7   -102036.094 7    -78259.93849  20971393.12949
  20274080.313 6  -1150952.078 6   -877976.94148  20274077.75848
  23317057.188 5    -46136.852 5    -35227.47347  23317056.12947
  22760935.023 6    445691.047 6    342473.24649  22760934.32849
  24323193.258 2  -2250650.547 2  -1689585.58647  24323194.99247
  36788526.547 5   -490598.574 5                
 20  5 16  3 35  7.0000000  0  9G01G04G07G08G11G16G27G30S22         -0.000043623
  21681230.961 6  -2152740.742 6  -1658079.59049  21681233.23049
  24007065.734 4    398697.449 4    301888.15247  24007068.50047
  21790596.594 6  -1893607.695 6  -1455028.12949  21790593.90649
  20971363.680 6   -102184.410 6    -78375.51249  20971364.80949
  20273609.539 6  -1153425.633 6   -879904.39148  20273607.04748
  23317047.609 5    -46185.441 5    -35265.33647  23317046.76247
  22761134.430 6    446741.578 6    343291.83649  22761133.66049
  24322230.273 2  -2255713.758 2  -1693530.93447  24322231.46547
  36788188.875 5   -492327.648 5                
 20  5 16  3 35  8.0000000  0  9G01G04G07G08G11G16G27G30S22         -0.000044695
  21680324.781 6  -2157502.074 6  -1661789.72349  21680327.43049
  24007243.578 4    399633.586 4    302617.61747  24007246.55147
  21789803.547 6  -1897774.805 6  -1458275.23049  21789801.05949
  20971335.328 6   -102332.445 6    -78490.86349  20971336.44149
  20273139.195 6  -1155898.586 6   -881831.36748  20273136.32048
  23317038.906 5    -46233.859 5    -35303.05946  23317037.51646
  22761334.797 6    447792.176 6    344110.48449  22761333.62549
  24321266.742 3  -2260776.832 3  -1697476.19547  24321267.77047
  36787864.375 5   -494056.324 5                
 20  5 16  3 35  9.0000000  0  9G01G04G07G08G11G16G27G30S22         -0.000045767
  21679418.430 6  -2162262.934 6  -1665499.47349  21679421.61749
  24007421.648 5    400569.746 5    303347.08646  24007424.23846
  21789010.602 6  -1901941.406 6  -1461521.93449  21789008.44949
  20971307.219 6   -102480.172 6    -78605.97749  20971308.66049
  20272668.445 6  -1158370.871 6   -883757.82048  20272666.46948
  23317029.680 5    -46282.078 5    -35340.64147  23317028.33647
  22761534.609 6    448842.902 6    344929.23049  22761533.64849
  24320303.141 2  -2265839.672 2  -1701421.25847  24320304.23047
  36787539.281 5   -495784.879 5                
 20  5 16  3 35 10.0000000  0  9G01G04G07G08G11G16G27G30S22         -0.000046837
  21678513.047 6  -2167023.301 6  -1669208.85249  21678515.48449
  24007599.953 5    401505.949 5    304076.59847  24007602.51247
  21788217.828 6  -1906107.488 6  -1464768.23049  21788215.35549
  20971279.125 6   -102627.574 6    -78720.83649  20971280.48049
  20272198.133 6  -1160842.480 6   -885683.75848  20272195.69548
  23317020.484 5    -46330.082 5    -35378.04747  23317019.12147
  22761734.719 6    449893.730 6    345748.05949  22761733.47349
  24319339.320 2  -2270902.223 2  -1705366.10247  24319341.08247
  36787207.594 5   -497513.281 5                
 20  5 16  3 35 11.0000000  0  9G01G04G07G08G11G16G27G30S22         -0.000047909
  21677606.891 6  -2171783.145 6  -1672917.82049  21677610.00849
  24007777.914 5    402442.238 5    304806.16847  24007780.39547
  21787424.766 6  -1910273.016 6  -1468014.09449  21787422.49649
  20971251.320 6   -102774.637 6    -78835.42649  20971252.35949
  20271727.680 6  -1163313.414 6   -887609.16049  20271725.06649
  23317011.633 5    -46377.855 5    -35415.27747  23317009.99247
  22761934.516 6    450944.688 6    346566.98849  22761933.32449
  24318376.586 2  -2275964.496 2  -1709310.71547  24318377.84447
  36786876.672 6   -499241.633 6                
 20  5 16  3 35 12.0000000  0  9G01G04G07G08G11G16G27G30S22         -0.000048979
  21676701.445 6  -2176542.578 6  -1676626.46949  21676703.91049
  24007956.234 5    403378.441 5    305535.67247  24007958.56347
  21786632.703 6  -1914438.059 6  -1471259.58249  21786630.18449
  20971223.602 6   -102921.461 6    -78949.83249  20971224.64149
  20271257.742 6  -1165783.730 6   -889534.07848  20271255.18048
  23317001.906 5    -46425.465 5    -35452.37947  23317001.10247
  22762134.359 6    451995.715 6    347385.96949  22762133.17249
  24317413.227 3  -2281026.594 3  -1713255.19947  24317414.15647
  36786549.125 5   -500969.891 5                
 20  5 16  3 35 13.0000000  0  9G01G04G07G08G11G16G27G30S22         -0.000050051
  21675795.914 6  -2181301.496 6  -1680334.71549  21675798.30149
  24008134.406 4    404314.719 4    306265.23847  24008136.76247
  21785840.336 6  -1918602.617 6  -1474504.69549  21785837.75049
  20971195.469 6   -103067.965 6    -79063.99249  20971196.61749
  20270788.250 6  -1168253.367 6   -891458.47748  20270785.26248
  23316993.633 5    -46472.855 5    -35489.30947  23316992.18047
  22762333.953 6    453046.855 6    348205.02749  22762333.39849
  24316450.992 2  -2286088.430 2  -1717199.48847  24316451.24647
  36786220.172 6   -502698.379 6                
 20  5 16  3 35 14.0000000  0  9G01G04G07G08G11G16G27G30S22         -0.000051121
  21674890.602 6  -2186060.031 6  -1684042.66449  21674893.19949
  24008313.094 4    405250.984 4    306994.79347  24008315.52347
  21785047.781 6  -1922766.727 6  -1477749.45349  21785044.66449
  20971167.359 7   -103214.234 7    -79177.97349  20971169.28949
  20270318.016 7  -1170722.430 7   -893382.41848  20270315.62548
  23316984.070 5    -46520.125 5    -35526.14147  23316982.64847
  22762534.531 6    454098.004 6    349024.10249  22762533.85249
  24315487.313 2  -2291150.137 2  -1721143.67247  24315488.02047
  36785894.438 5   -504426.699 5                
 20  5 16  3 35 15.0000000  0  9G01G04G07G08G11G16G27G30S22         -0.000052193
  21673985.258 6  -2190818.004 6  -1687750.18049  21673987.45749
  24008490.898 5    406187.285 5    307724.37147  24008493.27747
  21784255.367 7  -1926930.281 7  -1480993.77749  21784252.65249
  20971139.844 7   -103360.164 7    -79291.68049  20971141.34849
  20269848.336 6  -1173190.801 6   -895305.82048  20269845.91448
  23316974.891 5    -46567.141 5    -35562.78147  23316973.74247
  22762734.352 6    455149.344 6    349843.32449  22762733.55149
  24314524.516 3  -2296211.574 3  -1725087.64847  24314524.59847
  36785565.875 6   -506155.105 6                
 20  5 16  3 35 16.0000000  0  9G01G04G07G08G11G16G27G30S22         -0.000053263
  21673079.688 6  -2195575.539 6  -1691457.34449  21673082.27749
  24008669.352 4    407123.582 4    308453.94547  24008671.44947
  21783463.164 7  -1931093.332 7  -1484237.71549  21783460.75449
  20971111.883 7   -103505.797 7    -79405.16049  20971113.51649
  20269379.070 6  -1175658.520 6   -897228.71548  20269376.36748
  23316966.672 5    -46613.977 5    -35599.27747  23316965.03547
  22762935.094 6    456200.715 6    350662.57449  22762933.98449
  24313561.078 2  -2301272.773 2  -1729031.44147  24313561.78947
  36785232.141 6   -507883.441 6                
 20  5 16  3 35 17.0000000  0  9G01G04G07G08G11G16G27G30S22         -0.000054335
  21672174.773 6  -2200332.617 6  -1695164.16049  21672176.96549
  24008847.320 4    408059.898 4    309183.53147  24008849.77347
  21782671.141 7  -1935255.902 7  -1487481.28549  21782668.36349
  20971084.156 6   -103651.113 6    -79518.39549  20971085.64149
  20268909.172 6  -1178125.594 6   -899151.11348  20268906.77748
  23316957.781 5    -46660.645 5    -35635.64147  23316956.10547
  22763134.914 6    457252.250 6    351481.94949  22763133.54349
  24312598.016 2  -2306333.695 2  -1732975.02047  24312598.75847
  36784904.531 6   -509611.594 6                
 20  5 16  3 35 18.0000000  0  9G01G04G07G08G11G16G27G30S22         -0.000055405
  21671269.281 6  -2205089.109 6  -1698870.51649  21671271.65649
  24009025.750 4    408996.355 4    309913.22747  24009027.69147
  21781879.594 6  -1939417.875 6  -1490724.38349  21781876.56649
  20971056.516 6   -103796.059 6    -79631.34049  20971058.09049
  20268439.719 6  -1180591.949 6   -901072.94548  20268437.73848
  23316948.922 5    -46707.016 5    -35671.77747  23316947.02047
  22763335.211 6    458303.930 6    352301.43849  22763333.86749
  24311635.383 2  -2311394.352 2  -1736918.39847  24311635.75847
  36784579.125 6   -511339.602 6                
 20  5 16  3 35 19.0000000  0  9G01G04G07G08G11G16G27G30S22         -0.000056475
  21670364.461 6  -2209845.191 6  -1702576.55949  21670366.30549
  24009203.656 4    409932.727 4    310642.86747  24009206.19147
  21781087.375 7  -1943579.383 7  -1493967.12149  21781084.55549
  20971029.047 6   -103940.734 6    -79744.07849  20971030.95349
  20267970.766 6  -1183057.664 6   -902994.28148  20267968.55948
  23316939.656 5    -46753.215 5    -35707.78147  23316937.65647
  22763535.477 6    459355.672 6    353120.97749  22763534.20349
  24310672.359 2  -2316454.754 2  -1740861.57047  24310672.59047
  36784249.672 6   -513067.461 6                
 20  5 16  3 35 20.0000000  0  9G01G04G07G08G11G16G27G30S22         -0.000057547
  21669459.547 6  -2214600.738 6  -1706282.17249  21669461.93049
  24009382.109 4    410869.203 4    311372.58247  24009384.31347
  21780295.625 6  -1947740.336 6  -1497209.42249  21780292.52749
  20971001.531 6   -104085.094 6    -79856.55949  20971003.24249
  20267501.625 6  -1185522.695 6   -904915.08648  20267499.20348
  23316931.711 5    -46799.184 5    -35743.60547  23316929.59847
  22763735.695 6    460407.570 6    353940.64149  22763734.63349
  24309709.734 2  -2321514.941 2  -1744804.57447  24309709.86747
  36783921.359 6   -514795.387 6                
 20  5 16  3 35 21.0000000  0  9G01G04G07G08G11G16G27G30S22         -0.000058617
  21668554.320 6  -2219355.781 6  -1709987.39849  21668557.08649
  24009560.438 4    411805.742 4    312102.35247  24009562.91447
  21779503.930 7  -1951900.781 7  -1500451.32849  21779500.78149
  20970974.383 6   -104229.094 6    -79968.76649  20970975.84449
  20267032.438 6  -1187987.043 6   -906835.35548  20267030.19948
  23316922.414 5    -46844.953 5    -35779.28547  23316920.29347
  22763935.656 6    461459.590 6    354760.39149  22763934.56649
  24308747.266 3  -2326574.867 3  -1748747.37147  24308746.94947
  36783594.297 6   -516523.004 6                
 20  5 16  3 35 22.0000000  0  9G01G04G07G08G11G16G27G30S22         -0.000059687
  21667649.383 6  -2224110.328 6  -1713692.24249  21667652.03149
  24009738.438 4    412742.273 4    312832.11747  24009740.76647
  21778712.219 6  -1956060.680 6  -1503692.80149  21778709.10949
  20970947.000 6   -104372.801 6    -80080.74249  20970948.26649
  20266564.031 6  -1190450.727 6   -908755.10948  20266561.23448
  23316913.773 5    -46890.504 5    -35814.77747  23316911.83247
  22764135.734 6    462511.707 6    355580.21949  22764134.88749
  24307784.492 3  -2331634.504 3  -1752689.94147  24307784.21547
  36783263.453 6   -518250.754 6                
 20  5 16  3 35 23.0000000  0  9G01G04G07G08G11G16G27G30S22         -0.000060759
  21666744.984 6  -2228864.422 6  -1717396.73049  21666747.49249
  24009917.063 4    413678.855 4    313561.91447  24009919.07847
  21777920.680 7  -1960220.086 7  -1506933.89149  21777918.15249
  20970919.469 6   -104516.191 6    -80192.47349  20970920.82849
  20266095.094 6  -1192913.754 6   -910674.35248  20266092.59448
  23316905.227 5    -46935.836 5    -35850.09847  23316903.16447
  22764335.828 6    463563.914 6    356400.11749  22764334.75449
  24306821.508 3  -2336693.910 3  -1756632.33247  24306821.55147
  36782938.578 6   -519977.922 6                
 20  5 16  3 35 24.0000000  0  9G01G04G07G08G11G16G27G30S22         -0.000061829
  21665840.453 6  -2233618.035 6  -1721100.84449  21665842.81349
  24010095.172 4    414615.434 4    314291.71947  24010096.82047
  21777129.305 7  -1964378.965 7  -1510174.57849  21777126.40249
  20970892.523 6   -104659.332 6    -80304.01249  20970893.90649
  20265626.672 6  -1195376.160 6   -912593.10548  20265624.44548
  23316897.117 5    -46981.000 5    -35885.28947  23316894.66447
  22764536.266 6    464616.258 6    357220.12149  22764535.42649
  24305858.336 3  -2341753.063 3  -1760574.53547  24305859.06647
  36782609.922 6   -521704.879 6                
 20  5 16  3 35 25.0000000  0  9G01G04G07G08G11G16G27G30S22         -0.000062899
  21664936.078 6  -2238371.152 6  -1724804.56649  21664938.07849
  24010273.359 4    415552.063 4    315021.55547  24010275.63747
  21776338.039 6  -1968537.355 6  -1513414.87549  21776335.02049
  20970865.492 6   -104802.117 6    -80415.27349  20970867.06649
  20265158.414 6  -1197837.875 6   -914511.32448  20265155.69148
  23316888.844 5    -47025.938 5    -35920.30147  23316886.20347
  22764735.961 6    465668.695 6    358040.20349  22764735.13749
  24304896.477 3  -2346811.988 3  -1764516.56347  24304896.13347
  36782269.922 6   -523431.789 6                
 20  5 16  3 35 26.0000000  0  9G01G04G07G08G11G16G27G30S22         -0.000063969
  21664031.734 6  -2243123.805 6  -1728507.93449  21664033.72349
  24010451.688 4    416488.730 4    315751.42247  24010454.10947
  21775546.844 6  -1972695.230 6  -1516654.77049  21775544.13749
  20970838.102 6   -104944.621 6    -80526.30949  20970839.63749
  20264689.734 6  -1200298.945 6   -916429.04748  20264687.13748
  23316879.625 5    -47070.684 5    -35955.17247  23316877.72747
  22764936.305 6    466721.238 6    358860.36749  22764935.42649
  24303933.414 3  -2351870.695 3  -1768458.40647  24303933.39547
  36781945.984 5   -525158.645 5                
 20  5 16  3 35 27.0000000  0  9G01G04G07G08G11G16G27G30S22         -0.000065039
  21663127.109 6  -2247875.953 6  -1732210.90249  21663129.42649
  24010629.438 4    417425.395 4    316481.28147  24010632.27047
  21774755.609 6  -1976852.582 6  -1519894.26249  21774752.56349
  20970811.109 6   -105086.773 6    -80637.07449  20970812.56349
  20264221.820 6  -1202759.352 6   -918346.24648  20264219.04748
  23316871.109 5    -47115.219 5    -35989.87947  23316869.23847
  22765136.484 6    467773.887 6    359680.61349  22765135.77049
  24302970.531 3  -2356929.105 3  -1772400.01247  24302970.94547
  36781615.688 6   -526885.426 6                
 20  5 16  3 35 28.0000000  0  9G01G04G07G08G11G16G27G30S22         -0.000066109
  21662223.063 6  -2252627.559 6  -1735913.45349  21662225.19149
  24010807.836 4    418362.145 4    317211.21147  24010810.51647
  21773964.328 6  -1981009.359 6  -1523133.31349  21773961.93449
  20970784.094 6   -105228.594 6    -80747.58249  20970786.02049
  20263753.266 6  -1205219.027 6   -920262.87148  20263750.98448
  23316863.117 5    -47159.488 5    -36024.35547  23316860.84047
  22765337.461 6    468826.695 6    360500.97749  22765336.06649
  24302008.172 3  -2361987.262 3  -1776341.43047  24302008.70747
  36781289.625 6   -528612.172 6                
 20  5 16  3 35 29.0000000  0  9G01G04G07G08G11G16G27G30S22         -0.000067179
  21661318.773 6  -2257378.750 6  -1739615.68449  21661321.15649
  24010985.945 4    419298.852 4    317941.12147  24010988.58247
  21773173.352 6  -1985165.676 6  -1526372.00449  21773170.93849
  20970757.359 6   -105370.164 6    -80857.89549  20970758.90649
  20263285.406 6  -1207678.137 6   -922179.06348  20263282.77748
  23316854.219 5    -47203.621 5    -36058.74647  23316852.29747
  22765537.789 6    469879.574 6    361321.39849  22765536.40249
  24301045.273 4  -2367045.211 4  -1780282.69147  24301046.09447
  36780960.750 6   -530339.059 6                
 20  5 16  3 35 30.0000000  0  9G01G04G07G08G11G16G27G30S22         -0.000068249
  21660414.891 6  -2262129.477 6  -1743317.54349  21660417.13349
  24011163.852 4    420235.602 4    318671.06347  24011166.75447
  21772382.586 6  -1989321.496 6  -1529610.31349  21772379.65249
  20970730.406 6   -105511.438 6    -80967.98049  20970731.78949
  20262817.742 6  -1210136.582 6   -924094.73448  20262815.21948
  23316846.109 5    -47247.574 5    -36093.00047  23316844.03947
  22765737.953 6    470932.496 6    362141.85549  22765736.76649
  24300082.938 4  -2372102.910 4  -1784223.75047  24300083.60947
  36780635.500 6   -532065.930 6                
 20  5 16  3 35 31.0000000  0  9G01G04G07G08G11G16G27G30S22         -0.000069319
  21659510.805 6  -2266879.738 6  -1747019.04749  21659513.04349
  24011342.305 4    421172.332 4    319400.98047  24011345.10947
  21771591.953 6  -1993476.824 6  -1532848.23449  21771589.61749
  20970703.461 6   -105652.441 6    -81077.85549  20970704.93049
  20262350.195 6  -1212594.383 6   -926009.90248  20262347.51648
  23316837.883 6    -47291.328 6    -36127.10247  23316835.52747
  22765938.328 6    471985.563 6    362962.42649  22765937.53949
  24299121.430 4  -2377160.402 4  -1788164.64847  24299121.23447
  36780309.844 6   -533792.555 6                
 20  5 16  3 35 32.0000000  0  9G01G04G07G08G11G16G27G30S22         -0.000070389
  21658607.055 6  -2271629.406 6  -1750720.09049  21658609.44949
  24011521.133 4    422109.215 4    320131.01247  24011523.30547
  21770801.180 6  -1997631.578 6  -1536085.69949  21770798.85249
  20970676.766 6   -105793.039 6    -81187.41049  20970678.14149
  20261882.445 6  -1215051.465 6   -927924.51248  20261880.12548
  23316829.164 6    -47334.805 6    -36160.97347  23316827.18047
  22766138.797 6    473038.754 6    363783.10249  22766137.68449
  24298158.773 4  -2382217.566 4  -1792105.28947  24298158.98047
  36779976.016 5   -535519.359 5                
 20  5 16  3 35 33.0000000  0  9G01G04G07G08G11G16G27G30S22         -0.000071459
  21657703.461 6  -2276378.656 6  -1754420.80549  21657705.82449
  24011699.086 4    423046.012 4    320860.96947  24011701.76247
  21770010.797 6  -2001785.840 6  -1539322.78949  21770008.06349
  20970650.352 7   -105933.402 7    -81296.77749  20970651.80949
  20261415.555 6  -1217507.898 6   -929838.62148  20261412.79348
  23316821.008 6    -47378.113 6    -36194.72347  23316819.05147
  22766339.008 6    474092.035 6    364603.84449  22766338.21949
  24297196.414 4  -2387274.508 4  -1796045.75847  24297196.85947
  36779655.438 5   -537245.520 5                
 20  5 16  3 35 34.0000000  0  9G01G04G07G08G11G16G27G30S22         -0.000072529
  21656799.508 6  -2281127.375 6  -1758121.09849  21656801.86349
  24011877.891 4    423982.922 4    321591.00847  24011880.03947
  21769220.164 6  -2005939.531 6  -1542559.43449  21769217.55549
  20970623.516 7   -106073.371 7    -81405.85249  20970625.00049
  20260947.773 6  -1219963.656 6   -931752.19948  20260945.22348
  23316812.891 5    -47421.160 5    -36228.27047  23316810.74247
  22766539.297 6    475145.484 6    365424.71549  22766538.90249
  24296233.742 4  -2392331.195 4  -1799986.03947  24296234.91447
  36779320.375 6   -538971.703 6                
 20  5 16  3 35 35.0000000  0  9G01G04G07G08G11G16G27G30S22         -0.000073599
  21655896.031 6  -2285875.641 6  -1761821.04349  21655898.67249
  24012055.539 4    424919.852 4    322321.07447  24012058.29747
  21768430.188 6  -2010092.750 6  -1545795.70749  21768427.64549
  20970596.563 7   -106213.086 7    -81514.71949  20970597.92249
  20260480.570 6  -1222418.766 6   -933665.26248  20260478.00448
  23316804.914 5    -47464.031 5    -36261.68047  23316802.84447
  22766739.875 6    476198.996 6    366245.62549  22766739.10549
  24295271.406 4  -2397387.629 4  -1803926.10547  24295272.43847
  36778996.844 5   -540697.816 5                
 20  5 16  3 35 36.0000000  0  9G01G04G07G08G11G16G27G30S22         -0.000074669
  21654992.734 6  -2290623.414 6  -1765520.60549  21654994.82449
  24012234.078 4    425856.746 4    323051.12146  24012236.62546
  21767639.508 6  -2014245.461 6  -1549031.58649  21767637.35549
  20970569.984 6   -106352.488 6    -81623.34449  20970571.31649
  20260013.469 6  -1224873.227 6   -935577.83648  20260010.73848
  23316796.695 5    -47506.723 5    -36294.94147  23316795.06647
  22766940.797 5    477252.641 5    367066.64549  22766940.18049
  24294309.875 4  -2402443.871 4  -1807866.02747  24294310.52047
  36778662.938 6   -542423.797 6                
 20  5 16  3 35 37.0000000  0  9G01G04G07G08G11G16G27G30S22         -0.000075739
  21654089.039 6  -2295370.785 6  -1769219.85249  21654091.65249
  24012412.531 4    426793.660 4    323781.18847  24012415.02747
  21766849.820 6  -2018397.703 6  -1552267.10249  21766847.19149
  20970543.820 7   -106491.652 7    -81731.78149  20970544.91049
  20259546.742 6  -1227327.074 6   -937489.92648  20259544.14548
  23316788.508 5    -47549.254 5    -36328.07847  23316786.64147
  22767140.813 6    478306.297 6    367887.67649  22767140.77749
  24293346.703 4  -2407499.871 4  -1811805.77048  24293348.31348
  36778337.047 5   -544149.980 5                
 20  5 16  3 35 38.0000000  0  9G01G04G07G08G11G16G27G30S22         -0.000076809
  21653186.234 6  -2300117.543 6  -1772918.61749  21653188.45349
  24012591.016 4    427730.691 4    324511.33647  24012593.34047
  21766059.461 6  -2022549.355 6  -1555502.15649  21766056.82449
  20970517.367 7   -106630.430 7    -81839.91449  20970518.53549
  20259079.813 6  -1229780.203 6   -939401.45348  20259077.15248
  23316780.727 6    -47591.488 6    -36360.98447  23316778.76247
  22767341.375 6    479360.168 6    368708.87549  22767341.32049
  24292384.984 4  -2412555.570 4  -1815745.27348  24292386.15648
  36778004.250 6   -545875.441 6                
 20  5 16  3 35 39.0000000  0  9G01G04G07G08G11G16G27G30S22         -0.000077877
  21652282.461 6  -2304863.848 6  -1776617.03549  21652284.99649
  24012769.000 5    428667.703 5    325241.47747  24012771.48047
  21765269.688 6  -2026700.496 6  -1558736.81349  21765267.08649
  20970490.977 7   -106768.914 7    -81947.82049  20970492.23849
  20258612.922 6  -1232232.652 6   -941312.45348  20258610.53148
  23316772.250 5    -47633.539 5    -36393.75447  23316770.70747
  22767542.781 6    480414.121 6    369530.14149  22767541.98849
  24291422.563 4  -2417611.027 4  -1819684.59848  24291423.89848
  36777675.359 5   -547601.273 5                
 20  5 16  3 35 40.0000000  0  9G01G04G07G08G11G16G27G30S22         -0.000078947
  21651379.758 6  -2309609.652 6  -1780315.06649  21651382.05949
  24012947.148 5    429604.785 5    325971.66847  24012949.91847
  21764480.039 6  -2030851.113 6  -1561971.05949  21764477.58649
  20970464.813 7   -106907.086 7    -82055.49249  20970466.25049
  20258146.625 6  -1234684.453 6   -943222.93848  20258144.08248
  23316764.836 6    -47675.336 6    -36426.32447  23316762.76247
  22767743.563 6    481468.207 6    370351.50849  22767742.79349
  24290460.719 4  -2422666.230 4  -1823623.72347  24290462.26247
  36777349.656 5   -549326.742 5                
 20  5 16  3 35 41.0000000  0  9G01G04G07G08G11G16G27G30S22         -0.000080015
  21650476.594 6  -2314354.930 6  -1784012.68049  21650478.73849
  24013125.547 4    430541.883 4    326701.85947  24013128.12147
  21763690.078 6  -2035001.184 6  -1565204.88349  21763687.43449
  20970438.297 7   -107044.902 7    -82162.87949  20970439.66449
  20257680.211 6  -1237135.531 6   -945132.87548  20257677.67648
  23316756.719 5    -47716.965 5    -36458.77047  23316754.68847
  22767943.586 6    482522.406 6    371172.96149  22767943.06649
  24289498.969 4  -2427721.180 4  -1827562.64848  24289500.12548
  36777023.609 5   -551052.137 5                
 20  5 16  3 35 42.0000000  0  9G01G04G07G08G11G16G27G30S22         -0.000081085
  21649573.406 6  -2319099.738 6  -1787709.93849  21649576.02349
  24013303.594 4    431479.055 4    327432.11347  24013306.39847
  21762900.563 7  -2039150.719 7  -1568438.28949  21762897.90249
  20970412.523 7   -107182.391 7    -82270.02049  20970413.74649
  20257213.578 6  -1239585.973 6   -947042.30948  20257211.08248
  23316748.781 6    -47758.355 6    -36491.02347  23316747.05547
  22768144.063 6    483576.738 6    371994.51249  22768143.64849
  24288537.328 4  -2432775.848 4  -1831501.34048  24288538.01648
  36776695.578 5   -552777.461 5                
 20  5 16  3 35 43.0000000  0  8G01G04G07G08G11G16G27G30            -0.000082155
  21648670.953 6  -2323844.086 6  -1791406.83649  21648673.27049
  24013482.227 4    432416.180 4    328162.34047  24013484.85947
  21762110.969 7  -2043299.797 7  -1571671.33249  21762108.25049
  20970386.297 7   -107319.625 7    -82376.95349  20970387.06349
  20256747.469 6  -1242035.793 6   -948951.26248  20256745.28548
  23316741.453 5    -47799.559 5    -36523.12947  23316739.22747
  22768344.547 6    484631.137 6    372816.11749  22768343.98449
  24287575.156 4  -2437830.309 4  -1835439.87548  24287576.50048
 20  5 16  3 35 44.0000000  0  8G01G04G07G08G11G16G27G30            -0.000083223
  21647768.266 6  -2328587.953 6  -1795103.35549  21647770.71549
  24013661.070 4    433353.383 4    328892.62547  24013663.39147
  21761321.547 6  -2047448.348 6  -1574903.97349  21761318.93849
  20970360.313 7   -107456.547 7    -82483.64549  20970361.38749
  20256281.242 6  -1244484.941 6   -950859.69148  20256278.75848
  23316734.055 5    -47840.559 5    -36555.07447  23316731.24647
  22768545.609 6    485685.652 6    373637.82049  22768544.78549
  24286613.477 4  -2442884.516 4  -1839378.21147  24286614.82847
 20  5 16  3 35 45.0000000  0  8G01G04G07G08G11G16G27G30            -0.000084293
  21646865.492 6  -2333331.277 6  -1798799.44549  21646867.84049
  24013838.633 4    434290.574 4    329622.90647  24013841.22347
  21760531.781 6  -2051596.328 6  -1578136.17649  21760529.60949
  20970334.516 7   -107593.109 7    -82590.05949  20970335.23449
  20255815.492 6  -1246933.391 6   -952767.57048  20255813.09048
  23316725.453 5    -47881.316 5    -36586.83247  23316723.36347
  22768745.914 6    486740.305 6    374459.62149  22768745.80549
  24285651.625 4  -2447938.477 4  -1843316.36747  24285652.62947
 20  5 16  3 35 46.0000000  0  8G01G04G07G08G11G16G27G30            -0.000085361
  21645963.008 6  -2338074.094 6  -1802495.14549  21645965.43049
  24014017.633 4    435227.871 4    330353.27047  24014019.67647
  21759742.563 6  -2055743.793 6  -1581367.96949  21759740.57849
  20970308.445 7   -107729.367 7    -82696.23849  20970309.02749
  20255350.008 6  -1249381.176 6   -954674.93448  20255347.39848
  23316718.406 6    -47921.859 6    -36618.43847  23316715.99647
  22768946.688 6    487795.051 6    375281.50449  22768946.41449
  24284690.305 4  -2452992.129 4  -1847254.27747  24284691.07447
 20  5 16  3 35 47.0000000  0  8G01G04G07G08G11G16G27G30            -0.000086432
  21645060.852 6  -2342816.504 6  -1806190.52749  21645062.76649
  24014195.781 4    436165.082 4    331083.55146  24014197.98046
  21758953.789 6  -2059890.785 6  -1584599.38749  21758951.34049
  20970282.656 7   -107865.359 7    -82802.20749  20970283.36749
  20254884.016 6  -1251828.332 6   -956581.80548  20254881.70748
  23316710.102 6    -47962.238 6    -36649.90247  23316708.14547
  22769147.227 6    488849.883 6    376103.45349  22769146.95349
  24283727.984 4  -2458045.609 4  -1851192.04347  24283730.00847
 20  5 16  3 35 48.0000000  0  8G01G04G07G08G11G16G27G30            -0.000087500
  21644158.070 6  -2347558.406 6  -1809885.52049  21644160.15649
  24014373.805 4    437102.387 4    331813.91847  24014376.08247
  21758164.938 6  -2064037.250 6  -1587830.39549  21758162.23849
  20970256.859 7   -108001.035 7    -82907.92649  20970257.18449
  20254418.398 6  -1254274.828 6   -958488.17248  20254415.80948
  23316702.219 5    -48002.414 5    -36681.20747  23316700.67247
  22769348.141 6    489904.813 6    376925.47749  22769347.96949
  24282766.586 4  -2463098.789 4  -1855129.58247  24282768.03947
 20  5 16  3 35 49.0000000  0  8G01G04G07G08G11G16G27G30            -0.000088570
  21643255.953 6  -2352299.902 6  -1813580.19149  21643258.53149
  24014552.258 4    438039.574 4    332544.18047  24014554.31347
  21757375.891 6  -2068183.301 6  -1591061.08249  21757373.25049
  20970231.125 7   -108136.473 7    -83013.46549  20970231.79349
  20253953.109 6  -1256720.766 6   -960394.09848  20253950.60948
  23316694.625 6    -48042.469 6    -36712.41047  23316692.60247
  22769549.000 6    490959.781 6    377747.52749  22769548.72349
  24281804.938 4  -2468151.887 4  -1859067.05148  24281806.72748
 20  5 16  3 35 50.0000000  0  8G01G04G07G08G11G16G27G30            -0.000089638
  21642353.352 6  -2357040.871 6  -1817274.45349  21642355.93449
  24014730.664 4    438976.844 4    333274.52046  24014732.73446
  21756586.844 6  -2072328.801 6  -1594291.33649  21756584.70349
  20970205.281 7   -108271.586 7    -83118.75049  20970205.71949
  20253487.836 6  -1259166.004 6   -962299.47348  20253485.12948
  23316687.398 6    -48082.316 6    -36743.46547  23316685.52047
  22769749.758 5    492014.875 5    378569.67649  22769749.71149
  24280842.352 4  -2473204.648 4  -1863004.26248  24280845.09048
 20  5 16  3 35 51.0000000  0  8G01G04G07G08G11G16G27G30            -0.000090706
  21641451.789 6  -2361781.391 6  -1820968.36349  21641453.83249
  24014908.875 4    439914.137 4    334004.87947  24014910.75047
  21755797.836 6  -2076473.770 6  -1597521.18849  21755795.29749
  20970179.773 7   -108406.398 7    -83223.78949  20970180.25449
  20253022.563 6  -1261610.590 6   -964204.34848  20253020.07448
  23316679.922 5    -48121.930 5    -36774.33647  23316677.74247
  22769950.063 6    493070.070 6    379391.91449  22769950.11749
  24279881.867 4  -2478257.160 4  -1866941.27748  24279883.58248
 20  5 16  3 35 52.0000000  0  8G01G04G07G08G11G16G27G30            -0.000091776
  21640549.453 6  -2366521.406 6  -1824661.88349  21640552.07449
  24015087.547 4    440851.426 4    334735.23047  24015089.43847
  21755009.180 6  -2080618.230 6  -1600750.63749  21755006.78949
  20970154.031 7   -108540.926 7    -83328.62149  20970154.33249
  20252557.602 6  -1264054.508 6   -966108.70348  20252554.76248
  23316672.430 6    -48161.352 6    -36805.05547  23316670.28147
  22770151.359 6    494125.367 6    380214.21149  22770151.00849
  24278920.938 4  -2483309.465 4  -1870878.12948  24278922.32048
 20  5 16  3 35 53.0000000  0  8G01G04G07G08G11G16G27G30            -0.000092844
  21639647.758 6  -2371260.965 6  -1828355.03949  21639649.80549
  24015266.023 4    441788.770 4    335465.62147  24015267.85547
  21754220.781 6  -2084762.199 6  -1603979.70749  21754218.14149
  20970128.781 7   -108675.160 7    -83433.21549  20970128.93449
  20252092.539 6  -1266497.785 6   -968012.55148  20252089.89548
  23316664.078 5    -48200.586 5    -36835.62947  23316662.68047
  22770352.281 6    495180.770 6    381036.60949  22770352.19549
  24277959.063 3  -2488361.527 3  -1874814.81647  24277960.69547
 20  5 16  3 35 54.0000000  0  8G01G04G07G08G11G16G27G30            -0.000093912
  21638746.102 6  -2375999.961 6  -1832047.76649  21638748.21149
  24015444.164 5    442726.191 5    336196.06346  24015446.09446
  21753432.320 6  -2088905.613 6  -1607208.34449  21753429.92649
  20970103.289 7   -108809.039 7    -83537.54749  20970103.14549
  20251628.000 6  -1268940.340 6   -969915.84048  20251625.17248
  23316656.891 5    -48239.586 5    -36866.02747  23316655.51247
  22770553.258 6    496236.301 6    381859.10549  22770552.81349
  24276997.750 3  -2493413.340 3  -1878751.30147  24276999.16447
 20  5 16  3 35 55.0000000  0  8G01G04G07G08G11G16G27G30            -0.000094982
  21637844.141 6  -2380738.539 6  -1835740.15649  21637846.31649
  24015622.523 5    443663.551 5    336926.46946  24015624.34446
  21752644.031 6  -2093048.535 6  -1610436.59449  21752642.00449
  20970077.508 7   -108942.664 7    -83641.66449  20970077.85249
  20251163.188 6  -1271382.316 6   -971818.67648  20251161.01248
  23316650.031 5    -48278.387 5    -36896.25847  23316648.21947
  22770753.906 6    497291.906 6    382681.65249  22770753.98049
  24276036.281 3  -2498464.871 3  -1882687.56647  24276038.50447
 20  5 16  3 35 56.0000000  0  8G01G04G07G08G11G16G27G30            -0.000096050
  21636942.766 6  -2385476.645 6  -1839432.19149  21636944.72749
  24015800.617 5    444600.938 5    337656.90647  24015802.84447
  21751855.680 6  -2097190.969 6  -1613664.47349  21751853.30149
  20970052.156 6   -109075.984 6    -83745.55549  20970051.94949
  20250698.617 6  -1273823.617 6   -973720.98848  20250695.99648
  23316642.492 5    -48317.020 5    -36926.36747  23316640.85947
  22770955.398 6    498347.602 6    383504.26249  22770954.57449
  24275074.813 2  -2503516.195 2  -1886623.65247  24275076.93447
 20  5 16  3 35 57.0000000  0  8G01G04G07G08G11G16G27G30            -0.000097118
  21636041.281 6  -2390214.242 6  -1843123.82049  21636043.13749
  24015979.320 4    445538.348 4    338387.35247  24015981.10947
  21751067.109 6  -2101332.879 6  -1616891.93049  21751065.30149
  20970026.844 6   -109209.008 6    -83849.21949  20970026.90249
  20250234.164 6  -1276264.277 6   -975622.80948  20250231.67648
  23316635.563 5    -48355.449 5    -36956.30947  23316633.60247
  22771156.000 6    499403.398 6    384326.96149  22771155.66449
  24274112.961 1  -2508567.289 1  -1890559.56647  24274115.44947
