     2.10           OBSERVATION DATA    GPS(GPS)            RINEX VERSION / TYPE
cnvtToRINEX 3.07.0  convertToRINEX OPR  19-May-20 12:31 UTC PGM / RUN BY / DATE 
----------------------------------------------------------- COMMENT             
98N0                                                        MARKER NAME         
98N0                                                        MARKER NUMBER       
GNSS Observer       Trimble                                 OBSERVER / AGENCY   
0220324777          TRIMBLE 5700        2.32                REC # / TYPE / VERS 
                    TRM39105.00                             ANT # / TYPE        
 -3051170.0073  4927716.1814  2653575.2675                  APPROX POSITION XYZ 
       -0.0460        0.0000        0.0000                  ANTENNA: DELTA H/E/N
     1     1     0                                          WAVELENGTH FACT L1/2
     4    C1    L1    L2    P2                              # / TYPES OF OBSERV 
  2020     5    16     5    15   39.0000000     GPS         TIME OF FIRST OBS   
  2020     5    16     6    21   28.0000000     GPS         TIME OF LAST OBS    
     0                                                      RCV CLOCK OFFS APPL 
    18                                                      LEAP SECONDS        
     9                                                      # OF SATELLITES     
   G01  3950  3950  3950  3950                              PRN / # OF OBS      
   G03  3919  3909  3915  3915                              PRN / # OF OBS      
   G07  3950  3950  3950  3950                              PRN / # OF OBS      
   G08  3950  3950  3950  3950                              PRN / # OF OBS      
   G11  3950  3950  3950  3950                              PRN / # OF OBS      
   G17  3950  3950  3950  3950                              PRN / # OF OBS      
   G22  3950  3950  3950  3950                              PRN / # OF OBS      
   G28  3921  3921  3921  3921                              PRN / # OF OBS      
   G30  3921  3921  3921  3921                              PRN / # OF OBS      
CARRIER PHASE MEASUREMENTS: PHASE SHIFTS REMOVED            COMMENT             
                                                            END OF HEADER       
 20  5 16  5 15 39.0000000  0  6G01G07G08G11G17G22                  -0.000429173
  20001772.80517     -2854.97317     -1570.51659  20001773.60559
  20796797.39116      4255.38316      1686.35259  20796795.00459
  22958272.50015     17222.01615       135.50057  22958272.53157
  21043069.63316     17555.16416      5251.42257  21043065.86357
  23919401.71915    -32245.25415     -1146.98058  23919400.41058
  22484786.33616    -41609.44916    -19789.10557  22484782.73457
 20  5 16  5 15 40.0000000  0  6G01G07G08G11G17G22                  -0.000429686
  20001739.086 7     -3033.363 7     -1709.52049  20001739.82849
  20796863.539 6      4601.727 6      1956.22349  20796860.87149
  22958473.484 5     18277.223 5       957.75447  22958473.32847
  21043297.727 6     18754.641 6      6186.08247  21043294.30947
  23918976.031 5    -34484.285 5     -2891.67648  23918974.50048
  22484350.859 6    -43899.477 6    -21573.54747  22484346.73047
 20  5 16  5 15 41.0000000  0  6G01G07G08G11G17G22                  -0.000430201
  20001704.758 7     -3213.813 7     -1850.13349  20001705.24649
  20796928.742 6      4945.973 6      2224.46549  20796926.10549
  22958673.117 5     19329.715 5      1777.88347  22958673.40647
  21043525.891 6     19951.688 6      7118.84447  21043522.16847
  23918549.266 4    -36725.930 4     -4638.40648  23918547.75448
  22483914.555 6    -46191.793 6    -23359.77347  22483910.68447
 20  5 16  5 15 42.0000000  0  6G01G07G08G11G17G22                  -0.000430717
  20001669.984 7     -3396.039 7     -1992.12149  20001671.08649
  20796994.422 6      5288.387 6      2491.28549  20796991.41049
  22958873.023 5     20379.742 5      2596.08247  22958873.34047
  21043753.109 6     21146.555 6      8049.90648  21043749.48448
  23918122.250 4    -38969.898 4     -6386.94548  23918120.74648
  22483478.195 6    -48486.195 6    -25147.60947  22483474.09847
 20  5 16  5 15 43.0000000  0  6G01G07G08G11G17G22                  -0.000431236
  20001635.133 7     -3580.059 7     -2135.51249  20001635.59849
  20797059.133 6      5628.957 6      2756.66849  20797056.49249
  22959072.875 5     21427.277 5      3412.33647  22959072.68447
  21043980.609 6     22339.258 6      8979.28547  21043976.57447
  23917694.180 5    -41216.160 5     -8137.27348  23917693.39848
  22483040.438 6    -50782.656 6    -26937.05547  22483037.25047
 20  5 16  5 15 44.0000000  0  6G01G07G08G11G17G22                  -0.000431755
  20001599.859 7     -3765.711 7     -2280.18049  20001600.13749
  20797123.227 6      5967.883 6      3020.76649  20797120.82449
  22959271.875 5     22472.488 5      4226.77747  22959271.51247
  21044206.711 6     23529.953 6      9907.09047  21044203.10247
  23917266.828 4    -43464.598 4     -9889.29748  23917265.75848
  22482602.836 6    -53080.953 6    -28727.93447  22482599.92247
 20  5 16  5 15 45.0000000  0  6G01G07G08G11G17G22                  -0.000432278
  20001564.258 7     -3952.816 7     -2425.97349  20001564.47749
  20797187.320 6      6305.305 6      3283.68049  20797185.26649
  22959470.211 5     23515.551 5      5039.54347  22959470.44547
  21044433.344 6     24718.789 6     10833.45747  21044429.41447
  23916838.961 4    -45714.996 4    -11642.85548  23916837.33648
  22482164.500 6    -55381.039 6    -30520.21147  22482162.43847
 20  5 16  5 15 46.0000000  0  6G01G07G08G11G17G22                  -0.000432800
  20001528.414 7     -4141.453 7     -2572.96549  20001528.64149
  20797251.398 6      6641.109 6      3545.34449  20797248.98449
  22959668.211 5     24556.406 5      5850.60247  22959668.48847
  21044658.758 6     25905.727 6     11758.34448  21044655.44148
  23916409.977 4    -47967.465 4    -13398.03148  23916408.65648
  22481727.195 6    -57682.914 6    -32313.88747  22481724.34447
 20  5 16  5 15 47.0000000  0  6G01G07G08G11G17G22                  -0.000433323
  20001492.359 7     -4331.539 7     -2721.08649  20001492.65249
  20797315.039 6      6975.461 6      3805.87549  20797312.72349
  22959865.203 5     25595.121 5      6659.99247  22959866.19547
  21044884.547 6     27090.844 6     12681.81348  21044880.82048
  23915981.133 4    -50221.898 4    -15154.73848  23915979.73048
  22481288.992 6    -59986.496 6    -34108.89147  22481285.76647
 20  5 16  5 15 48.0000000  0  6G01G07G08G11G17G22                  -0.000433849
  20001455.875 7     -4522.859 7     -2870.16849  20001456.35549
  20797378.484 6      7308.535 6      4065.41449  20797375.85949
  22960063.625 5     26631.875 5      7467.85247  22960063.44547
  21045109.586 6     28274.305 6     13603.98848  21045106.04348
  23915551.836 5    -52478.105 5    -16912.82448  23915550.23048
  22480850.352 6    -62291.590 6    -35905.06347  22480847.02047
 20  5 16  5 15 49.0000000  0  6G01G07G08G11G17G22                  -0.000434374
  20001418.953 7     -4715.281 7     -3020.10549  20001419.51249
  20797441.484 6      7640.422 6      4324.02349  20797439.25849
  22960259.930 5     27666.906 5      8274.37147  22960260.15647
  21045334.836 6     29456.285 6     14525.01248  21045330.46548
  23915122.641 5    -54735.926 5    -18672.16448  23915120.18448
  22480411.508 6    -64598.039 6    -37702.29747  22480408.18047
 20  5 16  5 15 50.0000000  0  6G01G07G08G11G17G22                  -0.000434902
  20001382.063 7     -4908.852 7     -3170.93849  20001382.87949
  20797504.672 6      7971.160 6      4581.74649  20797502.18849
  22960456.992 5     28700.043 5      9079.41847  22960457.43047
  21045559.328 6     30636.750 6     15444.85547  21045555.89547
  23914692.609 5    -56995.438 5    -20432.82448  23914690.91448
  22479972.359 6    -66905.891 6    -39500.61747  22479968.91047
 20  5 16  5 15 51.0000000  0  6G01G07G08G11G17G22                  -0.000435431
  20001345.055 7     -5103.359 7     -3322.50449  20001346.09049
  20797567.422 6      8300.922 6      4838.69949  20797564.70349
  22960653.469 5     29731.594 5      9883.21547  22960653.32447
  21045783.773 6     31815.871 6     16363.65248  21045780.09848
  23914262.219 5    -59256.391 5    -22194.60548  23914260.66448
  22479532.727 6    -69214.977 6    -41299.90247  22479529.80547
 20  5 16  5 15 52.0000000  0  6G01G07G08G11G17G22                  -0.000435959
  20001307.891 7     -5298.695 7     -3474.71549  20001308.52349
  20797630.023 6      8629.781 6      5094.95349  20797627.07049
  22960849.961 5     30761.605 5     10685.82447  22960849.48447
  21046007.594 6     32993.797 6     17281.52048  21046004.16448
  23913831.461 5    -61518.762 5    -23957.48448  23913829.44148
  22479093.102 6    -71525.188 6    -43100.06347  22479089.87947
 20  5 16  5 15 53.0000000  0  6G01G07G08G11G17G22                  -0.000436489
  20001270.891 7     -5494.828 7     -3627.54349  20001271.10249
  20797692.273 6      8957.805 6      5350.55149  20797689.81349
  22961044.984 5     31790.129 5     11487.27347  22961045.32447
  21046231.469 6     34170.527 6     18198.44547  21046228.25447
  23913400.953 5    -63782.414 5    -25721.37948  23913399.13748
  22478653.516 6    -73836.402 6    -44901.01247  22478650.16047
 20  5 16  5 15 54.0000000  0  6G01G07G08G11G17G22                  -0.000437021
  20001233.055 7     -5691.566 7     -3780.84849  20001233.84049
  20797754.625 6      9285.160 6      5605.63749  20797751.75449
  22961240.391 5     32817.320 5     12287.68447  22961240.49647
  21046455.289 6     35346.301 6     19114.63748  21046451.91048
  23912969.414 5    -66047.230 5    -27486.16848  23912968.43448
  22478213.836 6    -76148.527 6    -46702.66447  22478210.16447
 20  5 16  5 15 55.0000000  0  6G01G07G08G11G17G22                  -0.000437553
  20001195.680 7     -5888.926 7     -3934.62949  20001195.98449
  20797816.672 6      9611.883 6      5860.23049  20797814.38349
  22961435.391 5     33843.285 5     13087.12947  22961435.45747
  21046678.438 6     36521.051 6     20030.02748  21046674.97748
  23912538.555 5    -68313.152 5    -29251.81648  23912536.81648
  22477773.500 6    -78461.520 6    -48505.00847  22477769.55547
 20  5 16  5 15 56.0000000  0  6G01G07G08G11G17G22                  -0.000438086
  20001157.891 7     -6086.875 7     -4088.88349  20001158.27049
  20797879.164 6      9937.953 6      6114.30949  20797876.27349
  22961630.281 5     34867.902 5     13885.53547  22961631.20747
  21046902.320 6     37694.813 6     20944.64548  21046898.71148
  23912107.016 5    -70580.238 5    -31018.37948  23912105.48048
  22477332.969 6    -80775.387 6    -50308.01647  22477329.85247
 20  5 16  5 15 57.0000000  0  6G01G07G08G11G17G22                  -0.000438618
  20001120.383 7     -6285.309 7     -4243.50049  20001120.62149
  20797940.742 6     10263.520 6      6367.99249  20797938.35949
  22961825.531 5     35891.395 5     14683.07047  22961825.82847
  21047125.039 6     38867.730 6     21858.60248  21047122.25448
  23911675.828 5    -72848.309 5    -32785.70348  23911673.89848
  22476892.719 6    -83090.008 6    -52111.61347  22476889.00447
 20  5 16  5 15 58.0000000  0  6G01G07G08G11G17G22                  -0.000439152
  20001082.352 7     -6484.461 7     -4398.68449  20001082.84849
  20798002.930 6     10588.305 6      6621.07049  20798000.00849
  22962019.594 5     36913.457 5     15479.50047  22962020.27747
  21047348.039 6     40039.539 6     22771.70747  21047344.61347
  23911243.938 5    -75117.613 5    -34553.99248  23911241.99648
  22476451.734 6    -85405.605 6    -53915.96547  22476448.40647
 20  5 16  5 15 59.0000000  0  6G01G07G08G11G17G22                  -0.000439688
  20001044.305 7     -6683.980 7     -4554.15649  20001044.94149
  20798064.281 6     10912.664 6      6873.81649  20798061.84049
  22962214.008 5     37934.480 5     16275.09847  22962214.56347
  21047571.281 6     41210.586 6     23684.19948  21047568.03948
  23910811.383 5    -77387.859 5    -36323.01648  23910809.94548
  22476010.875 6    -87721.836 6    -55720.82847  22476007.53147
 20  5 16  5 16  0.0000000  0  6G01G07G08G11G17G22                  -0.000440224
  20001006.133 7     -6883.891 7     -4709.93049  20001006.65649
  20798125.828 6     11236.629 6      7126.25449  20798123.70349
  22962408.445 5     38954.418 5     17069.84847  22962408.95747
  21047793.711 6     42380.898 6     24596.12948  21047790.47748
  23910379.211 5    -79658.973 5    -38092.71148  23910377.55148
  22475570.180 6    -90038.715 6    -57526.18847  22475567.25847
 20  5 16  5 16  1.0000000  0  6G01G07G08G11G17G22                  -0.000440758
  20000968.094 7     -7083.957 7     -4865.82449  20000968.68049
  20798187.656 6     11560.371 6      7378.52349  20798185.02349
  22962602.242 6     39973.504 6     17863.93847  22962602.51647
  21048016.258 6     43550.645 6     25507.60948  21048013.05548
  23909947.547 5    -81930.789 5    -39862.95748  23909945.49248
  22475129.633 6    -92356.043 6    -59331.89847  22475126.00047
 20  5 16  5 16  2.0000000  0  6G01G07G08G11G17G22                  -0.000441296
  20000930.406 7     -7284.453 7     -5022.05949  20000930.64849
  20798248.859 6     11883.625 6      7630.41049  20798246.23849
  22962795.883 5     40991.445 5     18657.13347  22962796.89847
  21048238.914 6     44719.598 6     26418.48447  21048235.64847
  23909514.875 5    -84203.566 5    -41633.95348  23909513.17648
  22474688.234 6    -94674.059 6    -61138.14147  22474684.42247
 20  5 16  5 16  3.0000000  0  6G01G07G08G11G17G22                  -0.000441833
  20000892.094 7     -7485.160 7     -5178.45749  20000892.42649
  20798310.648 6     12206.645 6      7882.10549  20798308.05949
  22962989.227 5     42008.523 5     19449.64847  22962989.76247
  21048461.406 6     45887.973 6     27328.91048  21048457.78948
  23909082.109 5    -86477.027 5    -43405.48048  23909080.05148
  22474247.141 6    -96992.527 6    -62944.73447  22474243.98447
 20  5 16  5 16  4.0000000  0  6G01G07G08G11G17G22                  -0.000442371
  20000853.805 7     -7686.008 7     -5334.95749  20000854.41049
  20798371.734 6     12529.453 6      8133.64149  20798369.20749
  22963182.602 5     43024.758 5     20241.51647  22963183.50847
  21048683.359 6     47055.785 6     28238.89848  21048680.00448
  23908649.852 5    -88751.223 5    -45177.58248  23908647.32848
  22473805.516 6    -99311.438 6    -64751.68047  22473802.27347
 20  5 16  5 16  5.0000000  0  6G01G07G08G11G17G22                  -0.000442909
  20000815.445 7     -7887.020 7     -5491.59449  20000816.12149
  20798433.281 6     12852.102 6      8385.04749  20798430.52349
  22963376.500 5     44040.137 5     21032.71147  22963376.41847
  21048905.508 6     48223.086 6     29148.48848  21048902.14548
  23908216.453 5    -91026.074 5    -46950.18848  23908214.70748
  22473364.234 6   -101630.758 6    -66558.94147  22473360.93447
 20  5 16  5 16  6.0000000  0  6G01G07G08G11G17G22                  -0.000443447
  20000777.484 7     -8088.090 7     -5648.27749  20000777.34049
  20798495.023 6     13174.590 6      8636.33249  20798492.09049
  22963569.328 5     45054.773 5     21823.33647  22963570.08247
  21049127.953 6     49389.930 6     30057.71148  21049124.14548
  23907783.641 5    -93301.527 5    -48723.27048  23907781.91448
  22472923.102 6   -103950.406 6    -68366.46947  22472919.36747
 20  5 16  5 16  7.0000000  0  6G01G07G08G11G17G22                  -0.000443987
  20000739.094 7     -8289.160 7     -5804.94949  20000739.38749
  20798555.891 6     13497.047 6      8887.60249  20798553.33649
  22963761.641 5     46068.684 5     22613.39147  22963762.75047
  21049349.953 6     50556.352 6     30966.61348  21049346.15648
  23907350.445 5    -95577.527 5    -50496.77748  23907348.76248
  22472481.422 6   -106270.340 6    -70174.20347  22472478.25447
 20  5 16  5 16  8.0000000  0  9G01G03G07G08G11G17G22G28G30         -0.000444527
  20000700.828 7     -8490.320 7     -5961.69949  20000701.57849
  23175372.53915   -129762.74215    -64814.02758  23175374.88758
  20798617.781 6     13819.387 6      9138.77349  20798615.27749
  22963955.000 6     47081.836 6     23402.86747  22963955.47747
  21049571.516 6     51722.352 6     31875.17647  21049568.08647
  23906916.703 5    -97854.086 5    -52270.72348  23906915.18048
  22472040.000 6   -108590.598 6    -71982.19547  22472036.78547
  23519291.78115   -132970.62515    -61475.45356  23519288.23856
  21501572.44516    -63985.40616    -37577.36359  21501571.83659
 20  5 16  5 16  9.0000000  0  9G01G03G07G08G11G17G22G28G30         -0.000445066
  20000662.391 7     -8691.391 7     -6118.37949  20000663.21149
  23174693.648 5   -133329.563 5    -67593.35548  23174695.55948
  20798678.906 6     14141.738 6      9389.95349  20798676.28949
  22964147.711 5     48094.367 5     24191.85547  22964148.01647
  21049793.656 6     52888.047 6     32783.50448  21049789.85948
  23906483.953 5   -100131.141 5    -54045.04748  23906482.16848
  22471598.367 6   -110911.066 6    -73790.35547  22471595.34047
  23518648.227 5   -136350.031 5    -64108.76046  23518645.28946
  21501257.227 6    -65644.156 6    -38869.89549  21501256.88749
 20  5 16  5 16 10.0000000  0  9G01G03G07G08G11G17G22G28G30         -0.000445608
  20000624.148 7     -8892.430 7     -6275.03549  20000624.51249
  23174015.156 5   -136896.824 5    -70373.04748  23174017.38348
  20798740.039 6     14464.145 6      9641.16849  20798737.80549
  22964340.516 5     49106.285 5     24980.35947  22964340.82847
  21050015.211 6     54053.383 6     33691.55548  21050011.79748
  23906050.430 5   -102408.648 5    -55819.72748  23906048.58248
  22471157.148 6   -113231.730 6    -75598.66847  22471153.21147
  23518005.344 5   -139730.094 5    -66742.57046  23518002.46946
  21500940.766 6    -67302.871 6    -40162.39849  21500940.86749
 20  5 16  5 16 11.0000000  0  9G01G03G07G08G11G17G22G28G30         -0.000446148
  20000585.906 7     -9093.473 7     -6431.68849  20000586.53949
  23173336.031 5   -140464.688 5    -73153.20348  23173338.25448
  20798801.578 6     14786.430 6      9892.30549  20798798.85549
  22964532.914 5     50117.465 5     25768.29347  22964533.28147
  21050236.695 6     55218.324 6     34599.29747  21050233.51247
  23905617.273 5   -104686.734 5    -57594.85248  23905615.48448
  22470715.195 6   -115552.660 6    -77407.18447  22470711.66047
  23517362.188 5   -143110.902 5    -69376.96146  23517359.09046
  21500625.414 6    -68961.652 6    -41454.95749  21500625.12949
 20  5 16  5 16 12.0000000  0  9G01G03G07G08G11G17G22G28G30         -0.000446690
  20000547.469 7     -9294.473 7     -6588.31349  20000548.09049
  23172657.172 5   -144033.066 5    -75933.75448  23172658.88348
  20798862.852 6     15108.766 6     10143.46149  20798860.27749
  22964724.828 5     51128.074 5     26555.79347  22964725.32047
  21050458.422 6     56382.984 6     35506.82848  21050455.23848
  23905183.000 5   -106965.258 5    -59370.32448  23905181.55548
  22470273.398 6   -117873.785 6    -79215.85547  22470269.92247
  23516718.641 5   -146492.367 5    -72011.87146  23516715.45346
  21500309.633 6    -70620.387 6    -42747.48049  21500309.30949
 20  5 16  5 16 13.0000000  0  9G01G03G07G08G11G17G22G28G30         -0.000447231
  20000509.391 7     -9495.262 7     -6744.77749  20000509.76649
  23171978.219 5   -147601.797 5    -78714.58648  23171980.31648
  20798924.313 6     15431.270 6     10394.77049  20798921.65249
  22964917.109 5     52138.195 5     27342.90647  22964917.77747
  21050679.898 6     57547.434 6     36414.19548  21050676.96548
  23904749.328 5   -109244.078 5    -61146.03548  23904747.57048
  22469831.828 6   -120194.973 6    -81024.57447  22469828.07847
  23516074.703 5   -149874.348 5    -74647.17646  23516071.86746
  21499993.875 6    -72278.949 6    -44039.86749  21499993.82449
 20  5 16  5 16 14.0000000  0  9G01G03G07G08G11G17G22G28G30         -0.000447773
  20000471.383 7     -9695.785 7     -6901.03149  20000471.84849
  23171298.883 5   -151170.832 5    -81495.64848  23171300.78148
  20798985.781 6     15753.957 6     10646.21149  20798983.14149
  22965109.398 5     53147.875 5     28129.67247  22965110.33647
  21050901.609 6     58711.746 6     37321.45748  21050898.09448
  23904315.805 5   -111523.242 5    -62922.01248  23904314.05548
  22469390.570 6   -122516.180 6    -82833.30547  22469386.55547
  23515431.359 5   -153256.797 5    -77282.85246  23515428.32846
  21499678.539 6    -73937.316 6    -45332.10549  21499678.39149
 20  5 16  5 16 15.0000000  0  9G01G03G07G08G11G17G22G28G30         -0.000448315
  20000433.063 7     -9896.137 7     -7057.14549  20000433.54749
  23170619.375 5   -154740.250 5    -84277.01248  23170621.82048
  20799046.984 6     16076.781 6     10897.76249  20799044.28549
  22965301.273 5     54157.078 5     28916.05947  22965302.05147
  21051123.078 6     59875.895 6     38228.58248  21051119.69148
  23903882.211 5   -113802.688 5    -64698.20348  23903880.34048
  22468948.234 6   -124837.461 6    -84642.09447  22468944.79747
  23514787.984 5   -156639.785 5    -79918.95346  23514784.68446
  21499362.789 6    -75595.484 6    -46624.18049  21499362.67649
 20  5 16  5 16 16.0000000  0  9G01G03G07G08G11G17G22G28G30         -0.000448856
  20000395.063 7    -10096.266 7     -7213.09449  20000395.72349
  23169940.016 5   -158310.027 5    -87058.65248  23169941.82448
  20799108.594 6     16399.801 6     11149.46949  20799105.66449
  22965493.508 5     55165.781 5     29702.05547  22965494.57047
  21051344.664 6     61039.859 6     39135.56348  21051341.02348
  23903448.180 5   -116082.492 5    -66474.67248  23903446.64148
  22468506.539 6   -127158.840 6    -86450.95747  22468503.00447
  23514143.477 5   -160023.281 5    -82555.44146  23514140.68446
  21499047.086 6    -77253.484 6    -47916.12549  21499047.62149
 20  5 16  5 16 17.0000000  0  9G01G03G07G08G11G17G22G28G30         -0.000449398
  20000357.023 7    -10296.324 7     -7368.98449  20000357.41849
  23169261.016 5   -161880.289 5    -89840.67248  23169262.91848
  20799169.922 6     16722.797 6     11401.15649  20799167.35249
  22965685.422 6     56173.836 6     30487.53947  22965685.97347
  21051566.195 6     62203.457 6     40042.25848  21051562.73448
  23903014.352 5   -118362.730 5    -68251.47748  23903012.33648
  22468065.375 6   -129480.383 6    -88259.95347  22468061.34847
  23513499.445 5   -163407.469 5    -85192.46146  23513496.52046
  21498732.375 6    -78911.484 6    -49208.07849  21498731.54749
 20  5 16  5 16 18.0000000  0  9G01G03G07G08G11G17G22G28G30         -0.000449942
  20000318.891 7    -10496.172 7     -7524.70749  20000319.15649
  23168581.352 5   -165450.887 5    -92622.94948  23168583.05148
  20799231.523 6     17045.992 6     11653.00049  20799229.09049
  22965876.656 5     57181.457 5     31272.69947  22965878.12547
  21051787.023 6     63366.918 6     40948.85248  21051783.94548
  23902580.359 5   -120643.285 5    -70028.52348  23902578.51248
  22467622.859 6   -131801.969 6    -90068.97747  22467619.37947
  23512855.563 5   -166792.105 5    -87829.85246  23512852.58246
  21498416.719 6    -80569.258 6    -50499.85549  21498416.21149
 20  5 16  5 16 19.0000000  0  9G01G03G07G08G11G17G22G28G30         -0.000450485
  20000280.945 7    -10695.887 7     -7680.33249  20000281.53549
  23167901.430 5   -169021.895 5    -95405.55148  23167903.75048
  20799293.367 6     17369.258 6     11904.88749  20799290.54749
  22966068.055 5     58188.473 5     32057.37547  22966069.13747
  21052009.367 6     64530.094 6     41855.21947  21052005.85247
  23902146.695 5   -122924.270 5    -71805.91048  23902144.39148
  22467181.469 6   -134123.691 6    -91878.11347  22467177.31647
  23512212.063 5   -170177.359 5    -90467.70746  23512208.39546
  21498101.047 6    -82226.926 6    -51791.55149  21498100.93049
 20  5 16  5 16 20.0000000  0  9G01G03G07G08G11G17G22G28G30         -0.000451029
  20000243.023 7    -10895.520 7     -7835.89149  20000243.46949
  23167221.852 5   -172593.468 5    -98188.59948  23167223.83648
  20799354.672 6     17692.582 6     12156.82849  20799351.91049
  22966259.859 5     59194.863 5     32841.55946  22966261.05546
  21052230.422 6     65692.980 6     42761.35948  21052227.00848
  23901712.523 5   -125205.664 5    -73583.62548  23901709.99648
  22466739.594 6   -136445.613 6    -93687.39547  22466735.65247
  23511567.352 5   -173563.285 5    -93106.09046  23511563.98846
  21497785.664 6    -83884.570 6    -53083.22349  21497785.55949
 20  5 16  5 16 21.0000000  0  9G01G03G07G08G11G17G22G28G30         -0.000451572
  20000205.055 7    -11094.973 7     -7991.30549  20000205.23449
  23166541.859 5   -176165.352 5   -100971.87148  23166544.71148
  20799416.195 6     18015.992 6     12408.84449  20799413.56649
  22966451.344 5     60200.797 5     33625.40646  22966451.80546
  21052451.406 6     66855.648 6     43667.34047  21052448.43447
  23901278.359 5   -127487.453 5    -75361.64848  23901276.14848
  22466297.406 6   -138767.633 6    -95496.76247  22466294.10547
  23510922.938 5   -176949.734 5    -95744.89546  23510919.87546
  21497470.242 6    -85542.063 6    -54374.77349  21497470.02749
 20  5 16  5 16 22.0000000  0  9G01G03G07G08G11G17G22G28G30         -0.000452116
  20000167.180 7    -11294.180 7     -8146.53149  20000167.63749
  23165862.547 5   -179737.527 5   -103755.38348  23165864.45748
  20799477.969 6     18339.668 6     12661.05149  20799475.00849
  22966642.773 5     61206.270 5     34408.88747  22966643.66447
  21052672.656 6     68018.250 6     44573.27047  21052669.31647
  23900843.328 5   -129769.469 5    -77139.83648  23900841.81348
  22465855.531 6   -141089.629 6    -97306.10947  22465851.78147
  23510278.094 5   -180336.668 5    -98384.05146  23510275.01646
  21497155.195 6    -87199.309 6    -55666.13349  21497154.79349
 20  5 16  5 16 23.0000000  0  9G01G03G07G08G11G17G22G28G30         -0.000452660
  20000129.203 7    -11493.148 7     -8301.56649  20000129.25449
  23165182.758 5   -183310.094 5   -106539.19548  23165185.04748
  20799539.539 6     18663.496 6     12913.39149  20799536.28149
  22966834.188 5     62211.313 5     35192.04346  22966834.36746
  21052893.789 6     69180.641 6     45479.03547  21052890.38347
  23900409.938 4   -132051.797 4    -78918.28548  23900407.48448
  22465413.336 6   -143411.676 6    -99115.49247  22465410.00047
  23509633.250 5   -183724.086 5   -101023.59846  23509630.84046
  21496839.625 6    -88856.363 6    -56957.33649  21496839.25049
 20  5 16  5 16 24.0000000  0  9G01G03G07G08G11G17G22G28G30         -0.000453205
  20000091.461 7    -11692.105 7     -8456.59849  20000091.42249
  23164503.383 5   -186883.176 5   -109323.41848  23164504.75848
  20799600.859 6     18987.320 6     13165.71949  20799598.55549
  22967024.727 5     63215.656 5     35974.65246  22967025.21546
  21053115.086 6     70342.664 6     46384.51247  21053111.49647
  23899975.133 5   -134334.652 5    -80697.12948  23899973.39548
  22464971.672 6   -145733.965 6   -100925.05547  22464967.84047
  23508988.914 5   -187112.207 5   -103663.69546  23508985.85946
  21496523.953 6    -90513.449 6    -58248.56649  21496523.86749
 20  5 16  5 16 25.0000000  0  9G01G03G07G08G11G17G22G28G30         -0.000453751
  20000053.680 7    -11890.789 7     -8611.43049  20000053.57449
  23163822.781 5   -190456.543 5   -112107.87548  23163824.68848
  20799662.602 6     19311.367 6     13418.21949  20799660.27349
  22967216.164 5     64219.668 5     36757.00046  22967216.43846
  21053336.352 6     71504.633 6     47289.95747  21053332.18047
  23899540.734 5   -136617.773 5    -82476.18848  23899538.60548
  22464529.859 6   -148056.254 6   -102734.63347  22464526.20747
  23508344.031 5   -190500.758 5   -106304.12546  23508341.16846
  21496208.656 6    -92170.258 6    -59539.58249  21496208.20749
 20  5 16  5 16 26.0000000  0  9G01G03G07G08G11G17G22G28G30         -0.000454296
  20000015.977 7    -12089.070 7     -8765.94549  20000015.93849
  23163142.820 5   -194030.055 5   -114892.41448  23163144.69548
  20799724.320 6     19635.770 6     13670.98449  20799721.56649
  22967407.359 4     65223.336 4     37539.07846  22967407.34046
  21053557.789 5     72666.645 5     48195.42647  21053553.92247
  23899106.648 5   -138900.922 5    -84255.27048  23899104.49248
  22464087.977 6   -150378.422 6   -104544.11747  22464084.35547
  23507699.133 4   -193889.664 4   -108944.80546  23507696.20746
  21495894.016 6    -93826.727 6    -60830.34849  21495893.49249
 20  5 16  5 16 27.0000000  0  9G01G03G07G08G11G17G22G28G30         -0.000454842
  19999978.320 6    -12287.199 6     -8920.34049  19999978.24249
  23162461.875 5   -197603.996 5   -117677.27348  23162464.63348
  20799785.953 6     19960.258 6     13923.82049  20799783.58649
  22967598.281 4     66226.480 4     38320.74646  22967598.68446
  21053778.273 5     73828.383 5     49100.67647  21053774.85247
  23898671.219 5   -141184.535 5    -86034.69948  23898669.61748
  22463646.180 6   -152700.672 6   -106353.66047  22463642.52747
  23507054.555 4   -197279.105 4   -111585.91046  23507051.32046
  21495578.938 6    -95483.082 6    -62121.03549  21495578.27749
 20  5 16  5 16 28.0000000  0  9G01G03G07G08G11G17G22G28G30         -0.000455387
  19999940.500 6    -12485.109 6     -9074.55949  19999940.58249
  23161782.055 5   -201178.277 5   -120462.41048  23161784.57848
  20799847.797 6     20284.922 6     14176.79349  20799845.42649
  22967789.242 4     67229.105 4     39102.01246  22967789.58246
  21053999.219 5     74989.941 5     50005.78546  21053996.22346
  23898237.086 5   -143468.469 5    -87814.38348  23898235.25048
  22463204.469 6   -155023.000 6   -108163.25847  22463200.58247
  23506409.414 3   -200669.113 3   -114227.45346  23506406.15646
  21495263.227 6    -97139.230 6    -63411.55549  21495263.16049
 20  5 16  5 16 29.0000000  0  9G01G03G07G08G11G17G22G28G30         -0.000455933
  19999902.953 6    -12682.793 6     -9228.59449  19999903.01649
  23161102.711 5   -204752.898 5   -123247.81648  23161104.48848
  20799909.234 7     20609.785 7     14429.94149  20799906.95749
  22967980.609 4     68231.273 4     39882.90646  22967980.25846
  21054220.305 5     76151.352 5     50910.77746  21054216.83246
  23897802.000 6   -145752.648 6    -89594.25448  23897800.91048
  22462762.609 6   -157345.328 6   -109972.85547  22462758.75847
  23505763.813 3   -204059.531 3   -116869.34046  23505761.37546
  21494947.781 6    -98795.176 6    -64701.89849  21494947.82049
 20  5 16  5 16 30.0000000  0  9G01G03G07G08G11G17G22G28G30         -0.000456480
  19999865.516 6    -12880.156 6     -9382.38349  19999865.43049
  23160421.555 5   -208327.750 5   -126033.40248  23160424.04348
  20799971.203 6     20934.938 6     14683.30549  20799969.12149
  22968171.750 3     69233.133 3     40663.58646  22968171.02046
  21054441.641 5     77312.730 5     51815.73846  21054437.92646
  23897367.344 6   -148037.070 6    -91374.30948  23897365.96148
  22462319.867 6   -159667.594 6   -111782.40647  22462317.07447
  23505118.742 3   -207450.383 3   -119511.54346  23505116.03146
  21494633.484 6   -100450.816 6    -65992.00449  21494633.20349
 20  5 16  5 16 31.0000000  0  9G01G03G07G08G11G17G22G28G30         -0.000457026
  19999828.039 6    -13077.211 6     -9535.92649  19999827.72349
  23159741.094 5   -211902.816 5   -128819.16448  23159743.50448
  20800033.383 6     21260.332 6     14936.85949  20800030.80149
  22968362.156 3     70234.539 3     41443.89846  22968361.43446
  21054662.117 5     78474.016 5     52720.64146  21054658.83646
  23896932.555 6   -150321.676 6    -93154.51248  23896931.40648
  22461878.141 6   -161989.824 6   -113591.93047  22461874.96547
  23504472.969 3   -210841.652 3   -122154.06646  23504470.43046
  21494317.828 6   -102106.203 6    -67281.91049  21494317.76649
 20  5 16  5 16 32.0000000  0  9G01G03G07G08G11G17G22G28G30         -0.000457573
  19999790.398 7    -13273.887 7     -9689.17649  19999790.30149
  23159061.383 5   -215478.086 5   -131605.09048  23159064.78148
  20800095.320 6     21586.098 6     15190.71449  20800092.99249
  22968552.266 5     71235.547 5     42223.91046  22968552.02046
  21054883.398 6     79635.117 6     53625.39846  21054879.66446
  23896498.320 5   -152606.395 5    -94934.80948  23896496.97748
  22461437.125 6   -164311.977 6   -115401.40247  22461432.72747
  23503828.703 5   -214233.234 5   -124796.84846  23503825.37546
  21494003.438 6   -103761.219 6    -68571.53549  21494003.29749
 20  5 16  5 16 33.0000000  0  9G01G03G07G08G11G17G22G28G30         -0.000458120
  19999753.383 7    -13470.387 7     -9842.28949  19999753.37949
  23158380.211 5   -219053.722 5   -134391.35748  23158383.46548
  20800157.734 6     21911.945 6     15444.62949  20800154.91049
  22968741.508 5     72236.094 5     43003.56646  22968742.36346
  21055104.234 6     80796.207 6     54530.12147  21055100.61747
  23896063.867 5   -154891.559 5    -96715.47748  23896061.62548
  22460994.516 6   -166634.148 6   -117210.91447  22460990.92647
  23503182.609 5   -217625.367 5   -127440.12946  23503179.63746
  21493688.750 6   -105416.070 6    -69861.02349  21493688.28549
 20  5 16  5 16 34.0000000  0  9G01G03G07G08G11G17G22G28G30         -0.000458668
  19999715.758 7    -13666.578 7     -9995.15249  19999715.92649
  23157699.859 5   -222629.680 5   -137177.84048  23157702.37548
  20800219.297 6     22238.086 6     15698.75849  20800217.09849
  22968931.602 6     73236.320 6     43782.96147  22968932.64547
  21055325.250 6     81957.223 6     55434.78548  21055321.61348
  23895628.133 5   -157176.914 5    -98496.28148  23895627.25448
  22460552.523 6   -168956.305 6   -119020.40247  22460549.17647
  23502536.852 5   -221017.938 5   -130083.72746  23502534.12146
  21493373.305 6   -107070.684 6    -71150.32449  21493373.18849
 20  5 16  5 16 35.0000000  0  9G01G03G07G08G11G17G22G28G30         -0.000459213
  19999678.563 7    -13862.590 7    -10147.89149  19999678.52049
  23157019.602 5   -226205.969 5   -139964.56648  23157021.94948
  20800281.438 6     22564.375 6     15953.00849  20800278.85549
  22969122.602 6     74236.047 6     44561.96547  22969122.83247
  21055545.711 6     83118.008 6     56339.28547  21055542.80147
  23895193.477 5   -159462.566 5   -100277.30948  23895192.39848
  22460110.656 6   -171278.527 6   -120829.93447  22460107.18847
  23501891.609 5   -224411.035 5   -132727.72346  23501888.57446
  21493058.195 6   -108725.117 6    -72439.48849  21493058.52749
 20  5 16  5 16 36.0000000  0  9G01G03G07G08G11G17G22G28G30         -0.000459763
  19999641.281 7    -14058.145 7    -10300.27049  19999641.30149
  23156339.023 5   -229782.355 5   -142751.36348  23156341.17248
  20800343.758 6     22891.043 6     16207.55949  20800340.79349
  22969313.102 5     75235.563 5     45340.80146  22969313.44146
  21055767.250 6     84278.844 6     57243.82047  21055763.55947
  23894758.891 5   -161748.344 5   -102058.43448  23894757.30548
  22459669.313 6   -173600.621 6   -122639.35547  22459665.50847
  23501245.172 5   -227804.379 5   -135371.88346  23501242.78146
  21492743.914 6   -110379.141 6    -73728.33649  21492743.52749
 20  5 16  5 16 37.0000000  0  9G01G03G07G08G11G17G22G28G30         -0.000460310
  19999604.047 7    -14253.434 7    -10452.44949  19999604.29349
  23155658.969 5   -233359.008 5   -145538.35248  23155660.42648
  20800405.891 6     23217.945 6     16462.28549  20800403.33249
  22969502.695 6     76234.668 6     46119.31647  22969503.22347
  21055988.039 6     85439.625 6     58148.33248  21055984.60248
  23894323.500 5   -164034.336 5   -103839.73048  23894322.07048
  22459227.125 6   -175922.645 6   -124448.71147  22459223.21547
  23500599.766 5   -231198.207 5   -138016.43446  23500596.88746
  21492429.023 6   -112032.918 6    -75016.99249  21492428.55149
 20  5 16  5 16 38.0000000  0  9G01G03G07G08G11G17G22G28G30         -0.000460857
  19999567.055 7    -14448.430 7    -10604.39849  19999566.94949
  23154978.266 5   -236936.012 5   -148325.62548  23154979.96548
  20800468.164 6     23545.082 6     16717.19549  20800465.44149
  22969692.125 6     77233.285 6     46897.46147  22969692.93047
  21056209.016 6     86600.254 6     59052.72347  21056205.62547
  23893888.438 5   -166320.582 5   -105621.21548  23893887.10948
  22458785.086 6   -178244.676 6   -126258.08247  22458781.19947
  23499953.086 5   -234592.492 5   -140661.30946  23499950.66046
  21492114.672 6   -113686.445 6    -76305.44949  21492114.53149
 20  5 16  5 16 39.0000000  0  9G01G03G07G08G11G17G22G28G30         -0.000461407
  19999530.070 7    -14643.012 7    -10756.02349  19999530.34449
  23154297.172 4   -240513.109 4   -151112.94548  23154299.40648
  20800530.359 6     23872.594 6     16972.39149  20800527.75049
  22969882.375 6     78231.676 6     47675.43447  22969882.93447
  21056429.711 6     87760.934 6     59957.15247  21056426.42647
  23893453.234 5   -168606.938 5   -107402.79748  23893452.16048
  22458343.203 6   -180566.555 6   -128067.34047  22458339.40247
  23499307.805 5   -237987.020 5   -143306.36346  23499304.93446
  21491800.195 6   -115339.594 6    -77593.62949  21491800.28549
 20  5 16  5 16 40.0000000  0  9G01G03G07G08G11G17G22G28G30         -0.000461954
  19999493.258 7    -14837.301 7    -10907.41449  19999493.29749
  23153616.203 4   -244090.469 4   -153900.48848  23153618.52048
  20800593.109 6     24200.379 6     17227.81349  20800590.57449
  22970072.594 6     79229.723 6     48453.12947  22970073.37547
  21056650.352 6     88921.547 6     60861.52348  21056647.08248
  23893018.273 5   -170893.527 5   -109184.54748  23893016.67648
  22457902.180 6   -182888.371 6   -129876.55547  22457897.60947
  23498661.555 5   -241382.016 5   -145951.80946  23498658.68846
  21491485.492 6   -116992.434 6    -78881.55949  21491485.28149
 20  5 16  5 16 41.0000000  0  9G01G03G07G08G11G17G22G28G30         -0.000462503
  19999456.039 7    -15031.352 7    -11058.62549  19999456.20349
  23152935.570 5   -247668.117 5   -156688.26648  23152937.26648
  20800655.141 6     24528.328 6     17483.35549  20800652.59449
  22970262.531 6     80227.273 6     49230.45347  22970263.44947
  21056871.117 6     90082.000 6     61765.77348  21056868.00048
  23892582.930 5   -173180.430 5   -110966.55548  23892581.80948
  22457459.742 6   -185210.207 6   -131685.77047  22457456.27347
  23498015.398 5   -244777.453 5   -148597.60546  23498012.56346
  21491170.922 6   -118645.082 6    -80169.33649  21491170.71549
 20  5 16  5 16 42.0000000  0  9G01G03G07G08G11G17G22G28G30         -0.000463053
  19999419.555 7    -15225.039 7    -11209.55149  19999418.95349
  23152255.102 5   -251246.008 5   -159476.24648  23152256.78148
  20800717.641 6     24856.617 6     17739.16449  20800715.32849
  22970451.773 5     81224.551 5     50007.55547  22970452.85247
  21057091.609 6     91242.430 6     62670.00448  21057088.80948
  23892147.586 5   -175467.461 5   -112748.66848  23892146.42648
  22457017.539 6   -187531.941 6   -133494.91847  22457013.94547
  23497369.125 5   -248173.285 5   -151243.72346  23497366.33646
  21490856.555 6   -120297.387 6    -81456.85249  21490856.18849
 20  5 16  5 16 43.0000000  0  9G01G03G07G08G11G17G22G28G30         -0.000463602
  19999382.398 7    -15418.266 7    -11360.11349  19999382.76249
  23151573.625 5   -254823.993 5   -162264.28848  23151575.93048
  20800780.438 6     25185.297 6     17995.27349  20800777.42249
  22970641.594 5     82221.547 5     50784.43447  22970642.61347
  21057312.672 6     92402.922 6     63574.28548  21057309.49248
  23891712.070 5   -177754.582 5   -114530.83648  23891711.77048
  22456576.039 6   -189853.520 6   -135303.93847  22456572.07847
  23496723.008 5   -251569.375 5   -153890.02746  23496720.31346
  21490542.211 6   -121949.277 6    -82744.03549  21490541.55949
 20  5 16  5 16 44.0000000  0  9G01G03G07G08G11G17G22G28G30         -0.000464149
  19999345.914 7    -15611.047 7    -11510.34049  19999346.04749
  23150892.531 5   -258402.035 5   -165052.37148  23150894.87548
  20800843.109 6     25514.414 6     18251.73849  20800840.25049
  22970831.742 5     83218.332 5     51561.13347  22970832.57447
  21057533.766 6     93563.480 6     64478.61348  21057530.31348
  23891276.859 5   -180041.793 5   -116313.07048  23891276.41448
  22456134.398 6   -192174.891 6   -137112.80147  22456130.41447
  23496076.172 4   -254965.719 4   -156536.51246  23496073.87946
  21490228.047 6   -123600.746 6    -84030.89549  21490228.03149
 20  5 16  5 16 45.0000000  0  9G01G03G07G08G11G17G22G28G30         -0.000464701
  19999308.953 7    -15803.500 7    -11660.30949  19999309.32849
  23150211.500 3   -261980.293 3   -167840.60248  23150214.03948
  20800905.859 6     25843.813 6     18508.41049  20800903.27749
  22971021.156 5     84214.762 5     52337.56347  22971022.06347
  21057754.000 6     94724.027 6     65382.93448  21057751.07048
  23890841.703 5   -182329.137 5   -118095.40648  23890841.34048
  22455692.859 6   -194496.148 6   -138921.57847  22455688.61747
  23495429.773 5   -258362.469 5   -159183.32046  23495427.33246
  21489913.625 6   -125251.871 6    -85317.48849  21489913.91449
 20  5 16  5 16 46.0000000  0  9G01G03G07G08G11G17G22G28G30         -0.000465250
  19999272.586 7    -15995.625 7    -11810.02049  19999272.72349
  23149531.242 4   -265558.895 4   -170629.11748  23149533.30148
  20800968.273 6     26173.469 6     18765.28949  20800966.37549
  22971210.078 5     85210.793 5     53113.68447  22971211.57447
  21057975.289 6     95884.469 6     66287.17248  21057972.15648
  23890406.383 5   -184616.723 5   -119877.93448  23890405.57448
  22455250.289 5   -196817.320 5   -140730.27047  22455247.03947
  23494783.117 4   -261759.578 4   -161830.42646  23494780.87146
  21489599.680 6   -126902.773 6    -86603.89849  21489599.27349
 20  5 16  5 16 47.0000000  0  9G01G03G07G08G11G17G22G28G30         -0.000465799
  19999236.195 7    -16187.277 7    -11959.35949  19999236.50849
  23148850.734 4   -269137.496 4   -173417.62947  23148851.81647
  20801031.031 6     26503.559 6     19022.50449  20801028.79349
  22971400.602 5     86206.625 5     53889.65247  22971400.82447
  21058196.234 6     97045.027 6     67191.50048  21058193.08648
  23889971.195 5   -186904.406 5   -121660.53548  23889970.55948
  22454808.797 6   -199138.410 6   -142538.90647  22454805.28947
  23494137.203 5   -265156.961 5   -164477.74246  23494134.33246
  21489285.727 6   -128553.191 6    -87889.93849  21489285.38749
 20  5 16  5 16 48.0000000  0  9G01G03G07G08G11G17G22G28G30         -0.000466349
  19999199.969 7    -16378.688 7    -12108.50849  19999200.27049
  23148169.422 4   -272716.418 4   -176206.38748  23148170.82848
  20801093.773 6     26833.863 6     19279.87549  20801091.51649
  22971589.516 5     87202.051 5     54665.31347  22971590.09447
  21058416.875 6     98205.418 6     68095.70748  21058413.80948
  23889536.195 5   -189192.316 5   -123443.32848  23889535.07048
  22454367.367 6   -201459.426 6   -144347.48847  22454364.09447
  23493490.492 4   -268554.781 4   -167125.38346  23493487.64846
  21488971.445 6   -130203.402 6    -89175.81349  21488971.57849
 20  5 16  5 16 49.0000000  0  9G01G03G07G08G11G17G22G28G30         -0.000466900
  19999163.422 7    -16569.719 7    -12257.35549  19999163.20349
  23147487.844 4   -276295.531 4   -178995.30148  23147489.70348
  20801157.063 6     27164.480 6     19537.49249  20801154.48449
  22971779.359 5     88197.141 5     55440.70747  22971779.44547
  21058637.742 6     99365.813 6     68999.91048  21058634.45348
  23889100.727 5   -191480.367 5   -125226.23048  23889099.60548
  22453925.898 6   -203780.336 6   -146155.98847  22453921.81647
  23492843.844 5   -271952.996 5   -169773.34446  23492840.96146
  21488657.828 6   -131853.238 6    -90461.41449  21488657.39549
 20  5 16  5 16 50.0000000  0  9G01G03G07G08G11G17G22G28G30         -0.000467449
  19999127.086 7    -16760.500 7    -12406.01249  19999127.12949
  23146807.094 4   -279874.973 4   -181784.46948  23146808.52748
  20801219.750 6     27495.305 6     19795.27349  20801217.13349
  22971968.352 6     89191.793 6     56215.75447  22971968.78947
  21058858.719 6    100526.082 6     69904.01248  21058855.27048
  23888665.328 5   -193768.750 5   -127009.39548  23888664.20748
  22453484.094 6   -206101.277 6   -147964.50847  22453480.10247
  23492197.391 4   -275351.707 4   -172421.67646  23492193.95746
  21488343.734 6   -133502.906 6    -91746.86749  21488343.22749
 20  5 16  5 16 51.0000000  0  9G01G03G07G08G11G17G22G28G30         -0.000468000
  19999090.766 7    -16950.914 7    -12554.38349  19999090.74649
  23146125.391 4   -283454.570 4   -184573.77048  23146127.23448
  20801283.242 6     27826.465 6     20053.32049  20801280.52049
  22972157.602 6     90186.148 6     56990.57447  22972157.51647
  21059079.648 6    101686.344 6     70808.11748  21059076.03548
  23888229.461 5   -196057.250 5   -128792.64548  23888228.91848
  22453042.438 6   -208422.078 6   -149772.92647  22453038.41447
  23491550.898 5   -278750.699 5   -175070.23846  23491547.69546
  21488029.758 6   -135152.188 6    -93032.02349  21488029.43849
 20  5 16  5 16 52.0000000  0  9G01G03G07G08G11G17G22G28G30         -0.000468552
  19999054.477 7    -17140.867 7    -12702.39549  19999054.52349
  23145444.789 4   -287034.270 4   -187363.14148  23145446.39148
  20801345.742 6     28158.031 6     20311.68449  20801343.27049
  22972346.938 6     91180.270 6     57765.21947  22972347.24247
  21059300.688 6    102846.703 6     71712.28948  21059297.72348
  23887794.195 5   -198345.820 5   -130575.94948  23887792.77348
  22452601.250 6   -210742.695 6   -151581.20347  22452597.05947
  23490903.992 5   -282149.957 5   -177719.00046  23490900.70346
  21487715.820 6   -136801.059 6    -94316.85949  21487715.90649
 20  5 16  5 16 53.0000000  0  9G01G03G07G08G11G17G22G28G30         -0.000469101
  19999018.258 7    -17330.434 7    -12850.11349  19999018.52749
  23144763.484 4   -290614.137 4   -190152.64848  23144764.75848
  20801409.125 6     28489.945 6     20570.31349  20801406.71949
  22972535.703 6     92174.059 6     58539.59847  22972536.26647
  21059520.930 6    104007.039 6     72616.44548  21059517.99648
  23887358.492 5   -200634.539 5   -132359.36348  23887357.68848
  22452159.797 5   -213063.160 5   -153389.35947  22452155.34447
  23490256.828 5   -285549.547 5   -180368.05146  23490253.80146
  21487402.656 6   -138449.570 6    -95601.41449  21487402.14849
 20  5 16  5 16 54.0000000  0  9G01G03G07G08G11G17G22G28G30         -0.000469652
  19998982.523 7    -17519.547 7    -12997.48449  19998982.69949
  23144082.273 5   -294194.156 5   -192942.30148  23144083.80148
  20801472.352 6     28822.254 6     20829.25849  20801469.95749
  22972724.781 6     93167.629 6     59313.80147  22972725.30147
  21059741.734 6    105167.430 6     73520.63748  21059738.96148
  23886922.609 5   -202923.320 5   -134142.81648  23886921.94548
  22451718.188 5   -215383.504 5   -155197.41847  22451713.61347
  23489610.008 5   -288949.426 5   -183017.32846  23489606.56646
  21487088.633 6   -140097.633 6    -96885.61349  21487088.17249
 20  5 16  5 16 55.0000000  0  9G01G03G07G08G11G17G22G28G30         -0.000470203
  19998946.656 7    -17708.164 7    -13144.46549  19998946.77349
  23143400.867 5   -297774.191 5   -195731.95748  23143402.66848
  20801535.484 6     29155.023 6     21088.55949  20801533.12949
  22972913.984 6     94161.070 6     60087.90647  22972914.57047
  21059962.664 6    106327.953 6     74424.94148  21059959.66848
  23886487.828 5   -205212.145 5   -135926.30948  23886486.77048
  22451275.773 6   -217703.535 6   -157005.24247  22451272.03147
  23488962.617 5   -292349.531 5   -185666.75446  23488959.45746
  21486775.203 6   -141745.250 6    -98169.46149  21486774.66449
 20  5 16  5 16 56.0000000  0  9G01G03G07G08G11G17G22G28G30         -0.000470755
  19998910.883 7    -17896.234 7    -13291.00849  19998910.86349
  23142719.328 5   -301354.219 5   -198521.59048  23142721.58648
  20801598.914 6     29488.273 6     21348.23049  20801596.92249
  22973102.594 6     95154.309 6     60861.85547  22973103.28547
  21060183.383 6    107488.633 6     75329.37548  21060180.53148
  23886052.227 5   -207500.953 5   -137709.78948  23886050.98848
  22450834.961 6   -220023.336 6   -158812.87947  22450830.74647
  23488315.359 5   -295749.789 5   -188316.31346  23488312.52746
  21486461.656 6   -143392.352 6    -99452.91449  21486461.29349
 20  5 16  5 16 57.0000000  0  9G01G03G07G08G11G17G22G28G30         -0.000471306
  19998875.328 7    -18084.012 7    -13437.32449  19998875.50049
  23142038.305 5   -304934.551 5   -201311.45748  23142040.02348
  20801662.508 6     29821.766 6     21608.09849  20801660.16849
  22973292.305 6     96147.145 6     61635.48447  22973292.81347
  21060404.633 6    108649.230 6     76233.73048  21060401.50048
  23885616.961 5   -209789.996 5   -139493.46548  23885615.72748
  22450393.688 6   -222343.078 6   -160620.46947  22450389.27347
  23487668.156 5   -299150.480 5   -190966.21146  23487665.29746
  21486147.844 6   -145039.172 6   -100736.14849  21486147.66449
 20  5 16  5 16 58.0000000  0  9G01G03G07G08G11G17G22G28G30         -0.000471857
  19998839.484 7    -18271.375 7    -13583.32049  19998839.73049
  23141357.234 5   -308514.977 5   -204101.39548  23141358.39848
  20801726.109 6     30155.676 6     21868.28549  20801723.66449
  22973481.164 6     97139.750 6     62408.94547  22973481.29347
  21060625.195 6    109809.855 6     77138.11348  21060622.40248
  23885180.484 5   -212079.141 5   -141277.21148  23885179.77348
  22449952.445 6   -224662.617 6   -162427.89847  22449947.84447
  23487021.016 5   -302551.465 5   -193616.32846  23487018.06346
  21485835.008 6   -146685.590 6   -102019.07449  21485834.63749
 20  5 16  5 16 59.0000000  0  9G01G03G07G08G11G17G22G28G30         -0.000472408
  19998804.039 7    -18458.375 7    -13729.03949  19998804.00449
  23140675.633 5   -312095.609 5   -206891.48848  23140677.36348
  20801789.781 6     30489.898 6     22128.71949  20801787.53149
  22973669.781 6     98132.027 6     63182.14847  22973670.25447
  21060846.359 6    110970.508 6     78042.51248  21060843.28148
  23884745.758 5   -214368.410 5   -143061.05948  23884744.58648
  22449511.047 6   -226982.059 6   -164235.25847  22449506.40247
  23486373.531 5   -305952.781 5   -196266.69546  23486370.75046
  21485521.617 6   -148331.648 6   -103301.72349  21485521.36749
 20  5 16  5 17  0.0000000  0  9G01G03G07G08G11G17G22G28G30         -0.000472961
  19998768.539 7    -18645.125 7    -13874.55949  19998768.76649
  23139994.133 5   -315676.543 5   -209681.82448  23139995.82048
  20801853.570 6     30824.324 6     22389.30949  20801851.06649
  22973858.672 6     99123.852 6     63955.00047  22973859.14547
  21061066.836 6    112130.984 6     78946.78948  21061064.15648
  23884309.664 5   -216657.961 5   -144845.13348  23884308.74248
  22449069.633 5   -229301.535 5   -166042.62947  22449065.02047
  23485726.398 5   -309354.582 5   -198917.43446  23485723.62946
  21485208.109 6   -149977.543 6   -104584.24649  21485208.24249
 20  5 16  5 17  1.0000000  0  9G01G03G07G08G11G17G22G28G30         -0.000473513
  19998733.047 7    -18831.512 7    -14019.79349  19998733.05549
  23139312.367 4   -319257.668 4   -212472.30748  23139314.46548
  20801917.016 6     31159.023 6     22650.10949  20801914.62949
  22974046.828 6    100115.340 6     64727.58647  22974047.45747
  21061287.547 6    113291.418 6     79851.02048  21061284.97748
  23883873.602 5   -218947.738 5   -146629.38348  23883872.60248
  22448627.719 5   -231620.941 5   -167849.94947  22448623.75847
  23485079.539 5   -312756.719 5   -201568.44146  23485076.07046
  21484895.234 6   -151623.094 6   -105866.49249  21484895.06649
 20  5 16  5 17  2.0000000  0  8G01G07G08G11G17G22G28G30            -0.000474066
  19998697.484 6    -19017.402 6    -14164.64549  19998697.57849
  20801980.617 6     31494.145 6     22911.23449  20801978.47349
  22974235.766 5    101106.633 5     65500.01647  22974236.08647
  21061508.711 6    114451.918 6     80755.29747  21061505.61347
  23883437.758 5   -221237.454 5   -148413.57948  23883436.53148
  22448185.500 3   -233939.813 3   -169656.82446  22448182.72746
  23484431.891 5   -316159.102 5   -204219.68046  23484428.52346
  21484582.266 6   -153268.129 6   -107148.34449  21484582.34449
 20  5 16  5 17  3.0000000  0  8G01G07G08G11G17G22G28G30            -0.000474615
  19998662.484 6    -19202.758 6    -14309.07849  19998661.89549
  20802044.617 6     31829.836 6     23172.81649  20802042.34049
  22974423.930 4    102097.723 4     66272.30946  22974424.96946
  21061729.023 5    115612.621 5     81659.75847  21061726.55147
  23883002.008 5   -223527.281 5   -150197.86348  23883001.18048
  22447745.367 4   -236258.762 4   -171463.83646  22447740.94146
  23483784.258 6   -319561.754 6   -206871.12546  23483781.22346
  21484269.797 6   -154912.730 6   -108429.86349  21484269.15249
 20  5 16  5 17  4.0000000  0  9G01G03G07G08G11G17G22G28G30         -0.000475168
  19998627.492 7    -19387.586 7    -14453.10549  19998626.28149
  23137269.87512                                
  20802108.398 6     32165.973 6     23434.73849  20802106.48449
  22974613.102 4    103088.727 4     67044.53546  22974613.53946
  21061950.375 5    116773.449 5     82564.32846  21061947.42246
  23882566.047 5   -225817.070 5   -151982.12148  23882565.03148
  22447304.766 3   -238577.387 3   -173270.59846  22447299.81646
  23483136.578 6   -322964.535 6   -209522.64146  23483133.41446
  21483956.367 6   -156556.820 6   -109710.97749  21483956.16449
 20  5 16  5 17  5.0000000  0  9G01G03G07G08G11G17G22G28G30         -0.000475721
  19998591.906 7    -19571.938 7    -14596.76249  19998591.24649
  23136588.227 1                                
  20802172.656 6     32502.566 6     23697.01249  20802170.59049
  22974802.289 5    104079.547 5     67816.64546  22974801.89846
  21062171.398 5    117934.418 5     83469.02346  21062168.22746
  23882131.055 5   -228106.848 5   -153766.35948  23882129.57048
  22446863.000 3   -240895.750 3   -175077.12946  22446858.65246
  23482489.359 5   -326367.527 5   -212174.32846  23482486.17646
  21483643.867 6   -158200.430 6   -110991.70349  21483643.37149
 20  5 16  5 17  6.0000000  0  9G01G03G07G08G11G17G22G28G30         -0.000476274
  19998557.117 7    -19755.863 7    -14740.08249  19998556.57449
  23135906.273 1                                
  20802236.563 6     32839.508 6     23959.56349  20802234.29349
  22974989.625 5    105070.031 5     68588.45346  22974991.00446
  21062392.453 6    119095.410 6     84373.68046  21062388.80146
  23881694.258 5   -230396.785 5   -155550.71948  23881693.94948
  22446421.930 3   -243213.941 3   -176883.50046  22446417.46146
  23481841.922 6   -329770.816 6   -214826.24646  23481837.89846
  21483331.172 6   -159843.613 6   -112272.10249  21483330.55949
 20  5 16  5 17  7.0000000  0  9G01G03G07G08G11G17G22G28G30         -0.000476828
  19998522.117 7    -19939.430 7    -14883.12549  19998521.90649
  23135224.094 2   -340736.797 2                
  20802300.938 6     33176.766 6     24222.35949  20802299.11349
  22975177.922 4    106060.215 4     69360.02046  22975178.67646
  21062612.836 5    120256.344 5     85278.31346  21062609.78946
  23881259.445 5   -232686.883 5   -157335.19948  23881257.99248
  22445980.125 3   -245532.066 3   -178689.82846  22445976.36346
  23481194.242 6   -333174.504 6   -217478.47746  23481190.41846
  21483018.953 6   -161486.512 6   -113552.28149  21483017.90249
 20  5 16  5 17  8.0000000  0  9G01G03G07G08G11G17G22G28G30         -0.000477381
  19998487.406 7    -20122.535 7    -15025.79749  19998486.94949
  23134542.203 3   -344318.559 3   -218046.19557  23134543.85257
  20802365.445 6     33514.477 6     24485.51249  20802363.07049
  22975366.609 2    107050.242 2     70131.49646  22975367.66046
  21062834.211 5    121417.410 5     86183.02746  21062831.10546
  23880823.344 5   -234977.016 5   -159119.71148  23880822.10548
  22445539.359 3   -247849.945 3   -180495.97346  22445534.98846
  23480546.289 5   -336578.383 5   -220130.85246  23480542.63746
  21482706.094 6   -163128.945 6   -114832.09849  21482705.78149
 20  5 16  5 17  9.0000000  0  9G01G03G07G08G11G17G22G28G30         -0.000477932
  19998452.305 6    -20305.039 6    -15168.00849  19998452.16849
  23133860.594 2   -347900.188 2   -220837.10247  23133862.10947
  20802429.648 6     33852.730 6     24749.08249  20802427.23849
  22975555.453 2    108040.137 2     70902.90646  22975555.17646
  21063055.414 5    122578.691 5     87087.90646  21063051.74246
  23880388.094 5   -237267.113 5   -160904.21148  23880386.52748
  22445098.664 2   -250167.488 2   -182301.86346  22445094.32046
  23479898.414 6   -339982.441 6   -222783.37146  23479894.75046
  21482393.500 6   -164770.813 6   -116111.47749  21482393.16049
 20  5 16  5 17 10.0000000  0  9G01G03G07G08G11G17G22G28G30         -0.000478485
  19998417.805 6    -20487.223 6    -15309.96149  19998417.54349
  23133178.750 2   -351482.129 2   -223628.24247  23133180.44547
  20802494.438 6     34191.262 6     25012.87549  20802492.08649
  22975744.227 3    109029.633 3     71673.96546  22975743.84046
  21063275.648 5    123739.859 5     87992.70346  21063272.96946
  23879951.961 5   -239557.383 5   -162688.84048  23879950.55548
  22444657.313 2   -252484.949 2   -184107.67646  22444652.91846
  23479250.773 6   -343386.844 6   -225436.16046  23479246.94946
  21482081.063 6   -166412.375 6   -117390.61749  21482080.57049
 20  5 16  5 17 11.0000000  0  9G01G03G07G08G11G17G22G28G30         -0.000479040
  19998383.219 6    -20668.941 6    -15451.57049  19998383.01649
  23132496.750 1   -355064.043 1   -226419.31646  23132498.72746
  20802558.555 6     34530.223 6     25276.99649  20802556.24649
  22975932.188 4    110019.035 4     72444.89146  22975932.61746
  21063497.203 5    124901.156 5     88897.59846  21063493.71946
  23879516.031 5   -241847.699 5   -164473.49648  23879514.73448
  22444216.781 3   -254802.215 3   -185913.33246  22444211.99646
  23478602.789 6   -346791.492 6   -228089.13346  23478599.38746
  21481769.188 6   -168053.484 6   -118669.40649  21481768.46949
 20  5 16  5 17 12.0000000  0  9G01G03G07G08G11G17G22G28G30         -0.000479593
  19998348.664 6    -20850.074 6    -15592.72349  19998348.50049
  23131815.672 1   -358646.141 1   -229210.52046  23131817.16046
  20802622.992 6     34869.699 6     25541.52749  20802621.04749
  22976120.164 5    111008.230 5     73215.60946  22976120.70746
  21063718.250 5    126062.609 5     89802.61746  21063715.28946
  23879080.281 5   -244137.988 5   -166258.13348  23879078.97748
  22443776.055 3   -257119.125 3   -187718.69946  22443771.36746
  23477955.469 6   -350196.305 6   -230742.21946  23477951.39546
  21481456.867 6   -169694.090 6   -119947.80549  21481456.20749
 20  5 16  5 17 13.0000000  0  9G01G03G07G08G11G17G22G28G30         -0.000480146
  19998314.477 6    -21030.914 6    -15733.64149  19998313.96949
  23131133.766 1   -362228.281 1   -232001.76246  23131135.30146
  20802687.547 6     35209.422 6     25806.23849  20802685.89849
  22976307.805 5    111997.039 5     73986.03546  22976308.79346
  21063938.945 5    127224.012 5     90707.60946  21063936.01646
  23878644.328 5   -246428.523 5   -168042.95748  23878642.65248
  22443334.859 3   -259436.023 3   -189524.06346  22443330.02746
  23477306.836 5   -353601.547 5   -233395.65646  23477303.22346
  21481144.664 6   -171334.383 6   -121225.95349  21481144.08249
 20  5 16  5 17 14.0000000  0  9G01G03G07G08G11G17G22G28G30         -0.000480700
  19998280.109 7    -21211.301 7    -15874.20749  19998279.66849
  23130452.516 1   -365810.590 1   -234793.14846  23130453.96146
  20802752.617 6     35549.566 6     26071.28949  20802749.97749
  22976495.742 5    112985.625 5     74756.32046  22976496.95346
  21064160.008 5    128385.465 5     91612.64546  21064157.18446
  23878208.734 5   -248719.082 5   -169827.80548  23878206.82848
  22442894.297 3   -261752.734 3   -191329.28146  22442889.06346
  23476658.492 6   -357007.043 6   -236049.28546  23476655.21146
  21480832.531 6   -172974.250 6   -122503.77049  21480831.84049
 20  5 16  5 17 15.0000000  0  9G01G03G07G08G11G17G22G28G30         -0.000481253
  19998245.953 7    -21391.137 7    -16014.33649  19998245.27049
  23129771.070 1   -369392.934 1   -237584.57046  23129771.98846
  20802817.430 6     35890.227 6     26336.73049  20802815.37149
  22976684.555 5    113974.082 5     75526.54745  22976685.06645
  21064381.023 5    129547.094 5     92517.80546  21064377.78946
  23877771.828 5   -251009.617 5   -171612.64548  23877771.07848
  22442452.953 2   -264069.090 2   -193134.24246  22442448.64146
  23476010.125 5   -360412.672 5   -238703.00846  23476007.36346
  21480520.727 6   -174613.598 6   -123781.18049  21480519.93049
 20  5 16  5 17 16.0000000  0  9G01G03G07G08G11G17G22G28G30         -0.000481808
  19998211.539 7    -21570.617 7    -16154.19149  19998211.04349
  23129089.414 1   -372975.457 1   -240376.14146  23129090.29346
  20802882.188 6     36231.172 6     26602.40249  20802879.85949
  22976872.117 5    114962.160 5     76296.49646  22976873.33246
  21064602.258 5    130708.680 5     93422.93046  21064599.06646
  23877336.250 5   -253300.348 5   -173397.63348  23877335.48448
  22442011.602 2   -266385.457 2   -194939.21946  22442007.71546
  23475362.742 5   -363818.711 5   -241357.05146  23475358.82846
  21480208.539 6   -176252.645 6   -125058.35249  21480208.28949
 20  5 16  5 17 17.0000000  0  9G01G03G07G08G11G17G22G28G30         -0.000482363
  19998177.609 7    -21749.723 7    -16293.75049  19998177.16849
  23128407.469 1   -376558.188 1   -243167.88346  23128408.96546
  20802947.086 6     36572.480 6     26868.36349  20802944.93849
  22977060.422 5    115949.988 5     77066.23446  22977061.07846
  21064822.898 5    131870.305 5     94328.09846  21064820.32046
  23876900.852 5   -255591.199 5   -175182.71548  23876899.38748
  22441571.008 2   -268701.645 2   -196744.05546  22441567.00846
  23474714.492 5   -367225.047 5   -244011.34846  23474710.68046
  21479896.664 6   -177891.270 6   -126335.20749  21479896.46549
 20  5 16  5 17 18.0000000  0  9G01G03G07G08G11G17G22G28G30         -0.000482916
  19998143.469 7    -21928.230 7    -16432.84449  19998143.10549
  23127726.102 1   -380140.797 1   -245959.53546  23127726.70346
  20803012.234 6     36914.313 6     27134.71949  20803010.18849
  22977247.969 5    116937.695 5     77835.87945  22977248.62945
  21065043.680 5    133032.094 5     95233.38746  21065041.05146
  23876464.586 5   -257882.020 5   -176967.78148  23876463.36748
  22441130.320 2   -271017.453 2   -198548.59445  22441126.05145
  23474065.922 5   -370631.523 5   -246665.75446  23474062.67646
  21479585.008 6   -179529.387 6   -127611.66449  21479584.39549
 20  5 16  5 17 19.0000000  0  9G01G03G07G08G11G17G22G28G30         -0.000483469
  19998109.906 6    -22106.234 6    -16571.55549  19998109.16049
  23127044.33611                   -248751.25456  23127045.21956
  20803077.320 6     37256.582 6     27401.42649  20803075.22749
  22977436.586 5    117925.203 5     78605.34846  22977436.73446
  21065265.078 5    134194.027 5     96138.78146  21065262.14146
  23876027.586 5   -260172.844 5   -178752.83248  23876027.20348
  22440689.805 2   -273333.070 2   -200352.95345  22440686.16045
  23473417.727 5   -374038.211 5   -249320.32046  23473414.48846
  21479272.797 6   -181166.996 6   -128887.72749  21479272.78549
 20  5 16  5 17 20.0000000  0  9G01G03G07G08G11G17G22G28G30         -0.000484024
  19998076.000 6    -22283.707 6    -16709.84449  19998075.59449
  23126361.56311                   -251542.96556  23126363.19956
  20803142.258 6     37599.375 6     27668.54349  20803140.15649
  22977623.797 5    118912.586 5     79374.72746  22977624.75846
  21065486.320 5    135356.074 5     97044.26246  21065483.08646
  23875592.617 5   -262463.688 5   -180537.89848  23875591.11348
  22440249.031 2   -275648.410 2   -202157.12145  22440245.42245
  23472769.164 5   -377445.074 5   -251975.02746  23472765.97346
  21478961.539 6   -182804.137 6   -130163.42649  21478961.45749
 20  5 16  5 17 21.0000000  0  9G01G03G07G08G11G17G22G28G30         -0.000484579
  19998042.375 6    -22460.777 6    -16847.82049  19998041.82449
  23125678.65611                   -254334.80156  23125681.57456
  20803208.094 6     37942.516 6     27935.92649  20803205.71949
  22977811.266 5    119899.691 5     80143.91446  22977812.93446
  21065707.688 5    136518.172 5     97949.78146  21065704.49646
  23875157.000 5   -264754.633 5   -182323.04747  23875155.12547
  22439809.211 2   -277963.613 2   -203961.15245  22439804.80545
  23472121.352 5   -380852.234 5   -254629.96546  23472117.75846
  21478650.289 6   -184440.844 6   -131438.77749  21478650.41049
 20  5 16  5 17 22.0000000  0  9G01G03G07G08G11G17G22G28G30         -0.000485132
  19998008.836 7    -22637.266 7    -16985.34849  19998008.33249
  23124997.438 1                   -257126.61346  23124999.94146
  20803273.391 6     38286.195 6     28203.72349  20803271.18049
  22977999.992 5    120886.699 5     80913.02046  22978000.74246
  21065929.063 5    137680.473 5     98855.48046  21065925.94546
  23874720.914 5   -267045.523 5   -184108.15647  23874719.29747
  22439368.406 2   -280278.426 2   -205764.90645  22439364.49645
  23471472.563 5   -384259.543 5   -257285.01246  23471469.20746
  21478338.930 6   -186077.027 6   -132713.72749  21478338.50049
 20  5 16  5 17 23.0000000  0  9G01G03G07G08G11G17G22G28G30         -0.000485687
  19997975.094 7    -22813.371 7    -17122.55549  19997975.78549
  23124316.000 4                   -259918.47347  23124318.15647
  20803338.805 6     38630.262 6     28471.82849  20803336.30549
  22978187.281 6    121873.559 6     81682.03546  22978188.44546
  21066150.320 6    138842.875 6     99761.23847  21066147.26647
  23874284.906 5   -269336.477 5   -185893.31348  23874283.68448
  22438928.391 5   -282593.254 5   -207568.65645  22438924.05545
  23470823.883 4   -387667.137 4   -259940.25046  23470821.16446
  21478027.773 6   -187712.805 6   -133988.35249  21478027.39549
 20  5 16  5 17 24.0000000  0  9G01G03G07G08G11G17G22G28G30         -0.000486242
  19997941.570 7    -22988.945 7    -17259.34849  19997941.99649
  23123634.688 4                   -262710.52048  23123636.46948
  20803404.438 6     38974.742 6     28740.26649  20803402.10949
  22978375.125 6    122860.099 6     82450.78046  22978376.27746
  21066371.641 6    140005.320 6    100667.01247  21066368.30547
  23873848.438 5   -271627.488 5   -187678.51648  23873847.67648
  22438488.602 5   -284907.688 5   -209372.07446  22438483.24246
  23470175.172 4   -391074.969 4   -262595.66046  23470172.68046
  21477716.883 6   -189348.121 6   -135262.62149  21477716.71549
 20  5 16  5 17 25.0000000  0  9G01G03G07G08G11G17G22G28G30         -0.000486797
  19997908.469 7    -23164.117 7    -17395.84449  19997908.83249
  23122953.156 4                   -265502.63348  23122954.44548
  20803469.563 6     39319.570 6     29008.95349  20803467.74249
  22978562.625 6    123846.367 6     83219.30147  22978563.85547
  21066592.703 6    141167.734 6    101572.77748  21066589.41448
  23873412.633 5   -273918.668 5   -189463.84848  23873412.09848
  22438047.250 6   -287221.988 6   -211175.41447  22438043.09047
  23469526.383 4   -394483.145 4   -265251.35946  23469523.95346
  21477405.461 6   -190983.059 6   -136536.59849  21477405.37549
 20  5 16  5 17 26.0000000  0  9G01G03G07G08G11G17G22G28G30         -0.000487352
  19997874.867 7    -23338.758 7    -17531.93049  19997875.28949
  23122270.586 5   -408804.133 5   -268294.75448  23122272.20348
  20803535.344 6     39664.938 6     29278.06649  20803533.51649
  22978750.734 6    124832.492 6     83987.69947  22978751.25447
  21066813.891 6    142330.359 6    102478.71548  21066810.66848
  23872976.969 4   -276209.836 4   -191249.16448  23872975.68048
  22437606.875 6   -289535.996 6   -212978.54347  22437602.94147
  23468878.109 4   -397891.461 4   -267907.18046  23468875.49246
  21477094.508 6   -192617.496 6   -137810.19149  21477094.14849
 20  5 16  5 17 27.0000000  0  9G01G03G07G08G11G17G22G28G30         -0.000487907
  19997841.875 7    -23512.922 7    -17667.64549  19997842.35949
  23121589.102 5   -412387.363 5   -271086.86748  23121590.82448
  20803600.859 6     40010.703 6     29547.49249  20803598.84849
  22978937.797 6    125818.398 6     84755.93847  22978938.19147
  21067035.031 6    143493.027 6    103384.68848  21067031.67248
  23872540.633 4   -278501.016 4   -193034.49648  23872539.38748
  22437166.523 6   -291849.805 6   -214781.51647  22437162.67647
  23468230.453 4   -401300.012 4   -270563.21946  23468226.69946
  21476783.664 6   -194251.461 6   -139083.41849  21476783.39149
 20  5 16  5 17 28.0000000  0  9G01G03G07G08G11G17G22G28G30         -0.000488462
  19997808.938 7    -23686.477 7    -17802.88749  19997809.48849
  23120907.234 5   -415970.578 5   -273878.96148  23120908.71548
  20803667.484 6     40357.020 6     29817.34449  20803665.25449
  22979126.078 6    126804.227 6     85524.10947  22979126.05147
  21067256.406 6    144655.918 6    104290.84848  21067252.67648
  23872104.945 4   -280792.141 4   -194819.79348  23872103.71948
  22436726.656 6   -294163.258 6   -216584.19947  22436721.82047
  23467580.805 4   -404708.699 4   -273219.33646  23467578.48846
  21476472.703 6   -195884.848 6   -140356.18449  21476472.52049
 20  5 16  5 17 29.0000000  0  9G01G03G07G08G11G17G22G28G30         -0.000489017
  19997775.781 7    -23859.801 7    -17937.94549  19997776.45749
  23120225.031 5   -419554.082 5   -276671.29348  23120226.84048
  20803733.219 6     40703.543 6     30087.35949  20803731.06349
  22979313.359 6    127789.613 6     86291.94547  22979313.73847
  21067477.813 6    145818.699 6    105196.91448  21067474.43848
  23871668.547 5   -283083.539 5   -196605.29348  23871667.64848
  22436286.570 6   -296476.738 6   -218386.92247  22436282.31647
  23466932.328 4   -408117.859 4   -275875.82846  23466929.71546
  21476161.680 6   -197518.047 6   -141628.80949  21476161.85949
 20  5 16  5 17 30.0000000  0  9G01G03G07G08G11G17G22G28G30         -0.000489574
  19997743.203 7    -24032.758 7    -18072.71949  19997743.12949
  23119542.461 5   -423137.805 5   -279463.79748  23119544.93448
  20803799.398 6     41050.375 6     30357.62149  20803797.13349
  22979500.148 6    128774.688 6     87059.53947  22979501.34847
  21067699.047 6    146981.445 6    106102.95348  21067695.77348
  23871232.969 4   -285375.113 4   -198390.93848  23871231.85548
  22435845.938 6   -298790.082 6   -220189.52047  22435841.55147
  23466283.711 4   -411527.371 4   -278532.58646  23466280.59446
  21475851.133 6   -199150.918 6   -142901.16849  21475851.19549
 20  5 16  5 17 31.0000000  0  9G01G03G07G08G11G17G22G28G30         -0.000490129
  19997710.148 7    -24205.277 7    -18207.14849  19997710.62549
  23118860.938 5   -426721.605 5   -282256.37148  23118862.93048
  20803865.461 6     41397.621 6     30628.20349  20803863.05949
  22979688.398 6    129759.496 6     87826.92247  22979688.62947
  21067920.117 6    148144.227 6    107009.01248  21067916.57848
  23870797.180 4   -287666.777 4   -200176.65648  23870795.75048
  22435405.836 6   -301103.258 6   -221991.99647  22435401.49247
  23465634.781 4   -414937.145 4   -281189.55946  23465632.16046
  21475539.992 6   -200783.348 6   -144173.19549  21475540.11349
 20  5 16  5 17 32.0000000  0  9G01G03G07G08G11G17G22G28G30         -0.000490685
  19997677.750 7    -24377.336 7    -18341.22349  19997678.06349
  23118178.922 5   -430305.523 5   -285049.03548  23118181.05548
  20803931.742 6     41745.250 6     30899.08249  20803929.38349
  22979875.008 6    130744.105 6     88594.14147  22979876.11347
  21068141.625 6    149307.102 6    107915.14848  21068138.14848
  23870360.992 4   -289958.508 4   -201962.42248  23870359.82848
  22434965.586 6   -303416.211 6   -223794.30147  22434961.18447
  23464985.563 4   -418347.188 4   -283846.73446  23464982.98046
  21475229.859 6   -202415.340 6   -145444.87949  21475229.73449
 20  5 16  5 17 33.0000000  0  9G01G03G07G08G11G17G22G28G30         -0.000491241
  19997644.875 7    -24549.020 7    -18475.00049  19997645.32449
  23117496.961 5   -433889.531 5   -287841.76248  23117498.58248
  20803997.406 6     42093.258 6     31170.25849  20803995.68049
  22980062.766 6    131728.426 6     89361.13747  22980063.30147
  21068362.766 6    150470.000 6    108821.30948  21068359.10548
  23869924.703 4   -292250.324 4   -203748.25048  23869923.12948
  22434525.859 6   -305729.023 6   -225596.50047  22434521.27747
  23464336.273 4   -421757.566 4   -286504.18046  23464334.00846
  21474919.414 6   -204046.965 6   -146716.27749  21474919.82049
 20  5 16  5 17 34.0000000  0  9G01G03G07G08G11G17G22G28G30         -0.000491796
  19997611.797 7    -24720.129 7    -18608.33649  19997612.60949
  23116814.773 4   -437473.586 4   -290634.52748  23116817.22748
  20804063.805 6     42441.762 6     31441.81649  20804062.16049
  22980249.688 5    132712.602 5     90128.02747  22980250.55547
  21068584.242 6    151633.059 6    109727.58248  21068581.01648
  23869487.938 4   -294542.187 4   -205534.12248  23869487.23848
  22434085.922 6   -308041.547 6   -227398.46947  22434081.16847
  23463687.914 5   -425168.066 5   -289161.69946  23463684.89546
  21474609.523 6   -205678.051 6   -147987.25849  21474609.00449
 20  5 16  5 17 35.0000000  0  9G01G03G07G08G11G17G22G28G30         -0.000492353
  19997579.547 7    -24890.660 7    -18741.21149  19997580.23849
  23116133.500 4   -441057.613 4   -293427.27348  23116135.12548
  20804130.805 6     42790.797 6     31713.79749  20804127.88349
  22980437.250 6    133696.668 6     90894.82047  22980437.46947
  21068805.641 6    152796.285 6    110633.98847  21068802.35947
  23869052.359 4   -296833.898 4   -207319.87148  23869051.35548
  22433645.656 6   -310353.738 6   -229200.18847  22433641.23447
  23463039.039 5   -428578.730 5   -291819.35546  23463035.95346
  21474299.227 6   -207308.590 6   -149257.80949  21474298.78949
 20  5 16  5 17 36.0000000  0  9G01G03G07G08G11G17G22G28G30         -0.000492908
  19997547.320 7    -25060.609 7    -18873.63749  19997548.15649
  23115451.117 5   -444641.609 5   -296219.98848  23115452.67248
  20804196.766 6     43140.379 6     31986.18849  20804194.91849
  22980624.609 6    134680.660 6     91661.55947  22980625.17647
  21069026.750 6    153959.734 6    111540.57047  21069023.73447
  23868616.414 4   -299125.648 4   -209105.64848  23868615.30948
  22433205.586 6   -312665.609 6   -231001.62947  22433201.56347
  23462389.523 5   -431989.516 5   -294477.11346  23462387.00046
  21473988.664 6   -208938.578 6   -150527.93449  21473988.50849
 20  5 16  5 17 37.0000000  0  9G01G03G07G08G11G17G22G28G30         -0.000493465
  19997514.992 7    -25230.184 7    -19005.78149  19997515.58249
  23114769.508 4   -448225.785 4   -299012.84448  23114771.14148
  20804263.516 6     43490.270 6     32258.83249  20804261.21149
  22980811.813 6    135664.320 6     92428.05147  22980811.73447
  21069247.852 6    155123.180 6    112447.14148  21069244.78948
  23868179.742 4   -301417.480 4   -210891.49248  23868178.43448
  22432766.164 6   -314977.359 6   -232802.99247  22432761.36347
  23461740.563 5   -435400.660 5   -297135.15646  23461737.89146
  21473678.484 6   -210568.211 6   -151797.77749  21473678.36349
 20  5 16  5 17 38.0000000  0  9G01G03G07G08G11G17G22G28G30         -0.000494022
  19997482.914 6    -25399.238 6    -19137.50849  19997483.41849
  23114087.391 5   -451809.930 5   -301805.69548  23114088.83648
  20804330.172 6     43840.660 6     32531.86749  20804327.71549
  22980999.680 6    136647.848 6     93194.44947  22980999.12547
  21069469.641 6    156286.766 6    113353.83248  21069466.52348
  23867743.336 5   -303709.371 5   -212677.37548  23867742.35548
  22432325.945 6   -317288.816 6   -234604.12947  22432321.35947
  23461091.750 5   -438811.984 5   -299793.31646  23461089.04346
  21473368.648 6   -212197.320 6   -153067.21149  21473368.37549
 20  5 16  5 17 39.0000000  0  9G01G03G07G08G11G17G22G28G30         -0.000494579
  19997450.789 6    -25567.770 6    -19268.84049  19997451.05149
  23113404.875 5   -455394.121 5   -304598.57048  23113406.69948
  20804396.922 6     44191.500 6     32805.24249  20804394.57449
  22981186.391 6    137631.168 6     93960.68047  22981186.46947
  21069690.484 6    157450.445 6    114260.59448  21069687.72348
  23867307.414 5   -306001.227 5   -214463.23848  23867306.26248
  22431885.977 6   -319600.027 6   -236405.07447  22431881.44547
  23460442.516 5   -442223.492 5   -302451.63746  23460439.79346
  21473058.930 6   -213825.977 6   -154336.29349  21473058.77349
 20  5 16  5 17 40.0000000  0  9G01G03G07G08G11G17G22G28G30         -0.000495134
  19997418.992 6    -25735.617 6    -19399.62549  19997419.60249
  23112722.992 5   -458978.184 5   -307391.35948  23112724.77048
  20804464.492 6     44543.016 6     33079.14549  20804461.82049
  22981373.000 6    138614.543 6     94726.94547  22981373.77047
  21069912.219 6    158614.477 6    115167.64148  21069909.24648
  23866872.047 5   -308292.938 5   -216248.98048  23866870.65248
  22431446.016 6   -321910.777 6   -238205.65247  22431441.96947
  23459793.117 5   -445635.047 5   -305109.98446  23459790.39146
  21472749.055 6   -215453.953 6   -155604.84449  21472749.10249
 20  5 16  5 17 41.0000000  0  9G01G03G07G08G11G17G22G28G30         -0.000495691
  19997387.234 7    -25902.965 7    -19530.03549  19997387.91049
  23112040.328 5   -462562.273 5   -310184.16448  23112042.91448
  20804530.477 6     44894.984 6     33353.40649  20804528.35949
  22981560.172 6    139597.715 6     95493.04747  22981560.69547
  21070134.227 6    159778.605 6    116074.75848  21070130.79748
  23866435.219 5   -310584.668 5   -218034.74248  23866434.05148
  22431006.453 6   -324221.320 6   -240006.06647  22431002.37547
  23459144.234 5   -449046.801 5   -307768.50446  23459141.23846
  21472439.320 6   -217081.453 6   -156873.03149  21472439.21949
 20  5 16  5 17 42.0000000  0  9G01G03G07G08G11G17G22G28G30         -0.000496248
  19997355.445 6    -26069.785 6    -19660.02049  19997355.64849
  23111357.773 5   -466146.449 5   -312977.01248  23111360.91848
  20804597.727 6     45247.410 6     33628.02049  20804595.33249
  22981746.992 6    140580.691 6     96259.00447  22981747.80947
  21070355.828 6    160942.863 6    116981.96548  21070352.16448
  23865999.422 4   -312876.434 4   -219820.52748  23865998.11348
  22430567.172 6   -326531.563 6   -241806.25447  22430562.76247
  23458495.078 4   -452458.727 4   -310427.15646  23458492.25046
  21472129.766 6   -218708.457 6   -158140.82449  21472129.07849
 20  5 16  5 17 43.0000000  0  9G01G03G07G08G11G17G22G28G30         -0.000496805
  19997323.523 7    -26236.219 7    -19789.71149  19997323.87149
  23110676.719 5   -469730.727 5   -315769.93448  23110678.71548
  20804665.523 6     45600.195 6     33902.92249  20804662.48449
  22981934.586 6    141563.395 6     97024.74247  22981935.03547
  21070576.805 6    162107.133 6    117889.18448  21070574.08248
  23865563.281 4   -315168.273 4   -221606.38748  23865561.87548
  22430127.531 6   -328841.668 6   -243606.34047  22430123.18847
  23457845.648 5   -455871.012 5   -313086.08646  23457842.53146
  21471820.047 6   -220335.070 6   -159408.31649  21471820.09049
 20  5 16  5 17 44.0000000  0  9G01G03G07G08G11G17G22G28G30         -0.000497362
  19997292.141 7    -26402.102 7    -19918.97349  19997292.86349
  23109994.477 5   -473315.012 5   -318562.88348  23109996.62548
  20804732.125 6     45953.469 6     34178.19549  20804729.53949
  22982121.445 6    142545.941 6     97790.35547  22982121.93447
  21070798.828 6    163271.551 6    118796.52347  21070795.61347
  23865127.188 4   -317460.075 4   -223392.20347  23865126.06647
  22429688.172 6   -331151.473 6   -245406.18847  22429683.40647
  23457196.461 5   -459283.434 5   -315745.10946  23457193.58246
  21471510.953 6   -221961.184 6   -160675.41449  21471510.83249
 20  5 16  5 17 45.0000000  0  9G01G03G07G08G11G17G22G28G30         -0.000497917
  19997260.742 7    -26567.426 7    -20047.79349  19997261.18449
  23109312.617 5   -476899.332 5   -321355.85548  23109314.61748
  20804799.680 6     46307.250 6     34453.87149  20804797.21149
  22982308.344 6    143528.367 6     98555.87547  22982308.53547
  21071020.273 6    164436.129 6    119703.98847  21071017.18447
  23864690.867 4   -319751.945 4   -225178.06648  23864689.59048
  22429248.398 6   -333460.996 6   -247205.82447  22429244.09047
  23456546.438 5   -462696.027 5   -318404.26246  23456543.89546
  21471201.305 6   -223586.762 6   -161942.10249  21471201.10549
 20  5 16  5 17 46.0000000  0  9G01G03G07G08G11G17G22G28G30         -0.000498474
  19997229.141 7    -26732.195 7    -20176.18449  19997229.68449
  23108630.906 5   -480483.586 5   -324148.79348  23108632.63348
  20804867.125 6     46661.563 6     34729.95349  20804864.20349
  22982494.906 6    144510.695 6     99321.32047  22982495.75847
  21071241.844 6    165600.934 6    120611.62947  21071238.89847
  23864254.820 4   -322043.707 4   -226963.85548  23864253.59448
  22428808.703 6   -335770.195 6   -249005.19547  22428804.51247
  23455896.750 4   -466108.770 4   -321063.53546  23455894.69946
  21470892.250 6   -225211.789 6   -163208.35549  21470891.95349
 20  5 16  5 17 47.0000000  0  9G01G03G07G08G11G17G22G28G30         -0.000499031
  19997198.078 7    -26896.453 7    -20304.18049  19997198.77749
  23107948.445 5   -484067.898 5   -326941.77348  23107950.10248
  20804934.766 6     47016.332 6     35006.40649  20804931.88749
  22982682.094 6    145492.844 6    100086.63347  22982682.44947
  21071464.164 6    166765.816 6    121519.32448  21071460.57848
  23863819.508 5   -324335.527 5   -228749.69148  23863817.37948
  22428369.359 6   -338079.133 6   -250804.37147  22428365.09447
  23455247.766 4   -469521.742 4   -323722.99246  23455245.10546
  21470582.648 6   -226836.359 6   -164474.25849  21470582.35949
 20  5 16  5 17 48.0000000  0  9G01G03G07G08G11G17G22G28G30         -0.000499590
  19997166.914 7    -27060.105 7    -20431.69949  19997167.14849
  23107266.555 5   -487652.148 5   -329734.70348  23107268.63348
  20805002.289 6     47371.656 6     35283.27349  20804999.57449
  22982869.172 6    146474.910 6    100851.87947  22982869.38347
  21071685.133 6    167930.949 6    122427.22347  21071682.14847
  23863383.258 4   -326627.219 4   -230535.43448  23863381.35948
  22427930.430 6   -340387.715 6   -252603.25847  22427925.66847
  23454597.750 5   -472934.793 5   -326382.51246  23454595.41846
  21470273.867 6   -228460.332 6   -165739.69149  21470273.64549
 20  5 16  5 17 49.0000000  0  9G01G03G07G08G11G17G22G28G30         -0.000500147
  19997135.719 7    -27223.215 7    -20558.80149  19997136.21549
  23106584.023 5   -491236.430 5   -332527.65248  23106586.40648
  20805069.820 6     47727.449 6     35560.51649  20805066.82849
  22983055.344 5    147456.836 5    101617.01647  22983056.08247
  21071907.313 6    169096.227 6    123335.23047  21071903.59847
  23862947.016 5   -328918.949 5   -232321.20348  23862945.22748
  22427490.453 6   -342696.023 6   -254401.93847  22427486.26247
  23453949.000 5   -476348.023 5   -329042.18846  23453946.12146
  21469964.703 6   -230083.777 6   -167004.71549  21469965.02049
 20  5 16  5 17 49.9990000  0  9G01G03G07G08G11G17G22G28G30          0.000499298
  19997104.808 7    -27385.727 7    -20685.43449  19997105.25749
  23105902.456 5   -494817.188 5   -335317.84448  23105905.20248
  20805138.011 6     48083.340 6     35837.83249  20805135.13249
  22983242.480 6    148437.574 6    102381.22747  22983242.87047
  21072128.722 6    170260.410 6    124242.38747  21072125.36647
  23862510.745 5   -331208.418 5   -234105.20748  23862509.75348
  22427051.745 6   -345001.793 6   -256198.64547  22427047.70247
  23453299.526 5   -479758.161 5   -331699.43446  23453297.10146
  21469656.347 6   -231705.195 6   -168268.15649  21469656.36249
 20  5 16  5 17 50.9990000  0  9G01G03G07G08G11G17G22G28G30          0.000498739
  19997074.105 7    -27547.832 7    -20811.75049  19997074.73749
  23105220.526 5   -498401.500 5   -338110.80148  23105222.81248
  20805205.269 6     48440.094 6     36115.82449  20805202.96849
  22983429.206 6    149419.172 6    103146.11347  22983429.73047
  21072350.362 6    171425.926 6    125150.58247  21072346.97647
  23862075.112 4   -333500.156 4   -235890.97748  23862073.53848
  22426613.065 6   -347309.578 6   -257996.92647  22426608.71047
  23452650.659 5   -483171.742 5   -334359.37146  23452647.33946
  21469347.940 6   -233327.652 6   -169532.41049  21469347.69849
 20  5 16  5 17 51.9990000  0  9G01G03G07G08G11G17G22G28G30          0.000498182
  19997043.315 7    -27709.406 7    -20937.65249  19997044.16749
  23104538.675 5   -501985.844 5   -340903.79348  23104540.79648
  20805273.589 6     48797.332 6     36394.18449  20805271.10549
  22983616.058 6    150400.617 6    103910.87147  22983616.55847
  21072572.276 6    172591.590 6    126058.89547  21072568.85847
  23861638.276 4   -335791.895 4   -237676.73448  23861637.38648
  22426173.815 6   -349617.086 6   -259794.98447  22426169.51547
  23452000.573 5   -486585.570 5   -337019.50446  23451997.62046
  21469039.065 6   -234949.637 6   -170796.29349  21469038.72649
 20  5 16  5 17 52.9990000  0  9G01G03G07G08G11G17G22G28G30          0.000497625
  19997012.980 7    -27870.430 7    -21063.12149  19997013.44849
  23103856.347 4   -505570.180 4   -343696.77748  23103858.57348
  20805341.362 6     49155.063 6     36672.93849  20805339.00349
  22983802.964 6    151381.895 6    104675.50447  22983802.78447
  21072794.159 6    173757.426 6    126967.33647  21072790.57347
  23861202.284 4   -338083.559 4   -239462.44448  23861201.24948
  22425734.948 6   -351924.301 6   -261592.80947  22425730.83147
  23451351.136 4   -489999.563 4   -339679.75446  23451347.87046
  21468730.440 6   -236571.074 6   -172059.75049  21468730.13249
 20  5 16  5 17 53.9990000  0  9G01G03G07G08G11G17G22G28G30          0.000497068
  19996982.308 7    -28030.848 7    -21188.12149  19996982.51949
  23103174.269 5   -509154.516 5   -346489.76448  23103176.56248
  20805409.558 6     49513.375 6     36952.13749  20805407.25349
  22983989.355 5    152363.113 5    105440.09447  22983989.82747
  21073016.120 6    174923.469 6    127875.94148  21073012.58148
  23860766.128 4   -340375.238 4   -241248.17248  23860764.80448
  22425295.948 6   -354231.148 6   -263390.34847  22425291.69847
  23450701.323 4   -493413.660 4   -342340.08246  23450698.64046
  21468422.315 6   -238191.945 6   -173322.77049  21468422.03849
 20  5 16  5 17 54.9990000  0  9G01G03G07G08G11G17G22G28G30          0.000496510
  19996951.987 7    -28190.770 7    -21312.73849  19996952.24549
  23102492.495 5   -512738.844 5   -349282.75048  23102494.08948
  20805477.980 6     49872.125 6     37231.68449  20805475.65949
  22984176.214 6    153344.145 6    106204.52347  22984176.80847
  21073238.347 6    176089.625 6    128784.62548  21073234.89448
  23860330.355 4   -342666.844 4   -243033.83248  23860328.98348
  22424857.230 6   -356537.766 6   -265187.71147  22424852.56547
  23450051.292 4   -496827.977 4   -345000.58646  23450048.48046
  21468113.737 6   -239812.352 6   -174585.41849  21468113.75749
 20  5 16  5 17 55.9990000  0  9G01G03G07G08G11G17G22G28G30          0.000495953
  19996921.394 7    -28350.219 7    -21436.98449  19996921.81949
  23101810.222 5   -516323.242 5   -352075.79348  23101812.26948
  20805546.401 6     50231.285 6     37511.54749  20805544.03849
  22984362.995 6    154324.918 6    106968.75847  22984362.52647
  21073459.667 6    177255.871 6    129693.38748  21073456.38648
  23859894.745 4   -344958.598 4   -244819.62548  23859893.11648
  22424418.222 6   -358844.141 6   -266984.88347  22424414.12047
  23449401.925 5   -500242.535 5   -347661.27746  23449398.94446
  21467805.183 6   -241432.297 6   -175847.71549  21467805.32749
 20  5 16  5 17 56.9990000  0  9G01G03G07G08G11G17G22G28G30          0.000495394
  19996891.042 7    -28509.254 7    -21560.91449  19996891.48349
  23101127.995 4   -519907.762 4   -354868.91448  23101129.75348
  20805614.714 6     50590.848 6     37791.72349  20805612.14749
  22984549.433 6    155305.492 6    107732.84047  22984549.38247
  21073681.862 6    178422.160 6    130602.18447  21073678.65547
  23859458.378 4   -347250.398 4   -246605.44148  23859456.73048
  22423979.534 6   -361150.352 6   -268781.93447  22423975.19847
  23448752.409 5   -503657.371 5   -350322.18046  23448748.83946
  21467497.050 6   -243051.848 6   -177109.71149  21467497.17949
 20  5 16  5 17 57.9990000  0  9G01G03G07G08G11G17G22G28G30          0.000494837
  19996861.081 7    -28667.797 7    -21684.45349  19996861.35849
  23100446.394 5   -523492.328 5   -357662.06648  23100448.02248
  20805682.839 6     50950.836 6     38072.23049  20805680.64449
  22984736.167 6    156285.840 6    108496.75447  22984736.22647
  21073903.933 6    179588.555 6    131511.06648  21073900.50348
  23859022.323 4   -349542.234 4   -248391.28948  23859020.74148
  22423540.081 6   -363456.305 6   -270578.77747  22423536.23747
  23448102.167 5   -507072.445 5   -352983.27746  23448099.19046
  21467189.136 6   -244670.906 6   -178371.31349  21467188.97249
 20  5 16  5 17 58.9990000  0  9G01G03G07G08G11G17G22G28G30          0.000494280
  19996830.878 7    -28825.875 7    -21807.62549  19996831.54249
  23099763.753 5   -527077.047 5   -360455.35248  23099765.85548
  20805751.573 6     51311.215 6     38353.04749  20805749.23349
  22984922.386 6    157265.969 6    109260.49647  22984922.35147
  21074125.901 6    180755.008 6    132419.98048  21074122.40148
  23858586.175 4   -351834.160 4   -250177.21148  23858584.46448
  22423101.198 6   -365762.070 6   -272375.47347  22423097.48047
  23447452.159 5   -510487.781 5   -355644.60246  23447448.99546
  21466881.323 6   -246289.570 6   -179632.60949  21466880.68749
 20  5 16  5 17 59.9990000  0  9G01G03G07G08G11G17G22G28G30          0.000493721
  19996800.769 7    -28983.426 7    -21930.39849  19996801.58949
  23099082.003 5   -530661.715 5   -363248.60948  23099084.05048
  20805820.144 6     51672.137 6     38634.27349  20805817.83949
  22985109.073 6    158245.957 6    110024.12947  22985109.28447
  21074347.722 6    181921.645 6    133329.04747  21074344.08547
  23858149.651 4   -354126.094 4   -251963.13348  23858148.54648
  22422662.714 6   -368067.543 6   -274171.94547  22422658.97247
  23446801.464 5   -513903.285 5   -358306.04346  23446799.02246
  21466573.339 6   -247907.699 6   -180893.48849  21466573.17949
 20  5 16  5 18  0.9990000  0  9G01G03G07G08G11G17G22G28G30          0.000493162
  19996770.644 7    -29140.457 7    -22052.75849  19996771.42949
  23098400.159 5   -534246.426 5   -366041.91048  23098401.69848
  20805888.792 6     52033.500 6     38915.84449  20805886.74549
  22985294.972 6    159225.773 6    110787.62147  22985295.54247
  21074569.667 6    183088.383 6    134238.19548  21074566.42148
  23857713.167 4   -356417.996 4   -253749.02748  23857712.44848
  22422224.339 6   -370372.742 6   -275968.21147  22422220.11247
  23446151.886 4   -517318.984 4   -360967.60946  23446149.03046
  21466265.206 6   -249525.344 6   -182154.00049  21466265.58149
 20  5 16  5 18  1.9990000  0  9G01G03G07G08G11G17G22G28G30          0.000492605
  19996741.253 7    -29296.898 7    -22174.66049  19996742.19449
  23097718.065 5   -537831.113 5   -368835.16848  23097719.48048
  20805958.292 6     52395.418 6     39197.84849  20805955.39049
  22985481.831 6    160205.535 6    111551.07047  22985482.03047
  21074791.894 6    184255.332 6    135147.51248  21074788.12448
  23857277.628 4   -358709.859 4   -255534.89148  23857276.50348
  22421785.503 6   -372677.609 6   -277764.20347  22421781.52247
  23445501.558 4   -520734.809 4   -363629.30146  23445499.11246
  21465957.761 6   -251142.422 6   -183414.05949  21465957.70249
 20  5 16  5 18  2.9990000  0  9G01G03G07G08G11G17G22G28G30          0.000492046
  19996711.378 7    -29452.668 7    -22296.04349  19996712.17549
  23097036.175 5   -541415.672 5   -371628.32448  23097037.73748
  20806027.136 6     52757.953 6     39480.34049  20806024.44449
  22985668.292 6    161185.254 6    112314.48047  22985668.21447
  21075014.245 6    185422.594 6    136057.06347  21075010.26547
  23856841.355 4   -361001.551 4   -257320.62948  23856840.07748
  22421346.745 6   -374982.031 6   -279559.85247  22421343.09747
  23444852.480 4   -524150.648 4   -366290.99246  23444849.46446
  21465650.034 6   -252758.836 6   -184673.60249  21465649.83149
 20  5 16  5 18  3.9990000  0  9G01G03G07G08G11G17G22G28G30          0.000491488
  19996682.065 7    -29608.066 7    -22417.13349  19996682.90949
  23096353.901 5   -545000.352 5   -374421.56348  23096355.63648
  20806096.542 6     53120.824 6     39763.09449  20806093.69849
  22985854.901 6    162164.680 6    113077.66447  22985854.99947
  21075236.237 6    186589.844 6    136966.60947  21075232.42947
  23856404.972 4   -363293.402 4   -259106.48048  23856404.03448
  22420908.534 6   -377286.359 6   -281355.43447  22420905.29647
  23444202.323 5   -527566.871 5   -368952.97346  23444199.38246
  21465342.339 6   -254374.887 6   -185932.86349  21465342.40149
 20  5 16  5 18  4.9990000  0  9G01G03G07G08G11G17G22G28G30          0.000490931
  19996652.167 7    -29762.836 7    -22537.73049  19996653.22249
  23095671.448 5   -548584.984 5   -377214.77748  23095673.28448
  20806165.753 6     53484.223 6     40046.27049  20806162.55849
  22986040.792 6    163144.027 6    113840.79347  22986041.43347
  21075458.378 6    187757.297 6    137876.30947  21075454.97647
  23855969.386 4   -365585.177 4   -260892.27748  23855968.01148
  22420470.409 6   -379590.301 6   -283150.71947  22420466.30047
  23443551.784 4   -530983.137 4   -371614.99246  23443549.33146
  21465034.761 6   -255990.383 6   -187191.69549  21465035.28449
 20  5 16  5 18  5.9990000  0  9G01G03G07G08G11G17G22G28G30          0.000490372
  19996623.339 7    -29917.035 7    -22657.88349  19996624.09749
  23094989.042 5   -552169.598 5   -380007.98448  23094991.09348
  20806234.839 6     53848.211 6     40329.89549  20806232.32749
  22986227.401 6    164123.246 6    114603.82047  22986227.33147
  21075680.300 6    188924.949 6    138786.17247  21075676.99947
  23855533.019 4   -367876.875 4   -262678.01648  23855532.06248
  22420031.714 6   -381893.918 6   -284945.74247  22420027.89447
  23442901.159 4   -534399.570 4   -374277.14146  23442898.69446
  21464727.526 6   -257605.281 6   -188450.05149  21464727.79249
 20  5 16  5 18  6.9990000  0  9G01G03G07G08G11G17G22G28G30          0.000489813
  19996593.651 7    -30070.578 7    -22777.52749  19996594.89449
  23094307.128 5   -555754.020 5   -382801.03148  23094309.60548
  20806303.878 6     54212.789 6     40613.98449  20806301.51949
  22986413.651 6    165102.457 6    115366.84447  22986413.72647
  21075903.011 6    190092.875 6    139696.24247  21075898.92147
  23855096.698 4   -370168.465 4   -264463.66448  23855095.83148
  22419593.269 6   -384197.109 6   -286740.44547  22419589.27647
  23442251.355 4   -537816.023 4   -376939.29746  23442249.11646
  21464420.347 6   -259219.555 6   -189707.93449  21464420.22249
 20  5 16  5 18  7.9990000  0  9G01G03G07G08G11G17G22G28G30          0.000489254
  19996564.409 7    -30223.547 7    -22896.73049  19996565.65949
  23093624.378 5   -559338.473 5   -385594.12548  23093627.01548
  20806373.526 6     54577.887 6     40898.47349  20806370.80449
  22986600.222 6    166081.570 6    116129.78947  22986600.27647
  21076124.901 6    191261.012 6    140606.47747  21076121.35547
  23854660.698 4   -372460.004 4   -266249.28547  23854659.74147
  22419155.144 6   -386500.020 6   -288534.91447  22419151.20247
  23441601.644 4   -541232.633 4   -379601.60546  23441598.80846
  21464113.261 6   -260833.293 6   -190965.39549  21464113.63249
 20  5 16  5 18  8.9990000  0  9G01G03G07G08G11G17G22G28G30          0.000488695
  19996535.605 7    -30376.160 7    -23015.64849  19996536.59749
  23092942.636 5   -562923.133 5   -388387.36348  23092944.82348
  20806442.917 6     54943.305 6     41183.21149  20806440.54249
  22986786.331 6    167060.328 6    116892.46547  22986786.20647
  21076346.901 6    192429.082 6    141516.66047  21076343.71847
  23854224.331 4   -374751.691 4   -268035.02048  23854223.76948
  22418717.269 6   -388802.801 6   -290329.28547  22418713.21047
  23440951.183 4   -544649.594 4   -382264.18046  23440948.67546
  21463807.050 6   -262446.676 6   -192222.57849  21463806.37449
 20  5 16  5 18  9.9990000  0  9G01G03G07G08G11G17G22G28G30          0.000488136
  19996507.081 7    -30528.152 7    -23134.08649  19996507.44049
  23092260.308 5   -566507.707 5   -391180.53548  23092263.31248
  20806512.722 6     55309.273 6     41468.37949  20806510.14049
  22986972.355 6    168039.027 6    117655.07447  22986972.80047
  21076569.558 6    193597.414 6    142427.04348  21076566.19448
  23853788.644 4   -377043.293 4   -269820.68448  23853787.60848
  22418278.933 6   -391105.203 6   -292123.35947  22418275.06547
  23440301.206 4   -548066.693 4   -384926.85546  23440298.14046
  21463499.808 6   -264059.480 6   -193479.30149  21463499.50749
 20  5 16  5 18 10.9990000  0  9G01G03G07G08G11G17G22G28G30          0.000487577
  19996478.151 7    -30679.629 7    -23252.12549  19996479.07349
  23091578.261 5   -570092.313 5   -393973.72348  23091580.71048
  20806582.323 6     55675.746 6     41753.93849  20806579.70649
  22987159.058 6    169017.535 6    118417.55147  22987158.81247
  21076792.042 6    194765.879 6    143337.53547  21076788.68747
  23853352.628 4   -379334.852 4   -271606.30948  23853351.43748
  22417840.769 6   -393407.340 6   -293917.23047  22417836.54247
  23439650.370 4   -551483.914 4   -387589.62146  23439648.13646
  21463192.894 6   -265671.785 6   -194735.64549  21463192.86649
 20  5 16  5 18 11.9990000  0  9G01G03G07G08G11G17G22G28G30          0.000487020
  19996449.097 6    -30830.469 6    -23369.66049  19996449.90149
  23090896.120 5   -573676.805 5   -396766.82048  23090898.95648
  20806652.237 6     56042.801 6     42039.95349  20806649.68349
  22987344.792 6    169996.047 6    119180.02747  22987344.52647
  21077014.261 6    195934.582 6    144248.21148  21077010.94048
  23852916.097 4   -381626.375 4   -273391.90248  23852915.58948
  22417403.011 6   -395709.074 6   -295710.78947  22417398.84347
  23439000.597 5   -554901.219 5   -390252.44946  23438997.55446
  21462886.214 6   -267283.484 6   -195991.51649  21462886.16349
 20  5 16  5 18 12.9990000  0  9G01G03G07G08G11G17G22G28G30          0.000486462
  19996420.792 7    -30980.883 7    -23486.86349  19996421.33949
  23090213.972 4   -577261.379 4   -399559.99248  23090216.89748
  20806721.878 6     56410.238 6     42326.27049  20806719.69849
  22987531.034 6    170974.305 6    119942.30147  22987531.11647
  21077236.839 6    197103.359 6    145158.94947  21077233.45247
  23852480.355 4   -383917.922 4   -275177.52147  23852479.53047
  22416964.628 6   -398010.633 6   -297504.20347  22416960.79647
  23438350.894 5   -558318.848 5   -392915.54746  23438346.96846
  21462579.659 6   -268894.723 6   -197247.02349  21462579.41349
 20  5 16  5 18 13.9990000  0  9G01G03G07G08G11G17G22G28G30          0.000485903
  19996392.198 7    -31130.699 7    -23603.60249  19996392.92549
  23089531.823 5   -580845.934 5   -402353.14848  23089534.39448
  20806792.425 6     56778.215 6     42612.99649  20806789.26949
  22987716.933 6    171952.465 6    120704.49247  22987716.91747
  21077458.784 6    198272.316 6    146069.82047  21077455.84347
  23852044.683 4   -386209.431 4   -276963.10948  23852043.40148
  22416527.120 6   -400311.828 6   -299297.34447  22416523.08947
  23437699.878 5   -561736.559 5   -395578.70346  23437697.08946
  21462272.855 6   -270505.430 6   -198502.12149  21462272.95649
 20  5 16  5 18 14.9990000  0  9G01G03G07G08G11G17G22G28G30          0.000485344
  19996363.878 7    -31280.039 7    -23719.97349  19996364.64449
  23088850.011 5   -584430.563 5   -405146.36748  23088852.54248
  20806862.683 6     57146.652 6     42900.09849  20806859.94049
  22987903.495 6    172930.398 6    121466.52047  22987903.55447
  21077681.487 6    199441.387 6    146980.78947  21077678.23747
  23851608.425 4   -388501.039 4   -278748.77348  23851607.31548
  22416089.292 6   -402612.797 6   -301090.30947  22416084.85847
  23437049.511 4   -565154.527 4   -398242.05946  23437046.48346
  21461966.386 6   -272115.676 6   -199756.85549  21461966.40149
 20  5 16  5 18 15.9990000  0  9G01G03G07G08G11G17G22G28G30          0.000484783
  19996335.690 7    -31428.770 7    -23835.86749  19996336.61249
  23088168.190 5   -588015.102 5   -407939.51648  23088170.09348
  20806932.503 6     57515.594 6     43187.58249  20806930.07349
  22988089.175 6    173908.266 6    122228.49247  22988089.40547
  21077904.050 6    200610.648 6    147891.90248  21077900.86648
  23851171.925 4   -390792.493 4   -280534.31648  23851171.00748
  22415650.987 6   -404913.391 6   -302882.98847  22415646.98747
  23436399.026 5   -568572.594 5   -400905.47746  23436395.99946
  21461660.308 6   -273725.340 6   -201011.14849  21461659.76949
 20  5 16  5 18 16.9990000  0  9G01G03G07G08G11G17G22G28G30          0.000484224
  19996307.292 7    -31576.969 7    -23951.35249  19996307.95249
  23087485.800 4   -591599.641 4   -410732.66848  23087488.44448
  20807002.776 6     57885.059 6     43475.47749  20807000.20649
  22988275.151 6    174885.988 6    122990.35947  22988275.54647
  21078127.003 6    201780.074 6    148803.13748  21078123.64048
  23850735.940 4   -393083.965 4   -282319.87948  23850735.22248
  22415213.597 6   -407213.727 6   -304675.45347  22415209.53847
  23435748.151 4   -571990.809 4   -403569.02746  23435745.56946
  21461354.417 6   -275334.480 6   -202265.02349  21461354.23749
 20  5 16  5 18 17.9990000  0  9G01G03G07G08G11G17G22G28G30          0.000483665
  19996279.526 7    -31724.566 7    -24066.35949  19996279.86649
  23086803.433 4   -595184.117 4   -413525.77048  23086806.22648
  20807073.347 6     58255.082 6     43763.81349  20807070.22249
  22988461.511 6    175863.668 6    123752.19147  22988462.07347
  21078349.401 6    202949.723 6    149714.55148  21078346.06948
  23850300.284 4   -395375.348 4   -284105.37948  23850299.18748
  22414776.019 6   -409513.672 6   -306467.61747  22414771.72247
  23435097.698 5   -575409.160 5   -406232.67646  23435094.96046
  21461048.276 6   -276943.059 6   -203518.46149  21461047.82349
 20  5 16  5 18 18.9990000  0  9G01G03G07G08G11G17G22G28G30          0.000483107
  19996251.448 7    -31871.531 7    -24180.87949  19996251.95649
  23086120.784 4   -598768.566 4   -416318.83248  23086124.22648
  20807143.925 6     58625.684 6     44052.59049  20807141.30049
  22988647.347 6    176841.250 6    124513.94147  22988647.52647
  21078572.315 6    204119.598 6    150626.13348  21078568.57748
  23849863.894 4   -397666.625 4   -285890.78948  23849863.05448
  22414338.167 6   -411813.262 6   -308259.50447  22414334.01147
  23434447.245 5   -578827.578 5   -408896.37546  23434444.83546
  21460742.065 6   -278551.016 6   -204771.42249  21460741.81549
 20  5 16  5 18 19.9990000  0  9G01G03G07G08G11G17G22G28G30          0.000482548
  19996223.183 7    -32017.930 7    -24294.95349  19996224.10149
  23085439.690 5   -602352.910 5   -419111.82848  23085442.29648
  20807214.847 6     58996.809 6     44341.77349  20807211.81249
  22988833.323 6    177818.707 6    125275.59847  22988833.64447
  21078794.901 6    205289.691 6    151537.90248  21078791.30448
  23849428.198 4   -399957.859 4   -287676.16848  23849427.06248
  22413901.089 6   -414112.512 6   -310051.12947  22413896.78447
  23433796.675 5   -582246.133 5   -411560.19546  23433794.19046
  21460436.105 6   -280158.410 6   -206023.93449  21460436.40549
 20  5 16  5 18 20.9990000  0  9G01G03G07G08G11G17G22G28G30          0.000481989
  19996195.565 7    -32163.895 7    -24408.69549  19996196.46449
  23084757.011 4   -605937.414 4   -421904.95348  23084759.67148
  20807285.120 6     59368.309 6     44631.25849  20807282.62049
  22989019.776 6    178795.934 6    126037.07847  22989019.52247
  21079017.284 6    206459.797 6    152449.67248  21079014.04248
  23848992.519 4   -402249.164 4   -289461.60448  23848990.63648
  22413463.050 6   -416411.574 6   -311842.60547  22413459.56547
  23433146.284 5   -585665.012 5   -414224.24646  23433143.38646
  21460130.612 6   -281765.402 6   -207276.13349  21460130.54249
 20  5 16  5 18 21.9990000  0  9G01G03G07G08G11G17G22G28G30          0.000481428
  19996168.175 7    -32309.449 7    -24522.11749  19996168.99549
  23084074.878 4   -609521.985 4   -424698.12048  23084077.84348
  20807356.253 6     59740.180 6     44921.02349  20807353.01549
  22989205.183 5    179772.895 5    126798.34847  22989205.48347
  21079240.300 6    207629.953 6    153361.48048  21079236.46048
  23848555.581 4   -404540.648 4   -291247.17248  23848554.63648
  22413025.761 6   -418710.492 6   -313633.96547  22413022.09347
  23432494.831 4   -589084.141 4   -416888.50446  23432492.58946
  21459824.284 6   -283372.008 6   -208528.04349  21459824.09349
 20  5 16  5 18 22.9990000  0  9G01G03G07G08G11G17G22G28G30          0.000480869
  19996140.206 7    -32454.559 7    -24635.18849  19996141.21449
  23083393.019 4   -613106.738 4   -427491.42648  23083395.54248
  20807426.440 6     60112.453 6     45211.10249  20807423.83949
  22989391.175 6    180749.613 6    127559.42647  22989391.36647
  21079462.995 6    208800.164 6    154273.33248  21079459.33148
  23848120.370 4   -406832.164 4   -293032.77048  23848118.71048
  22412588.261 6   -421009.195 6   -315425.15647  22412584.37047
  23431844.745 4   -592503.535 4   -419552.96546  23431842.09346
  21459518.987 6   -284978.172 6   -209779.59449  21459518.96049
 20  5 16  5 18 23.9990000  0  9G01G03G07G08G11G17G22G28G30          0.000480310
  19996112.823 7    -32599.027 7    -24747.76249  19996113.55849
  23082710.972 4   -616691.316 4   -430284.60548  23082713.62848
  20807497.597 6     60485.336 6     45501.66449  20807494.96449
  22989576.886 6    181726.285 6    128320.46547  22989577.38647
  21079685.065 6    209970.625 6    155185.38748  21079681.85148
  23847684.206 4   -409123.566 4   -294818.27748  23847682.78848
  22412151.065 6   -423307.492 6   -317216.04347  22412147.24547
  23431194.120 4   -595923.051 4   -422217.51646  23431191.22246
  21459213.425 6   -286583.734 6   -211030.68449  21459212.89449
 20  5 16  5 18 24.9990000  0  9G01G03G07G08G11G17G22G28G30          0.000479750
  19996085.675 7    -32742.973 7    -24859.93049  19996086.26149
  23082028.331 4   -620275.949 4   -433077.82448  23082031.69048
  20807568.073 6     60858.691 6     45792.58649  20807566.03849
  22989762.511 6    182702.816 6    129081.39547  22989763.27247
  21079907.940 6    211141.250 6    156097.55948  21079905.11248
  23847247.675 4   -411414.988 4   -296603.80548  23847246.53848
  22411713.737 6   -425605.527 6   -319006.72347  22411709.73747
  23430543.339 4   -599342.699 4   -424882.16846  23430540.87046
  21458908.128 6   -288188.805 6   -212281.38349  21458907.87449
 20  5 16  5 18 25.9990000  0  9G01G03G07G08G11G17G22G28G30          0.000479191
  19996058.378 7    -32886.473 7    -24971.75049  19996059.11649
  23081346.737 4   -623860.656 4   -435871.09448  23081349.18748
  20807639.245 6     61232.426 6     46083.80549  20807637.33949
  22989948.370 5    183679.094 5    129842.12947  22989948.74947
  21080130.581 6    212311.906 6    157009.75847  21080127.25747
  23846811.581 4   -413706.488 4   -298389.39148  23846810.21448
  22411276.425 6   -427903.359 6   -320797.24247  22411272.78447
  23429892.737 4   -602762.621 4   -427547.03146  23429890.14446
  21458602.245 6   -289793.426 6   -213531.73849  21458602.33949
 20  5 16  5 18 26.9990000  0  9G01G03G07G08G11G17G22G28G30          0.000478630
  19996031.042 7    -33029.293 7    -25083.03949  19996032.00749
  23080664.667 5   -627445.285 5   -438664.31348  23080667.13648
  20807710.847 6     61606.797 6     46375.52749  20807708.43349
  22990134.628 6    184655.352 6    130602.84447  22990134.42547
  21080353.495 6    213482.852 6    157922.18047  21080350.17947
  23846376.206 4   -415997.820 4   -300174.84448  23846374.34348
  22410839.417 6   -430200.793 6   -322587.44147  22410835.50347
  23429241.323 4   -606182.602 4   -430211.96146  23429238.98746
  21458297.081 6   -291397.418 6   -214781.60249  21458297.62449
 20  5 16  5 18 27.9990000  0  9G01G03G07G08G11G17G22G28G30          0.000478071
  19996004.112 7    -33171.570 7    -25193.89849  19996004.48349
  23079982.081 5   -631029.867 5   -441457.49648  23079984.70248
  20807782.573 6     61981.688 6     46667.64149  20807779.77649
  22990319.847 6    185631.523 6    131363.49247  22990320.11647
  21080576.651 6    214653.992 6    158834.75848  21080573.45248
  23845940.120 4   -418289.086 4   -301960.25048  23845938.18348
  22410402.573 6   -432497.883 6   -324377.37547  22410398.52247
  23428590.565 5   -609602.699 5   -432876.97346  23428588.06946
  21457992.034 6   -293000.855 6   -216031.03149  21457992.15149
 20  5 16  5 18 28.9990000  0  9G01G03G07G08G11G17G22G28G30          0.000477510
  19995977.105 7    -33313.191 7    -25304.25449  19995977.82349
  23079299.964 4   -634614.281 4   -444250.53948  23079302.81248
  20807853.815 6     62357.191 6     46960.24649  20807850.92949
  22990505.964 6    186607.676 6    132124.12947  22990505.92947
  21080799.683 6    215825.398 6    159747.53148  21080796.35848
  23845503.612 4   -420580.266 4   -303745.58648  23845502.21048
  22409965.487 6   -434794.547 6   -326166.98447  22409961.58547
  23427940.128 5   -613022.844 5   -435542.03146  23427937.53046
  21457687.284 6   -294603.664 6   -217279.98449  21457687.04649
 20  5 16  5 18 29.9990000  0  9G01G03G07G08G11G17G22G28G30          0.000476950
  19995950.292 7    -33454.180 7    -25414.12149  19995951.12049
  23078618.386 5   -638198.656 5   -447043.55548  23078620.49148
  20807925.308 6     62733.242 6     47253.26649  20807922.74149
  22990691.565 6    187583.723 6    132884.68447  22990691.57347
  21081022.597 6    216996.984 6    160660.45748  21081018.85848
  23845067.519 4   -422871.340 4   -305530.84048  23845066.42948
  22409528.409 6   -437090.883 6   -327956.33247  22409524.40947
  23427289.456 5   -616443.117 5   -438207.18846  23427286.36246
  21457381.972 6   -296205.879 6   -218528.46149  21457382.57349
 20  5 16  5 18 30.9990000  0  9G01G03G07G08G11G17G22G28G30          0.000476391
  19995923.706 7    -33594.668 7    -25523.59049  19995924.51149
  23077935.644 4   -641783.098 4   -449836.62548  23077938.46048
  20807997.175 6     63109.777 6     47546.66849  20807994.39749
  22990877.183 6    188559.594 6    133645.10547  22990877.60147
  21081245.597 6    218168.734 6    161573.51248  21081242.25348
  23844631.737 4   -425162.438 4   -307316.10548  23844630.37048
  22409091.503 6   -439386.965 6   -329745.49647  22409087.66747
  23426638.198 5   -619863.598 5   -440872.48846  23426635.64746
  21457077.659 6   -297807.629 6   -219776.58249  21457077.49549
 20  5 16  5 18 31.9990000  0  9G01G03G07G08G11G17G22G28G30          0.000475830
  19995896.956 7    -33734.578 7    -25632.61349  19995897.61649
  23077253.800 5   -645367.418 5   -452629.59048  23077256.53048
  20808068.972 6     63486.836 6     47840.48049  20808066.22249
  22991063.370 6    189535.422 6    134405.49247  22991063.67947
  21081468.573 6    219340.699 6    162486.73447  21081464.93347
  23844196.112 4   -427453.444 4   -309101.30148  23844194.39048
  22408654.511 6   -441682.625 6   -331534.31647  22408650.70647
  23425987.269 5   -623284.188 5   -443537.87946  23425984.66346
  21456772.698 6   -299408.770 6   -221024.22349  21456772.96049
 20  5 16  5 18 32.9990000  0  9G01G03G07G08G11G17G22G28G30          0.000475271
  19995870.339 7    -33873.859 7    -25741.14549  19995870.93349
  23076571.589 5   -648951.703 5   -455422.55548  23076574.74948
  20808140.503 6     63864.473 6     48134.73849  20808137.99949
  22991248.589 6    190511.141 6    135165.79747  22991249.08147
  21081691.503 6    220512.875 6    163400.11347  21081688.16347
  23843759.964 5   -429744.426 5   -310886.47748  23843758.34348
  22408217.581 6   -443978.000 6   -333322.91847  22408213.99547
  23425336.175 5   -626704.855 5   -446203.32846  23425333.51946
  21456468.073 6   -301009.332 6   -222271.41449  21456468.07749
 20  5 16  5 18 33.9990000  0  9G01G03G07G08G11G17G22G28G30          0.000474710
  19995843.776 7    -34012.582 7    -25849.24249  19995844.74149
  23075890.097 4   -652535.926 4   -458215.45748  23075892.19048
  20808212.237 6     64242.648 6     48429.42249  20808210.05049
  22991434.425 6    191486.785 6    135926.03147  22991434.79247
  21081914.401 6    221685.246 6    164313.64148  21081911.31948
  23843324.659 4   -432035.331 4   -312671.60448  23843322.91348
  22407780.534 6   -446272.969 6   -335111.20747  22407777.14447
  23424686.019 5   -630125.629 5   -448868.87146  23424682.67146
  21456163.956 6   -302609.332 6   -223518.16849  21456163.77249
 20  5 16  5 18 34.9990000  0  9G01G03G07G08G11G17G22G28G30          0.000474150
  19995817.347 6    -34150.719 6    -25956.87949  19995818.63649
  23075207.519 4   -656120.125 4   -461008.33648  23075210.44448
  20808284.644 6     64621.352 6     48724.51649  20808282.10149
  22991619.753 5    192462.293 5    136686.16847  22991620.30847
  21082137.690 6    222857.801 6    165227.32848  21082134.59348
  23842888.198 4   -434326.109 4   -314456.62548  23842886.72648
  22407344.237 6   -448567.645 6   -336899.27047  22407341.05447
  23424034.972 5   -633546.543 5   -451534.52346  23424031.56246
  21455859.690 6   -304208.797 6   -224764.50449  21455859.74149
 20  5 16  5 18 35.9990000  0  9G01G03G07G08G11G17G22G28G30          0.000473591
  19995791.284 6    -34288.172 6    -26063.98049  19995792.66349
  23074525.323 5   -659704.195 5   -463801.10948  23074528.79248
  20808356.730 6     65000.688 6     49020.10249  20808354.06949
  22991806.167 5    193437.809 5    137446.30547  22991805.73747
  21082360.815 6    224030.648 6    166141.23448  21082357.53448
  23842452.573 4   -436616.859 4   -316241.62548  23842450.73748
  22406907.214 6   -450861.887 6   -338686.99247  22406904.33147
  23423384.480 5   -636967.527 5   -454200.21946  23423380.81546
  21455555.276 6   -305807.578 6   -226010.30549  21455555.08549
 20  5 16  5 18 36.9990000  0  9G01G03G07G08G11G17G22G28G30          0.000473030
  19995765.050 7    -34424.945 7    -26170.56349  19995766.10549
  23073843.745 5   -663288.125 5   -466593.77748  23073846.31948
  20808429.097 6     65380.633 6     49316.16849  20808426.30049
  22991991.190 5    194413.313 5    138206.43447  22991991.27647
  21082584.347 6    225203.781 6    167055.36748  21082580.66348
  23842016.355 4   -438907.375 4   -318026.43848  23842015.00348
  22406471.175 6   -453155.727 6   -340474.39547  22406467.32747
  23422732.972 5   -640388.535 5   -456865.93846  23422729.87046
  21455251.151 6   -307405.703 6   -227255.59849  21455250.86249
 20  5 16  5 18 37.9990000  0  9G01G03G07G08G11G17G22G28G30          0.000472471
  19995739.534 7    -34561.277 7    -26276.79749  19995740.55049
  23073161.440 5   -666872.141 5   -469386.52048  23073164.21848
  20808501.933 6     65761.000 6     49612.55149  20808499.25349
  22992176.980 5    195388.605 5    138966.39847  22992176.96047
  21082807.503 6    226376.996 6    167969.55948  21082804.11648
  23841581.003 4   -441197.988 4   -319811.32848  23841579.28848
  22406035.097 6   -455449.328 6   -342261.61347  22406031.47247
  23422082.503 5   -643809.781 5   -459531.84046  23422078.89446
  21454946.987 6   -309003.406 6   -228500.56349  21454946.96049
 20  5 16  5 18 38.9990000  0  9G01G03G07G08G11G17G22G28G30          0.000471910
  19995713.644 7    -34697.000 7    -26382.55149  19995714.52649
  23072479.464 5   -670456.066 5   -472179.18048  23072482.12848
  20808574.042 6     66141.938 6     49909.38349  20808571.75749
  22992362.276 5    196363.832 5    139726.32047  22992362.66747
  21083030.956 6    227550.449 6    168883.93848  21083027.55048
  23841144.542 4   -443488.508 4   -321596.15248  23841143.02648
  22405598.355 6   -457742.551 6   -344048.54347  22405595.11647
  23421431.190 5   -647231.125 5   -462197.84046  23421427.91746
  21454643.089 6   -310600.516 6   -229745.06649  21454642.74949
 20  5 16  5 18 39.9990000  0  9G01G03G07G08G11G17G22G28G30          0.000471350
  19995688.261 7    -34832.227 7    -26487.92649  19995688.94849
  23071797.800 5   -674040.051 5   -474971.89848  23071799.87048
  20808647.230 6     66523.293 6     50206.54749  20808643.94449
  22992547.573 6    197338.820 6    140486.04747  22992548.47647
  21083254.331 6    228723.969 6    169798.36348  21083250.96448
  23840709.745 4   -445779.070 4   -323381.00848  23840707.29248
  22405162.167 6   -460035.555 6   -345835.29747  22405158.83147
  23420779.855 5   -650652.684 5   -464863.99246  23420776.76946
  21454339.206 6   -312197.164 6   -230989.20349  21454339.22649
 20  5 16  5 18 40.9990000  0  9G01G03G07G08G11G17G22G28G30          0.000470789
  19995662.019 7    -34967.055 7    -26592.98449  19995663.40949
  23071115.909 5   -677624.176 5   -477764.72748  23071118.12048
  20808719.409 6     66905.027 6     50504.00049  20808716.89749
  22992733.019 6    198313.563 6    141245.58647  22992733.51947
  21083477.620 6    229897.512 6    170712.82048  21083474.24948
  23840272.972 4   -448069.766 4   -325165.96148  23840271.39048
  22404725.589 6   -462328.383 6   -347621.92247  22404722.33147
  23420128.862 5   -654074.551 5   -467530.37546  23420125.81946
  21454035.159 6   -313793.410 6   -232233.03949  21454035.33949
 20  5 16  5 18 41.9990000  0  9G01G03G07G08G11G17G22G28G30          0.000470228
  19995636.394 7    -35101.328 7    -26697.61749  19995637.65149
  23070433.855 5   -681208.254 5   -480557.51648  23070436.55848
  20808792.323 6     67287.270 6     50801.84849  20808789.54649
  22992918.753 6    199288.172 6    142005.02747  22992919.08547
  21083700.464 6    231071.223 6    171627.39548  21083697.39748
  23839836.839 4   -450360.410 4   -326950.88748  23839835.66348
  22404289.003 6   -464620.914 6   -349408.30947  22404285.96847
  23419476.878 4   -657496.609 4   -470196.90646  23419474.44046
  21453731.222 6   -315389.160 6   -233476.47749  21453731.58949
 20  5 16  5 18 42.9990000  0  9G01G03G07G08G11G17G22G28G30          0.000469669
  19995611.105 7    -35234.973 7    -26801.75449  19995612.06549
  23069750.925 4   -684792.297 4   -483350.27348  23069754.08948
  20808865.042 6     67670.078 6     51100.14149  20808862.60149
  22993104.706 6    200262.758 6    142764.44147  22993105.10547
  21083924.058 6    232245.184 6    172542.17248  21083920.87048
  23839401.222 4   -452650.977 4   -328735.73848  23839399.73348
  22403853.105 6   -466913.047 6   -351194.38747  22403849.82747
  23418826.331 5   -660918.719 5   -472863.49646  23418822.90146
  21453428.167 6   -316984.266 6   -234719.41449  21453427.92949
 20  5 16  5 18 43.9990000  0  9G01G03G07G08G11G17G22G28G30          0.000469109
  19995585.933 7    -35368.063 7    -26905.46549  19995586.85149
  23069068.987 5   -688376.281 5   -486142.98848  23069071.85148
  20808938.011 6     68053.395 6     51398.82449  20808935.26549
  22993289.237 5    201237.230 5    143523.77747  22993290.02247
  21084147.425 6    233419.328 6    173457.08648  21084144.32348
  23838965.315 4   -454941.480 4   -330520.53948  23838964.03848
  22403417.214 6   -469204.871 6   -352980.21947  22403413.69047
  23418175.339 5   -664340.945 5   -475530.16446  23418172.12046
  21453125.058 6   -318578.855 6   -235961.95749  21453124.96449
 20  5 16  5 18 44.9990000  0  9G01G03G07G08G11G17G22G28G30          0.000468548
  19995560.714 7    -35500.586 7    -27008.73049  19995561.76549
  23068387.690 4   -691960.234 4   -488935.67248  23068389.80848
  20809010.753 6     68437.238 6     51697.92649  20809008.41749
  22993475.167 5    202211.520 5    144282.96147  22993475.71447
  21084370.894 6    234593.652 6    174372.14548  21084367.69448
  23838529.245 4   -457231.965 4   -332305.33648  23838528.18348
  22402980.940 6   -471496.328 6   -354765.76647  22402977.43347
  23417523.878 5   -667763.363 5   -478196.98046  23417520.78046
  21452821.315 6   -320172.867 6   -237204.03949  21452821.29649
 20  5 16  5 18 45.9990000  0  9G01G03G07G08G11G17G22G28G30          0.000467987
  19995535.784 7    -35632.633 7    -27111.62549  19995536.69049
  23067705.362 4   -695544.273 4   -491728.41848  23067707.54248
  20809083.995 6     68821.527 6     51997.37149  20809081.87049
  22993660.761 5    203185.645 5    145042.02047  22993660.60547
  21084594.440 6    235768.031 6    175287.24648  21084591.09748
  23838093.214 4   -459522.500 4   -334090.16448  23838092.25748
  22402545.183 6   -473787.598 6   -356551.17247  22402541.34347
  23416872.503 5   -671185.941 5   -480863.93446  23416869.09346
  21452518.120 6   -321766.441 6   -238445.78949  21452518.17549
 20  5 16  5 18 46.9990000  0  9G01G03G07G08G11G17G22G28G30          0.000467426
  19995510.612 6    -35764.109 6    -27214.07449  19995511.36249
  23067024.058 5   -699128.262 5   -494521.13748  23067025.98048
  20809156.948 6     69206.332 6     52297.21549  20809154.88649
  22993846.003 5    204159.656 5    145800.98447  22993846.55847
  21084817.940 6    236942.613 6    176202.50448  21084814.92548
  23837657.300 4   -461812.980 4   -335874.94948  23837656.71048
  22402108.964 6   -476078.543 6   -358336.32847  22402105.58547
  23416220.933 5   -674608.707 5   -483531.03146  23416218.15546
  21452215.237 6   -323359.453 6   -239687.09849  21452215.39449
 20  5 16  5 18 47.9990000  0  9G01G03G07G08G11G17G22G28G30          0.000466866
  19995485.651 6    -35895.098 6    -27316.13749  19995486.29249
  23066340.980 5   -702712.301 5   -497313.89548  23066343.84348
  20809230.870 6     69591.586 6     52597.41449  20809228.43349
  22994031.073 5    205133.477 5    146559.79747  22994031.62847
  21085041.675 6    238117.316 6    177117.84848  21085038.52648
  23837220.909 4   -464103.516 4   -337659.77748  23837220.50348
  22401673.065 6   -478369.227 6   -360121.27747  22401669.87847
  23415570.261 5   -678031.672 5   -486198.27046  23415566.81546
  21451911.792 6   -324952.008 6   -240928.05149  21451912.05849
 20  5 16  5 18 48.9990000  0  9G01G03G07G08G11G17G22G28G30          0.000466305
  19995460.769 7    -36025.477 7    -27417.73449  19995462.21449
  23065659.230 5   -706296.250 5   -500106.57848  23065661.85148
  20809304.019 6     69977.379 6     52898.02749  20809301.26949
  22994216.636 5    206107.223 5    147318.55547  22994217.04647
  21085265.308 6    239292.246 6    178033.37548  21085262.36648
  23836785.245 4   -466393.934 4   -339444.52048  23836784.53048
  22401237.745 6   -480659.559 6   -361905.95747  22401234.26547
  23414918.440 5   -681454.734 5   -488865.59446  23414915.31946
  21451609.511 6   -326543.973 6   -242168.54749  21451609.15949
 20  5 16  5 18 49.9990000  0  9G01G03G07G08G11G17G22G28G30          0.000465744
  19995436.089 7    -36155.266 7    -27518.87149  19995437.06249
  23064977.503 5   -709880.121 5   -502899.20748  23064979.85148
  20809377.214 6     70363.750 6     53199.09449  20809374.98049
  22994402.331 5    207080.922 5    148077.28147  22994402.39447
  21085488.995 6    240467.379 6    178949.06348  21085485.83948
  23836349.651 4   -468684.258 4   -341229.18048  23836348.78048
  22400801.503 6   -482949.516 6   -363690.33647  22400798.21447
  23414266.878 5   -684877.875 5   -491532.97746  23414264.10546
  21451306.378 6   -328135.359 6   -243408.58649  21451306.21849
 20  5 16  5 18 50.9990000  0  9G01G03G07G08G11G17G22G28G30          0.000465183
  19995411.612 7    -36284.445 7    -27619.53549  19995413.21449
  23064295.605 4   -713463.984 4   -505691.82848  23064297.81248
  20809450.776 6     70750.664 6     53500.58249  20809448.48749
  22994587.097 5    208054.508 5    148835.92247  22994587.30047
  21085712.276 6    241642.715 6    179864.91048  21085709.06248
  23835914.167 4   -470974.566 4   -343013.83248  23835912.78048
  22400365.933 6   -485239.121 6   -365474.43847  22400362.19047
  23413615.198 5   -688301.137 5   -494200.44546  23413612.37846
  21451003.183 6   -329726.137 6   -244648.14849  21451003.35149
 20  5 16  5 18 51.9990000  0  9G01G03G07G08G11G17G22G28G30          0.000464621
  19995387.198 7    -36413.113 7    -27719.79349  19995388.15949
  23063613.612 4   -717047.809 4   -508484.41448  23063616.14748
  20809524.597 6     71138.047 6     53802.43849  20809521.99149
  22994772.276 5    209027.934 5    149594.43047  22994772.75347
  21085936.058 6    242818.211 6    180780.88348  21085933.03848
  23835478.128 4   -473264.875 4   -344798.48848  23835477.00748
  22399930.503 6   -487528.438 6   -367258.32047  22399926.76947
  23412963.761 5   -691724.609 5   -496868.09046  23412960.78046
  21450701.003 6   -331316.438 6   -245887.34849  21450700.61649
 20  5 16  5 18 52.9990000  0  9G01G03G07G08G11G17G22G28G30          0.000464060
  19995362.683 7    -36541.145 7    -27819.55949  19995363.93349
  23062932.276 4   -720631.590 4   -511276.96948  23062933.91748
  20809598.159 6     71526.027 6     54104.75849  20809596.07749
  22994956.956 5    210001.328 5    150352.91847  22994957.66347
  21086159.776 6    243993.953 6    181697.03948  21086156.76148
  23835042.597 4   -475555.059 4   -346583.04748  23835041.01548
  22399495.190 6   -489817.332 6   -369041.87547  22399491.36647
  23412312.550 5   -695148.156 5   -499535.78946  23412309.62046
  21450398.534 6   -332906.133 6   -247126.06649  21450398.53049
 20  5 16  5 18 53.9990000  0  9G01G03G07G08G11G17G22G28G30          0.000463499
  19995338.245 7    -36668.551 7    -27918.83649  19995339.21049
  23062249.800 4   -724215.238 4   -514069.41448  23062252.04248
  20809672.589 6     71914.578 6     54407.52049  20809670.16349
  22995142.058 5    210974.633 5    151111.34047  22995142.74147
  21086383.753 6    245169.910 6    182613.37148  21086380.36248
  23834606.870 4   -477845.121 4   -348367.52048  23834605.53048
  22399059.167 6   -492105.902 6   -370825.18047  22399055.42147
  23411660.948 5   -698571.789 5   -502203.54746  23411658.00746
  21450095.862 6   -334495.211 6   -248364.31349  21450096.33949
 20  5 16  5 18 54.9990000  0  9G01G03G07G08G11G17G22G28G30          0.000462938
  19995314.401 7    -36795.352 7    -28017.64849  19995315.51549
  23061567.800 5   -727798.801 5   -516861.79348  23061570.15148
  20809746.605 6     72303.684 6     54710.71949  20809743.77649
  22995327.159 5    211947.871 5    151869.70747  22995328.44847
  21086607.565 6    246346.098 6    183529.87948  21086604.26948
  23834170.940 4   -480135.082 4   -350151.90648  23834169.38248
  22398624.058 6   -494394.098 6   -372608.19147  22398620.52647
  23411009.370 5   -701995.477 5   -504871.35046  23411006.89746
  21449793.628 6   -336083.672 6   -249602.08249  21449793.60849
 20  5 16  5 18 55.9990000  0  9G01G03G07G08G11G17G22G28G30          0.000462378
  19995290.089 7    -36921.430 7    -28115.89149  19995291.35549
  23060886.136 5   -731382.238 5   -519654.08648  23060888.10148
  20809820.948 6     72693.457 6     55014.43849  20809818.37049
  22995512.839 5    212921.133 5    152628.09447  22995513.75347
  21086831.464 6    247522.617 6    184446.64848  21086827.97248
  23833735.355 4   -482424.891 4   -351936.17248  23833734.12048
  22398188.667 6   -496681.797 6   -374390.80947  22398184.97247
  23410358.284 5   -705419.195 5   -507539.18446  23410355.22246
  21449491.440 6   -337671.469 6   -250839.32849  21449491.33149
 20  5 16  5 18 56.9990000  0  9G01G03G07G08G11G17G22G28G30          0.000461817
  19995266.542 7    -37046.895 7    -28213.65249  19995267.55849
  23060204.550 5   -734965.535 5   -522446.26248  23060206.04248
  20809895.026 6     73083.844 6     55318.63749  20809892.65949
  22995698.019 5    213894.359 5    153386.45747  22995698.49547
  21087055.081 6    248699.391 6    185363.61348  21087052.03048
  23833299.230 4   -484714.523 4   -353720.30548  23833298.68348
  22397753.269 6   -498969.133 6   -376173.14547  22397749.60547
  23409706.659 5   -708843.004 5   -510207.09846  23409703.72646
  21449189.464 6   -339258.656 6   -252076.09449  21449189.27649
 20  5 16  5 18 57.9990000  0  9G01G03G07G08G11G17G22G28G30          0.000461256
  19995242.480 7    -37171.809 7    -28310.98449  19995243.48349
  23059522.128 5   -738548.828 5   -525238.43848  23059524.40148
  20809969.675 6     73474.691 6     55623.19149  20809966.89749
  22995883.519 5    214867.426 5    154144.68047  22995883.75747
  21087279.315 6    249876.297 6    186280.68048  21087276.19048
  23832864.292 4   -487004.207 4   -355504.47348  23832862.78448
  22397317.980 6   -501256.160 6   -377955.25047  22397314.55847
  23409055.112 5   -712266.977 5   -512875.12946  23409052.12846
  21448887.886 6   -340845.324 6   -253312.45749  21448887.81949
 20  5 16  5 18 58.9990000  0  9G01G03G07G08G11G17G22G28G30          0.000460693
  19995219.276 7    -37296.117 7    -28407.85249  19995220.05849
  23058841.167 5   -742132.078 5   -528030.57848  23058842.27248
  20810043.667 6     73866.117 6     55928.20349  20810041.12049
  22996068.690 5    215840.469 5    154902.89147  22996069.26947
  21087503.136 6    251053.441 6    187197.93448  21087500.23048
  23832428.800 4   -489293.766 4   -357288.54548  23832426.87848
  22396882.730 6   -503542.805 6   -379737.04747  22396879.38647
  23408403.261 5   -715690.984 5   -515543.18046  23408400.04246
  21448586.073 6   -342431.371 6   -254548.34049  21448585.82749
 20  5 16  5 18 59.9990000  0  9G01G03G07G08G11G17G22G28G30          0.000460133
  19995195.808 7    -37419.781 7    -28504.21149  19995196.62449
  23058158.433 5   -745715.203 5   -530822.61748  23058160.32748
  20810118.487 6     74258.137 6     56233.66449  20810115.59349
  22996253.737 5    216813.457 5    155661.05947  22996254.39447
  21087727.284 6    252230.824 6    188115.36748  21087724.01548
  23831992.714 4   -491583.230 4   -359072.53948  23831991.53048
  22396447.948 6   -505829.063 6   -381518.54347  22396443.97247
  23407752.034 5   -719115.066 5   -518211.30146  23407749.17946
  21448284.206 6   -344016.816 6   -255783.75049  21448284.03449
 20  5 16  5 19  0.9990000  0  9G01G03G07G08G11G17G22G28G30          0.000459572
  19995172.276 7    -37542.980 7    -28600.21149  19995173.12849
  23057476.940 4   -749298.383 4   -533614.70748  23057478.79648
  20810193.269 6     74650.563 6     56539.44949  20810190.77249
  22996438.901 5    217786.215 5    156419.05547  22996439.36647
  21087951.261 6    253408.297 6    189032.88348  21087948.05448
  23831556.769 4   -493872.773 4   -360856.59848  23831555.96048
  22396012.878 6   -508115.094 6   -383299.87547  22396009.17147
  23407100.667 5   -722539.438 5   -520879.63346  23407097.39046
  21447982.667 6   -345601.820 6   -257018.82049  21447982.47249
 20  5 16  5 19  1.9990000  0  9G01G03G07G08G11G17G22G28G30          0.000459011
  19995148.659 7    -37665.625 7    -28695.78149  19995149.56249
  23056795.190 5   -752881.539 5   -536406.78148  23056796.81548
  20810267.706 6     75043.520 6     56845.65249  20810265.15549
  22996623.839 5    218758.844 5    157176.94547  22996624.42147
  21088175.245 6    254585.934 6    189950.52348  21088172.33948
  23831120.745 4   -496162.309 4   -362640.64848  23831119.87848
  22395577.909 6   -510400.813 6   -385080.94547  22395574.37847
  23406449.214 5   -725963.918 5   -523548.06646  23406445.55446
  21447681.425 6   -347186.285 6   -258253.47349  21447681.04249
 20  5 16  5 19  2.9990000  0  9G01G03G07G08G11G17G22G28G30          0.000458448
  19995125.659 7    -37787.867 7    -28791.03149  19995126.58549
  23056112.534 5   -756464.855 5   -539198.96948  23056114.98048
  20810343.058 6     75436.824 6     57152.12549  20810340.08949
  22996809.042 5    219731.191 5    157934.62147  22996809.15547
  21088399.331 6    255763.594 6    190868.18048  21088396.24948
  23830686.245 4   -498451.906 4   -364424.74647  23830684.35547
  22395142.769 6   -512686.355 6   -386861.89147  22395139.67147
  23405797.034 5   -729388.715 5   -526216.73446  23405794.19046
  21447379.714 6   -348770.340 6   -259487.80549  21447379.57349
 20  5 16  5 19  3.9990000  0  9G01G03G07G08G11G17G22G28G30          0.000457888
  19995102.261 7    -37909.535 7    -28885.84049  19995102.89749
  23055430.386 4   -760048.066 4   -541991.08248  23055433.39448
  20810417.683 6     75830.668 6     57459.01249  20810415.10549
  22996993.800 5    220703.465 5    158692.23847  22996994.60847
  21088623.456 6    256941.469 6    191786.00048  21088620.75348
  23830249.901 4   -500741.402 4   -366208.76248  23830248.57748
  22394707.487 6   -514971.586 6   -388642.59047  22394704.34747
  23405145.230 5   -732813.602 5   -528885.48846  23405142.33146
  21447078.581 6   -350353.867 6   -260721.71949  21447078.20649
 20  5 16  5 19  4.9990000  0  9G01G03G07G08G11G17G22G28G30          0.000457327
  19995079.456 7    -38030.504 7    -28980.09849  19995080.11649
  23054749.339 5   -763631.188 5   -544783.12148  23054751.20648
  20810492.550 6     76225.145 6     57766.39149  20810489.80449
  22997179.065 6    221675.730 6    159449.84847  22997179.29647
  21088847.730 6    258119.633 6    192704.05148  21088844.55048
  23829814.144 4   -503030.852 4   -367992.75448  23829813.25348
  22394273.089 6   -517256.328 6   -390422.91047  22394269.60547
  23404493.300 5   -736238.570 5   -531554.30146  23404490.49546
  21446777.222 6   -351936.703 6   -261955.10249  21446777.21049
 20  5 16  5 19  5.9990000  0  9G01G03G07G08G11G17G22G28G30          0.000456764
  19995056.362 7    -38150.922 7    -29073.93449  19995057.15949
  23054067.917 5   -767214.266 5   -547575.12548  23054069.50348
  20810567.878 6     76620.164 6     58074.19549  20810565.06949
  22997364.050 5    222647.918 5    160207.39547  22997364.22247
  21089071.847 6    259297.992 6    193622.25847  21089068.76147
  23829378.144 4   -505320.176 4   -369776.64148  23829377.47648
  22393838.722 6   -519540.750 6   -392202.98047  22393835.24947
  23403841.870 5   -739663.633 5   -534223.16846  23403838.88646
  21446475.823 6   -353518.973 6   -263188.03549  21446476.10849
 20  5 16  5 19  6.9990000  0  9G01G03G07G08G11G17G22G28G30          0.000456203
  19995033.620 7    -38270.625 7    -29167.20749  19995034.36249
  23053385.706 5   -770797.156 5   -550366.98448  23053387.58548
  20810642.972 6     77015.785 6     58382.47349  20810640.32749
  22997548.847 5    223620.098 5    160964.93447  22997549.56947
  21089296.206 6    260476.641 6    194540.68448  21089293.41748
  23828942.659 4   -507609.359 4   -371560.41848  23828941.78448
  22393403.839 6   -521824.758 6   -393982.72347  22393400.69447
  23403189.815 5   -743088.738 5   -536892.08246  23403186.94846
  21446175.081 6   -355100.586 6   -264420.46149  21446174.87849
 20  5 16  5 19  7.9990000  0  9G01G03G07G08G11G17G22G28G30          0.000455643
  19995010.870 7    -38389.930 7    -29260.17649  19995011.83149
  23052703.565 5   -774380.207 5   -553158.97748  23052705.68748
  20810718.480 6     77411.813 6     58691.06649  20810716.25349
  22997734.190 5    224592.020 5    161722.27747  22997734.48047
  21089520.815 6    261655.309 6    195459.12147  21089517.67147
  23828507.534 4   -509898.641 4   -373344.27048  23828505.89448
  22392969.261 6   -524108.555 6   -395762.30547  22392965.82347
  23402537.730 5   -746514.145 5   -539561.23046  23402535.16746
  21445874.151 6   -356681.805 6   -265652.57849  21445874.24149
 20  5 16  5 19  8.9990000  0  9G01G03G07G08G11G17G22G28G30          0.000455080
  19994988.292 7    -38508.762 7    -29352.77349  19994988.99949
  23052022.128 5   -777963.309 5   -555950.99248  23052023.69048
  20810794.487 6     77808.227 6     58999.96149  20810791.81949
  22997919.190 5    225563.734 5    162479.45347  22997919.06547
  21089745.081 6    262834.086 6    196377.65248  21089741.99948
  23828072.237 4   -512187.961 4   -375128.16448  23828070.33148
  22392534.823 6   -526392.145 6   -397541.72747  22392531.35547
  23401885.972 5   -749939.773 5   -542230.55146  23401883.19046
  21445573.378 6   -358262.578 6   -266884.35249  21445573.13249
 20  5 16  5 19  9.9990000  0  9G01G03G07G08G11G17G22G28G30          0.000454519
  19994965.917 7    -38627.070 7    -29444.96149  19994966.63649
  23051339.651 5   -781546.375 5   -558742.99248  23051342.10548
  20810869.519 6     78205.191 6     59309.28149  20810866.67549
  22998103.292 5    226535.305 5    163236.52347  22998103.83947
  21089968.964 6    264013.004 6    197296.28548  21089966.18748
  23827635.636 4   -514477.297 4   -376912.05148  23827634.78448
  22392100.230 6   -528675.422 6   -399320.90247  22392097.00347
  23401234.362 5   -753365.574 5   -544899.99646  23401230.91746
  21445272.440 6   -359842.797 6   -268115.69549  21445272.64749
 20  5 16  5 19 10.9990000  0  9G01G03G07G08G11G17G22G28G30          0.000453957
  19994943.667 7    -38744.699 7    -29536.62549  19994944.49149
  23050658.480 5   -785129.297 5   -561534.87948  23050660.10548
  20810945.284 6     78602.711 6     59619.03949  20810942.68349
  22998288.823 5    227506.875 5    163993.59447  22998289.22247
  21090193.534 6    265192.195 6    198215.13348  21090190.78448
  23827200.355 5   -516766.512 5   -378695.85248  23827199.40548
  22391665.511 6   -530958.273 6   -401099.74647  22391662.02647
  23400582.839 5   -756791.434 5   -547569.50446  23400579.45646
  21444971.612 6   -361422.426 6   -269346.57849  21444971.58149
 20  5 16  5 19 11.9990000  0  9G01G03G07G08G11G17G22G28G30          0.000453396
  19994921.175 7    -38861.758 7    -29627.83649  19994922.13649
  23049976.792 5   -788712.227 5   -564326.77048  23049978.85148
  20811021.339 6     79000.766 6     59929.20349  20811018.26149
  22998473.425 5    228478.340 5    164750.57447  22998473.69047
  21090418.355 6    266371.547 6    199134.10947  21090415.21447
  23826765.089 5   -519055.652 5   -380479.59848  23826763.70248
  22391231.480 6   -533240.801 6   -402878.34447  22391227.87447
  23399929.815 5   -760217.438 5   -550239.12146  23399927.20246
  21444671.308 6   -363001.477 6   -270577.00449  21444671.01549
 20  5 16  5 19 12.9990000  0  9G01G03G07G08G11G17G22G28G30          0.000452833
  19994899.230 7    -38978.344 7    -29718.68449  19994899.47249
  23049293.769 5   -792295.203 5   -567118.68848  23049296.41348
  20811096.901 6     79399.250 6     60239.71549  20811093.95249
  22998657.230 5    229449.605 5    165507.39847  22998658.50747
  21090642.651 6    267551.023 6    200053.17247  21090639.58147
  23826329.761 5   -521344.883 5   -382263.41448  23826328.09348
  22390797.089 6   -535523.090 6   -404656.74647  22390793.45647
  23399278.331 5   -763643.641 5   -552908.88346  23399275.23346
  21444370.886 6   -364580.078 6   -271807.08649  21444371.11649
 20  5 16  5 19 13.9990000  0  9G01G03G07G08G11G17G22G28G30          0.000452271
  19994876.964 7    -39094.309 7    -29809.04349  19994877.89749
  23048612.511 5   -795878.051 5   -569910.52048  23048614.44848
  20811172.823 6     79798.359 6     60550.71149  20811170.16349
  22998842.550 5    230420.840 5    166264.19947  22998843.67947
  21090867.128 6    268730.746 6    200972.43847  21090863.81547
  23825894.089 5   -523633.914 5   -384047.07848  23825892.23048
  22390362.722 6   -537804.949 6   -406434.81647  22390359.67547
  23398626.597 5   -767069.906 5   -555578.69946  23398623.25746
  21444070.589 6   -366158.012 6   -273036.64549  21444070.48349
 20  5 16  5 19 14.9990000  0  9G01G03G07G08G11G17G22G28G30          0.000451710
  19994855.097 7    -39209.695 7    -29898.95749  19994855.79649
  23047930.901 5   -799460.906 5   -572702.35248  23047932.76948
  20811248.769 6     80197.953 6     60862.08649  20811246.40949
  22999028.394 5    231391.961 5    167020.91847  22999028.44047
  21091091.644 6    269910.633 6    201891.82848  21091088.83548
  23825458.386 5   -525922.980 5   -385830.77048  23825456.67548
  22389928.870 6   -540086.500 6   -408212.64847  22389925.31547
  23397974.042 5   -770496.324 5   -558248.63746  23397971.55446
  21443770.745 6   -367735.422 6   -274265.79349  21443770.87849
 20  5 16  5 19 15.9990000  0  9G01G03G07G08G11G17G22G28G30          0.000451147
  19994832.956 7    -39324.496 7    -29988.41049  19994833.93749
  23047250.058 5   -803043.668 5   -575494.11348  23047251.04648
  20811325.081 6     80598.102 6     61173.89149  20811322.49949
  22999212.386 5    232362.965 5    167777.54747  22999213.30447
  21091316.542 6    271090.723 6    202811.37948  21091313.33548
  23825022.355 4   -528211.969 4   -387614.39848  23825021.37448
  22389494.784 6   -542367.723 6   -409990.22747  22389491.33547
  23397322.128 5   -773922.859 5   -560918.66046  23397319.10546
  21443470.605 6   -369312.293 6   -275494.52749  21443470.55049
 20  5 16  5 19 16.9990000  0  9G01G03G07G08G11G17G22G28G30          0.000450584
  19994811.128 7    -39438.953 7    -30077.60249  19994812.49949
  23046567.683 5   -806626.598 5   -578286.00848  23046569.05448
  20811400.917 6     80998.551 6     61485.92649  20811398.67149
  22999397.362 5    233333.652 5    168533.92247  22999397.90947
  21091540.581 6    272270.770 6    203730.89848  21091537.65948
  23824586.917 5   -530501.086 5   -389398.12148  23824585.61248
  22389060.558 6   -544648.828 6   -411767.71147  22389057.45647
  23396670.597 5   -777349.773 5   -563588.98446  23396666.96846
  21443170.722 6   -370888.797 6   -276722.96949  21443170.71449
 20  5 16  5 19 17.9990000  0  9G01G03G07G08G11G17G22G28G30          0.000450024
  19994789.355 7    -39552.730 7    -30166.25849  19994790.46449
  23045885.823 5   -810209.441 5   -581077.83648  23045887.05448
  20811477.300 6     81399.605 6     61798.43049  20811474.83549
  22999581.855 5    234304.313 5    169290.28147  22999582.04647
  21091765.167 6    273451.113 6    204650.64147  21091762.54647
  23824150.925 4   -532790.117 4   -391181.77748  23824149.89748
  22388626.276 6   -546929.492 6   -413544.85247  22388623.01147
  23396018.394 5   -780776.668 5   -566259.30546  23396014.78446
  21442870.737 6   -372464.664 6   -277950.91849  21442870.51949
 20  5 16  5 19 18.9990000  0  9G01G03G07G08G11G17G22G28G30          0.000449461
  19994767.683 7    -39666.094 7    -30254.59449  19994768.73749
  23045203.956 5   -813792.352 5   -583869.70748  23045205.33148
  20811553.815 6     81801.086 6     62111.27049  20811551.26949
  22999766.644 5    235274.727 5    170046.44147  22999767.08147
  21091990.058 6    274631.480 6    205570.41048  21091986.70648
  23823715.269 4   -535079.211 4   -392965.48448  23823714.59348
  22388192.167 6   -549209.961 6   -415321.84447  22388189.03847
  23395365.597 5   -784203.883 5   -568929.85946  23395362.84746
  21442570.784 6   -374040.109 6   -279178.53549  21442570.94849
 20  5 16  5 19 19.9990000  0  9G01G03G07G08G11G17G22G28G30          0.000448898
  19994746.737 7    -39778.672 7    -30342.31649  19994747.26549
  23044521.753 5   -817375.020 5   -586661.39548  23044523.65948
  20811630.503 6     82203.250 6     62424.64849  20811628.01949
  22999951.159 5    236245.203 5    170802.66047  22999951.93747
  21092214.495 6    275812.219 6    206490.46948  21092211.67948
  23823280.487 4   -537368.074 4   -394749.01648  23823278.72248
  22387758.456 6   -551489.902 6   -417098.42247  22387755.20647
  23394714.058 5   -787631.035 5   -571600.36746  23394710.66746
  21442271.026 6   -375614.832 6   -280405.59049  21442271.09749
 20  5 16  5 19 20.9990000  0  9G01G03G07G08G11G17G22G28G30          0.000448336
  19994725.519 7    -39890.648 7    -30429.57049  19994726.26549
  23043840.620 5   -820957.617 5   -589453.03148  23043842.31548
  20811706.948 6     82605.965 6     62738.44949  20811704.63649
  23000136.159 5    237215.598 5    171558.80947  23000136.39747
  21092439.198 6    276993.199 6    207410.70748  21092436.35848
  23822844.737 4   -539656.852 4   -396532.48048  23822843.19848
  22387324.519 6   -553769.469 6   -418874.70347  22387321.51947
  23394061.565 5   -791058.277 5   -574270.93846  23394058.34746
  21441971.308 6   -377188.926 6   -281632.16049  21441971.45649
 20  5 16  5 19 21.9990000  0  9G01G03G07G08G11G17G22G28G30          0.000447773
  19994704.362 7    -40001.969 7    -30516.32049  19994705.12849
  23043159.245 5   -824540.117 5   -592244.58648  23043160.58148
  20811783.581 6     83009.316 6     63052.74249  20811781.42149
  23000321.144 5    238186.008 5    172314.96947  23000321.05847
  21092663.784 6    278174.449 6    208331.16048  21092661.02248
  23822408.667 4   -541945.492 4   -398315.83648  23822407.75348
  22386891.019 6   -556048.613 6   -420650.66847  22386887.62447
  23393408.870 5   -794485.555 5   -576941.54746  23393406.08146
  21441672.394 6   -378762.410 6   -282858.25449  21441671.93349
 20  5 16  5 19 22.9990000  0  9G01G03G07G08G11G17G22G28G30          0.000447212
  19994683.026 7    -40112.668 7    -30602.57849  19994683.63249
  23042477.128 5   -828122.453 5   -595036.02048  23042478.22248
  20811860.136 6     83413.246 6     63367.48849  20811858.45249
  23000505.300 5    239156.344 5    173071.07447  23000505.83147
  21092889.167 6    279355.941 6    209251.80547  21092886.21047
  23821973.440 4   -544234.020 4   -400099.10248  23821972.15548
  22386457.761 6   -558327.363 6   -422426.31347  22386454.08147
  23392757.011 5   -797912.887 5   -579612.19546  23392754.01546
  21441372.972 6   -380335.242 6   -284083.83249  21441372.75349
 20  5 16  5 19 23.9990000  0  9G01G03G07G08G11G17G22G28G30          0.000446650
  19994661.909 7    -40222.746 7    -30688.34849  19994663.17949
  23041795.644 5   -831704.754 5   -597827.41848  23041797.08548
  20811937.659 6     83817.758 6     63682.69949  20811935.15949
  23000689.769 5    240126.664 5    173827.16847  23000690.28047
  21093113.839 6    280537.672 6    210172.63347  21093111.05447
  23821538.222 4   -546522.473 4   -401882.31648  23821536.95248
  22386024.112 6   -560605.742 6   -424201.67247  22386020.25747
  23392104.511 5   -801340.348 5   -582282.93846  23392101.87046
  21441073.964 6   -381907.480 6   -285308.96149  21441073.59749
 20  5 16  5 19 24.9990000  0  9G01G03G07G08G11G17G22G28G30          0.000446087
  19994641.448 7    -40332.063 7    -30773.53149  19994642.26949
  23041113.808 5   -835286.855 5   -600618.66448  23041115.10548
  20812014.284 6     84222.957 6     63998.43049  20812012.12849
  23000874.886 5    241096.992 5    174583.27047  23000875.17947
  21093338.761 6    281719.758 6    211093.73847  21093335.48047
  23821103.097 4   -548810.699 4   -403665.34848  23821101.24548
  22385590.948 6   -562883.609 6   -425976.63747  22385586.93347
  23391452.808 5   -804767.758 5   -584953.64546  23391449.30046
  21440774.987 6   -383479.008 6   -286533.52749  21440774.93749
 20  5 16  5 19 25.9990000  0  9G01G03G07G08G11G17G22G28G30          0.000445524
  19994620.823 7    -40440.797 7    -30858.26249  19994621.38249
  23040432.190 5   -838868.840 5   -603409.82048  23040433.43348
  20812091.636 6     84628.711 6     64314.60949  20812089.89749
  23001059.323 5    242067.270 5    175339.33247  23001059.65947
  21093563.276 6    282902.059 6    212015.00848  21093560.64748
  23820667.003 4   -551098.801 4   -405448.28548  23820665.93348
  22385157.261 6   -565161.113 6   -427751.31347  22385153.84747
  23390800.659 5   -808195.230 5   -587624.40246  23390796.94846
  21440475.784 6   -385049.934 6   -287757.62949  21440475.60849
 20  5 16  5 19 26.9990000  0  9G01G03G07G08G11G17G22G28G30          0.000444963
  19994600.269 7    -40548.914 7    -30942.50449  19994600.33949
  23039750.651 5   -842450.762 5   -606200.92248  23039752.06248
  20812169.175 6     85035.020 6     64631.20349  20812167.31549
  23001244.081 5    243037.473 5    176095.32447  23001244.34747
  21093788.542 6    284084.570 6    212936.43847  21093785.82347
  23820231.933 4   -553386.863 4   -407231.18848  23820230.58948
  22384724.151 6   -567438.254 6   -429525.70747  22384720.36247
  23390148.097 5   -811622.840 5   -590295.26646  23390145.09346
  21440176.917 6   -386620.289 6   -288981.27749  21440176.74949
 20  5 16  5 19 27.9990000  0  9G01G03G07G08G11G17G22G28G30          0.000444401
  19994579.425 7    -40656.492 7    -31026.34049  19994580.10849
  23039068.370 5   -846032.645 5   -608992.00448  23039070.34748
  20812246.605 6     85441.832 6     64948.20349  20812244.11649
  23001428.659 5    244007.527 5    176851.22347  23001428.84747
  21094013.886 6    285267.238 6    213857.99648  21094010.80448
  23819796.589 4   -555674.906 4   -409014.07848  23819795.13248
  22384290.347 6   -569715.094 6   -431299.86747  22384286.78847
  23389495.862 5   -815050.609 5   -592966.25846  23389492.90946
  21439878.394 6   -388190.109 6   -290204.51649  21439878.37049
 20  5 16  5 19 28.9990000  0  9G01G03G07G08G11G17G22G28G30          0.000443838
  19994559.198 7    -40763.508 7    -31109.72749  19994560.03449
  23038387.386 5   -849614.520 5   -611783.07848  23038388.48748
  20812324.323 6     85849.184 6     65265.61749  20812322.05449
  23001613.206 5    244977.465 5    177607.02047  23001613.90547
  21094238.776 6    286450.105 6    214779.71148  21094235.88248
  23819361.612 4   -557962.855 4   -410796.89548  23819359.85148
  22383857.167 6   -571991.598 6   -433073.76647  22383853.95647
  23388844.042 5   -818478.492 5   -595637.33646  23388840.18346
  21439579.706 6   -389759.387 6   -291427.33249  21439579.15149
 20  5 16  5 19 29.9990000  0  9G01G03G07G08G11G17G22G28G30          0.000443275
  19994539.269 7    -40869.781 7    -31192.54349  19994539.86649
  23037705.667 5   -853196.172 5   -614573.97748  23037707.05048
  20812402.011 6     86257.211 6     65583.55949  20812399.26549
  23001797.480 5    245947.488 5    178362.87947  23001798.06947
  21094463.980 6    287633.332 6    215701.70748  21094460.80048
  23818925.573 4   -560250.684 4   -412579.62148  23818924.35148
  22383424.261 6   -574267.563 6   -434847.24647  22383420.44447
  23388191.198 5   -821906.328 5   -598308.38346  23388188.18746
  21439281.339 6   -391327.945 6   -292649.57849  21439280.80049
 20  5 16  5 19 30.9990000  0  9G01G03G07G08G11G17G22G28G30          0.000442713
  19994518.862 7    -40975.598 7    -31274.99249  19994519.63649
  23037023.878 5   -856777.934 5   -617364.95748  23037025.68748
  20812479.808 6     86665.645 6     65901.81649  20812477.34749
  23001982.073 5    246917.285 5    179118.56347  23001982.81247
  21094689.128 6    288816.617 6    216623.74248  21094686.16348
  23818490.605 4   -562538.508 4   -414362.34048  23818489.49948
  22382991.058 6   -576543.340 6   -436620.57447  22382987.98047
  23387539.003 5   -825334.395 5   -600979.61746  23387535.81546
  21438982.636 6   -392896.027 6   -293871.47349  21438982.97649
 20  5 16  5 19 31.9990000  0  9G01G03G07G08G11G17G22G28G30          0.000442152
  19994498.980 7    -41080.852 7    -31357.00849  19994499.68349
  23036342.276 4   -860359.621 4   -620155.87548  23036344.45248
  20812557.526 6     87074.586 6     66220.46949  20812554.96849
  23002166.558 5    247886.980 5    179874.15647  23002167.06247
  21094914.222 6    290000.086 6    217545.93048  21094911.45248
  23818055.589 4   -564826.293 4   -416145.03148  23818053.93348
  22382557.698 6   -578818.785 6   -438393.64847  22382554.83147
  23386886.667 5   -828762.637 5   -603650.97746  23386883.84746
  21438684.683 6   -394463.582 6   -295092.94549  21438684.31949
 20  5 16  5 19 32.9990000  0  9G01G03G07G08G11G17G22G28G30          0.000441589
  19994479.206 7    -41185.594 7    -31438.62149  19994479.76149
  23035660.378 5   -863941.297 5   -622946.78548  23035662.41348
  20812635.315 6     87484.031 6     66539.51649  20812632.96449
  23002350.714 5    248856.500 5    180629.63347  23002351.78847
  21095139.565 6    291183.703 6    218468.22748  21095136.67948
  23817619.737 5   -567114.082 5   -417927.72748  23817618.45648
  22382124.980 6   -581093.926 6   -440166.48447  22382121.99947
  23386234.214 5   -832191.055 5   -606322.46946  23386231.19046
  21438386.769 6   -396030.621 6   -296314.00849  21438386.06949
 20  5 16  5 19 33.9990000  0  9G01G03G07G08G11G17G22G28G30          0.000441027
  19994458.956 7    -41289.648 7    -31519.70749  19994460.05049
  23034979.534 5   -867522.879 5   -625737.62148  23034980.95248
  20812713.253 6     87894.094 6     66859.04749  20812711.02649
  23002535.487 5    249826.020 5    181385.10247  23002536.49547
  21095365.331 6    292367.609 6    219390.75048  21095361.82748
  23817184.323 4   -569401.734 4   -419710.30948  23817183.31548
  22381692.401 6   -583368.633 6   -441938.98847  22381689.11247
  23385581.831 5   -835619.492 5   -608993.96146  23385578.95246
  21438088.776 6   -397597.012 6   -297534.57049  21438088.51549
 20  5 16  5 19 34.9990000  0  9G01G03G07G08G11G17G22G28G30          0.000440464
  19994439.542 7    -41393.160 7    -31600.36749  19994440.28049
  23034297.940 4   -871104.395 4   -628528.41448  23034299.27248
  20812791.519 6     88304.641 6     67178.94549  20812788.94849
  23002720.308 5    250795.457 5    182140.50047  23002720.72647
  21095590.589 6    293551.629 6    220313.35948  21095587.17948
  23816748.792 4   -571689.363 4   -421492.87148  23816747.81948
  22381259.612 6   -585643.035 6   -443711.25447  22381256.28847
  23384929.245 5   -839048.051 5   -611665.56646  23384926.13646
  21437790.636 6   -399162.875 6   -298754.72749  21437789.83949
 20  5 16  5 19 35.9990000  0  9G01G03G07G08G11G17G22G28G30          0.000439901
  19994420.151 7    -41495.988 7    -31680.49249  19994420.25749
  23033616.065 4   -874685.738 4   -631319.07048  23033618.02248
  20812869.761 6     88715.844 6     67499.35949  20812867.12049
  23002904.823 5    251764.844 5    182895.86347  23002905.25347
  21095815.659 6    294735.984 6    221236.23848  21095812.36248
  23816313.745 4   -573976.809 4   -423275.29348  23816312.40548
  22380826.909 6   -587916.988 6   -445483.16847  22380823.11647
  23384277.089 5   -842476.676 5   -614337.21946  23384273.91746
  21437492.511 6   -400728.074 6   -299974.36749  21437492.33149
 20  5 16  5 19 36.9990000  0  9G01G03G07G08G11G17G22G28G30          0.000439339
  19994400.581 7    -41598.277 7    -31760.19949  19994400.79249
  23032934.495 4   -878267.133 4   -634109.76648  23032936.58948
  20812948.026 6     89127.531 6     67820.15249  20812945.52249
  23003089.183 5    252734.117 5    183651.14147  23003089.84347
  21096041.081 6    295920.477 6    222159.22348  21096038.18748
  23815878.565 4   -576264.277 4   -425057.73848  23815877.10848
  22380394.050 6   -590190.652 6   -447254.85547  22380390.44847
  23383624.386 5   -845905.473 5   -617009.00846  23383621.83146
  21437194.487 6   -402292.723 6   -301193.57049  21437194.39449
 20  5 16  5 19 37.9990000  0  9G01G03G07G08G11G17G22G28G30          0.000438776
  19994381.331 7    -41700.070 7    -31839.52049  19994381.81249
  23032253.112 4   -881848.543 4   -636900.47748  23032254.64048
  20813026.456 6     89539.656 6     68141.29349  20813024.15549
  23003273.401 5    253703.188 5    184406.25847  23003274.49147
  21096266.347 6    297105.094 6    223082.29747  21096263.49147
  23815443.698 5   -578551.773 5   -426840.20348  23815441.77248
  22379961.737 6   -592464.023 6   -449026.31347  22379958.31247
  23382971.355 5   -849334.434 5   -619680.93046  23382969.00746
  21436896.878 6   -403856.930 6   -302412.44149  21436896.61649
 20  5 16  5 19 38.9990000  0  9G01G03G07G08G11G17G22G28G30          0.000438213
  19994361.800 7    -41801.164 7    -31918.29749  19994362.54249
  23031571.714 4   -885429.742 4   -639691.01248  23031573.65548
  20813104.980 6     89952.461 6     68462.95349  20813102.61249
  23003457.956 5    254672.301 5    185161.41847  23003458.80047
  21096492.245 6    298290.008 6    224005.60547  21096488.60147
  23815007.964 4   -580839.043 4   -428622.48448  23815006.81248
  22379529.378 6   -594736.953 6   -450797.42247  22379525.64047
  23382319.401 5   -852763.426 5   -622352.86746  23382316.32746
  21436599.464 6   -405420.430 6   -303630.75049  21436599.35149
 20  5 16  5 19 39.9990000  0  9G01G03G07G08G11G17G22G28G30          0.000437651
  19994342.714 7    -41901.805 7    -31996.71549  19994343.54249
  23030889.909 5   -889011.066 5   -642481.64848  23030891.96448
  20813183.722 6     90365.652 6     68784.93049  20813181.11249
  23003642.558 5    255641.211 5    185916.41447  23003643.32347
  21096717.565 6    299475.004 6    224928.97347  21096714.07347
  23814572.870 5   -583126.398 5   -430404.84448  23814571.85548
  22379096.378 6   -597009.672 6   -452568.36747  22379092.83947
  23381666.917 5   -856192.652 5   -625024.98846  23381664.06546
  21436302.261 6   -406983.484 6   -304848.71549  21436302.04249
 20  5 16  5 19 40.9990000  0  9G01G03G07G08G11G17G22G28G30          0.000437088
  19994324.081 7    -42001.828 7    -32074.65649  19994324.56249
  23030208.261 5   -892592.266 5   -645272.19148  23030210.23748
  20813262.448 6     90779.426 6     69107.34049  20813260.17549
  23003826.761 5    256610.051 5    186671.35947  23003827.21847
  21096942.964 6    300660.223 6    225852.51247  21096939.74147
  23814137.433 5   -585413.656 5   -432187.12148  23814135.80048
  22378664.206 6   -599282.000 6   -454339.00847  22378660.83147
  23381014.159 5   -859621.953 5   -627697.16846  23381011.28446
  21436004.933 6   -408545.934 6   -306066.21149  21436004.58949
 20  5 16  5 19 41.9990000  0  9G01G03G07G08G11G17G22G28G30          0.000436525
  19994304.745 7    -42101.160 7    -32152.05549  19994305.49149
  23029527.331 5   -896173.309 5   -648062.61748  23029529.28848
  20813340.964 6     91193.848 6     69430.27049  20813338.46449
  23004012.011 5    257578.898 5    187426.30547  23004011.69847
  21097168.940 6    301845.766 6    226776.31648  21097165.40548
  23813702.612 5   -587700.770 5   -433969.28548  23813700.85848
  22378232.019 6   -601553.848 6   -456109.28147  22378228.20647
  23380362.065 5   -863051.293 5   -630369.38346  23380358.61246
  21435707.269 6   -410107.723 6   -307283.18849  21435707.19049
 20  5 16  5 19 42.9990000  0  9G01G03G07G08G11G17G22G28G30          0.000435963
  19994286.276 7    -42199.918 7    -32229.01249  19994286.80849
  23028845.870 5   -899754.281 5   -650852.97348  23028847.65548
  20813420.237 6     91608.773 6     69753.58649  20813417.45249
  23004195.511 5    258547.637 5    188181.16047  23004196.36647
  21097394.651 6    303031.469 6    227700.23848  21097391.33548
  23813266.761 5   -589987.793 5   -435751.38748  23813266.06548
  22377799.456 6   -603825.383 6   -457879.31347  22377795.81947
  23379709.081 5   -866480.758 5   -633041.69946  23379706.16346
  21435410.823 6   -411668.934 6   -308499.71549  21435410.24149
 20  5 16  5 19 43.9990000  0  9G01G03G07G08G11G17G22G28G30          0.000435400
  19994267.378 7    -42297.855 7    -32305.32849  19994268.27649
  23028164.183 5   -903334.992 5   -653643.14148  23028166.11648
  20813499.370 6     92024.477 6     70077.51249  20813497.11649
  23004379.050 5    259516.539 5    188936.14847  23004380.28447
  21097620.378 6    304217.621 6    228624.51248  21097616.64748
  23812831.612 5   -592274.551 5   -437533.27348  23812830.70248
  22377367.480 6   -606096.309 6   -459648.86747  22377363.85547
  23379056.034 5   -869910.063 5   -635713.88746  23379053.33946
  21435113.526 6   -413229.352 6   -309715.62549  21435113.55849
 20  5 16  5 19 44.9990000  0  9G01G03G07G08G11G17G22G28G30          0.000434837
  19994249.042 7    -42395.297 7    -32381.25849  19994249.78849
  23027483.730 5   -906915.703 5   -656433.30548  23027484.96448
  20813578.097 6     92440.680 6     70401.82849  20813575.90149
  23004563.433 5    260485.313 5    189691.04347  23004564.78447
  21097846.003 6    305403.930 6    229548.91047  21097842.23347
  23812396.769 5   -594561.289 5   -439315.15248  23812395.66748
  22376935.284 6   -608366.965 6   -461418.20747  22376931.38647
  23378404.206 5   -873339.578 5   -638386.23046  23378400.64446
  21434816.792 6   -414789.250 6   -310931.12949  21434816.26949
 20  5 16  5 19 45.9990000  0  9G01G03G07G08G11G17G22G28G30          0.000434275
  19994230.409 7    -42492.027 7    -32456.62949  19994231.03049
  23026801.440 5   -910496.277 5   -659223.35948  23026803.36248
  20813658.136 6     92857.508 6     70726.62549  20813655.39049
  23004748.675 5    261454.066 5    190445.90647  23004749.39047
  21098071.706 6    306590.484 6    230473.49647  21098068.39047
  23811961.839 4   -596847.883 4   -441096.91048  23811960.51948
  22376503.519 6   -610637.141 6   -463187.17647  22376499.62447
  23377751.495 5   -876769.102 5   -641058.58246  23377748.09746
  21434520.355 6   -416348.477 6   -312146.11349  21434519.93749
 20  5 16  5 19 46.9990000  0  9G01G03G07G08G11G17G22G28G30          0.000433712
  19994212.589 7    -42588.156 7    -32531.53949  19994213.10549
  23026120.401 5   -914076.719 5   -662013.30948  23026122.02248
  20813737.409 6     93274.879 6     71051.84849  20813734.83149
  23004933.323 5    262422.723 5    191200.70747  23004933.57747
  21098297.120 6    307777.301 6    231398.28948  21098294.18348
  23811526.909 4   -599134.383 4   -442878.60248  23811525.31248
  22376071.745 6   -612907.000 6   -464955.89547  22376067.51547
  23377098.464 5   -880198.742 5   -643731.03546  23377095.44046
  21434223.112 6   -417907.137 6   -313360.65249  21434223.03449
 20  5 16  5 19 47.9990000  0  9G01G03G07G08G11G17G22G28G30          0.000433147
  19994193.980 7    -42683.645 7    -32605.94149  19994194.47249
  23025438.644 5   -917657.086 5   -664803.21548  23025440.88248
  20813816.909 6     93692.844 6     71377.53549  20813814.23349
  23005117.065 5    263391.332 5    191955.46147  23005117.63247
  21098523.409 6    308964.324 6    232323.23848  21098519.68348
  23811091.128 4   -601420.781 4   -444660.20748  23811090.47248
  22375639.800 6   -615176.391 6   -466724.25047  22375635.96047
  23376446.940 5   -883628.430 5   -646403.52046  23376443.00346
  21433926.800 6   -419465.141 6   -314574.68449  21433926.39749
 20  5 16  5 19 48.9990000  0  9G01G03G07G08G11G17G22G28G30          0.000432587
  19994175.847 7    -42778.469 7    -32679.83649  19994176.51949
  23024756.909 5   -921237.277 5   -667592.97348  23024759.32348
  20813896.472 6     94111.438 6     71703.71149  20813894.06249
  23005301.261 5    264359.973 5    192710.24247  23005301.85547
  21098749.136 6    310151.668 6    233248.44147  21098745.65947
  23810655.675 4   -603707.016 4   -446441.69548  23810655.61248
  22375207.847 6   -617445.395 6   -468492.30147  22375204.03447
  23375793.050 5   -887058.125 5   -649076.02346  23375790.42546
  21433630.300 6   -421022.516 6   -315788.22749  21433630.47649
 20  5 16  5 19 49.9990000  0  9G01G03G07G08G11G17G22G28G30          0.000432022
  19994158.128 7    -42872.711 7    -32753.27049  19994158.61249
  23024076.065 5   -924817.492 5   -670382.74248  23024078.05048
  20813976.605 6     94530.566 6     72030.30549  20813973.80449
  23005485.753 5    265328.484 5    193464.93047  23005486.67947
  21098975.112 6    311339.207 6    234173.79347  21098971.79247
  23810220.855 4   -605993.234 4   -448223.16048  23810220.17948
  22374776.222 6   -619714.023 6   -470260.05947  22374772.58547
  23375141.003 5   -890487.984 5   -651748.65646  23375137.80446
  21433334.276 6   -422579.313 6   -317001.31349  21433333.75749
 20  5 16  5 19 50.9990000  0  9G01G03G07G08G11G17G22G28G30          0.000431459
  19994140.190 7    -42966.500 7    -32826.35549  19994141.06549
  23023394.206 5   -928397.711 5   -673172.51648  23023396.92948
  20814055.995 6     94950.078 6     72357.19149  20814053.62449
  23005670.136 5    266296.781 5    194219.43847  23005670.73047
  21099200.878 6    312526.785 6    235099.18048  21099197.66348
  23809785.401 4   -608279.500 4   -450004.66848  23809785.46048
  22374344.003 6   -621982.457 6   -472027.66847  22374340.70247
  23374487.761 5   -893918.082 5   -654421.44946  23374484.91746
  21433038.011 6   -424135.664 6   -318214.06349  21433038.09349
 20  5 16  5 19 51.9990000  0  9G01G03G07G08G11G17G22G28G30          0.000430897
  19994122.151 7    -43059.777 7    -32899.03549  19994122.78449
  23022713.120 5   -931977.945 5   -675962.30548  23022715.62048
  20814136.042 6     95370.070 6     72684.46149  20814133.64049
  23005853.698 5    267264.934 5    194973.84847  23005854.87847
  21099427.050 6    313714.508 6    236024.68048  21099423.39748
  23809350.855 4   -610565.777 4   -451786.17248  23809350.19448
  22373913.019 6   -624250.605 6   -473795.06347  22373909.03847
  23373835.034 5   -897348.348 5   -657094.37946  23373832.04646
  21432741.409 6   -425691.566 6   -319426.45349  21432742.01149
 20  5 16  5 19 52.9990000  0  9G01G03G07G08G11G17G22G28G30          0.000430334
  19994104.550 7    -43152.574 7    -32971.34449  19994105.87049
  23022031.886 5   -935558.195 5   -678752.11348  23022034.20648
  20814216.315 6     95790.527 6     73012.08649  20814213.60849
  23006038.519 5    268232.871 5    195728.08247  23006039.18747
  21099653.315 6    314902.328 6    236950.25848  21099650.01548
  23808915.753 4   -612852.094 4   -453567.71548  23808915.30048
  22373481.120 6   -626518.480 6   -475562.23447  22373477.26147
  23373182.050 5   -900778.832 5   -659767.48446  23373179.02246
  21432446.206 6   -427246.941 6   -320638.43049  21432445.36649
 20  5 16  5 19 53.9990000  0  9G01G03G07G08G11G17G22G28G30          0.000429771
  19994087.237 7    -43244.641 7    -33043.08649  19994088.00349
  23021350.714 5   -939138.258 5   -681541.77348  23021353.08548
  20814296.128 6     96211.633 6     73340.21949  20814293.75349
  23006222.386 5    269200.895 5    196482.38747  23006223.04247
  21099879.503 6    316090.492 6    237876.09448  21099875.85848
  23808480.901 5   -615138.180 5   -455349.07048  23808480.21048
  22373049.651 6   -628785.867 6   -477329.03547  22373046.38647
  23372529.933 5   -904209.297 5   -662440.56346  23372526.68746
  21432150.292 6   -428801.625 6   -321849.87549  21432150.15549
 20  5 16  5 19 54.9990000  0  9G01G03G07G08G11G17G22G28G30          0.000429209
  19994070.034 7    -43336.121 7    -33114.36749  19994070.57349
  23020669.925 5   -942718.293 5   -684331.41048  23020671.35848
  20814375.644 6     96633.313 6     73668.80549  20814374.08949
  23006406.636 5    270168.832 5    197236.62147  23006407.32747
  21100105.784 6    317278.836 6    238802.07048  21100101.89048
  23808046.136 4   -617424.219 4   -457130.39548  23808045.03448
  22372618.589 6   -631052.910 6   -479095.56347  22372614.75347
  23371877.019 5   -907639.883 5   -665113.74646  23371873.86246
  21431854.956 6   -430355.730 6   -323060.86349  21431854.34749
 20  5 16  5 19 55.9990000  0  9G01G03G07G08G11G17G22G28G30          0.000428644
  19994052.339 7    -43426.938 7    -33185.13349  19994053.24549
  23019987.925 5   -946298.141 5   -687120.89548  23019990.39748
  20814456.776 6     97055.555 6     73997.82049  20814454.51549
  23006591.042 5    271136.719 5    197990.82447  23006591.68347
  21100331.745 6    318467.469 6    239728.28147  21100328.28447
  23807611.003 5   -619710.141 5   -458911.63348  23807610.17948
  22372186.948 6   -633319.512 6   -480861.73847  22372183.57347
  23371224.409 5   -911070.527 5   -667786.98046  23371221.03046
  21431559.042 6   -431909.195 6   -324271.35949  21431558.44049
 20  5 16  5 19 56.9990000  0  9G01G03G07G08G11G17G22G28G30          0.000428082
  19994035.464 7    -43517.121 7    -33255.40649  19994036.12449
  23019306.855 5   -949877.906 5   -689910.31648  23019309.63248
  20814536.769 6     97478.441 6     74327.34049  20814535.24949
  23006774.644 5    272104.598 5    198745.01247  23006775.44447
  21100558.144 6    319656.371 6    240654.69948  21100554.44848
  23807176.198 5   -621995.883 5   -460692.73448  23807174.96048
  22371755.878 6   -635585.688 6   -482627.59847  22371751.99947
  23370571.323 5   -914501.180 5   -670460.21546  23370568.20646
  21431263.417 6   -433462.020 6   -325481.34849  21431263.23349
 20  5 16  5 19 57.9990000  0  9G01G03G07G08G11G17G22G28G30          0.000427519
  19994018.151 7    -43606.664 7    -33325.18449  19994019.25349
  23018625.644 4   -953457.559 4   -692699.65648  23018628.07348
  20814617.534 6     97901.875 6     74657.28949  20814615.59749
  23006959.042 5    273072.438 5    199499.16447  23006959.67147
  21100784.292 6    320845.488 6    241581.28148  21100780.84748
  23806740.784 5   -624281.566 5   -462473.78548  23806740.23348
  22371324.690 6   -637851.508 6   -484393.16847  22371321.03847
  23369918.214 5   -917931.934 5   -673133.52746  23369915.14446
  21430968.097 6   -435014.242 6   -326690.87549  21430967.67949
 20  5 16  5 19 58.9990000  0  9G01G03G07G08G11G17G22G28G30          0.000426956
  19994001.370 7    -43695.609 7    -33394.48849  19994002.11649
  23017945.073 4   -957037.121 4   -695488.91848  23017946.49948
  20814698.706 6     98325.848 6     74987.65249  20814696.36249
  23007143.792 5    274040.195 5    200253.25447  23007144.22647
  21101010.862 6    322034.832 6    242508.04348  21101006.95648
  23806306.300 5   -626567.133 5   -464254.74648  23806305.26148
  22370893.230 6   -640116.934 6   -486158.44147  22370889.64447
  23369265.894 5   -921362.813 5   -675806.93046  23369262.03046
  21430672.628 6   -436565.879 6   -327899.94549  21430672.19049
 20  5 16  5 19 59.9990000  0  9G01G03G07G08G11G17G22G28G30          0.000426392
  19993984.956 7    -43784.137 7    -33463.46949  19993985.76149
  23017263.487 4   -960616.813 4   -698278.28148  23017265.87048
  20814779.573 6     98750.254 6     75318.35949  20814776.91749
  23007327.636 5    275007.715 5    201007.16047  23007328.27247
  21101237.003 6    323224.211 6    243434.82847  21101233.06947
  23805870.995 5   -628852.852 5   -466035.82048  23805870.39748
  22370462.370 6   -642382.156 6   -487923.54747  22370458.46047
  23368612.683 5   -924793.906 5   -678480.50846  23368609.42946
  21430377.651 6   -438117.082 6   -329108.68049  21430377.39049
 20  5 16  5 20  0.9990000  0  9G01G03G07G08G11G17G22G28G30          0.000425829
  19993968.073 7    -43872.168 7    -33532.06649  19993968.73349
  23016582.167 4   -964196.500 4   -701067.64548  23016584.23748
  20814860.425 6     99175.078 6     75649.38749  20814857.90949
  23007511.847 5    275975.016 5    201760.89847  23007512.22247
  21101463.440 6    324413.715 6    244361.71547  21101459.59747
  23805435.698 5   -631138.566 5   -467816.89848  23805435.33548
  22370031.378 6   -644647.137 6   -489688.46547  22370027.23747
  23367959.651 5   -928225.246 5   -681154.28546  23367956.25346
  21430082.526 6   -439667.816 6   -330317.03949  21430082.32349
 20  5 16  5 20  1.9990000  0  9G01G03G07G08G11G17G22G28G30          0.000425266
  19993951.276 7    -43959.547 7    -33600.15249  19993951.76149
  23015901.698 5   -967776.059 5   -703856.91048  23015903.36248
  20814940.948 6     99600.516 6     75980.89849  20814938.88649
  23007695.690 5    276942.352 5    202514.66447  23007696.54647
  21101689.714 6    325603.473 6    245288.79348  21101685.95248
  23805001.253 4   -633424.152 4   -469597.87548  23805000.55048
  22369600.315 6   -646911.684 6   -491453.04747  22369596.63247
  23367307.050 5   -931656.629 5   -683828.09846  23367303.53046
  21429787.230 6   -441217.922 6   -331524.91449  21429787.09349
 20  5 16  5 20  2.9990000  0  9G01G03G07G08G11G17G22G28G30          0.000424704
  19993934.394 7    -44046.289 7    -33667.74249  19993935.01149
  23015220.136 5   -971355.531 5   -706646.10948  23015222.27248
  20815022.370 6    100026.508 6     76312.83649  20815020.37449
  23007879.808 5    277909.566 5    203268.34047  23007880.43347
  21101916.339 6    326793.449 6    246216.04748  21101912.37448
  23804566.558 4   -635709.637 4   -471378.77348  23804565.75348
  22369169.870 6   -649175.863 6   -493217.34447  22369165.49947
  23366653.964 5   -935088.063 5   -686501.94146  23366650.49546
  21429492.698 6   -442767.395 6   -332732.29349  21429492.34349
 20  5 16  5 20  3.9990000  0  9G01G03G07G08G11G17G22G28G30          0.000424139
  19993918.347 7    -44132.387 7    -33734.83649  19993918.85549
  23014539.269 4   -974934.902 4   -709435.23448  23014540.67948
  20815103.464 6    100453.148 6     76645.27749  20815101.01149
  23008064.019 5    278876.797 5    204022.03147  23008064.62447
  21102142.722 6    327983.727 6    247143.53948  21102138.74548
  23804131.550 4   -637994.984 4   -473159.56648  23804130.79248
  22368738.800 6   -651439.582 6   -494981.27747  22368735.00747
  23366000.269 5   -938519.570 5   -689175.84046  23365997.46446
  21429198.331 6   -444316.230 6   -333939.17649  21429197.78849
 20  5 16  5 20  4.9990000  0  9G01G03G07G08G11G17G22G28G30          0.000423576
  19993901.972 7    -44217.891 7    -33801.46149  19993902.92149
  23013858.730 5   -978514.145 5   -712224.24648  23013860.02248
  20815184.706 6    100880.301 6     76978.12149  20815182.60849
  23008248.183 5    279843.949 5    204775.66047  23008248.92147
  21102369.081 6    329174.195 6    248071.18048  21102365.39448
  23803696.550 4   -640280.246 4   -474940.28948  23803695.77248
  22368308.151 6   -653702.953 6   -496744.94547  22368303.70647
  23365348.058 5   -941951.156 5   -691849.80146  23365344.27246
  21428903.565 6   -445864.473 6   -335145.60249  21428902.99149
 20  5 16  5 20  5.9990000  0  9G01G03G07G08G11G17G22G28G30          0.000423014
  19993885.690 7    -44302.762 7    -33867.60249  19993886.44449
  23013177.464 5   -982093.301 5   -715013.19948  23013178.90148
  20815265.558 6    101308.051 6     77311.43849  20815263.95649
  23008431.831 5    280811.031 5    205529.22747  23008432.89047
  21102595.519 6    330364.898 6    248998.99647  21102592.12447
  23803261.214 4   -642565.438 4   -476720.95748  23803261.16748
  22367877.612 6   -655965.934 6   -498508.30147  22367873.40947
  23364694.737 5   -945382.840 5   -694523.84046  23364691.40146
  21428608.808 6   -447412.133 6   -336351.57849  21428608.42149
 20  5 16  5 20  6.9990000  0  9G01G03G07G08G11G17G22G28G30          0.000422449
  19993869.565 7    -44387.129 7    -33933.33649  19993870.64749
  23012495.542 5   -985672.480 5   -717802.16448  23012497.91748
  20815347.519 6    101736.242 6     77645.08649  20815345.69049
  23008615.581 5    281777.969 5    206282.68847  23008616.51547
  21102822.487 6    331555.715 6    249926.90648  21102818.66748
  23802825.737 4   -644850.645 4   -478501.63748  23802825.91748
  22367447.323 6   -658228.637 6   -500271.44147  22367442.88247
  23364041.956 5   -948814.707 5   -697198.01646  23364038.08946
  21428314.683 6   -448959.293 6   -337557.15649  21428314.21449
 20  5 16  5 20  7.9990000  0  9G01G03G07G08G11G17G22G28G30          0.000421886
  19993853.862 7    -44470.945 7    -33998.64849  19993854.50749
  23011814.925 5   -989251.613 5   -720591.10548  23011816.86248
  20815429.136 6    102164.953 6     77979.14549  20815426.75349
  23008799.730 5    282744.758 5    207036.02347  23008800.62047
  21103048.683 6    332746.711 6    250854.95747  21103044.95647
  23802391.417 4   -647135.823 4   -480282.29048  23802391.13648
  22367017.073 6   -660491.016 6   -502034.33647  22367012.49947
  23363388.722 5   -952246.691 5   -699872.28146  23363385.00346
  21428020.394 6   -450505.902 6   -338762.30949  21428019.94049
 20  5 16  5 20  8.9990000  0  9G01G03G07G08G11G17G22G28G30          0.000421322
  19993838.105 7    -44554.246 7    -34063.55949  19993838.92149
  23011133.456 5   -992830.754 5   -723380.03948  23011135.32348
  20815510.636 6    102594.125 6     78313.56349  20815508.17149
  23008983.417 5    283711.379 5    207789.23047  23008984.51147
  21103275.847 6    333937.832 6    251783.10248  21103271.97248
  23801957.058 4   -649420.957 4   -482062.91048  23801956.41748
  22366586.417 6   -662753.105 6   -503797.00447  22366581.85147
  23362735.308 5   -955678.874 5   -702546.71346  23362731.69046
  21427726.026 6   -452052.016 6   -339967.07049  21427725.49149
 20  5 16  5 20  9.9990000  0  9G01G03G07G08G11G17G22G28G30          0.000420759
  19993822.276 7    -44636.902 7    -34127.96549  19993822.78449
  23010452.745 4   -996409.824 4   -726168.93048  23010454.40148
  20815592.448 6    103023.895 6     78648.44949  20815590.53049
  23009167.511 5    284677.961 5    208542.41047  23009168.59747
  21103502.433 6    335129.223 6    252711.45747  21103498.86647
  23801522.159 4   -651706.023 4   -483843.47748  23801521.62848
  22366155.862 6   -665014.785 6   -505559.35247  22366151.80447
  23362082.026 5   -959111.141 5   -705221.21546  23362078.78446
  21427431.933 6   -453597.488 6   -341171.33249  21427431.32349
 20  5 16  5 20 10.9990000  0  9G01G03G07G08G11G17G22G28G30          0.000420195
  19993807.034 7    -44718.957 7    -34191.90649  19993807.25349
  23009771.730 5   -999988.785 5   -728957.72348  23009773.36248
  20815674.542 6    103454.211 6     78983.76249  20815672.00349
  23009351.644 5    285644.461 5    209295.52047  23009352.39747
  21103728.956 6    336320.809 6    253639.96147  21103725.17147
  23801086.894 4   -653991.004 4   -485623.97348  23801087.01148
  22365725.347 6   -667276.102 6   -507321.41047  22365721.40547
  23361429.175 5   -962543.496 5   -707895.77346  23361425.63646
  21427137.683 6   -455142.398 6   -342375.16449  21427137.51549
 20  5 16  5 20 11.9990000  0  9G01G03G07G08G11G17G22G28G30          0.000419632
  19993791.003 7    -44800.355 7    -34255.33649  19993791.92949
  23009090.417 4  -1003567.539 4   -731746.36348  23009092.28448
  20815756.511 6    103885.172 6     79319.57049  20815754.19849
  23009535.433 5    286610.988 5    210048.66047  23009536.14747
  21103955.987 6    337512.703 6    254568.71547  21103952.10847
  23800652.112 4   -656275.797 4   -487404.33248  23800651.93748
  22365294.886 6   -669536.965 6   -509083.12147  22365291.42947
  23360776.089 5   -965975.883 5   -710570.36346  23360772.53446
  21426844.019 6   -456686.617 6   -343578.44949  21426843.46449
 20  5 16  5 20 12.9990000  0  9G01G03G07G08G11G17G22G28G30          0.000419069
  19993775.667 7    -44881.219 7    -34318.34449  19993776.52249
  23008409.394 5  -1007146.326 5   -734535.02648  23008411.36248
  20815838.605 6    104316.594 6     79655.74649  20815836.30449
  23009719.909 5    287577.352 5    210801.67647  23009720.11647
  21104183.026 6    338704.727 6    255497.56647  21104178.53847
  23800218.401 4   -658560.637 4   -489184.73048  23800217.43748
  22364865.097 6   -671797.551 6   -510844.61347  22364861.08947
  23360122.706 5   -969408.406 5   -713245.05946  23360119.64446
  21426550.120 6   -458230.371 6   -344781.37949  21426549.64449
 20  5 16  5 20 13.9990000  0  9G01G03G07G08G11G17G22G28G30          0.000418505
  19993760.464 7    -44961.516 7    -34380.90649  19993761.25749
  23007728.878 4  -1010725.086 4   -737323.66848  23007730.34748
  20815920.550 6    104748.523 6     79992.31349  20815918.55049
  23009903.940 5    288543.586 5    211554.58247  23009904.45247
  21104409.440 6    339896.922 6    256426.54347  21104405.42547
  23799782.878 4   -660845.387 4   -490965.05148  23799782.40948
  22364434.636 6   -674057.789 6   -512605.84447  22364430.76547
  23359469.378 5   -972841.086 5   -715919.86346  23359466.42546
  21426256.933 6   -459773.527 6   -345983.84049  21426256.71849
 20  5 16  5 20 14.9990000  0  9G01G03G07G08G11G17G22G28G30          0.000417940
  19993745.190 7    -45041.125 7    -34442.94949  19993746.23049
  23007047.612 5  -1014303.691 5   -740112.19148  23007049.48348
  20816003.472 6    105181.109 6     80329.39549  20816000.65149
  23010087.597 5    289509.871 5    212307.52747  23010087.71447
  21104637.245 6    341089.430 6    257355.77348  21104633.08948
  23799348.370 4   -663129.996 4   -492745.27048  23799347.76548
  22364004.565 6   -676317.582 6   -514366.72347  22364000.70247
  23358816.120 5   -976273.773 5   -718594.68446  23358812.93746
  21425962.831 6   -461316.016 6   -347185.77749  21425962.64449
 20  5 16  5 20 15.9990000  0  9G01G03G07G08G11G17G22G28G30          0.000417377
  19993730.230 7    -45120.168 7    -34504.53949  19993731.19849
  23006366.933 5  -1017882.219 5   -742900.64848  23006368.52648
  20816085.933 6    105614.223 6     80666.88349  20816083.16349
  23010271.355 5    290476.023 5    213060.36747  23010271.80047
  21104864.011 6    342282.117 6    258285.13748  21104859.99548
  23798913.370 4   -665414.527 4   -494525.42248  23798912.94448
  22363574.917 6   -678577.004 6   -516127.31647  22363570.54647
  23358163.495 5   -979706.578 5   -721269.59046  23358159.68746
  21425669.651 6   -462857.961 6   -348387.28949  21425669.54649
 20  5 16  5 20 16.9990000  0  9G01G03G07G08G11G17G22G28G30          0.000416813
  19993715.237 7    -45198.559 7    -34565.62549  19993715.89749
  23005685.597 4  -1021460.566 4   -745688.96948  23005687.66348
  20816168.409 6    106047.934 6     81004.84049  20816165.46449
  23010455.190 5    291442.188 5    213813.22347  23010455.42547
  21105091.042 6    343475.086 6    259214.72348  21105086.57748
  23798478.245 4   -667698.965 4   -496305.50848  23798477.94448
  22363145.151 6   -680835.973 6   -517887.54347  22363141.05047
  23357510.253 5   -983139.430 5   -723944.53946  23357506.55846
  21425376.362 6   -464399.223 6   -349588.28149  21425375.96849
 20  5 16  5 20 17.9990000  0  9G01G03G07G08G11G17G22G28G30          0.000416250
  19993700.417 7    -45276.363 7    -34626.25049  19993701.27249
  23005004.659 5  -1025038.953 5   -748477.32048  23005006.66348
  20816250.620 6    106482.176 6     81343.20349  20816248.09749
  23010638.573 5    292408.227 5    214565.98047  23010639.75747
  21105317.769 6    344668.215 6    260144.43448  21105313.91748
  23798044.081 4   -669983.320 4   -498085.52048  23798043.33148
  22362715.300 6   -683094.664 6   -519647.56647  22362711.18347
  23356856.261 5   -986572.418 5   -726619.59846  23356853.23346
  21425083.167 6   -465939.961 6   -350788.85549  21425083.01149
 20  5 16  5 20 18.9990000  0  9G01G03G07G08G11G17G22G28G30          0.000415686
  19993685.917 7    -45353.629 7    -34686.46149  19993686.74149
  23004323.472 4  -1028617.266 4   -751265.60948  23004325.69048
  20816333.722 6    106916.922 6     81681.96549  20816330.89749
  23010823.159 5    293374.145 5    215318.64547  23010823.32747
  21105544.605 6    345861.504 6    261074.27048  21105540.75348
  23797608.956 4   -672267.660 4   -499865.52348  23797608.74948
  22362285.433 6   -685353.004 6   -521407.30547  22362281.65147
  23356203.323 5   -990005.543 5   -729294.77046  23356199.60146
  21424790.105 6   -467480.156 6   -351989.00849  21424789.56949
 20  5 16  5 20 19.9990000  0  9G01G03G07G08G11G17G22G28G30          0.000415123
  19993671.034 7    -45430.387 7    -34746.26649  19993671.83949
  23003642.394 4  -1032195.598 4   -754053.91848  23003644.64448
  20816416.245 6    107352.129 6     82021.09049  20816413.90149
  23011006.253 5    294339.902 5    216071.19147  23011007.32747
  21105771.753 6    347054.938 6    262004.21547  21105767.63247
  23797174.058 4   -674552.016 4   -501645.53948  23797173.83548
  22361855.761 6   -687611.066 6   -523166.83247  22361851.72247
  23355550.284 5   -993438.852 5   -731970.08646  23355546.42946
  21424496.847 6   -469019.848 6   -353188.76249  21424496.88249
 20  5 16  5 20 20.9990000  0  9G01G03G07G08G11G17G22G28G30          0.000414558
  19993656.683 7    -45506.500 7    -34805.57449  19993657.14449
  23002961.159 4  -1035773.805 4   -756842.13348  23002963.98048
  20816499.097 6    107787.918 6     82360.66449  20816496.66349
  23011189.605 5    295305.625 5    216823.69947  23011191.06947
  21105999.073 6    348248.613 6    262934.35547  21105995.13647
  23796739.480 4   -676836.277 4   -503425.48447  23796739.25747
  22361426.183 6   -689868.711 6   -524926.04347  22361422.06947
  23354896.659 5   -996872.234 5   -734645.43846  23354893.28046
  21424204.081 6   -470558.926 6   -354388.04749  21424203.71449
 20  5 16  5 20 21.9990000  0  9G01G03G07G08G11G17G22G28G30          0.000413994
  19993642.378 7    -45581.957 7    -34864.37549  19993642.76549
  23002280.862 4  -1039351.863 4   -759630.22048  23002283.08548
  20816582.003 6    108224.340 6     82700.73449  20816579.82749
  23011373.683 5    296271.383 5    217576.23447  23011375.12847
  21106225.808 6    349442.582 6    263864.71947  21106222.25347
  23796304.597 4   -679120.340 4   -505205.27348  23796304.55448
  22360996.183 6   -692125.895 6   -526684.87947  22360992.37047
  23354242.901 5  -1000305.617 5   -737320.80546  23354239.73746
  21423911.511 6   -472097.316 6   -355586.79749  21423911.19449
 20  5 16  5 20 22.9990000  0  9G01G03G07G08G11G17G22G28G30          0.000413431
  19993628.175 7    -45656.789 7    -34922.68449  19993628.54649
  23001600.284 4  -1042929.832 4   -762418.25448  23001601.90948
  20816664.886 6    108661.320 6     83041.23849  20816662.73049
  23011558.136 5    297237.020 5    218328.67647  23011558.91747
  21106453.472 6    350636.758 6    264795.24647  21106449.50747
  23795870.112 4   -681404.379 4   -506985.03948  23795869.86248
  22360567.026 6   -694382.742 6   -528443.45747  22360562.88647
  23353589.808 5  -1003739.133 5   -739996.27346  23353586.09346
  21423618.737 6   -473635.148 6   -356785.10549  21423618.40149
 20  5 16  5 20 23.9990000  0  9G01G03G07G08G11G17G22G28G30          0.000412867
  19993613.847 7    -45731.051 7    -34980.55549  19993614.61649
  23000918.620 4  -1046507.746 4   -765206.23448  23000921.24148
  20816748.636 6    109098.840 6     83382.16049  20816746.19449
  23011741.417 5    298202.578 5    219081.04747  23011742.57347
  21106680.714 6    351831.129 6    265725.92647  21106676.58547
  23795435.503 4   -683688.320 4   -508764.73448  23795435.71048
  22360137.362 6   -696639.223 6   -530201.75447  22360133.61247
  23352936.683 5  -1007172.730 5   -742671.81346  23352932.72646
  21423326.401 6   -475172.387 6   -357982.95749  21423326.07349
 20  5 16  5 20 24.9990000  0  9G01G03G07G08G11G17G22G28G30          0.000412304
  19993600.300 7    -45804.773 7    -35038.00049  19993600.53449
  23000238.245 4  -1050085.625 4   -767994.18448  23000240.15548
  20816831.370 6    109536.836 6     83723.45749  20816829.43349
  23011925.644 5    299168.004 5    219833.33247  23011926.39447
  21106908.159 6    353025.648 6    266656.71947  21106904.01947
  23795001.253 4   -685972.262 4   -510544.42248  23795001.30048
  22359708.253 6   -698895.391 6   -531959.81347  22359704.24547
  23352282.769 5  -1010606.516 5   -745347.47746  23352279.32746
  21423033.925 6   -476709.102 6   -359180.39149  21423033.58549
 20  5 16  5 20 25.9990000  0  9G01G03G07G08G11G17G22G28G30          0.000411739
  19993586.089 7    -45877.934 7    -35095.00449  19993586.95649
  22999557.112 4  -1053663.484 4   -770782.12148  22999559.56248
  20816915.151 6    109975.375 6     84065.17649  20816913.23349
  23012109.589 5    300133.324 5    220585.53147  23012109.90147
  21107134.940 6    354220.359 6    267587.66847  21107131.39447
  23794566.667 4   -688256.172 4   -512324.09448  23794566.49948
  22359278.894 6   -701151.219 6   -533717.60247  22359274.89447
  23351629.394 5  -1014040.406 5   -748023.23846  23351625.72246
  21422741.386 6   -478245.285 6   -360377.42249  21422740.84749
 20  5 16  5 20 26.9990000  0  9G01G03G07G08G11G17G22G28G30          0.000411175
  19993572.089 7    -45950.375 7    -35151.45749  19993572.63649
  22998876.519 4  -1057241.105 4   -773569.87948  22998878.65148
  20816998.831 6    110414.559 6     84407.39849  20816996.81249
  23012292.972 5    301098.676 5    221337.75447  23012293.36647
  21107362.550 6    355415.383 6    268518.85548  21107358.92948
  23794132.253 4   -690539.852 4   -514103.58248  23794131.85548
  22358850.183 6   -703406.555 6   -535475.00447  22358845.80847
  23350975.815 5  -1017474.305 5   -750698.99246  23350972.11246
  21422449.105 6   -479780.723 6   -361573.86749  21422449.24949
 20  5 16  5 20 27.9990000  0  9G01G03G07G08G11G17G22G28G30          0.000410610
  19993558.597 7    -46022.238 7    -35207.44949  19993559.09349
  22998195.558 4  -1060818.676 4   -776357.59448  22998197.65948
  20817082.511 6    110854.277 6     84750.02749  20817080.21449
  23012476.870 5    302063.930 5    222089.89147  23012477.51547
  21107590.019 6    356610.598 6    269450.18848  21107586.14448
  23793697.800 4   -692823.480 4   -515883.04348  23793697.14448
  22358421.151 6   -705661.547 6   -537232.13347  22358416.67147
  23350322.659 5  -1020908.297 5   -753374.83646  23350318.96846
  21422157.394 6   -481315.637 6   -362769.90249  21422156.86649
 20  5 16  5 20 28.9990000  0  9G01G03G07G08G11G17G22G28G30          0.000410048
  19993545.065 7    -46093.699 7    -35263.13749  19993545.41749
  22997515.355 4  -1064396.375 4   -779145.40648  22997517.38248
  20817166.276 6    111294.379 6     85092.96949  20817163.86249
  23012660.144 5    303028.914 5    222841.83247  23012660.84347
  21107817.245 6    357805.828 6    270381.53148  21107813.39448
  23793262.886 4   -695107.230 4   -517662.58647  23793262.81547
  22357991.737 6   -707916.371 6   -538989.14147  22357987.83147
  23349668.792 5  -1024342.602 5   -756050.93046  23349665.21846
  21421865.683 6   -482850.137 6   -363965.62149  21421864.89049
 20  5 16  5 20 29.9990000  0  9G01G03G07G08G11G17G22G28G30          0.000409483
  19993531.909 7    -46164.441 7    -35318.25849  19993532.41749
  22996834.308 4  -1067973.887 4   -781933.07848  22996836.64748
  20817250.347 6    111735.121 6     85436.40249  20817247.92149
  23012843.589 5    303993.953 5    223593.80547  23012844.60547
  21108044.972 6    359001.418 6    271313.16048  21108041.41748
  23792828.190 4   -697390.820 4   -519442.00047  23792828.26547
  22357563.034 6   -710170.684 6   -540745.73847  22357559.02647
  23349015.120 5  -1027776.879 5   -758726.98846  23349012.14746
  21421573.175 6   -484383.922 6   -365160.78149  21421573.07749
 20  5 16  5 20 30.9990000  0  9G01G03G07G08G11G17G22G28G30          0.000408918
  19993518.331 7    -46234.637 7    -35372.95349  19993518.92949
  22996153.870 4  -1071551.303 4   -784720.67248  22996155.64748
  20817334.136 6    112176.375 6     85780.23049  20817331.99549
  23013027.019 5    304958.832 5    224345.66047  23013028.23347
  21108272.573 6    360197.137 6    272244.89147  21108268.53447
  23792393.722 4   -699674.332 4   -521221.35947  23792393.56547
  22357134.026 6   -712424.695 6   -542502.11747  22357129.82347
  23348361.815 5  -1031211.297 5   -761403.15246  23348358.55446
  21421281.120 6   -485917.172 6   -366355.52349  21421280.98049
 20  5 16  5 20 31.9990000  0  9G01G03G07G08G11G17G22G28G30          0.000408356
  19993504.917 7    -46304.293 7    -35427.23049  19993505.70249
  22995472.722 4  -1075128.749 4   -787508.29148  22995474.91748
  20817418.237 6    112618.117 6     86124.44149  20817416.00749
  23013210.706 5    305923.629 5    225097.45747  23013211.68347
  21108500.269 6    361393.020 6    273176.74647  21108496.21847
  23791959.097 4   -701957.824 4   -523000.70748  23791959.13248
  22356705.058 6   -714678.387 6   -544258.23847  22356700.86647
  23347708.605 5  -1034645.879 5   -764079.44546  23347704.99546
  21420989.886 6   -487449.895 6   -367549.84449  21420989.39749
 20  5 16  5 20 32.9990000  0  9G01G03G07G08G11G17G22G28G30          0.000407791
  19993491.714 7    -46373.180 7    -35480.91449  19993492.37049
  22994792.323 4  -1078706.004 4   -790295.76848  22994794.41748
  20817502.230 6    113060.602 6     86469.23049  20817500.54249
  23013394.315 5    306888.527 5    225849.32447  23013395.24147
  21108727.878 6    362589.289 6    274108.90247  21108723.62047
  23791524.339 4   -704241.098 4   -524779.88348  23791524.74548
  22356276.597 6   -716931.535 6   -546013.93447  22356272.18347
  23347055.323 5  -1038080.379 5   -766755.69146  23347051.62446
  21420698.308 6   -488981.852 6   -368743.58249  21420697.64749
 20  5 16  5 20 33.9990000  0  9G01G03G07G08G11G17G22G28G30          0.000407227
  19993478.753 7    -46441.480 7    -35534.13349  19993479.72649
  22994110.980 4  -1082283.102 4   -793083.11748  22994113.56548
  20817586.972 6    113503.621 6     86814.44549  20817584.44849
  23013578.073 5    307853.270 5    226601.07447  23013578.80447
  21108955.534 6    363785.750 6    275041.21147  21108951.53047
  23791090.261 4   -706524.293 4   -526559.00048  23791090.01148
  22355847.886 6   -719184.305 6   -547769.34047  22355843.50347
  23346401.589 5  -1041515.012 5   -769432.02046  23346398.20646
  21420406.855 6   -490513.262 6   -369936.89149  21420406.69049
 20  5 16  5 20 34.9990000  0  9G01G03G07G08G11G17G22G28G30          0.000406662
  19993466.003 7    -46509.141 7    -35586.85549  19993466.48749
  22993430.558 4  -1085860.098 4   -795870.37948  22993432.74548
  20817671.378 6    113947.219 6     87160.10549  20817668.89749
  23013761.933 5    308818.004 5    227352.81647  23013762.71047
  21109183.206 6    364982.449 6    275973.70347  21109179.06947
  23790656.065 4   -708807.395 4   -528338.03948  23790656.01948
  22355419.144 6   -721436.688 6   -549524.44147  22355414.83947
  23345748.417 5  -1044949.664 5   -772108.36746  23345744.10146
  21420115.503 6   -492044.016 6   -371129.68849  21420114.92549
 20  5 16  5 20 35.9990000  0  9G01G03G07G08G11G17G22G28G30          0.000406097
  19993453.464 7    -46576.160 7    -35639.07849  19993453.82749
  22992749.831 4  -1089436.992 4   -798657.56348  22992752.08148
  20817755.792 6    114391.410 6     87506.22749  20817753.53849
  23013944.995 5    309782.707 5    228104.52747  23013945.85847
  21109410.878 6    366179.422 6    276906.41047  21109406.92947
  23790220.628 4   -711090.355 4   -530116.96948  23790221.21448
  22354990.386 6   -723688.648 6   -551279.22347  22354986.11647
  23345094.214 5  -1048384.410 5   -774784.79346  23345091.24146
  21419824.573 6   -493574.172 6   -372322.02049  21419823.98349
 20  5 16  5 20 36.9990000  0  9G01G03G07G08G11G17G22G28G30          0.000405535
  19993440.581 7    -46642.656 7    -35690.89549  19993441.08549
  22992068.987 4  -1093013.855 4   -801444.72748  22992071.29248
  20817840.409 6    114836.074 6     87852.71549  20817837.99549
  23014128.480 5    310747.277 5    228856.13747  23014129.38647
  21109638.800 6    367376.512 6    277839.20747  21109634.64747
  23789786.448 4   -713373.328 4   -531895.90248  23789786.72648
  22354562.214 6   -725940.320 6   -553033.76647  22354557.62847
  23344439.948 5  -1051819.313 5   -777461.34046  23344437.39446
  21419533.355 6   -495103.797 6   -373513.93849  21419533.35849
 20  5 16  5 20 37.9990000  0  9G01G03G07G08G11G17G22G28G30          0.000404970
  19993427.956 7    -46708.699 7    -35742.35949  19993428.67949
  22991388.308 4  -1096590.777 4   -804231.93848  22991390.78848
  20817925.269 6    115281.168 6     88199.54349  20817922.70649
  23014311.878 5    311711.613 5    229607.56647  23014312.91347
  21109866.308 6    368573.711 6    278772.08248  21109862.71048
  23789351.894 3   -715656.313 3   -533674.84848  23789352.33948
  22354133.823 6   -728191.730 6   -554788.10947  22354129.33947
  23343786.769 5  -1055254.398 5   -780138.02346  23343783.81946
  21419242.261 6   -496632.965 6   -374705.49649  21419242.33949
 20  5 16  5 20 38.9990000  0  9G01G03G07G08G11G17G22G28G30          0.000404406
  19993415.308 7    -46774.191 7    -35793.38749  19993415.81249
  22990707.901 4  -1100167.680 4   -807019.13748  22990710.48048
  20818010.003 6    115726.719 6     88546.72349  20818007.92149
  23014496.105 5    312675.820 5    230358.89847  23014496.85547
  21110094.511 6    369771.047 6    279705.07848  21110090.34748
  23788916.886 4   -717939.352 4   -535453.84448  23788918.07348
  22353705.565 6   -730442.844 6   -556542.21947  22353700.98047
  23343133.323 5  -1058689.707 5   -782814.88346  23343129.83546
  21418951.355 6   -498161.590 6   -375896.64149  21418951.29649
 20  5 16  5 20 39.9990000  0  9G01G03G07G08G11G17G22G28G30          0.000403841
  19993403.026 7    -46838.996 7    -35843.89149  19993403.28449
  22990027.542 4  -1103744.402 4   -809806.19148  22990029.79248
  20818094.847 6    116172.938 6     88894.41849  20818092.54249
  23014679.776 5    313640.051 5    231110.23847  23014679.76147
  21110322.144 6    370968.688 6    280638.30948  21110318.32748
  23788482.995 4   -720222.156 4   -537232.65648  23788483.62848
  22353276.862 6   -732693.496 6   -558295.97747  22353272.71447
  23342479.065 5  -1062124.984 5   -785491.72746  23342475.72646
  21418660.308 6   -499689.559 6   -377087.26249  21418660.46849
 20  5 16  5 20 40.9990000  0  9G01G03G07G08G11G17G22G28G30          0.000403276
  19993391.128 7    -46903.098 7    -35893.83249  19993391.33949
  22989346.331 4  -1107320.938 4   -812593.10548  22989349.01548
  20818179.409 6    116619.816 6     89242.63349  20818177.57349
  23014862.675 5    314604.301 5    231861.60547  23014863.36647
  21110550.042 6    372166.629 6    281571.76647  21110546.13247
  23788048.269 4   -722504.824 4   -539011.35948  23788049.04648
  22352848.972 6   -734943.656 6   -560049.34847  22352844.60147
  23341825.222 5  -1065560.266 5   -788168.57046  23341822.46846
  21418369.847 6   -501216.840 6   -378277.35249  21418369.55849
 20  5 16  5 20 41.9990000  0  9G01G03G07G08G11G17G22G28G30          0.000402712
  19993378.987 7    -46966.605 7    -35943.32849  19993379.07749
  22988665.855 4  -1110897.398 4   -815379.95348  22988668.43348
  20818264.839 6    117067.219 6     89591.25849  20818262.77249
  23015046.097 5    315568.457 5    232612.89847  23015047.08947
  21110778.058 6    373364.777 6    282505.39147  21110774.21047
  23787614.894 4   -724787.402 4   -540789.98848  23787615.07748
  22352420.800 6   -737193.465 6   -561802.43847  22352416.48347
  23341171.948 5  -1068995.656 5   -790845.49246  23341168.67946
  21418079.659 6   -502743.527 6   -379466.98049  21418079.31549
 20  5 16  5 20 42.9990000  0  9G01G03G07G08G11G17G22G28G30          0.000402147
  19993366.972 7    -47029.535 7    -35992.35949  19993367.15949
  22987985.292 4  -1114473.801 4   -818166.75448  22987987.64048
  20818350.097 6    117515.168 6     89940.30949  20818347.92949
  23015229.331 5    316532.555 5    233364.14147  23015230.13647
  21111006.323 6    374563.133 6    283439.16848  21111002.30448
  23787180.362 4   -727069.930 4   -542568.57848  23787180.80448
  22351993.003 6   -739442.918 6   -563555.25847  22351988.64447
  23340518.183 5  -1072431.172 5   -793522.52746  23340514.89046
  21417788.972 6   -504269.637 6   -380656.15249  21417788.79649
 20  5 16  5 20 43.9990000  0  9G01G03G07G08G11G17G22G28G30          0.000401583
  19993355.394 7    -47092.031 7    -36041.05949  19993355.56549
  22987305.292 4  -1118050.313 4   -820953.64148  22987307.44048
  20818435.644 6    117963.480 6     90289.64549  20818433.48049
  23015413.464 5    317496.371 5    234115.17247  23015413.89047
  21111234.136 6    375761.516 6    284372.97347  21111230.42947
  23786745.925 4   -729352.543 4   -544347.24248  23786746.43348
  22351564.839 6   -741692.176 6   -565307.93847  22351560.78047
  23339864.058 5  -1075866.941 5   -796199.73446  23339861.05046
  21417498.792 6   -505795.340 6   -381845.01249  21417498.67149
 20  5 16  5 20 44.9990000  0  9G01G03G07G08G11G17G22G28G30          0.000401018
  19993343.480 7    -47154.066 7    -36089.39849  19993343.42949
  22986624.651 4  -1121626.816 4   -823740.53148  22986626.60548
  20818520.745 6    118412.219 6     90639.30549  20818518.65949
  23015596.675 5    318459.992 5    234866.03947  23015596.88247
  21111462.370 6    376959.996 6    285306.85547  21111458.32747
  23786311.237 4   -731635.188 4   -546125.92648  23786312.01548
  22351136.253 6   -743941.188 6   -567060.41047  22351132.15947
  23339210.175 5  -1079302.926 5   -798877.13746  23339206.85846
  21417208.308 6   -507320.605 6   -383033.53149  21417208.17949
 20  5 16  5 20 45.9990000  0  9G01G03G07G08G11G17G22G28G30          0.000400454
  19993331.675 7    -47215.316 7    -36137.12949  19993332.16749
  22985944.175 4  -1125203.090 4   -826527.23048  22985946.14448
  20818606.269 6    118861.719 6     90989.56349  20818604.25749
  23015780.331 5    319423.773 5    235617.03547  23015780.28047
  21111690.417 6    378158.859 6    286241.03947  21111686.27247
  23785877.292 4   -733917.586 4   -547904.41848  23785877.35148
  22350709.042 6   -746189.633 6   -568812.44947  22350704.37447
  23338556.214 5  -1082738.816 5   -801554.44546  23338553.31246
  21416918.456 6   -508845.055 6   -384221.41049  21416918.05849
 20  5 16  5 20 46.9990000  0  9G01G03G07G08G11G17G22G28G30          0.000399891
  19993320.331 7    -47276.043 7    -36184.44549  19993320.29249
  22985263.948 4  -1128779.359 4   -829313.93048  22985265.45248
  20818691.737 6    119311.688 6     91340.18449  20818689.75349
  23015963.792 5    320387.344 5    236367.86747  23015964.07747
  21111918.761 6    379357.863 6    287175.32447  21111914.55847
  23785443.089 4   -736199.984 4   -549682.91448  23785442.94048
  22350280.948 6   -748437.742 6   -570564.21947  22350276.89747
  23337902.136 5  -1086174.867 5   -804231.87946  23337899.61646
  21416628.386 6   -510369.008 6   -385408.91049  21416628.26149
 20  5 16  5 20 47.9990000  0  9G01G03G07G08G11G17G22G28G30          0.000399324
  19993308.722 7    -47336.160 7    -36231.28949  19993308.67949
  22984582.690 4  -1132355.512 4   -832100.53948  22984585.04648
  20818778.081 6    119762.219 6     91691.25449  20818775.79649
  23016146.808 5    321350.832 5    237118.64147  23016147.72247
  21112146.698 6    380557.113 6    288109.80547  21112142.77247
  23785007.894 4   -738482.273 4   -551461.31647  23785009.05047
  22349853.214 6   -750685.504 6   -572315.72747  22349849.33147
  23337248.753 5  -1089611.020 5   -806909.38746  23337245.66746
  21416338.597 6   -511892.344 6   -386595.92649  21416338.54649
 20  5 16  5 20 48.9990000  0  9G01G03G07G08G11G17G22G28G30          0.000398760
  19993297.456 7    -47395.699 7    -36277.68449  19993297.92549
  22983902.206 4  -1135931.625 4   -834887.11748  22983904.94048
  20818863.558 6    120213.281 6     92042.72349  20818861.04649
  23016330.128 5    322314.301 5    237869.39847  23016330.54247
  21112375.292 6    381756.520 6    289044.40247  21112371.00347
  23784574.347 4   -740764.539 4   -553239.71148  23784574.48748
  22349425.159 6   -752932.914 6   -574066.94947  22349421.50747
  23336594.214 5  -1093047.305 5   -809587.03146  23336591.61646
  21416048.331 6   -513415.125 6   -387782.51249  21416048.49149
 20  5 16  5 20 49.9990000  0  9G01G03G07G08G11G17G22G28G30          0.000398195
  19993286.253 7    -47454.723 7    -36323.68049  19993287.01949
  22983221.448 4  -1139507.762 4   -837673.71148  22983224.05448
  20818949.620 6    120664.773 6     92394.53949  20818947.19449
  23016512.862 5    323277.563 5    238620.00047  23016514.13247
  21112603.745 6    382956.063 6    289979.11347  21112599.66747
  23784139.784 4   -743046.770 4   -555018.07047  23784140.36647
  22348997.722 6   -755180.027 6   -575817.94547  22348993.95247
  23335940.987 5  -1096483.734 5   -812264.77046  23335937.78046
  21415758.948 6   -514937.406 6   -388968.70349  21415758.92549
 20  5 16  5 20 50.9990000  0  9G01G03G07G08G11G17G22G28G30          0.000397631
  19993275.050 7    -47513.121 7    -36369.18049  19993275.41349
  22982541.519 4  -1143083.670 4   -840460.12348  22982543.58148
  20819035.831 6    121116.871 6     92746.82049  20819033.37449
  23016696.472 5    324240.766 5    239370.53947  23016697.38247
  21112832.081 6    384155.844 6    290914.00847  21112827.56947
  23783705.519 4   -745328.953 4   -556796.40648  23783706.08148
  22348570.370 6   -757426.742 6   -577568.62947  22348566.64047
  23335287.042 5  -1099920.285 5   -814942.59446  23335283.75346
  21415469.362 6   -516459.078 6   -390154.42649  21415469.41349
 20  5 16  5 20 51.9990000  0  9G01G03G07G08G11G17G22G28G30          0.000397066
  19993263.698 7    -47571.031 7    -36414.30149  19993264.22649
  22981861.183 4  -1146659.727 4   -843246.65648  22981863.06548
  20819121.815 6    121569.430 6     93099.46949  20819119.19849
  23016879.855 5    325203.824 5    240120.96947  23016880.96847
  21113059.964 6    385355.750 6    291849.00447  21113056.00347
  23783271.144 4   -747611.102 4   -558574.69947  23783271.74947
  22348142.972 6   -759673.141 6   -579319.07047  22348139.21447
  23334633.042 5  -1103356.973 5   -817620.53946  23334629.52246
  21415180.128 6   -517980.258 6   -391339.75849  21415179.47649
 20  5 16  5 20 52.9990000  0  9G01G03G07G08G11G17G22G28G30          0.000396502
  19993252.894 7    -47628.387 7    -36459.00049  19993253.38649
  22981180.769 4  -1150235.723 4   -846033.15248  22981182.48048
  20819208.292 6    122022.469 6     93452.48449  20819205.37049
  23017062.690 5    326166.734 5    240871.28547  23017063.81247
  21113288.128 6    386555.805 6    292784.10947  21113284.28447
  23782837.292 4   -749893.273 4   -560353.01247  23782837.13647
  22347715.425 6   -761919.246 6   -581069.27047  22347711.48747
  23333979.222 5  -1106793.840 5   -820298.61346  23333975.75346
  21414891.019 6   -519500.902 6   -392524.68049  21414890.49549
 20  5 16  5 20 53.9990000  0  9G01G03G07G08G11G17G22G28G30          0.000395937
  19993242.394 7    -47685.129 7    -36503.21149  19993242.89449
  22980499.894 4  -1153811.551 4   -848819.51248  22980502.39448
  20819294.300 6    122476.078 6     93805.94549  20819291.76149
  23017246.198 5    327129.586 5    241621.55547  23017246.98047
  21113516.800 6    387756.074 6    293719.38747  21113512.69047
  23782403.378 4   -752175.332 4   -562131.23847  23782403.15547
  22347287.394 6   -764164.957 6   -582819.16847  22347283.81247
  23333325.190 5  -1110230.801 5   -822976.77346  23333321.35546
  21414601.737 6   -521020.945 6   -393709.12549  21414601.04649
 20  5 16  5 20 54.9990000  0  9G01G03G07G08G11G17G22G28G30          0.000395372
  19993231.644 7    -47741.398 7    -36547.05949  19993231.87049
  22979819.745 4  -1157387.461 4   -851605.93848  22979821.76548
  20819380.511 6    122930.137 6     94159.75849  20819378.51149
  23017428.925 5    328092.258 5    242371.69547  23017430.36647
  21113745.081 6    388956.445 6    294654.73847  21113741.43747
  23781968.659 3   -754457.391 3   -563909.46548  23781969.14048
  22346860.269 6   -766410.430 6   -584568.89147  22346856.98347
  23332670.730 5  -1113667.945 5   -825655.05946  23332667.98346
  21414312.347 6   -522540.492 6   -394893.19549  21414312.10149
 20  5 16  5 20 55.9990000  0  9G01G03G07G08G11G17G22G28G30          0.000394806
  19993221.433 7    -47797.063 7    -36590.43849  19993221.07349
  22979138.394 4  -1160963.262 4   -854392.27348  22979141.44848
  20819467.339 6    123384.738 6     94513.99249  20819464.75349
  23017612.409 5    329054.895 5    243121.79747  23017613.48347
  21113973.909 6    390157.051 6    295590.27347  21113970.26147
  23781534.128 3   -756739.414 3   -565687.66048  23781534.56948
  22346433.511 6   -768655.496 6   -586318.29347  22346429.64047
  23332016.870 5  -1117105.184 5   -828333.42646  23332013.77646
  21414023.425 6   -524059.461 6   -396076.80549  21414022.94449
 20  5 16  5 20 56.9990000  0  9G01G03G07G08G11G17G22G28G30          0.000394241
  19993210.440 7    -47852.094 7    -36633.31649  19993210.93349
  22978458.355 4  -1164538.988 4   -857178.55548  22978461.36248
  20819554.089 6    123839.914 6     94868.66849  20819551.44049
  23017795.378 5    330017.430 5    243871.82447  23017796.59347
  21114202.448 6    391357.887 6    296525.98447  21114198.39047
  23781099.933 4   -759021.328 4   -567465.77747  23781100.10147
  22346006.690 6   -770900.180 6   -588067.40247  22346002.49947
  23331363.034 5  -1120542.492 5   -831011.84046  23331359.11646
  21413734.526 6   -525577.828 6   -397259.95349  21413733.76149
 20  5 16  5 20 57.9990000  0  9G01G03G07G08G11G17G22G28G30          0.000393677
  19993200.003 7    -47906.477 7    -36675.68849  19993200.20249
  22977778.261 4  -1168114.527 4   -859964.68048  22977780.81548
  20819640.151 6    124295.688 6     95223.81349  20819638.21849
  23017978.347 5    330979.961 5    244621.84447  23017979.39747
  21114430.706 6    392558.965 6    297461.88747  21114426.65147
  23780665.745 4   -761303.078 4   -569243.75847  23780666.37447
  22345579.144 6   -773144.418 6   -589816.16047  22345575.45647
  23330708.878 5  -1123979.848 5   -833690.29746  23330705.46046
  21413445.870 6   -527095.543 6   -398442.58649  21413445.30049
 20  5 16  5 20 58.9990000  0  9G01G03G07G08G11G17G22G28G30          0.000393112
  19993189.737 7    -47960.352 7    -36717.67649  19993190.07349
  22977097.878 4  -1171690.086 4   -862750.82048  22977100.52648
  20819727.190 6    124751.957 6     95579.35249  20819725.06249
  23018162.144 5    331942.348 5    245371.75847  23018162.74947
  21114659.144 6    393760.203 6    298397.92247  21114655.64047
  23780232.425 4   -763584.871 4   -571021.77347  23780232.05447
  22345152.081 6   -775388.379 6   -591564.69947  22345148.23747
  23330055.206 5  -1127417.371 5   -836368.89146  23330051.23746
  21413157.034 6   -528612.738 6   -399624.81649  21413156.34749
 20  5 16  5 20 59.9990000  0  9G01G03G07G08G11G17G22G28G30          0.000392546
  19993179.800 7    -48013.609 7    -36759.17649  19993180.12849
  22976417.331 4  -1175265.520 4   -865536.87148  22976420.05448
  20819814.487 6    125208.789 6     95935.31649  20819812.00749
  23018345.011 5    332904.672 5    246121.62147  23018346.03047
  21114888.284 6    394961.645 6    299334.11747  21114884.12447
  23779798.003 4   -765866.559 4   -572799.71147  23779797.42147
  22344725.308 6   -777631.949 6   -593312.93447  22344721.81547
  23329400.683 5  -1130855.000 5   -839047.57046  23329396.97646
  21412868.276 6   -530129.340 6   -400806.58649  21412867.69849
 20  5 16  5 21  0.9990000  0  9G01G03G07G08G11G17G22G28G30          0.000391981
  19993169.565 7    -48066.203 7    -36800.15249  19993170.39049
  22975737.105 4  -1178840.855 4   -868322.84848  22975739.46048
  20819901.050 6    125666.215 6     96291.75049  20819898.82349
  23018528.425 5    333867.004 5    246871.49247  23018529.20647
  21115116.605 6    396163.383 6    300270.53547  21115112.67547
  23779363.823 4   -768148.102 4   -574577.53947  23779363.56547
  22344298.628 6   -779875.063 6   -595060.81647  22344294.62047
  23328746.315 5  -1134292.637 5   -841726.25446  23328742.69046
  21412580.042 6   -531645.281 6   -401987.83649  21412579.29649
 20  5 16  5 21  1.9990000  0  9G01G03G07G08G11G17G22G28G30          0.000391417
  19993160.355 7    -48118.090 7    -36840.59049  19993160.15549
  22975056.464 4  -1182415.977 4   -871108.65248  22975059.09748
  20819988.269 6    126124.309 6     96648.71149  20819986.30049
  23018711.667 5    334829.363 5    247621.37147  23018712.55047
  21115345.300 6    397365.422 6    301207.18447  21115341.66747
  23778929.433 4   -770429.484 4   -576355.24647  23778929.07347
  22343871.714 6   -782117.707 6   -596808.32847  22343867.94847
  23328092.347 5  -1137730.293 5   -844404.94546  23328088.64446
  21412291.589 6   -533160.535 6   -403168.55549  21412290.82349
 20  5 16  5 21  2.9990000  0  9G01G03G07G08G11G17G22G28G30          0.000390852
  19993150.308 7    -48169.320 7    -36880.50849  19993150.36649
  22974376.073 4  -1185990.922 4   -873894.32448  22974378.81548
  20820075.456 6    126583.023 6     97006.15249  20820073.54649
  23018894.128 5    335791.727 5    248371.26247  23018895.56547
  21115573.894 6    398567.758 6    302144.07047  21115569.82347
  23778496.026 4   -772710.664 4   -578132.79747  23778495.56547
  22343444.855 6   -784359.902 6   -598555.49647  22343441.29647
  23327437.745 5  -1141167.926 5   -847083.60546  23327434.42546
  21412002.995 6   -534675.129 6   -404348.75849  21412002.46049
 20  5 16  5 21  3.9990000  0  9G01G03G07G08G11G17G22G28G30          0.000390285
  19993140.433 7    -48219.875 7    -36919.90249  19993140.85549
  22973696.136 4  -1189565.719 4   -876679.88348  22973698.89748
  20820163.136 6    127042.344 6     97364.06349  20820160.69049
  23019077.753 5    336754.070 5    249121.14547  23019078.19447
  21115802.730 6    399770.359 6    303081.15647  21115799.21847
  23778061.292 4   -774991.730 4   -579910.25448  23778060.88248
  22343018.315 6   -786601.680 6   -600302.33247  22343014.76947
  23326783.605 5  -1144605.625 5   -849762.32846  23326780.39446
  21411714.745 6   -536189.059 6   -405528.44949  21411714.94049
 20  5 16  5 21  4.9990000  0  9G01G03G07G08G11G17G22G28G30          0.000389721
  19993130.964 7    -48269.773 7    -36958.77749  19993131.14049
  22973015.698 4  -1193140.395 4   -879465.34448  22973018.24548
  20820250.722 6    127502.309 6     97722.46949  20820248.52249
  23019260.948 5    337716.434 5    249871.03947  23019261.66747
  21116031.972 6    400973.230 6    304018.46147  21116028.26947
  23777627.417 4   -777272.652 4   -581687.59847  23777627.46047
  22342592.081 6   -788842.980 6   -602048.79347  22342588.24147
  23326129.651 5  -1148043.313 5   -852441.04346  23326126.14446
  21411427.112 6   -537702.336 6   -406707.62549  21411427.13249
 20  5 16  5 21  5.9990000  0  9G01G03G07G08G11G17G22G28G30          0.000389156
  19993121.573 7    -48319.195 7    -36997.29349  19993122.24149
  22972336.159 4  -1196715.094 4   -882250.82048  22972338.25348
  20820337.980 6    127962.699 6     98081.21949  20820335.97649
  23019443.987 5    338678.613 5    250620.79347  23019444.54647
  21116260.823 6    402176.207 6    304955.84447  21116257.24147
  23777193.081 4   -779553.641 4   -583464.98847  23777192.75347
  22342165.503 6   -791084.016 6   -603795.04347  22342161.76547
  23325475.605 5  -1151481.246 5   -855119.96146  23325472.08946
  21411139.323 6   -539215.129 6   -407886.43449  21411138.93749
 20  5 16  5 21  6.9990000  0  9G01G03G07G08G11G17G22G28G30          0.000388592
  19993112.589 7    -48368.129 7    -37035.42649  19993112.61249
  22971655.292 4  -1200289.801 4   -885036.29748  22971657.68348
  20820426.073 6    128423.488 6     98440.27049  20820423.50349
  23019626.433 5    339640.535 5    251370.33247  23019627.23747
  21116489.784 6    403379.242 6    305893.28147  21116486.24547
  23776759.425 4   -781834.625 4   -585242.36747  23776758.82747
  22341739.409 6   -793324.840 6   -605541.14147  22341735.17147
  23324821.058 5  -1154919.395 5   -857799.03146  23324817.56546
  21410851.495 6   -540727.480 6   -409064.88749  21410850.94849
 20  5 16  5 21  7.9990000  0  9G01G03G07G08G11G17G22G28G30          0.000388025
  19993103.144 7    -48416.461 7    -37073.09049  19993103.35149
  22970974.448 4  -1203864.414 4   -887821.71148  22970977.08148
  20820513.620 6    128884.859 6     98799.77749  20820511.39749
  23019809.901 5    340602.426 5    252119.85947  23019810.69047
  21116718.714 6    404582.508 6    306830.89147  21116715.14447
  23776324.901 4   -784115.590 4   -587019.74247  23776324.81947
  22341312.659 6   -795565.238 6   -607286.90247  22341309.47647
  23324167.261 5  -1158357.594 5   -860478.16446  23324163.58146
  21410564.097 6   -542239.230 6   -410242.86749  21410563.53849
 20  5 16  5 21  8.9990000  0  9G01G03G07G08G11G17G22G28G30          0.000387461
  19993093.636 7    -48464.207 7    -37110.28949  19993094.22249
  22970295.151 4  -1207438.969 4   -890607.07048  22970297.11248
  20820601.784 6    129346.758 6     99159.69949  20820599.39749
  23019993.159 5    341564.234 5    252869.32847  23019993.76147
  21116948.026 6    405786.023 6    307768.69547  21116944.45647
  23775891.409 4   -786396.422 4   -588797.02047  23775890.81947
  22340886.339 6   -797805.289 6   -609032.40247  22340882.59747
  23323512.011 5  -1161795.941 5   -863157.40246  23323509.27646
  21410275.589 6   -543750.375 6   -411420.38749  21410275.82349
 20  5 16  5 21  9.9990000  0  9G01G03G07G08G11G17G22G28G30          0.000386896
  19993085.214 7    -48511.297 7    -37146.97749  19993085.60149
  22969614.550 4  -1211013.429 4   -893392.36148  22969617.20248
  20820689.730 6    129809.277 6     99520.10549  20820687.24549
  23020175.628 5    342525.996 5    253618.75847  23020177.01947
  21117176.808 6    406989.742 6    308706.65247  21117173.20647
  23775457.042 4   -788677.160 4   -590574.21947  23775457.16347
  22340460.073 6   -800044.891 6   -610777.54747  22340456.56547
  23322858.011 5  -1165234.309 5   -865836.65246  23322855.08946
  21409988.253 6   -545260.898 6   -412597.41849  21409988.21049
 20  5 16  5 21 10.9990000  0  9G01G03G07G08G11G17G22G28G30          0.000386330
  19993076.550 7    -48557.816 7    -37183.23449  19993076.86649
  22968934.526 4  -1214587.723 4   -896177.52348  22968936.94048
  20820777.948 6    130272.336 6     99880.92649  20820775.66349
  23020358.542 5    343487.676 5    254368.12147  23020359.90947
  21117405.745 6    408193.664 6    309644.77747  21117402.73047
  23775022.940 4   -790957.801 4   -592351.33647  23775022.92147
  22340034.214 6   -802284.156 6   -612522.42247  22340030.48747
  23322204.206 5  -1168672.797 5   -868515.98046  23322200.78446
  21409701.558 6   -546770.867 6   -413774.02349  21409700.99149
 20  5 16  5 21 11.9990000  0  9G01G03G07G08G11G17G22G28G30          0.000385765
  19993067.644 7    -48603.848 7    -37219.10249  19993067.81949
  22968255.073 5  -1218162.070 5   -898962.72748  22968256.75748
  20820865.995 6    130735.828 6    100242.08249  20820863.81949
  23020541.503 5    344449.223 5    255117.37947  23020542.66747
  21117634.675 6    409397.715 6    310582.98847  21117631.55447
  23774588.917 4   -793238.480 4   -594128.49647  23774588.87047
  22339608.284 6   -804523.141 6   -614267.09047  22339604.28847
  23321549.323 5  -1172111.484 5   -871195.48046  23321546.31246
  21409414.105 6   -548280.309 6   -414950.21149  21409413.92549
 20  5 16  5 21 12.9990000  0  9G01G03G07G08G11G17G22G28G30          0.000385201
  19993058.784 7    -48649.383 7    -37254.58249  19993059.44049
  22967573.909 4  -1221736.480 4   -901747.97748  22967576.51948
  20820954.683 6    131199.742 6    100603.57849  20820952.37849
  23020724.659 5    345410.520 5    255866.43847  23020726.06247
  21117864.440 6    410601.816 6    311521.25447  21117860.79647
  23774154.909 4   -795519.238 4   -595905.71547  23774154.98047
  22339182.081 6   -806761.879 6   -616011.55547  22339178.20247
  23320895.425 5  -1175550.402 5   -873875.15646  23320892.08946
  21409126.980 6   -549789.316 6   -416126.06349  21409126.60549
 20  5 16  5 21 13.9990000  0  9G01G03G07G08G11G17G22G28G30          0.000384634
  19993050.112 7    -48694.422 7    -37289.67649  19993050.50749
  22966894.370 4  -1225310.883 4   -904533.22348  22966895.85148
  20821042.573 6    131664.113 6    100965.41849  20821040.46849
  23020907.667 5    346371.688 5    256615.39547  23020908.92147
  21118093.175 6    411806.074 6    312459.62947  21118089.65947
  23773721.073 4   -797799.984 4   -597682.92647  23773720.91747
  22338755.722 6   -809000.320 6   -617755.79747  22338752.34347
  23320240.417 5  -1178989.500 5   -876554.96546  23320237.72646
  21408839.448 6   -551297.789 6   -417301.49249  21408839.58949
 20  5 16  5 21 14.9990000  0  9G01G03G07G08G11G17G22G28G30          0.000384069
  19993041.855 7    -48738.773 7    -37324.23849  19993041.85849
  22966213.901 4  -1228885.059 4   -907318.29748  22966216.37048
  20821131.355 6    132129.133 6    101327.77049  20821129.21449
  23021090.605 5    347332.816 5    257364.32447  23021091.77647
  21118322.620 6    413010.613 6    313398.23048  21118319.22648
  23773287.612 4   -800080.582 4   -599460.01247  23773287.01947
  22338329.933 6   -811238.285 6   -619499.66847  22338326.62847
  23319585.550 5  -1182428.578 5   -879234.76646  23319582.95246
  21408552.878 6   -552805.602 6   -418476.41449  21408552.58549
 20  5 16  5 21 15.9990000  0  9G01G03G07G08G11G17G22G28G30          0.000383503
  19993033.386 7    -48782.570 7    -37358.36349  19993033.88649
  22965534.440 5  -1232459.285 5   -910103.40648  22965535.81948
  20821219.808 6    132594.676 6    101690.53549  20821217.48049
  23021273.237 5    348293.870 5    258113.19647  23021275.00347
  21118551.831 6    414215.332 6    314336.97347  21118548.63647
  23772853.339 4   -802361.125 4   -601237.05948  23772853.36648
  22337904.448 6   -813475.918 6   -621243.27347  22337900.63247
  23318931.964 5  -1185867.793 5   -881914.68846  23318928.55446
  21408266.159 6   -554312.859 6   -419650.89849  21408265.82349
 20  5 16  5 21 16.9990000  0  9G01G03G07G08G11G17G22G28G30          0.000382938
  19993024.940 7    -48825.844 7    -37392.08649  19993025.31549
  22964853.987 5  -1236033.414 5   -912888.43448  22964856.07748
  20821308.409 6    133060.637 6    102053.61349  20821306.11249
  23021456.308 5    349254.787 5    258861.96047  23021457.48347
  21118781.151 6    415420.164 6    315275.80547  21118777.68747
  23772419.690 4   -804641.660 4   -603014.10248  23772419.00748
  22337478.980 6   -815713.262 6   -622986.65247  22337475.05447
  23318277.167 5  -1189307.180 5   -884594.71146  23318274.39046
  21407979.511 6   -555819.637 6   -420825.01649  21407979.16349
 20  5 16  5 21 17.9990000  0  9G01G03G07G08G11G17G22G28G30          0.000382372
  19993017.190 7    -48868.551 7    -37425.36349  19993017.41349
  22964173.355 4  -1239607.500 4   -915673.44548  22964175.67948
  20821397.331 6    133527.160 6    102417.14149  20821395.01549
  23021639.401 5    350215.539 5    259610.59847  23021640.46047
  21119010.378 6    416625.188 6    316214.78147  21119006.80447
  23771985.292 4   -806922.168 4   -604791.11748  23771985.39048
  22337053.065 6   -817950.246 6   -624729.75847  22337049.23347
  23317622.526 5  -1192746.715 5   -887274.86346  23317619.52246
  21407693.011 6   -557325.805 6   -421998.64849  21407692.23749
 20  5 16  5 21 18.9990000  0  9G01G03G07G08G11G17G22G28G30          0.000381807
  19993009.222 7    -48910.625 7    -37458.14549  19993009.37049
  22963493.308 4  -1243181.484 4   -918458.36348  22963495.37848
  20821486.144 6    133994.270 6    102781.12549  20821484.40549
  23021822.323 5    351176.273 5    260359.21947  23021823.13647
  21119239.644 6    417830.453 6    317153.94947  21119236.53847
  23771551.214 4   -809202.563 4   -606568.04748  23771551.12048
  22336627.026 6   -820186.828 6   -626472.55547  22336623.65947
  23316968.175 5  -1196186.293 5   -889955.05146  23316965.00346
  21407406.276 6   -558831.379 6   -423171.82849  21407406.17149
 20  5 16  5 21 19.9990000  0  9G01G03G07G08G11G17G22G28G30          0.000381241
  19993001.355 7    -48952.016 7    -37490.39849  19993001.59349
  22962813.651 4  -1246755.277 4   -921243.13748  22962815.67148
  20821575.089 6    134462.000 6    103145.59049  20821572.76149
  23022004.589 5    352137.035 5    261107.86347  23022005.73747
  21119469.448 6    419036.020 6    318093.35247  21119465.72647
  23771116.862 4   -811482.793 4   -608344.84848  23771117.38648
  22336201.581 6   -822422.930 6   -628214.96947  22336198.14047
  23316313.480 5  -1199625.859 5   -892635.25046  23316310.42546
  21407120.175 6   -560336.254 6   -424344.45749  21407119.64049
 20  5 16  5 21 20.9990000  0  9G01G03G07G08G11G17G22G28G30          0.000380676
  19992993.581 7    -48992.758 7    -37522.14849  19992993.66749
  22962133.097 4  -1250328.969 4   -924027.82848  22962135.19848
  20821664.276 6    134930.348 6    103510.53949  20821662.03449
  23022187.706 5    353097.742 5    261856.46547  23022188.99147
  21119698.815 6    420241.836 6    319032.94547  21119695.23747
  23770683.409 4   -813762.883 4   -610121.53548  23770683.67548
  22335776.034 6   -824658.625 6   -629957.07447  22335773.14447
  23315658.464 5  -1203065.461 5   -895315.46546  23315655.70246
  21406833.878 6   -561840.512 6   -425516.61349  21406833.18749
 20  5 16  5 21 21.9990000  0  9G01G03G07G08G11G17G22G28G30          0.000380110
  19992985.878 7    -49032.992 7    -37553.50049  19992985.92549
  22961453.487 4  -1253902.609 4   -926812.48448  22961455.19048
  20821753.589 6    135399.137 6    103875.82449  20821751.41349
  23022369.909 5    354058.293 5    262604.93447  23022371.71047
  21119928.175 6    421447.785 6    319972.64847  21119924.53047
  23770249.308 4   -816043.012 4   -611898.26248  23770249.76548
  22335351.159 6   -826894.023 6   -631698.93847  22335347.70247
  23315003.792 5  -1206505.293 5   -897995.84446  23315001.32746
  21406547.519 6   -563344.250 6   -426688.35549  21406547.19049
 20  5 16  5 21 22.9990000  0  9G01G03G07G08G11G17G22G28G30          0.000379543
  19992977.909 7    -49072.598 7    -37584.35949  19992978.57749
  22960773.800 4  -1257476.164 4   -929597.06648  22960775.44048
  20821842.761 6    135868.504 6    104241.56349  20821840.42549
  23022553.026 5    355018.828 5    263353.39847  23022554.62047
  21120157.370 6    422653.984 6    320912.55147  21120154.22647
  23769816.159 4   -818322.966 4   -613674.84248  23769815.63648
  22334925.909 6   -829128.988 6   -633440.47347  22334921.98347
  23314349.925 5  -1209945.148 5   -900676.24646  23314346.67546
  21406261.761 6   -564847.383 6   -427859.62949  21406261.19049
 20  5 16  5 21 23.9990000  0  9G01G03G07G08G11G17G22G28G30          0.000378979
  19992971.128 7    -49111.656 7    -37614.79749  19992970.84349
  22960093.073 4  -1261049.656 4   -932381.60548  22960095.18348
  20821932.222 6    136338.410 6    104607.71949  20821929.93749
  23022736.261 5    355979.285 5    264101.81347  23022737.46847
  21120387.448 6    423860.355 6    321852.57047  21120383.73047
  23769382.417 4   -820602.965 4   -615451.46548  23769381.62448
  22334500.128 6   -831363.637 6   -635181.75447  22334497.10847
  23313695.573 5  -1213385.133 5   -903356.76246  23313692.13646
  21405975.300 6   -566349.957 6   -429030.46549  21405975.34349
 20  5 16  5 21 24.9990000  0  9G01G03G07G08G11G17G22G28G30          0.000378412
  19992963.573 7    -49150.051 7    -37644.71149  19992963.88249
  22959413.261 5  -1264622.982 5   -935166.01648  22959415.20248
  20822021.870 6    136808.883 6    104974.32449  20822019.65149
  23022918.526 5    356939.672 5    264850.17247  23022920.14447
  21120617.120 6    425066.957 6    322792.77347  21120613.42947
  23768948.722 4   -822882.828 4   -617227.98048  23768947.98348
  22334074.964 6   -833597.836 6   -636922.68847  22334071.94847
  23313040.776 5  -1216825.172 5   -906037.30946  23313037.07346
  21405689.487 6   -567851.879 6   -430200.79749  21405689.83149
 20  5 16  5 21 25.9990000  0  9G01G03G07G08G11G17G22G28G30          0.000377846
  19992956.315 7    -49187.871 7    -37674.18049  19992956.16349
  22958733.519 5  -1268196.277 5   -937950.39848  22958735.40148
  20822111.308 6    137279.914 6    105341.35949  20822109.21449
  23023101.144 5    357900.000 5    265598.47347  23023102.76947
  21120846.581 6    426273.777 6    323733.15647  21120843.33147
  23768514.628 5   -825162.605 5   -619004.43048  23768513.78448
  22333650.292 6   -835831.688 6   -638663.34847  22333646.38647
  23312386.214 5  -1220265.324 5   -908717.95346  23312382.65946
  21405403.769 6   -569353.234 6   -431370.68449  21405403.58949
 20  5 16  5 21 26.9990000  0  9G01G03G07G08G11G17G22G28G30          0.000377281
  19992949.495 7    -49225.035 7    -37703.14149  19992949.53049
  22958053.558 5  -1271769.426 5   -940734.66848  22958055.30048
  20822200.761 6    137751.547 6    105708.86349  20822198.74949
  23023284.058 5    358860.316 5    266346.77347  23023285.46047
  21121076.261 6    427480.863 6    324673.74247  21121073.03047
  23768081.261 5   -827442.242 5   -620780.76248  23768080.31548
  22333224.808 6   -838065.082 6   -640403.65647  22333221.41347
  23311731.230 5  -1223705.492 5   -911398.59846  23311727.53846
  21405118.386 6   -570853.941 6   -432540.07049  21405118.06249
 20  5 16  5 21 27.9990000  0  9G01G03G07G08G11G17G22G28G30          0.000376715
  19992942.401 7    -49261.535 7    -37731.58249  19992942.82349
  22957373.667 4  -1275342.430 4   -943518.82848  22957375.52648
  20822290.964 6    138223.777 6    106076.83249  20822289.01949
  23023466.159 5    359820.590 5    267095.03547  23023468.44047
  21121306.175 6    428688.207 6    325614.52747  21121302.86647
  23767647.292 5   -829721.758 5   -622557.00848  23767645.89048
  22332800.081 6   -840298.074 6   -642143.64847  22332796.74547
  23311076.565 5  -1227145.723 5   -914079.29346  23311073.48346
  21404833.042 6   -572354.023 6   -433708.96549  21404832.68349
 20  5 16  5 21 28.9990000  0  9G01G03G07G08G11G17G22G28G30          0.000376150
  19992935.589 7    -49297.465 7    -37759.58249  19992935.48049
  22956694.511 5  -1278915.301 5   -946302.88348  22956695.58948
  20822381.003 6    138696.582 6    106445.25449  20822378.99949
  23023649.206 5    360780.820 5    267843.26647  23023650.74147
  21121535.667 6    429895.773 6    326555.48847  21121532.29247
  23767213.417 5   -832001.168 5   -624333.17647  23767212.47247
  22332375.667 6   -842530.672 6   -643883.34047  22332371.74147
  23310421.964 5  -1230586.020 5   -916760.05146  23310418.64446
  21404547.534 6   -573853.492 6   -434877.38349  21404547.73349
 20  5 16  5 21 29.9990000  0  9G01G03G07G08G11G17G22G28G30          0.000375584
  19992928.706 7    -49332.750 7    -37787.07449  19992928.95649
  22956013.620 5  -1282488.086 5   -949086.86748  22956015.90948
  20822471.073 6    139169.949 6    106814.10549  20822468.51149
  23023832.565 5    361740.969 5    268591.43847  23023833.67947
  21121765.355 6    431103.574 6    327496.62947  21121762.42547
  23766780.323 4   -834280.449 4   -626109.24647  23766778.87847
  22331950.855 6   -844762.840 6   -645622.68847  22331946.76147
  23309767.636 5  -1234026.359 5   -919440.83646  23309763.56246
  21404261.901 6   -575352.340 6   -436045.31349  21404262.24149
 20  5 16  5 21 30.9990000  0  9G01G03G07G08G11G17G22G28G30          0.000375017
  19992922.300 7    -49367.523 7    -37814.17249  19992922.34349
  22955334.058 4  -1286060.832 4   -951870.81648  22955335.93748
  20822561.050 6    139643.789 6    107183.33249  20822558.94849
  23024014.558 5    362700.988 5    269339.49647  23024016.30047
  21121995.542 6    432311.492 6    328437.86747  21121992.49547
  23766345.487 5   -836559.781 5   -627885.34847  23766345.09347
  22331525.948 6   -846994.738 6   -647361.82447  22331522.66747
  23309113.175 5  -1237466.926 5   -922121.79746  23309109.27646
  21403977.355 6   -576850.676 6   -437212.84849  21403977.10849
 20  5 16  5 21 31.9990000  0  9G01G03G07G08G11G17G22G28G30          0.000374453
  19992915.667 7    -49401.672 7    -37840.78149  19992916.17149
  22954654.190 4  -1289633.520 4   -954654.73448  22954656.03448
  20822651.230 6    140118.180 6    107552.99249  20822649.61249
  23024198.003 5    363660.984 5    270087.54747  23024198.68347
  21122225.323 6    433519.645 6    329379.29347  21122221.76547
  23765912.448 5   -838839.031 5   -629661.38748  23765910.88248
  22331101.019 6   -849226.242 6   -649100.66047  22331097.46847
  23308457.683 5  -1240907.559 5   -924802.80546  23308454.35546
  21403692.120 6   -578348.426 6   -438379.92649  21403692.00349
 20  5 16  5 21 32.9990000  0  9G01G03G07G08G11G17G22G28G30          0.000373886
  19992909.378 7    -49435.133 7    -37866.85249  19992909.33949
  22953974.448 5  -1293205.965 5   -957438.44948  22953976.46848
  20822741.964 6    140593.234 6    107923.15649  20822739.84349
  23024380.253 5    364620.926 5    270835.55147  23024381.52647
  21122455.284 6    434728.105 6    330320.94547  21122452.20247
  23765478.300 5   -841118.082 5   -631437.27347  23765477.64447
  22330676.855 6   -851457.254 6   -650839.10947  22330673.07347
  23307803.097 5  -1244348.145 5   -927483.77346  23307799.72246
  21403407.534 6   -579845.469 6   -439546.45349  21403407.28049
 20  5 16  5 21 33.9990000  0  9G01G03G07G08G11G17G22G28G30          0.000373322
  19992903.190 7    -49467.953 7    -37892.43049  19992903.60149
  22953294.667 4  -1296778.309 4   -960222.08648  22953296.16348
  20822832.339 6    141068.875 6    108293.78149  20822830.31949
  23024562.909 5    365580.859 5    271583.54347  23024564.24547
  21122685.620 6    435936.824 6    331262.79347  21122682.43747
  23765044.581 5   -843397.012 5   -633213.06647  23765043.72647
  22330251.886 6   -853687.836 6   -652577.23047  22330248.73047
  23307148.511 5  -1247788.832 5   -930164.83646  23307144.76146
  21403122.909 6   -581341.883 6   -440712.49249  21403122.34349
 20  5 16  5 21 34.9990000  0  9G01G03G07G08G11G17G22G28G30          0.000372755
  19992897.105 7    -49500.176 7    -37917.53949  19992896.94049
  22952614.995 4  -1300350.543 4   -963005.64548  22952616.73048
  20822923.089 6    141545.078 6    108664.84849  20822920.89049
  23024745.667 5    366540.750 5    272331.51247  23024746.90547
  21122915.105 6    437145.762 6    332204.82047  21122912.00747
  23764611.261 4   -845675.863 4   -634988.79747  23764610.01547
  22329827.198 6   -855918.039 6   -654315.04747  22329824.18347
  23306493.956 5  -1251229.555 5   -932845.92246  23306490.07746
  21402838.019 6   -582837.695 6   -441878.05549  21402837.71449
 20  5 16  5 21 35.9990000  0  9G01G03G07G08G11G17G22G28G30          0.000372189
  19992890.698 7    -49531.789 7    -37942.17249  19992891.07749
  22951935.237 4  -1303922.699 4   -965789.14148  22951937.06548
  20823013.808 6    142021.855 6    109036.36349  20823011.63249
  23024927.815 5    367500.578 5    273079.42247  23024929.57347
  21123145.315 6    438354.934 6    333147.03547  21123142.09747
  23764177.183 5   -847954.613 5   -636764.43847  23764176.43347
  22329403.456 6   -858147.852 6   -656052.55947  22329400.28847
  23305839.284 5  -1254670.359 5   -935527.07046  23305835.40946
  21402553.315 6   -584332.898 6   -443043.15249  21402553.29249
 20  5 16  5 21 36.9990000  0  9G01G03G07G08G11G17G22G28G30          0.000371622
  19992885.136 7    -49562.727 7    -37966.27349  19992885.30849
  22951255.339 5  -1307494.637 5   -968572.46948  22951257.35148
  20823104.620 6    142499.254 6    109408.35949  20823102.06549
  23025110.761 5    368460.402 5    273827.33647  23025111.92547
  21123375.472 6    439564.379 6    334089.45747  21123372.69447
  23763743.784 4   -850233.219 4   -638539.97747  23763742.64047
  22328979.214 6   -860377.211 6   -657789.72747  22328975.88247
  23305184.526 5  -1258111.211 5   -938208.25446  23305180.43746
  21402269.144 6   -585827.434 6   -444207.72749  21402269.01949
 20  5 16  5 21 37.9990000  0  9G01G03G07G08G11G17G22G28G30          0.000371058
  19992879.144 7    -49593.207 7    -37990.02749  19992879.40549
  22950575.612 5  -1311066.637 5   -971355.84448  22950577.55448
  20823195.456 6    142977.059 6    109780.67249  20823192.89749
  23025293.995 5    369420.031 5    274575.09847  23025294.56547
  21123605.675 6    440773.883 6    335031.92247  21123602.74547
  23763309.792 4   -852511.867 4   -640315.54347  23763308.83547
  22328555.042 6   -862606.316 6   -659526.69147  22328551.49147
  23304528.815 5  -1261552.270 5   -940889.59846  23304525.58146
  21401984.995 6   -587321.520 6   -445371.94949  21401984.61649
 20  5 16  5 21 38.9990000  0  9G01G03G07G08G11G17G22G28G30          0.000370491
  19992873.761 7    -49623.047 7    -38013.28149  19992873.84349
  22949896.222 5  -1314638.512 5   -974139.11748  22949897.75748
  20823286.425 6    143455.465 6    110153.45349  20823284.19849
  23025476.308 5    370379.605 5    275322.82047  23025477.15947
  21123836.245 6    441983.645 6    335974.59847  21123833.13647
  23762876.690 4   -854790.418 4   -642091.02747  23762875.46847
  22328131.409 6   -864835.016 6   -661263.33247  22328127.74947
  23303874.730 5  -1264993.363 5   -943570.96946  23303870.87846
  21401700.542 6   -588814.961 6   -446535.67249  21401700.41749
 20  5 16  5 21 39.9990000  0  9G01G03G07G08G11G17G22G28G30          0.000369925
  19992867.878 7    -49652.152 7    -38035.96149  19992867.86649
  22949215.878 5  -1318210.203 5   -976922.25048  22949217.90548
  20823377.628 6    143934.504 6    110526.73049  20823375.23749
  23025658.433 5    371339.211 5    276070.55947  23025659.85547
  21124066.230 6    443193.742 6    336917.53147  21124062.87447
  23762443.097 4   -857068.770 4   -643866.36347  23762441.73347
  22327706.847 6   -867063.199 6   -662999.57447  22327703.46047
  23303219.183 5  -1268434.465 5   -946252.34846  23303215.74946
  21401416.573 6   -590307.695 6   -447698.84849  21401416.25749
 20  5 16  5 21 40.9990000  0  9G01G03G07G08G11G17G22G28G30          0.000369360
  19992862.362 7    -49680.816 7    -38058.29349  19992862.84749
  22948536.401 5  -1321781.910 5   -979705.39848  22948538.17548
  20823468.495 6    144413.977 6    110900.34849  20823466.46449
  23025841.581 5    372298.645 5    276818.17647  23025842.97647
  21124297.050 6    444403.902 6    337860.51647  21124293.08947
  23762010.097 5   -859347.184 5   -645641.75047  23762007.60547
  22327282.612 6   -869291.164 6   -664735.64847  22327279.55447
  23302564.823 5  -1271875.789 5   -948933.90246  23302560.81946
  21401132.737 6   -591800.016 6   -448861.69149  21401132.40149
 20  5 16  5 21 41.9990000  0  9G01G03G07G08G11G17G22G28G30          0.000368793
  19992857.206 7    -49708.883 7    -38080.16849  19992857.34749
  22947856.644 5  -1325353.516 5   -982488.46148  22947858.35148
  20823560.823 6    144894.012 6    111274.39849  20823558.16749
  23026023.597 5    373257.984 5    277565.71547  23026025.49147
  21124527.190 6    445614.270 6    338803.65247  21124523.84747
  23761576.315 5   -861625.504 5   -647417.05948  23761574.25348
  22326858.636 6   -871518.719 6   -666471.41047  22326855.59347
  23301909.964 5  -1275317.152 5   -951615.47746  23301905.97646
  21400849.011 6   -593291.691 6   -450024.03949  21400848.60849
 20  5 16  5 21 42.9990000  0  9G01G03G07G08G11G17G22G28G30          0.000368227
  19992852.003 7    -49736.348 7    -38101.57049  19992851.98749
  22947177.042 5  -1328925.051 5   -985271.47748  22947179.09348
  20823652.230 6    145374.566 6    111648.85549  20823649.56249
  23026205.909 5    374217.258 5    278313.20347  23026207.74947
  21124756.862 6    446824.836 6    339746.95347  21124754.08147
  23761142.745 5   -863903.777 5   -649192.33648  23761140.37848
  22326435.120 6   -873745.930 6   -668206.90247  22326431.83947
  23301255.190 5  -1278758.703 5   -954297.19146  23301251.43346
  21400565.058 6   -594782.805 6   -451185.94549  21400564.51549
 20  5 16  5 21 43.9990000  0  9G01G03G07G08G11G17G22G28G30          0.000367662
  19992846.769 7    -49763.059 7    -38122.37949  19992846.95649
  22946497.261 5  -1332496.320 5   -988054.27748  22946499.77248
  20823743.425 6    145855.836 6    112023.86749  20823741.35849
  23026388.745 5    375176.641 5    279060.76247  23026390.33947
  21124987.948 6    448035.785 6    340690.55147  21124984.58947
  23760709.355 5   -866181.793 5   -650967.41447  23760707.11247
  22326011.355 6   -875972.578 6   -669941.95347  22326008.27247
  23300600.503 5  -1282200.113 5   -956978.81646  23300596.66746
  21400281.792 6   -596273.160 6   -452347.26249  21400281.08549
 20  5 16  5 21 44.9990000  0  9G01G03G07G08G11G17G22G28G30          0.000367096
  19992841.987 7    -49789.121 7    -38142.68849  19992842.06249
  22945817.956 5  -1336067.469 5   -990836.99248  22945819.87448
  20823835.058 6    146337.703 6    112399.35249  20823833.02249
  23026571.628 5    376135.984 5    279808.30547  23026572.26947
  21125218.222 6    449246.992 6    341634.34847  21125214.90947
  23760275.605 5   -868459.648 5   -652742.37147  23760273.23047
  22325587.964 6   -878198.789 6   -671676.66047  22325584.23747
  23299946.073 5  -1285641.602 5   -959660.50446  23299941.76946
  21399998.065 6   -597762.863 6   -453508.07449  21399997.55449
 20  5 16  5 21 45.9990000  0  9G01G03G07G08G11G17G22G28G30          0.000366529
  19992837.042 7    -49814.676 7    -38162.60549  19992837.56949
  22945138.464 5  -1339638.543 5   -993619.65248  22945140.25748
  20823927.050 6    146820.047 6    112775.19949  20823924.48749
  23026753.667 5    377095.188 5    280555.73447  23026755.30447
  21125448.511 6    450458.320 6    342578.23847  21125445.60547
  23759842.605 5   -870737.547 5   -654517.35947  23759839.91347
  22325164.097 6   -880424.703 6   -673411.14547  22325160.60547
  23299290.487 5  -1289083.238 5   -962342.30546  23299286.64046
  21399714.464 6   -599252.090 6   -454668.50849  21399714.05449
 20  5 16  5 21 46.9990000  0  9G01G03G07G08G11G17G22G28G30          0.000365963
  19992832.347 7    -49839.547 7    -38181.98449  19992832.50349
  22944459.019 5  -1343209.523 5   -996402.23048  22944460.57748
  20824019.019 6    147303.043 6    113151.56349  20824016.52649
  23026936.565 5    378054.391 5    281303.16447  23026937.36647
  21125679.370 6    451669.977 6    343522.37947  21125676.09747
  23759408.690 5   -873015.277 5   -656292.21948  23759406.43748
  22324740.394 6   -882650.148 6   -675145.25847  22324737.60147
  23298635.714 5  -1292524.895 5   -965024.11746  23298631.88646
  21399431.159 6   -600740.586 6   -455828.37549  21399431.19449
 20  5 16  5 21 47.9990000  0  9G01G03G07G08G11G17G22G28G30          0.000365398
  19992827.901 7    -49863.941 7    -38200.99249  19992827.38649
  22943779.425 5  -1346780.488 5   -999184.79748  22943781.41348
  20824110.925 6    147786.418 6    113528.21949  20824107.96049
  23027118.769 5    379013.398 5    282050.44547  23027120.27647
  21125909.925 6    452881.715 6    344466.59847  21125906.50347
  23758975.300 5   -875293.027 5   -658067.08647  23758972.57347
  22324317.136 6   -884875.344 6   -676879.18047  22324314.15947
  23297980.964 5  -1295966.762 5   -967706.09446  23297977.19846
  21399148.237 6   -602228.656 6   -456987.91049  21399147.51949
 20  5 16  5 21 48.9990000  0  9G01G03G07G08G11G17G22G28G30          0.000364832
  19992823.183 7    -49887.680 7    -38219.48449  19992823.46849
  22943100.409 4  -1350351.293 4  -1001967.23848  22943101.87048
  20824202.956 6    148270.441 6    113905.37949  20824200.44049
  23027301.370 5    379972.391 5    282797.70747  23027302.80847
  21126140.776 6    454093.707 6    345411.00047  21126136.99147
  23758542.534 5   -877570.664 5   -659841.86748  23758539.90148
  22323893.730 6   -887100.066 6   -678612.72347  22323890.67547
  23297326.050 5  -1299408.641 5   -970388.07446  23297321.85146
  21398864.769 6   -603716.027 6   -458146.90649  21398864.91749
 20  5 16  5 21 49.9990000  0  9G01G03G07G08G11G17G22G28G30          0.000364265
  19992818.534 7    -49910.949 7    -38237.62149  19992819.02249
  22942420.190 4  -1353922.141 4  -1004749.71548  22942422.11648
  20824295.120 6    148754.879 6    114282.85949  20824292.85549
  23027483.315 5    380931.176 5    283544.81647  23027484.89047
  21126371.058 6    455305.777 6    346355.48047  21126367.84347
  23758108.972 5   -879848.340 5   -661616.68447  23758106.12047
  22323470.292 6   -889324.582 6   -680346.11347  22323467.42147
  23296670.651 5  -1302850.762 5   -973070.23446  23296666.97246
  21398582.128 6   -605203.000 6   -459305.58649  21398581.84749
 20  5 16  5 21 50.9990000  0  9G01G03G07G08G11G17G22G28G30          0.000363699
  19992814.511 7    -49933.512 7    -38255.19949  19992814.10549
  22941740.886 4  -1357492.781 4  -1007532.03148  22941742.74548
  20824387.417 6    149239.969 6    114660.84849  20824385.15549
  23027665.980 5    381890.031 5    284291.96947  23027667.65547
  21126601.964 6    456518.172 6    347300.20347  21126598.43747
  23757676.230 5   -882125.844 5   -663391.35547  23757672.50747
  22323046.917 6   -891548.559 6   -682079.07047  22323044.06947
  23296015.651 5  -1306292.816 5   -975752.35546  23296012.16746
  21398299.472 6   -606689.242 6   -460463.69149  21398298.99549
 20  5 16  5 21 51.9990000  0  9G01G03G07G08G11G17G22G28G30          0.000363134
  19992810.175 7    -49955.418 7    -38272.27049  19992810.44449
  22941061.558 4  -1361063.309 4  -1010314.25848  22941063.52248
  20824480.175 6    149725.645 6    115039.30149  20824477.42549
  23027848.550 5    382848.828 5    285039.08247  23027850.05047
  21126832.644 6    457730.820 6    348245.12147  21126829.40147
  23757242.230 5   -884403.262 5   -665165.96947  23757239.36647
  22322623.823 6   -893772.145 6   -683811.74647  22322620.74147
  23295360.737 5  -1309734.988 5   -978434.56346  23295357.21446
  21398016.612 6   -608174.840 6   -461621.29749  21398016.42949
 20  5 16  5 21 52.9990000  0  9G01G03G07G08G11G17G22G28G30          0.000362568
  19992806.144 7    -49976.938 7    -38289.04349  19992806.31249
  22940382.136 5  -1364633.922 5  -1013096.54348  22940383.95648
  20824572.222 6    150211.695 6    115418.03949  20824569.85849
  23028031.159 5    383807.344 5    285785.96547  23028032.45247
  21127063.644 6    458943.496 6    349190.06347  21127059.80847
  23756809.706 5   -886680.730 5   -666940.61748  23756806.02648
  22322200.698 6   -895995.531 6   -685544.25847  22322197.95247
  23294705.761 5  -1313177.398 5   -981116.97346  23294702.33546
  21397733.917 6   -609660.070 6   -462778.62149  21397733.76149
 20  5 16  5 21 53.9990000  0  9G01G03G07G08G11G17G22G28G30          0.000362001
  19992802.605 7    -49997.902 7    -38305.37949  19992802.23749
  22939702.112 5  -1368204.480 5  -1015878.78948  22939704.51948
  20824665.183 6    150698.238 6    115797.16049  20824662.61649
  23028213.355 5    384765.801 5    286532.81646  23028214.85146
  21127294.237 6    460156.309 6    350135.09847  21127290.64447
  23756375.339 5   -888958.191 5   -668715.26648  23756372.73748
  22321777.815 6   -898218.563 6   -687276.48847  22321774.74147
  23294050.198 5  -1316619.977 5   -983799.49646  23294046.92146
  21397451.331 6   -611144.707 6   -463935.47749  21397451.31949
 20  5 16  5 21 54.9990000  0  9G01G03G07G08G11G17G22G28G30          0.000361435
  19992798.058 7    -50018.281 7    -38321.25849  19992798.64449
  22939023.206 5  -1371774.965 5  -1018660.98848  22939025.12848
  20824757.480 6    151185.324 6    116176.70749  20824755.05849
  23028395.870 5    385724.148 5    287279.57847  23028397.25347
  21127525.042 6    461369.324 6    351080.30947  21127521.21447
  23755941.862 5   -891235.566 5   -670489.84448  23755939.33948
  22321355.331 6   -900441.250 6   -689008.44147  22321352.02247
  23293395.565 5  -1320062.648 5   -986482.10246  23293391.94846
  21397169.128 6   -612628.789 6   -465091.90649  21397168.87449
 20  5 16  5 21 55.9990000  0  9G01G03G07G08G11G17G22G28G30          0.000360868
  19992794.370 7    -50037.996 7    -38336.62149  19992795.03449
  22938343.534 5  -1375345.230 5  -1021443.01648  22938345.94448
  20824850.362 6    151673.031 6    116556.73849  20824848.14449
  23028578.644 5    386682.461 5    288026.32447  23028580.01547
  21127756.034 6    462582.637 6    352025.74647  21127752.52647
  23755508.339 5   -893512.809 5   -672264.31648  23755506.02648
  22320932.308 6   -902663.438 6   -690740.01647  22320929.35147
  23292740.214 5  -1323505.324 5   -989164.70746  23292736.66746
  21396887.136 6   -614112.203 6   -466247.81649  21396886.34349
 20  5 16  5 21 56.9990000  0  9G01G03G07G08G11G17G22G28G30          0.000360302
  19992791.019 7    -50057.035 7    -38351.44949  19992791.16749
  22937663.987 5  -1378915.379 5  -1024224.94548  22937666.17148
  20824943.339 6    152161.367 6    116937.25849  20824941.31949
  23028760.761 5    387640.813 5    288773.09447  23028761.90547
  21127986.784 6    463796.219 6    352971.39547  21127983.46447
  23755074.581 5   -895789.852 5   -674038.63348  23755072.87848
  22320508.940 6   -904885.199 6   -692471.25447  22320506.39047
  23292085.159 5  -1326948.051 5   -991847.35246  23292081.57746
  21396604.667 6   -615594.941 6   -467403.20349  21396604.47649
 20  5 16  5 21 57.9990000  0  9G01G03G07G08G11G17G22G28G30          0.000359735
  19992787.097 7    -50075.742 7    -38366.03149  19992787.49149
  22936984.980 4  -1382485.703 4  -1027007.00848  22936986.64448
  20825036.308 6    152649.961 6    117317.98049  20825033.69049
  23028943.144 5    388598.844 5    289519.60247  23028944.37447
  21128217.519 6    465009.742 6    353916.99247  21128214.00347
  23754641.456 5   -898067.156 5   -675813.15248  23754639.64748
  22320087.058 6   -907106.863 6   -694202.42647  22320083.65547
  23291430.206 5  -1330391.113 5   -994530.25846  23291426.22246
  21396322.526 6   -617077.359 6   -468558.32849  21396322.04649
 20  5 16  5 21 58.9990000  0  9G01G03G07G08G11G17G22G28G30          0.000359169
  19992783.761 7    -50093.910 7    -38380.18449  19992784.06549
  22936304.862 4  -1386055.957 4  -1029789.02348  22936307.26948
  20825128.909 6    153139.074 6    117699.10549  20825127.08149
  23029125.284 5    389556.746 5    290266.01247  23029126.28447
  21128448.628 6    466223.422 6    354862.72347  21128445.51147
  23754208.831 5   -900344.387 5   -677587.62148  23754206.19448
  22319663.737 6   -909328.156 6   -695933.30547  22319661.13647
  23290774.878 5  -1333834.316 5   -997213.26646  23290771.08546
  21396040.245 6   -618559.215 6   -469713.03149  21396040.35149
 20  5 16  5 21 59.9990000  0  9G01G03G07G08G11G17G22G28G30          0.000358603
  19992780.651 7    -50111.426 7    -38393.83249  19992780.81549
  22935625.605 5  -1389626.090 5  -1032570.94148  22935628.46448
  20825222.581 6    153628.770 6    118080.68449  20825220.28049
  23029307.722 5    390514.590 5    291012.38347  23029308.68347
  21128679.659 6    467437.359 6    355808.64547  21128676.55047
  23753774.878 5   -902621.539 5   -679362.02348  23753773.07348
  22319240.644 6   -911549.039 6   -697663.85947  22319238.16747
  23290119.558 5  -1337277.570 5   -999896.31346  23290115.70646
  21395759.120 6   -620040.469 6   -470867.25449  21395758.53849
 20  5 16  5 22  0.9990000  0  9G01G03G07G08G11G17G22G28G30          0.000358036
  19992777.519 7    -50128.355 7    -38407.02749  19992777.26549
  22934946.659 4  -1393196.113 4  -1035352.77348  22934948.70248
  20825316.237 6    154119.035 6    118462.70349  20825313.68349
  23029490.003 5    391472.402 5    291758.73047  23029490.70247
  21128910.628 6    468651.496 6    356754.72747  21128907.34347
  23753342.026 5   -904898.578 5   -681136.33248  23753339.86648
  22318818.636 6   -913769.535 6   -699394.12547  22318815.52647
  23289463.855 5  -1340720.895 5  -1002579.43446  23289460.51546
  21395477.261 6   -621521.102 6   -472020.99249  21395476.76949
 20  5 16  5 22  1.9990000  0  9G01G03G07G08G11G17G22G28G30          0.000357470
  19992773.940 7    -50144.688 7    -38419.75449  19992774.03449
  22934267.456 4  -1396766.059 4  -1038134.54348  22934269.29648
  20825409.034 6    154609.805 6    118845.12549  20825406.67549
  23029672.058 5    392430.070 5    292504.96547  23029673.34347
  21129142.058 6    469865.855 6    357700.97747  21129138.65947
  23752908.651 5   -907175.574 5   -682910.60548  23752906.43748
  22318396.331 6   -915989.645 6   -701124.07847  22318393.64047
  23288809.253 5  -1344164.340 5  -1005262.62946  23288805.19846
  21395195.315 6   -623001.160 6   -473174.28949  21395195.03449
 20  5 16  5 22  2.9990000  0  9G01G03G07G08G11G17G22G28G30          0.000356903
  19992771.511 7    -50160.410 7    -38432.00449  19992771.68749
  22933587.714 4  -1400335.918 4  -1040916.25048  22933590.05048
  20825502.847 6    155101.160 6    119227.99249  20825500.21049
  23029853.878 5    393387.715 5    293251.18047  23029855.30847
  21129372.667 6    471080.418 6    358647.39147  21129369.92547
  23752475.800 5   -909452.469 5   -684684.80548  23752473.07348
  22317973.737 6   -918209.410 6   -702853.77047  22317970.72247
  23288153.370 5  -1347607.836 5  -1007945.86346  23288149.89746
  21394913.987 6   -624480.625 6   -474327.12149  21394913.32349
 20  5 16  5 22  3.9990000  0  9G01G03G07G08G11G17G22G28G30          0.000356337
  19992768.612 7    -50175.453 7    -38443.72349  19992768.71049
  22932908.839 4  -1403905.504 4  -1043697.73848  22932910.77248
  20825595.964 6    155593.168 6    119611.38349  20825593.94849
  23030035.792 5    394345.410 5    293997.44147  23030037.42147
  21129604.175 6    472295.305 6    359594.06347  21129600.50747
  23752042.089 5   -911729.191 5   -686458.87148  23752039.98048
  22317551.206 6   -920428.625 6   -704583.02747  22317548.59347
  23287498.667 5  -1351051.344 5  -1010629.12546  23287494.92546
  21394632.589 6   -625959.383 6   -475479.40249  21394632.16749
 20  5 16  5 22  4.9990000  0  9G01G03G07G08G11G17G22G28G30          0.000355770
  19992766.206 7    -50189.930 7    -38455.00849  19992765.73349
  22932230.058 4  -1407475.117 4  -1046479.25448  22932231.38648
  20825689.792 6    156085.664 6    119995.13749  20825687.83949
  23030218.284 5    395302.938 5    294743.56647  23030219.78847
  21129835.190 6    473510.332 6    360540.82847  21129831.85147
  23751609.089 5   -914005.871 5   -688232.90248  23751606.50348
  22317129.386 6   -922647.539 6   -706312.04747  22317126.43747
  23286842.972 5  -1354494.965 5  -1013312.46146  23286839.71446
  21394350.839 6   -627437.602 6   -476631.26249  21394350.54249
 20  5 16  5 22  5.9990000  0  9G01G03G07G08G11G17G22G28G30          0.000355204
  19992762.331 7    -50203.813 7    -38465.82449  19992763.42549
  22931550.542 4  -1411044.613 4  -1049260.68048  22931552.19848
  20825783.745 6    156578.727 6    120379.34049  20825781.58549
  23030400.831 5    396260.398 5    295489.63347  23030402.14047
  21130066.589 6    474725.578 6    361487.77047  21130063.10847
  23751176.409 5   -916282.484 5   -690006.87948  23751172.98048
  22316707.026 6   -924866.082 6   -708040.78147  22316703.90947
  23286187.753 5  -1357938.680 5  -1015995.88746  23286184.37446
  21394069.534 6   -628915.219 6   -477782.64849  21394069.16349
 20  5 16  5 22  6.9990000  0  9G01G03G07G08G11G17G22G28G30          0.000354637
  19992760.440 7    -50217.082 7    -38476.16849  19992760.71049
  22930870.940 4  -1414613.996 4  -1052042.01648  22930872.78048
  20825877.659 6    157072.332 6    120763.96549  20825875.49549
  23030583.331 4    397217.855 4    296235.70347  23030584.73047
  21130297.862 6    475941.035 6    362434.87547  21130294.19847
  23750743.542 5   -918558.980 5   -691780.77348  23750739.89448
  22316284.909 6   -927084.211 6   -709769.19147  22316281.95647
  23285532.573 5  -1361382.504 5  -1018679.39146  23285528.99946
  21393788.925 6   -630392.242 6   -478933.57849  21393788.37449
 20  5 16  5 22  7.9990000  0  9G01G03G07G08G11G17G22G28G30          0.000354071
  19992758.144 7    -50229.801 7    -38486.07849  19992757.97249
  22930191.565 4  -1418183.293 4  -1054823.28548  22930193.19048
  20825972.026 6    157566.477 6    121149.01249  20825969.59349
  23030765.565 4    398175.211 4    296981.68447  23030766.49147
  21130529.081 6    477156.703 6    363382.15247  21130525.84347
  23750309.714 5   -920835.430 5   -693554.62948  23750306.49548
  22315862.730 6   -929301.934 6   -711497.28947  22315860.09747
  23284878.112 5  -1364826.391 5  -1021362.93046  23284873.38646
  21393507.644 6   -631868.676 6   -480084.04349  21393507.55049
 20  5 16  5 22  8.9990000  0  9G01G03G07G08G11G17G22G28G30          0.000353504
  19992755.995 7    -50241.848 7    -38495.46549  19992755.86249
  22929511.831 4  -1421752.492 4  -1057604.48048  22929514.53448
  20826066.144 6    158061.207 6    121534.51649  20826063.91349
  23030947.480 5    399132.512 5    297727.62947  23030948.26947
  21130760.690 6    478372.613 6    364329.61747  21130757.03447
  23749877.534 5   -923111.746 5   -695328.38748  23749873.35148
  22315441.026 6   -931519.277 6   -713225.09447  22315438.15947
  23284221.690 5  -1368270.340 5  -1024046.52346  23284217.91746
  21393226.808 6   -633344.484 6   -481234.02749  21393226.96849
 20  5 16  5 22  9.9990000  0  9G01G03G07G08G11G17G22G28G30          0.000352936
  19992753.776 7    -50253.250 7    -38504.34849  19992753.44849
  22928833.284 4  -1425321.504 4  -1060385.52348  22928835.23748
  20826160.097 6    158556.547 6    121920.49249  20826157.92949
  23031129.472 5    400089.816 5    298473.58247  23031130.75347
  21130992.214 6    479588.770 6    365277.27047  21130988.65147
  23749443.745 5   -925387.969 5   -697102.06648  23749439.68748
  22315019.292 6   -933736.180 6   -714952.54347  22315016.35547
  23283566.105 5  -1371714.348 5  -1026730.16446  23283562.35146
  21392946.386 6   -634819.645 6   -482383.50849  21392945.90149
 20  5 16  5 22 10.9990000  0  9G01G03G07G08G11G17G22G28G30          0.000352369
  19992751.276 7    -50264.168 7    -38512.85549  19992751.56249
  22928153.972 4  -1428890.516 4  -1063166.56648  22928156.03048
  20826254.917 6    159052.328 6    122306.81649  20826252.24549
  23031312.144 5    401046.949 5    299219.40247  23031312.59747
  21131223.573 6    480805.059 6    366225.03547  21131219.73347
  23749010.534 5   -927664.168 5   -698875.73448  23749006.83548
  22314597.339 6   -935952.777 6   -716679.77047  22314594.53847
  23282911.276 5  -1375158.492 5  -1029413.91846  23282907.33946
  21392665.886 6   -636294.309 6   -483532.59849  21392665.55849
 20  5 16  5 22 11.9990000  0  9G01G03G07G08G11G17G22G28G30          0.000351803
  19992749.464 7    -50274.465 7    -38520.88349  19992749.54649
  22927474.722 4  -1432459.410 4  -1065947.52348  22927476.98048
  20826349.440 6    159548.684 6    122693.58249  20826346.55449
  23031493.714 5    402004.000 5    299965.15647  23031494.98047
  21131454.659 6    482021.574 6    367172.96547  21131451.21047
  23748577.331 5   -929940.309 5   -700649.35248  23748573.52648
  22314175.745 6   -938168.965 6   -718406.67247  22314172.68747
  23282255.612 5  -1378602.715 5  -1032097.73046  23282251.95646
  21392385.089 6   -637768.359 6   -484681.20349  21392385.05049
 20  5 16  5 22 12.9990000  0  9G01G03G07G08G11G17G22G28G30          0.000351236
  19992747.355 7    -50284.105 7    -38528.39549  19992747.87449
  22926795.862 5  -1436028.203 5  -1068728.40248  22926798.20248
  20826443.995 6    160045.621 6    123080.80949  20826441.02649
  23031676.089 5    402961.020 5    300710.88747  23031677.27647
  21131686.409 6    483238.324 6    368121.08647  21131682.45247
  23748144.237 5   -932216.305 5   -702422.85248  23748140.49948
  22313754.276 6   -940384.758 6   -720133.25847  22313751.08947
  23281600.534 5  -1382047.016 5  -1034781.59846  23281596.46446
  21392104.956 6   -639241.789 6   -485829.33649  21392104.78849
 20  5 16  5 22 13.9990000  0  9G01G03G07G08G11G17G22G28G30          0.000350670
  19992745.870 7    -50293.160 7    -38535.44949  19992746.41349
  22926116.386 5  -1439596.887 5  -1071509.19048  22926118.80848
  20826538.675 6    160543.125 6    123468.46949  20826535.90549
  23031858.519 4    403918.020 4    301456.60247  23031858.89447
  21131917.956 6    484455.301 6    369069.37147  21131914.71047
  23747711.003 5   -934492.238 5   -704196.30948  23747707.23048
  22313332.347 6   -942600.133 6   -721859.53147  22313329.44447
  23280945.159 5  -1385491.352 5  -1037465.50446  23280941.20646
  21391824.386 6   -640714.602 6   -486976.98049  21391824.40949
 20  5 16  5 22 14.9990000  0  9G01G03G07G08G11G17G22G28G30          0.000350103
  19992744.526 7    -50301.773 7    -38542.16449  19992744.60849
  22925437.636 4  -1443165.578 4  -1074289.98848  22925439.76948
  20826633.019 6    161041.008 6    123856.43449  20826630.62049
  23032040.331 4    404874.750 4    302202.10547  23032041.37447
  21132149.628 6    485672.320 6    370017.69947  21132145.89447
  23747277.659 5   -936768.246 5   -705969.81648  23747274.43748
  22312910.573 6   -944815.309 6   -723585.64147  22312907.85147
  23280289.698 5  -1388935.969 5  -1040149.61746  23280285.35846
  21391544.378 6   -642187.004 6   -488124.30549  21391544.22249
 20  5 16  5 22 15.9990000  0  9G01G03G07G08G11G17G22G28G30          0.000349537
  19992743.065 7    -50309.871 7    -38548.46949  19992743.07749
  22924758.089 4  -1446734.242 4  -1077070.76648  22924760.72248
  20826728.315 6    161539.395 6    124244.78549  20826725.34349
  23032221.956 5    405831.363 5    302947.52047  23032223.17947
  21132381.440 6    486889.504 6    370966.15247  21132377.86647
  23746844.597 5   -939044.227 5   -707743.30548  23746840.96848
  22312489.347 6   -947030.129 6   -725311.47747  22312486.84347
  23279633.198 5  -1392380.711 5  -1042833.82446  23279629.60546
  21391264.214 6   -643658.848 6   -489271.19949  21391263.98749
 20  5 16  5 22 16.9990000  0  9G01G03G07G08G11G17G22G28G30          0.000348969
  19992741.573 7    -50317.465 7    -38554.39149  19992741.65149
  22924079.183 4  -1450302.957 4  -1079851.57848  22924081.49148
  20826822.940 6    162038.195 6    124633.45749  20826820.29249
  23032403.917 5    406787.801 5    303692.78546  23032405.47646
  21132613.198 6    488106.773 6    371914.67647  21132609.41347
  23746410.651 5   -941320.246 5   -709516.82848  23746407.79648
  22312068.089 6   -949244.688 6   -727037.10547  22312065.01147
  23278977.917 5  -1395825.668 5  -1045518.19946  23278974.44846
  21390984.534 6   -645130.223 6   -490417.71949  21390984.39449
 20  5 16  5 22 17.9990000  0  9G01G03G07G08G11G17G22G28G30          0.000348402
  19992740.183 7    -50324.441 7    -38559.82449  19992740.55849
  22923400.573 4  -1453871.563 4  -1082632.31148  22923402.10548
  20826918.128 6    162537.574 6    125022.58249  20826915.55049
  23032586.362 5    407744.168 5    304438.00047  23032587.45647
  21132844.394 6    489324.270 6    372863.37947  21132840.92547
  23745977.886 5   -943596.156 5   -711290.26248  23745974.74548
  22311646.339 6   -951458.848 6   -728762.42647  22311643.45247
  23278322.800 5  -1399270.680 5  -1048202.62546  23278318.91346
  21390704.315 6   -646600.969 6   -491563.75849  21390704.15149
 20  5 16  5 22 18.9990000  0  9G01G03G07G08G11G17G22G28G30          0.000347836
  19992738.784 7    -50330.754 7    -38564.74249  19992739.16749
  22922721.144 4  -1457439.918 4  -1085412.84448  22922723.06548
  20827013.112 6    163037.602 6    125412.21549  20827010.40949
  23032768.065 4    408700.563 4    305183.24647  23032769.22247
  21133076.550 6    490542.070 6    373812.31347  21133072.49547
  23745544.917 5   -945871.895 5   -713063.55948  23745541.58548
  22311225.519 6   -953672.500 6   -730487.34447  22311222.71047
  23277667.151 5  -1402715.699 5  -1050887.06346  23277663.45646
  21390424.894 6   -648071.047 6   -492709.27749  21390424.76549
 20  5 16  5 22 19.9990000  0  9G01G03G07G08G11G17G22G28G30          0.000347269
  19992737.620 7    -50336.410 7    -38569.14849  19992738.01549
  22922042.480 4  -1461008.219 4  -1088193.33648  22922044.13648
  20827108.448 6    163538.203 6    125802.29749  20827105.92949
  23032949.644 4    409656.914 4    305928.44547  23032951.56947
  21133308.003 6    491760.113 6    374761.42647  21133304.00747
  23745111.620 5   -948147.535 5   -714836.78148  23745108.71048
  22310804.792 6   -955885.754 6   -732211.96547  22310801.29647
  23277011.347 5  -1406160.754 5  -1053571.52346  23277007.81246
  21390145.151 6   -649540.500 6   -493854.30149  21390145.29649
 20  5 16  5 22 20.9990000  0  9G01G03G07G08G11G17G22G28G30          0.000346701
  19992736.698 7    -50341.625 7    -38573.21549  19992736.96049
  22921362.940 4  -1464576.523 4  -1090973.82048  22921365.31948
  20827203.589 6    164039.188 6    126192.66849  20827201.21849
  23033132.042 4    410613.063 4    306673.49647  23033133.46847
  21133539.878 6    492978.207 6    375710.59047  21133536.22247
  23744679.292 5   -950423.246 5   -716610.06348  23744675.65548
  22310383.386 6   -958098.766 6   -733936.38347  22310380.22647
  23276356.120 5  -1409606.051 5  -1056256.17646  23276351.99546
  21389865.425 6   -651009.504 6   -494998.98049  21389865.53049
 20  5 16  5 22 21.9990000  0  9G01G03G07G08G11G17G22G28G30          0.000346134
  19992735.862 7    -50346.273 7    -38576.83649  19992736.12449
  22920683.644 4  -1468144.730 4  -1093754.24248  22920685.81948
  20827299.230 6    164540.711 6    126583.46549  20827296.21449
  23033314.175 4    411569.148 4    307418.50047  23033314.97247
  21133771.972 6    494196.492 6    376659.90247  21133768.01947
  23744245.730 5   -952698.898 5   -718383.29348  23744242.37448
  22309962.034 6   -960311.402 6   -735660.52347  22309959.57347
  23275700.206 5  -1413051.480 5  -1058940.92646  23275696.39746
  21389586.151 6   -652477.941 6   -496143.22349  21389585.75749
 20  5 16  5 22 22.9990000  0  9G01G03G07G08G11G17G22G28G30          0.000345568
  19992734.925 7    -50350.285 7    -38579.96149  19992735.66349
  22920005.378 4  -1471712.824 4  -1096534.56648  22920006.92148
  20827394.675 6    165042.820 6    126974.71549  20827391.90549
  23033495.581 4    412525.137 4    308163.42647  23033496.54647
  21134003.651 6    495415.016 6    377609.40247  21133999.85847
  23743813.323 5   -954974.438 5   -720156.44148  23743809.87848
  22309541.144 6   -962523.613 6   -737384.32447  22309538.42947
  23275044.675 5  -1416496.953 5  -1061625.71546  23275040.64046
  21389306.519 6   -653945.734 6   -497286.96149  21389306.09349
 20  5 16  5 22 23.9990000  0  9G01G03G07G08G11G17G22G28G30          0.000344999
  19992734.503 6    -50353.633 6    -38582.57049  19992734.90949
  22919326.167 4  -1475280.762 4  -1099314.77748  22919328.12448
  20827490.128 6    165545.531 6    127366.44149  20827487.56549
  23033677.690 4    413481.145 4    308908.36747  23033679.44047
  21134235.769 6    496633.820 6    378559.12147  21134231.53447
  23743380.222 5   -957249.836 5   -721929.47348  23743377.01148
  22309119.909 6   -964735.395 6   -739107.78547  22309117.24547
  23274389.105 5  -1419942.430 5  -1064310.49646  23274385.31246
  21389027.409 6   -655412.898 6   -498430.20349  21389027.35849
 20  5 16  5 22 24.9990000  0  9G01G03G07G08G11G17G22G28G30          0.000344433
  19992733.909 7    -50356.301 7    -38584.64849  19992734.11249
  22918646.980 4  -1478848.539 4  -1102094.86348  22918649.00348
  20827586.534 6    166048.902 6    127758.67649  20827583.43349
  23033858.917 4    414437.184 4    309653.34046  23033860.81246
  21134467.550 6    497852.910 6    379509.05947  21134463.49147
  23742947.128 5   -959525.051 5   -723702.36348  23742943.90548
  22308699.534 6   -966946.730 6   -740830.91047  22308696.06247
  23273733.058 5  -1423387.945 5  -1066995.31346  23273729.98746
  21388748.722 6   -656879.348 6   -499572.89849  21388748.18349
 20  5 16  5 22 25.9990000  0  9G01G03G07G08G11G17G22G28G30          0.000343866
  19992733.800 7    -50358.262 7    -38586.17649  19992734.03049
  22917968.472 4  -1482416.070 4  -1104874.76248  22917970.50348
  20827681.886 6    166552.926 6    128151.41449  20827679.08149
  23034040.917 4    415393.254 4    310398.32046  23034042.87046
  21134699.745 6    499072.367 6    380459.28947  21134695.53847
  23742514.550 5   -961800.078 5   -725475.10948  23742511.19448
  22308278.940 6   -969157.488 6   -742553.58247  22308275.58947
  23273077.761 5  -1426833.387 5  -1069680.08246  23273074.08946
  21388469.956 6   -658345.105 6   -500715.04349  21388469.15949
 20  5 16  5 22 26.9990000  0  9G01G03G07G08G11G17G22G28G30          0.000343298
  19992733.230 7    -50359.723 7    -38587.31649  19992733.08549
  22917289.261 4  -1485983.602 4  -1107654.65648  22917291.77248
  20827777.995 6    167057.395 6    128544.50449  20827775.32749
  23034223.167 4    416349.152 4    311143.17646  23034224.96046
  21134931.409 6    500291.891 6    381409.57047  21134927.85547
  23742081.636 5   -964075.137 5   -727247.88348  23742078.06948
  22307857.987 6   -971368.027 6   -744276.07847  22307854.62447
  23272421.847 5  -1430279.055 5  -1072365.00846  23272418.50346
  21388190.456 6   -659810.367 6   -501856.81349  21388190.73749
 20  5 16  5 22 27.9990000  0  9G01G03G07G08G11G17G22G28G30          0.000342731
  19992732.948 7    -50360.645 7    -38588.03549  19992733.57749
  22916610.659 4  -1489551.137 4  -1110434.55548  22916612.67548
  20827873.995 6    167562.355 6    128937.97749  20827871.49949
  23034404.870 4    417304.938 4    311887.92646  23034406.70246
  21135163.456 6    501511.570 6    382359.96547  21135159.98047
  23741648.417 5   -966350.188 5   -729020.65248  23741645.35148
  22307437.675 6   -973578.203 6   -745998.28547  22307434.67147
  23271766.378 5  -1433724.840 5  -1075050.03546  23271762.16346
  21387912.253 6   -661275.090 6   -502998.15649  21387912.04649
 20  5 16  5 22 28.9990000  0  9G01G03G07G08G11G17G22G28G30          0.000342163
  19992733.792 7    -50360.824 7    -38588.17649  19992733.60549
  22915932.276 4  -1493118.352 4  -1113214.19548  22915933.84348
  20827970.464 6    168068.016 6    129331.99649  20827968.06949
  23034587.534 4    418260.789 4    312632.73246  23034588.62046
  21135395.667 6    502731.594 6    383310.63747  21135391.97247
  23741215.737 5   -968624.992 5   -730793.21948  23741212.10848
  22307017.222 6   -975787.871 6   -747720.10947  22307014.05847
  23271110.495 5  -1437170.590 5  -1077735.03946  23271106.72646
  21387633.565 6   -662739.066 6   -504138.91049  21387633.56549
 20  5 16  5 22 29.9990000  0  9G01G03G07G08G11G17G22G28G30          0.000341597
  19992733.480 7    -50360.453 7    -38587.88749  19992733.89749
  22915252.831 4  -1496685.582 4  -1115993.85248  22915255.21848
  20828066.198 6    168574.176 6    129726.40649  20828064.06549
  23034769.690 4    419216.512 4    313377.46547  23034770.14747
  21135628.042 6    503951.801 6    384261.44547  21135623.96847
  23740782.683 5   -970899.777 5   -732565.78148  23740779.40548
  22306597.136 6   -977997.160 6   -749441.62947  22306593.23347
  23270455.128 5  -1440616.473 5  -1080420.14146  23270451.14746
  21387354.964 6   -664202.527 6   -505279.27749  21387354.98349
 20  5 16  5 22 30.9990000  0  9G01G03G07G08G11G17G22G28G30          0.000341030
  19992733.183 7    -50359.539 7    -38587.17249  19992733.46849
  22914574.245 4  -1500252.707 4  -1118773.42248  22914575.93748
  20828163.105 6    169080.813 6    130121.18849  20828160.40149
  23034951.495 4    420172.125 4    314122.09447  23034952.21447
  21135860.355 6    505172.160 6    385212.37147  21135856.30047
  23740349.628 5   -973174.508 5   -734338.29148  23740346.65948
  22306176.175 6   -980206.133 6   -751162.91047  22306172.99947
  23269798.823 5  -1444062.457 5  -1083105.32846  23269795.63246
  21387076.839 6   -665665.414 6   -506419.18849  21387076.44449
 20  5 16  5 22 31.9990000  0  9G01G03G07G08G11G17G22G28G30          0.000340462
  19992733.948 7    -50358.078 7    -38586.03149  19992734.06949
  22913895.511 4  -1503819.789 4  -1121552.96148  22913897.40548
  20828259.386 6    169587.984 6    130516.38749  20828256.90549
  23035133.042 4    421127.629 4    314866.64147  23035133.88647
  21136092.722 6    506392.703 6    386163.44147  21136088.77247
  23739917.183 5   -975449.262 5   -736110.81648  23739914.23048
  22305755.815 6   -982414.746 6   -752883.90647  22305752.74547
  23269143.261 5  -1447508.617 5  -1085790.64146  23269139.91346
  21386798.347 6   -667127.730 6   -507558.65249  21386798.24149
 20  5 16  5 22 32.9990000  0  9G01G03G07G08G11G17G22G28G30          0.000339895
  19992734.198 7    -50356.008 7    -38584.42649  19992734.19049
  22913216.495 4  -1507386.770 4  -1124332.43848  22913218.49148
  20828356.026 6    170095.695 6    130912.00449  20828353.85149
  23035315.511 4    422083.063 4    315611.14547  23035316.17147
  21136324.878 6    507613.434 6    387114.66447  21136320.92947
  23739483.667 5   -977723.891 5   -737883.25448  23739481.17948
  22305336.097 6   -984622.980 6   -754604.60947  22305332.53047
  23268487.175 5  -1450954.801 5  -1088475.97746  23268483.83946
  21386520.269 6   -668589.477 6   -508697.67649  21386520.44049
 20  5 16  5 22 33.9990000  0  9G01G03G07G08G11G17G22G28G30          0.000339329
  19992734.081 7    -50353.270 7    -38582.28949  19992734.60149
  22912537.972 4  -1510953.539 4  -1127111.73448  22912539.78848
  20828453.073 6    170604.059 6    131308.13349  20828450.41349
  23035496.917 4    423038.480 4    316355.61747  23035497.61647
  21136557.355 6    508834.480 6    388066.12547  21136553.67547
  23739051.120 5   -979998.367 5   -739655.57448  23739048.19048
  22304916.034 6   -986830.719 6   -756324.93047  22304912.21447
  23267831.323 5  -1454401.020 5  -1091161.33646  23267828.09746
  21386242.190 6   -670050.527 6   -509836.16049  21386241.96849
 20  5 16  5 22 34.9990000  0  9G01G03G07G08G11G17G22G28G30          0.000338760
  19992734.870 7    -50349.828 7    -38579.60549  19992735.26549
  22911858.761 4  -1514520.191 4  -1129890.94948  22911861.24948
  20828550.026 6    171113.012 6    131704.71949  20828547.23049
  23035678.737 4    423993.918 4    317100.11747  23035679.50347
  21136789.706 6    510055.805 6    389017.80547  21136786.10847
  23738618.558 5   -982272.664 5   -741427.75848  23738615.59348
  22304496.300 6   -989038.023 6   -758044.90647  22304492.71447
  23267175.714 5  -1457847.246 5  -1093846.69946  23267172.71846
  21385964.308 6   -671510.949 6   -510974.15249  21385964.08149
 20  5 16  5 22 35.9990000  0  9G01G03G07G08G11G17G22G28G30          0.000338194
  19992735.612 7    -50345.855 7    -38576.51649  19992736.57349
  22911180.206 4  -1518086.734 4  -1132670.07048  22911182.48348
  20828647.026 6    171622.512 6    132101.73049  20828644.44049
  23035860.144 4    424949.273 4    317844.55147  23035861.29247
  21137022.112 6    511277.305 6    389969.62547  21137018.20647
  23738185.987 5   -984546.938 5   -743199.91448  23738182.53048
  22304076.253 6   -991244.941 6   -759764.57847  22304072.30447
  23266519.925 5  -1461293.582 5  -1096532.16046  23266516.53046
  21385686.683 6   -672970.742 6   -512111.64849  21385686.23049
 20  5 16  5 22 36.9990000  0  9G01G03G07G08G11G17G22G28G30          0.000337627
  19992736.925 7    -50341.461 7    -38573.09049  19992737.37049
  22910500.823 4  -1521653.367 4  -1135449.26648  22910503.69448
  20828743.683 6    172132.332 6    132498.98449  20828741.40149
  23036042.073 5    425904.324 5    318588.73846  23036043.15946
  21137254.464 6    512498.801 6    390921.44147  21137250.35547
  23737753.097 5   -986821.316 5   -744972.15248  23737749.71048
  22303655.800 6   -993451.695 6   -761484.12947  22303652.63647
  23265863.605 5  -1464740.207 5  -1099217.85246  23265860.64046
  21385408.792 6   -674430.184 6   -513248.87949  21385408.67149
 20  5 16  5 22 37.9990000  0  9G01G03G07G08G11G17G22G28G30          0.000337059
  19992737.839 7    -50336.465 7    -38569.19149  19992738.51949
  22909822.519 4  -1525219.891 4  -1138228.36348  22909825.09348
  20828840.925 6    172642.730 6    132896.70349  20828838.39049
  23036223.761 4    426859.359 4    319332.92246  23036224.80846
  21137486.659 6    513720.547 6    391873.45347  21137482.73047
  23737320.292 5   -989095.645 5   -746744.35548  23737316.62048
  22303235.823 6   -995658.035 6   -763203.35547  22303232.88247
  23265208.558 5  -1468186.898 5  -1101903.58246  23265204.90146
  21385131.144 6   -675889.008 6   -514385.62949  21385131.10849
 20  5 16  5 22 38.9990000  0  9G01G03G07G08G11G17G22G28G30          0.000336491
  19992738.519 7    -50330.922 7    -38564.87149  19992739.15549
  22909143.972 4  -1528786.355 4  -1141007.43448  22909146.00748
  20828938.409 6    173153.645 6    133294.81349  20828935.81249
  23036405.565 4    427814.242 4    320076.99247  23036406.51947
  21137719.425 6    514942.426 6    392825.55947  21137715.91747
  23736887.909 5   -991369.883 5   -748516.48448  23736884.18748
  22302816.323 6   -997864.031 6   -764922.32047  22302813.10847
  23264552.245 5  -1471633.723 5  -1104589.41446  23264549.08946
  21384853.519 6   -677347.277 6   -515521.94149  21384853.68749
 20  5 16  5 22 39.9990000  0  9G01G03G07G08G11G17G22G28G30          0.000335924
  19992739.940 7    -50324.656 7    -38559.99249  19992740.24149
  22908465.308 4  -1532352.641 4  -1143786.34848  22908467.42148
  20829035.487 6    173665.211 6    133693.43449  20829033.12049
  23036586.878 5    428769.227 5    320821.13346  23036588.18746
  21137952.269 6    516164.645 6    393777.94147  21137948.42547
  23736454.940 5   -993643.980 5   -750288.50448  23736451.33948
  22302396.456 6  -1000069.504 6   -766640.87147  22302393.34347
  23263896.605 5  -1475080.527 5  -1107275.23446  23263893.15546
  21384576.292 6   -678804.828 6   -516657.69549  21384576.05049
 20  5 16  5 22 40.9990000  0  9G01G03G07G08G11G17G22G28G30          0.000335356
  19992741.175 7    -50317.664 7    -38554.53949  19992741.55049
  22907786.956 4  -1535918.672 4  -1146565.07448  22907789.15148
  20829133.128 6    174177.453 6    134092.58249  20829130.47649
  23036768.784 4    429724.254 4    321565.30947  23036769.99947
  21138184.589 6    517387.215 6    394730.59447  21138180.65147
  23736022.573 5   -995917.813 5   -752060.32048  23736018.73348
  22301976.870 6  -1002274.453 6   -768359.00847  22301973.69847
  23263240.315 5  -1478527.254 5  -1109960.99646  23263237.22646
  21384299.065 6   -680261.660 6   -517792.88749  21384298.91349
 20  5 16  5 22 41.9990000  0  9G01G03G07G08G11G17G22G28G30          0.000334789
  19992742.581 7    -50310.047 7    -38548.60949  19992742.90549
  22907108.831 4  -1539484.539 4  -1149343.66848  22907110.75748
  20829230.487 6    174690.281 6    134492.18449  20829228.08949
  23036951.042 4    430679.230 4    322309.45746  23036952.14046
  21138417.534 6    518610.016 6    395683.42647  21138413.64447
  23735589.753 5   -998191.559 5   -753832.06348  23735585.83148
  22301557.698 6  -1004479.004 6   -770076.84047  22301554.23747
  23262584.675 5  -1481974.059 5  -1112646.81646  23262581.31246
  21384021.776 6   -681717.859 6   -518927.59049  21384021.84349
 20  5 16  5 22 42.9990000  0  9G01G03G07G08G11G17G22G28G30          0.000334221
  19992744.347 7    -50301.766 7    -38542.16049  19992744.68349
  22906429.675 3  -1543050.254 3  -1152122.13748  22906431.95648
  20829328.269 6    175203.727 6    134892.27049  20829325.68749
  23037132.222 4    431634.254 4    323053.62547  23037133.69047
  21138650.480 6    519833.078 6    396636.46547  21138646.33947
  23735156.565 5  -1000465.129 5   -755603.66848  23735153.24948
  22301138.167 6  -1006683.090 6   -771794.30547  22301134.79247
  23261928.800 5  -1485420.902 5  -1115332.67646  23261925.43746
  21383744.972 6   -683173.391 6   -520061.77349  21383744.67949
 20  5 16  5 22 43.9990000  0  9G01G03G07G08G11G17G22G28G30          0.000333654
  19992745.956 6    -50293.055 6    -38535.37149  19992746.54249
  22905750.737 4  -1546616.039 4  -1154900.67248  22905753.48748
  20829426.284 6    175717.539 6    135292.64149  20829423.61249
  23037313.706 4    432589.008 4    323797.58647  23037315.61647
  21138883.065 6    521056.180 6    397589.52747  21138878.92547
  23734723.714 5  -1002738.852 5   -757375.40248  23734720.80048
  22300719.456 6  -1008886.953 6   -773511.60547  22300715.66347
  23261272.558 5  -1488867.977 5  -1118018.69546  23261269.06546
  21383468.112 6   -684628.504 6   -521195.62149  21383467.86649
 20  5 16  5 22 44.9990000  0  9G01G03G07G08G11G17G22G28G30          0.000333086
  19992747.690 6    -50283.813 6    -38528.16849  19992748.07349
  22905073.112 4  -1550181.789 4  -1157679.16848  22905074.90148
  20829524.081 6    176231.836 6    135693.39149  20829521.52249
  23037494.808 4    433543.625 4    324541.43047  23037496.92547
  21139115.659 6    522279.445 6    398542.72347  21139112.10547
  23734290.823 5  -1005012.512 5   -759147.08648  23734287.53848
  22300299.542 6  -1011090.516 6   -775228.66847  22300296.03047
  23260616.839 5  -1492315.229 5  -1120704.86746  23260613.51946
  21383191.456 6   -686083.105 6   -522329.07849  21383190.90549
 20  5 16  5 22 45.9990000  0  9G01G03G07G08G11G17G22G28G30          0.000332520
  19992749.440 6    -50274.117 6    -38520.61349  19992749.93749
  22904394.276 4  -1553747.551 4  -1160457.68048  22904396.55048
  20829622.128 6    176746.570 6    136094.48049  20829619.30049
  23037677.386 5    434498.043 5    325285.12947  23037678.63647
  21139348.847 6    523502.797 6    399495.97747  21139344.64747
  23733858.605 5  -1007286.234 5   -760918.82048  23733855.21048
  22299880.714 6  -1013293.773 6   -776945.48047  22299877.29247
  23259960.355 5  -1495762.621 5  -1123391.14846  23259957.53846
  21382914.737 6   -687537.215 6   -523462.16049  21382914.98349
 20  5 16  5 22 46.9990000  0  9G01G03G07G08G11G17G22G28G30          0.000331951
  19992751.503 6    -50263.898 6    -38512.65249  19992751.91349
  22903715.698 4  -1557313.289 4  -1163236.17648  22903717.63648
  20829719.831 6    177261.730 6    136495.90249  20829717.24949
  23037858.495 4    435452.301 4    326028.70347  23037860.07347
  21139581.175 6    524726.234 6    400449.30147  21139577.55047
  23733425.948 5  -1009559.957 5   -762690.55548  23733422.51548
  22299460.815 6  -1015496.770 6   -778662.10247  22299457.56947
  23259305.003 5  -1499210.234 5  -1126077.60246  23259301.81946
  21382638.073 6   -688990.836 6   -524594.85249  21382637.79249
 20  5 16  5 22 47.9990000  0  9G01G03G07G08G11G17G22G28G30          0.000331385
  19992753.745 7    -50253.004 7    -38504.16449  19992753.94049
  22903037.144 4  -1560878.848 4  -1166014.52748  22903039.31248
  20829818.050 6    177777.555 6    136897.84449  20829815.47249
  23038040.667 5    436406.570 5    326772.28947  23038041.88247
  21139814.034 6    525949.988 6    401402.88347  21139810.09747
  23732993.190 5  -1011833.531 5   -764462.17648  23732989.46048
  22299041.948 6  -1017699.250 6   -780378.32047  22299038.14447
  23258648.847 5  -1502657.855 5  -1128764.06646  23258645.49546
  21382361.550 6   -690443.762 6   -525727.00049  21382361.22649
 20  5 16  5 22 48.9990000  0  9G01G03G07G08G11G17G22G28G30          0.000330816
  19992755.972 6    -50241.496 6    -38495.19549  19992756.38249
  22902358.737 4  -1564444.316 4  -1168792.81648  22902360.98748
  20829916.370 6    178293.922 6    137300.21149  20829913.63249
  23038221.909 5    437360.805 5    327515.84847  23038223.12847
  21140047.315 6    527173.965 6    402356.62947  21140043.33547
  23732560.987 5  -1014107.004 5   -766233.71148  23732557.06548
  22298623.144 6  -1019901.348 6   -782094.24647  22298619.63247
  23257992.597 5  -1506105.531 5  -1131450.57046  23257989.22246
  21382085.175 6   -691896.059 6   -526858.66049  21382085.05049
 20  5 16  5 22 49.9990000  0  9G01G03G07G08G11G17G22G28G30          0.000330248
  19992758.487 6    -50229.391 6    -38485.76649  19992758.62449
  22901679.980 4  -1568009.668 4  -1171571.01248  22901682.37048
  20830015.011 6    178810.832 6    137702.99249  20830012.37849
  23038403.589 4    438314.898 4    328259.30947  23038405.42947
  21140279.956 6    528398.117 6    403310.51247  21140276.16347
  23732127.784 5  -1016380.414 5   -768005.19948  23732124.08148
  22298203.628 6  -1022103.102 6   -783809.89847  22298200.21847
  23257336.425 5  -1509553.324 5  -1134137.15646  23257333.23046
  21381809.276 6   -693347.797 6   -527989.88749  21381808.61249
 20  5 16  5 22 50.9990000  0  9G01G03G07G08G11G17G22G28G30          0.000329681
  19992760.597 7    -50216.797 7    -38475.95349  19992761.10549
  22901001.675 4  -1571574.995 4  -1174349.18448  22901004.06248
  20830113.159 6    179328.234 6    138106.16449  20830110.94849
  23038585.378 4    439268.914 4    329002.69147  23038586.31547
  21140513.237 6    529622.430 6    404264.52347  21140508.99147
  23731695.370 5  -1018653.813 5   -769776.67648  23731691.81948
  22297784.948 6  -1024304.504 6   -785525.28147  22297781.54247
  23256680.558 5  -1513001.215 5  -1136823.83246  23256677.29246
  21381533.019 6   -694799.004 6   -529120.69949  21381532.73349
 20  5 16  5 22 51.9990000  0  9G01G03G07G08G11G17G22G28G30          0.000329113
  19992763.347 7    -50203.645 7    -38465.69549  19992763.69049
  22900323.440 4  -1575140.277 4  -1177127.32448  22900325.30848
  20830211.862 6    179846.094 6    138509.68849  20830209.13249
  23038766.800 4    440222.793 4    329745.97347  23038768.29647
  21140746.073 6    530846.879 6    405218.63747  21140742.33947
  23731262.870 5  -1020927.188 5   -771548.13348  23731259.16748
  22297366.269 6  -1026505.582 6   -787240.40647  22297362.29647
  23256024.105 5  -1516449.281 5  -1139510.63346  23256020.92546
  21381256.636 6   -696249.711 6   -530251.12549  21381256.37049
 20  5 16  5 22 52.9990000  0  9G01G03G07G08G11G17G22G28G30          0.000328545
  19992765.839 7    -50189.867 7    -38454.96549  19992766.11249
  22899645.003 4  -1578705.391 4  -1179905.34048  22899647.01148
  20830310.315 6    180364.570 6    138913.69149  20830307.39049
  23038948.761 5    441176.652 5    330489.23047  23038949.64047
  21140978.980 6    532071.574 6    406172.94947  21140975.18747
  23730829.730 5  -1023200.465 5   -773319.52048  23730826.63248
  22296947.214 6  -1028706.223 6   -788955.18447  22296943.70247
  23255368.167 5  -1519897.406 5  -1142197.47346  23255365.23746
  21380980.581 6   -697699.730 6   -531381.00849  21380980.30449
 20  5 16  5 22 53.9990000  0  9G01G03G07G08G11G17G22G28G30          0.000327978
  19992768.300 7    -50175.488 7    -38443.76249  19992768.84349
  22898966.690 4  -1582270.418 4  -1182683.28548  22898968.83148
  20830409.386 6    180883.590 6    139318.12149  20830406.52649
  23039130.589 4    442130.438 4    331232.43847  23039131.19047
  21141211.901 6    533296.492 6    407127.43047  21141208.43747
  23730397.190 5  -1025473.633 5   -775090.81648  23730394.10848
  22296528.870 6  -1030906.457 6   -790669.65647  22296524.98347
  23254711.933 5  -1523345.613 5  -1144884.38346  23254708.89046
  21380704.987 6   -699149.164 6   -532510.43849  21380704.80849
 20  5 16  5 22 54.9990000  0  9G01G03G07G08G11G17G22G28G30          0.000327410
  19992770.995 7    -50160.426 7    -38432.02749  19992771.83549
  22898287.839 4  -1585835.277 4  -1185461.09448  22898290.16748
  20830508.151 6    181403.227 6    139723.03549  20830505.25349
  23039312.097 5    443084.211 5    331975.64147  23039312.78847
  21141444.909 6    534521.672 6    408082.10547  21141441.69447
  23729964.448 5  -1027746.676 5   -776862.01648  23729961.06548
  22296110.456 6  -1033106.258 6   -792383.78947  22296106.15147
  23254055.940 5  -1526793.828 5  -1147571.31346  23254052.50346
  21380429.167 6   -700597.965 6   -533639.36749  21380429.21049
 20  5 16  5 22 55.9990000  0  9G01G03G07G08G11G17G22G28G30          0.000326841
  19992774.339 6    -50144.750 6    -38419.80949  19992775.10849
  22897610.081 5  -1589399.961 5  -1188238.77048  22897611.74948
  20830607.269 6    181923.453 6    140128.40649  20830604.21449
  23039493.480 5    444037.992 5    332718.84446  23039494.18746
  21141678.253 6    535747.133 6    409037.01647  21141675.08947
  23729532.003 5  -1030019.594 5   -778633.11748  23729528.86648
  22295691.636 6  -1035305.609 6   -794097.56347  22295687.48747
  23253400.230 5  -1530242.082 5  -1150258.26646  23253396.06946
  21380153.347 6   -702046.082 6   -534767.77749  21380153.62449
 20  5 16  5 22 56.9990000  0  9G01G03G07G08G11G17G22G28G30          0.000326275
  19992777.339 7    -50128.457 7    -38407.11349  19992778.03049
  22896931.667 4  -1592964.594 4  -1191016.40648  22896933.33548
  20830706.206 6    182444.230 6    140534.20749  20830703.18749
  23039674.456 4    444991.695 4    333461.98847  23039675.46847
  21141911.183 6    536972.773 6    409992.05947  21141908.17147
  23729099.394 5  -1032292.422 5   -780404.15248  23729096.41348
  22295273.722 6  -1037504.566 6   -795811.03947  22295269.14447
  23252744.019 5  -1533690.426 5  -1152945.28946  23252740.25746
  21379877.878 6   -703493.629 6   -535895.73049  21379878.30849
 20  5 16  5 22 57.9990000  0  9G01G03G07G08G11G17G22G28G30          0.000325706
  19992780.542 7    -50111.648 7    -38394.02049  19992781.17149
  22896253.550 4  -1596529.152 4  -1193793.98048  22896255.31248
  20830805.558 6    182965.473 6    140940.36749  20830802.88249
  23039855.987 4    445945.238 4    334205.00447  23039856.77247
  21142145.097 6    538198.563 6    410947.21947  21142141.38247
  23728667.097 5  -1034565.242 5   -782175.17248  23728664.27648
  22294855.175 6  -1039703.188 6   -797524.25047  22294851.10847
  23252086.980 5  -1537138.902 5  -1155632.40246  23252084.09746
  21379602.815 6   -704940.621 6   -537023.25449  21379602.54649
 20  5 16  5 22 58.9990000  0  9G01G03G07G08G11G17G22G28G30          0.000325138
  19992783.620 7    -50094.262 7    -38380.46549  19992784.27249
  22895575.019 4  -1600093.648 4  -1196571.50848  22895576.91348
  20830904.823 6    183487.242 6    141346.94149  20830901.92149
  23040037.175 4    446898.703 4    334947.96547  23040038.31247
  21142378.136 6    539424.547 6    411902.53147  21142374.56247
  23728234.847 5  -1036838.047 5   -783946.18448  23728231.56548
  22294436.878 6  -1041901.484 6   -799237.21547  22294432.76947
  23251430.737 5  -1540587.484 5  -1158319.60547  23251427.53047
  21379327.440 6   -706387.102 6   -538150.38749  21379327.63249
 20  5 16  5 22 59.9990000  0  9G01G03G07G08G11G17G22G28G30          0.000324570
  19992786.792 7    -50076.352 7    -38366.51249  19992787.86649
  22894897.042 4  -1603658.078 4  -1199348.98448  22894898.63248
  20831003.862 6    184009.504 6    141753.89849  20831001.26949
  23040219.292 4    447851.996 4    335690.79747  23040219.89447
  21142611.456 6    540650.672 6    412857.95747  21142607.75347
  23727801.839 5  -1039110.773 5   -785717.13748  23727799.18348
  22294018.230 6  -1044099.422 6   -800949.89147  22294014.49947
  23250774.050 5  -1544036.223 5  -1161006.93446  23250771.15146
  21379052.472 6   -707832.984 6   -539277.05149  21379052.30449
 20  5 16  5 23  0.9990000  0  9G01G03G07G08G11G17G22G28G30          0.000324003
  19992790.995 7    -50057.715 7    -38351.99249  19992791.59749
  22894218.722 4  -1607222.270 4  -1202126.27048  22894220.52648
  20831103.526 6    184532.418 6    142161.35949  20831100.56949
  23040400.183 4    448805.387 4    336433.69146  23040401.01946
  21142845.097 6    541877.125 6    413813.63347  21142841.46047
  23727369.597 5  -1041383.324 5   -787487.95348  23727366.80848
  22293600.034 6  -1046296.852 6   -802662.17247  22293596.56547
  23250118.737 5  -1547484.910 5  -1163694.22347  23250115.02247
  21378777.175 6   -709278.188 6   -540403.18849  21378777.52249
 20  5 16  5 23  1.9990000  0  9G01G03G07G08G11G17G22G28G30          0.000323435
  19992794.308 7    -50038.523 7    -38337.03949  19992795.08549
  22893539.870 4  -1610786.461 4  -1204903.55948  22893542.30448
  20831203.073 6    185055.848 6    142569.22749  20831200.11249
  23040581.034 4    449758.637 4    337176.48847  23040582.48047
  21143078.597 6    543103.738 6    414769.43847  21143074.88647
  23726937.167 5  -1043655.840 5   -789258.74648  23726933.98748
  22293182.440 6  -1048493.941 6   -804374.19147  22293178.31947
  23249462.089 5  -1550933.773 5  -1166381.64546  23249458.65946
  21378502.581 6   -710722.805 6   -541528.85949  21378502.55449
 20  5 16  5 23  2.9990000  0  9G01G03G07G08G11G17G22G28G30          0.000322866
  19992798.105 7    -50018.789 7    -38321.66449  19992798.53449
  22892862.003 4  -1614350.559 4  -1207680.77348  22892863.98348
  20831302.698 6    185579.781 6    142977.48449  20831300.23049
  23040762.847 4    450711.809 4    337919.21946  23040763.83146
  21143311.956 6    544330.516 6    415725.35947  21143308.22647
  23726504.456 5  -1045928.363 5   -791029.54348  23726501.77648
  22292764.308 6  -1050690.668 6   -806085.92247  22292760.33147
  23248806.019 5  -1554382.727 5  -1169069.14547  23248802.28847
  21378228.206 6   -712166.895 6   -542654.12949  21378227.69449
 20  5 16  5 23  3.9990000  0  9G01G03G07G08G11G17G22G28G30          0.000322298
  19992802.019 7    -49998.570 7    -38305.90649  19992802.30449
  22892183.456 4  -1617914.629 4  -1210457.96548  22892185.65548
  20831402.175 6    186104.156 6    143386.09049  20831399.98349
  23040943.722 4    451664.770 4    338661.78946  23040945.16346
  21143544.855 6    545557.410 6    416681.39147  21143541.69447
  23726072.690 5  -1048200.871 5   -792800.32448  23726069.46448
  22292346.237 6  -1052887.117 6   -807797.43847  22292342.33147
  23248149.683 5  -1557831.863 5  -1171756.78146  23248146.17946
  21377953.331 6   -713610.500 6   -543779.01649  21377952.79649
 20  5 16  5 23  4.9990000  0  9G01G03G07G08G11G17G22G28G30          0.000321730
  19992806.183 6    -49977.695 6    -38289.64149  19992806.44449
  22891505.558 4  -1621478.566 4  -1213235.05548  22891507.52248
  20831502.519 6    186629.137 6    143795.16049  20831499.62849
  23041125.769 4    452617.758 4    339404.38346  23041126.93346
  21143778.862 6    546784.551 6    417637.60547  21143775.26947
  23725639.198 5  -1050473.273 5   -794571.02748  23725636.85848
  22291928.222 6  -1055083.113 6   -809508.60547  22291924.49547
  23247493.401 5  -1561281.047 5  -1174444.45346  23247489.87846
  21377678.956 6   -715053.445 6   -544903.38749  21377678.71849
 20  5 16  5 23  5.9990000  0  9G01G03G07G08G11G17G22G28G30          0.000321161
  19992810.050 7    -49956.305 7    -38272.96949  19992810.82349
  22890826.980 4  -1625042.504 4  -1216012.14848  22890829.07748
  20831603.019 6    187154.578 6    144204.59849  20831599.67549
  23041306.448 4    453570.543 4    340146.80546  23041307.90146
  21144012.714 6    548011.828 6    418593.92247  21144008.90147
  23725207.276 5  -1052745.660 5   -796341.71148  23725204.52248
  22291510.300 6  -1057278.816 6   -811219.54347  22291506.52647
  23246836.315 5  -1564730.418 5  -1177132.28146  23246833.62046
  21377404.308 6   -716495.879 6   -546027.35949  21377403.85549
 20  5 16  5 23  6.9990000  0  9G01G03G07G08G11G17G22G28G30          0.000320593
  19992814.214 6    -49934.289 6    -38255.81649  19992814.60849
  22890149.198 4  -1628606.281 4  -1218789.11348  22890151.21048
  20831702.730 6    187680.617 6    144614.48849  20831699.94049
  23041488.480 4    454523.387 4    340889.28147  23041488.95647
  21144245.722 6    549239.332 6    419550.41847  21144242.61247
  23724775.128 5  -1055017.941 5   -798112.32448  23724772.64048
  22291093.183 6  -1059474.070 6   -812930.13347  22291088.64447
  23246180.269 5  -1568179.797 5  -1179820.10946  23246176.98046
  21377129.925 6   -717937.676 6   -547150.84449  21377129.54649
 20  5 16  5 23  7.9990000  0  9G01G03G07G08G11G17G22G28G30          0.000320026
  19992818.276 6    -49911.684 6    -38238.20349  19992819.35549
  22889471.542 5  -1632169.961 5  -1221566.00448  22889473.34748
  20831802.995 6    188207.168 6    145024.78949  20831800.24149
  23041669.448 5    455476.086 5    341631.63747  23041670.39047
  21144479.808 6    550467.063 6    420507.08647  21144476.29247
  23724342.917 5  -1057290.156 5   -799882.87948  23724340.15548
  22290675.206 6  -1061668.949 6   -814640.42647  22290671.14047
  23245523.651 5  -1571629.258 5  -1182508.00846  23245520.70646
  21376855.401 6   -719378.891 6   -548273.86749  21376855.35849
 20  5 16  5 23  8.9990000  0  9G01G03G07G08G11G17G22G28G30          0.000319458
  19992822.433 7    -49888.441 7    -38220.09449  19992823.44049
  22888793.276 4  -1635733.414 4  -1224342.71948  22888795.06948
  20831903.331 6    188734.348 6    145435.57449  20831900.49949
  23041851.042 5    456428.778 5    342373.99547  23041851.81547
  21144713.511 6    551695.063 6    421463.96147  21144709.98047
  23723909.737 5  -1059562.219 5   -801653.32048  23723907.78048
  22290257.456 6  -1063863.363 6   -816350.35947  22290253.48747
  23244867.355 5  -1575078.758 5  -1185195.92646  23244864.29646
  21376581.636 6   -720819.441 6   -549396.37549  21376581.06949
 20  5 16  5 23  9.9990000  0  9G01G03G07G08G11G17G22G28G30          0.000318890
  19992827.565 6    -49864.465 6    -38201.41049  19992828.16749
  22888115.417 5  -1639296.711 5  -1227119.30948  22888116.71448
  20832003.651 6    189262.211 6    145846.89849  20832000.83549
  23042032.128 4    457381.566 4    343116.41847  23042032.92947
  21144947.339 6    552923.371 6    422421.08647  21144943.74147
  23723477.800 5  -1061834.094 5   -803423.60548  23723475.61248
  22289840.136 6  -1066057.273 6   -818059.89847  22289836.18347
  23244211.112 5  -1578528.223 5  -1187883.80946  23244207.90546
  21376307.300 6   -722259.277 6   -550518.32449  21376307.12849
 20  5 16  5 23 10.9990000  0  9G01G03G07G08G11G17G22G28G30          0.000318321
  19992832.058 6    -49839.945 6    -38182.29749  19992832.69049
  22887436.714 4  -1642859.918 4  -1229895.83248  22887438.56548
  20832104.300 6    189790.535 6    146258.57849  20832101.74149
  23042213.378 4    458334.172 4    343858.71146  23042214.24146
  21145181.245 6    554151.867 6    423378.35547  21145177.45647
  23723044.394 5  -1064105.910 5   -805193.85948  23723043.14748
  22289422.706 6  -1068250.828 6   -819769.15647  22289418.76147
  23243554.706 5  -1581977.813 5  -1190571.80546  23243551.37446
  21376033.464 6   -723698.555 6   -551639.84049  21376033.33549
 20  5 16  5 23 11.9990000  0  9G01G03G07G08G11G17G22G28G30          0.000317753
  19992836.995 6    -49814.859 6    -38162.75449  19992837.73749
  22886759.026 4  -1646423.070 4  -1232672.31648  22886760.85848
  20832205.190 6    190319.391 6    146670.66849  20832202.11249
  23042394.261 4    459286.707 4    344600.95346  23042395.47246
  21145414.331 6    555380.500 6    424335.73847  21145411.21447
  23722612.003 5  -1066377.711 5   -806964.09448  23722610.86648
  22289005.644 6  -1070444.031 6   -821478.13747  22289001.38247
  23242898.487 5  -1585427.535 5  -1193259.90646  23242894.96046
  21375759.292 6   -725137.289 6   -552760.93449  21375759.43749
 20  5 16  5 23 12.9990000  0  9G01G03G07G08G11G17G22G28G30          0.000317184
  19992841.909 6    -49789.145 6    -38142.71549  19992842.09749
  22886080.417 5  -1649986.098 5  -1235448.69548  22886082.41348
  20832305.776 6    190848.820 6    147083.21149  20832302.68749
  23042576.269 4    460239.160 4    345343.12147  23042576.38247
  21145648.558 6    556609.410 6    425293.32847  21145645.46447
  23722180.440 5  -1068649.430 5   -808734.26248  23722178.69048
  22288587.995 6  -1072636.820 6   -823186.80547  22288583.95647
  23242241.925 5  -1588877.293 5  -1195948.02747  23242238.49947
  21375486.190 6   -726575.402 6   -553881.53949  21375485.83549
