     2.10           OBSERVATION DATA    GPS(GPS)            RINEX VERSION / TYPE
cnvtToRINEX 3.07.0  convertToRINEX OPR  19-May-20 12:31 UTC PGM / RUN BY / DATE 
----------------------------------------------------------- COMMENT             
GBA0                                                        MARKER NAME         
GBA0                                                        MARKER NUMBER       
GNSS Observer       Trimble                                 OBSERVER / AGENCY   
0220324777          5700                2.32                REC # / TYPE / VERS 
                    TRM39105.00                             ANT # / TYPE        
 -3050493.4177  4927575.7474  2654612.7728                  APPROX POSITION XYZ 
       -0.0460        0.0000        0.0000                  ANTENNA: DELTA H/E/N
     1     1     0                                          WAVELENGTH FACT L1/2
     4    C1    L1    L2    P2                              # / TYPES OF OBSERV 
  2020     5    16     3    20   20.0000000     GPS         TIME OF FIRST OBS   
  2020     5    16     5     1    0.0000000     GPS         TIME OF LAST OBS    
     0                                                      RCV CLOCK OFFS APPL 
    18                                                      LEAP SECONDS        
    12                                                      # OF SATELLITES     
   G01  6041  6041  6041  6041                              PRN / # OF OBS      
   G03  1193  1182  1193  1193                              PRN / # OF OBS      
   G04  1628  1628  1623  1623                              PRN / # OF OBS      
   G07  6017  6017  6017  6017                              PRN / # OF OBS      
   G08  5981  5927  5956  5956                              PRN / # OF OBS      
   G09  2951  2951  2946  2946                              PRN / # OF OBS      
   G11  6041  6041  6041  6041                              PRN / # OF OBS      
   G17   233   233   233   233                              PRN / # OF OBS      
   G22  3791  3770  3728  3728                              PRN / # OF OBS      
   G27  1315  1295  1315  1315                              PRN / # OF OBS      
   G28  1038  1038   972   972                              PRN / # OF OBS      
   G30  5057  5014  5039  5039                              PRN / # OF OBS      
CARRIER PHASE MEASUREMENTS: PHASE SHIFTS REMOVED            COMMENT             
                                                            END OF HEADER       
 20  5 16  3 20 20.0000000  0  6G01G04G08G09G11G27                  -0.000132471
  22200211.39816    -65284.22316    -15079.50459  22200213.14859
  23535130.51614      4848.83214                
  20702819.63316      2875.28916      1036.18059  20702819.15659
  23320707.06315      1742.11315                
  20421838.18816    -25917.16816     -7913.52358  20421834.66458
  22275136.26616     20484.08216      5714.75459  22275135.75459
 20  5 16  3 20 21.0000000  0  6G01G04G08G09G11G27                  -0.000133125
  22199372.898 6    -69690.332 6    -18512.85249  22199375.36749
  23535436.992 4      6455.230 4                
  20702873.898 6      3159.813 6      1257.87549  20702873.43449
  23320828.625 5      2381.215 5                
  20421397.570 6    -28232.559 6     -9717.70348  20421394.10248
  22275452.758 6     22149.031 6      7012.10249  22275452.93849
 20  5 16  3 20 22.0000000  0  6G01G04G08G09G11G27                  -0.000133783
  22198533.859 6    -74100.125 6    -21949.06649  22198536.15249
  23535741.828 4      8057.707 4                
  20702927.297 6      3440.652 6      1476.70749  20702926.98449
  23320950.023 5      3016.625 5                
  20420956.414 6    -30551.340 6    -11524.53148  20420952.79748
  22275769.320 6     23810.074 6      8306.39849  22275769.21149
 20  5 16  3 20 23.0000000  0  6G01G04G08G09G11G27                  -0.000134439
  22197693.820 6    -78513.512 6    -25388.07449  22197696.55149
  23536046.391 4      9656.348 4                
  20702980.336 7      3717.887 7      1692.73449  20702979.46949
  23321070.047 5      3648.438 5                
  20420514.648 6    -32873.484 6    -13333.98848  20420510.99248
  22276084.531 6     25467.297 6      9597.74249  22276083.98849
 20  5 16  3 20 24.0000000  0  6G01G04G08G09G11G27                  -0.000135103
  22196853.250 6    -82930.414 6    -28829.81649  22196855.94949
  23536349.195 4     11251.281 4                
  20703032.258 7      3991.672 7      1906.07449  20703031.94149
  23321189.406 5      4276.821 5                
  20420071.961 6    -35198.828 6    -15145.94548  20420068.71148
  22276399.297 6     27120.887 6     10886.25049  22276398.61349
 20  5 16  3 20 25.0000000  0  6G01G04G08G09G11G27                  -0.000135767
  22196012.117 6    -87350.551 6    -32274.07049  22196014.85549
  23536652.336 4     12842.602 4       245.18056  23536652.31356
  20703083.961 6      4262.164 6      2116.84849  20703082.95749
  23321308.516 5      4901.871 5        12.85558  23321308.52358
  20419629.000 6    -37527.215 6    -16960.27748  20419625.78548
  22276713.016 6     28770.922 6     12171.99649  22276712.76649
 20  5 16  3 20 26.0000000  0  6G01G04G08G09G11G27                  -0.000136435
  22195170.344 6    -91773.965 6    -35720.88349  22195172.80949
  23536954.375 4     14430.465 4      1482.48046  23536954.45746
  20703134.422 6      4529.422 6      2325.09849  20703133.83649
  23321427.563 5      5523.699 5       497.38748  23321427.25848
  20419185.320 6    -39858.543 6    -18776.90248  20419182.05148
  22277026.367 6     30417.535 6     13455.07449  22277025.79749
 20  5 16  3 20 27.0000000  0  6G01G04G08G09G11G27                  -0.000137102
  22194328.086 6    -96200.457 6    -39170.09449  22194330.66849
  23537256.109 4     16014.945 4      2717.10246  23537255.73446
  20703184.641 7      4793.559 7      2530.91849  20703183.81649
  23321544.117 4      6142.461 4       979.53548  23321545.14848
  20418741.039 6    -42192.738 6    -20595.76648  20418737.79348
  22277339.359 6     32060.836 6     14735.56649  22277338.46549
 20  5 16  3 20 28.0000000  0  6G01G04G08G09G11G27                  -0.000137774
  22193484.578 6   -100629.791 6    -42621.52349  22193488.06349
  23537557.078 4     17596.383 4      3949.36346  23537557.09046
  20703234.367 6      5054.887 6      2734.55949  20703234.07449
  23321661.727 5      6758.414 5      1459.49248  23321662.03148
  20418296.234 6    -44529.453 6    -22416.57848  20418293.14548
  22277651.625 6     33701.109 6     16013.69949  22277650.95749
 20  5 16  3 20 29.0000000  0  6G01G04G08G09G11G27                  -0.000138445
  22192641.797 6   -105061.777 6    -46075.02349  22192644.73449
  23537857.539 4     19174.840 4      5179.33646  23537856.95346
  20703283.305 6      5313.500 6      2936.07049  20703283.21549
  23321778.414 5      7371.664 5      1937.34848  23321779.20748
  20417851.430 6    -46868.621 6    -24239.30948  20417847.96548
  22277962.852 6     35338.477 6     17289.57049  22277962.45749
 20  5 16  3 20 30.0000000  0  6G01G04G08G09G11G27                  -0.000139120
  22191797.648 6   -109496.461 6    -49530.61749  22191800.37549
  23538157.719 4     20750.395 4      6407.03946  23538156.88346
  20703332.180 6      5569.465 6      3135.53149  20703331.88349
  23321895.008 5      7982.250 5      2413.13348  23321895.53548
  20417405.664 6    -49210.191 6    -26063.91048  20417402.14148
  22278274.398 6     36972.973 6     18563.19949  22278273.84049
 20  5 16  3 20 31.0000000  0  6G01G04G08G09G11G27                  -0.000139795
  22190953.742 6   -113933.563 6    -52988.09849  22190955.75449
  23538456.602 4     22323.238 4      7632.64146  23538456.50846
  20703380.375 6      5823.004 6      3333.09449  20703379.99649
  23322010.836 5      8590.384 5      2887.00448  23322010.91448
  20416959.680 6    -51553.910 6    -27890.18848  20416956.10548
  22278584.656 6     38604.832 6     19834.77749  22278584.09849
 20  5 16  3 20 32.0000000  0  6G01G04G08G09G11G27                  -0.000140474
  22190109.141 6   -118373.035 6    -56447.42649  22190111.16449
  23538755.883 5     23893.473 5      8856.19946  23538755.27046
  20703428.313 6      6074.176 6      3528.81349  20703427.78549
  23322126.070 5      9196.238 5      3359.08248  23322126.60548
  20416513.164 6    -53899.750 6    -29718.10548  20416509.97348
  22278894.195 6     40234.102 6     21104.33649  22278893.87549
 20  5 16  3 20 33.0000000  0  6G01G04G08G09G11G27                  -0.000141153
  22189263.742 5   -122814.730 5    -59908.48849  22189265.97349
  23539053.852 4     25461.238 4     10077.82446  23539053.66046
  20703475.500 6      6323.121 6      3722.79749  20703475.14149
  23322240.984 5      9799.809 5      3829.39548  23322241.37948
  20416066.828 6    -56247.527 6    -31547.53948  20416062.80948
  22279204.023 6     41860.934 6     22371.99649  22279203.65649
 20  5 16  3 20 34.0000000  0  6G01G04G08G09G11G27                  -0.000141836
  22188418.352 5   -127258.457 5    -63371.13349  22188420.21149
  23539351.844 4     27026.676 4     11297.63746  23539351.47346
  20703522.656 6      6570.031 6      3915.19149  20703522.44949
  23322355.391 5     10401.375 5      4298.14548  23322354.98048
  20415619.297 6    -58597.074 6    -33378.35948  20415615.77048
  22279512.984 6     43485.559 6     23637.94149  22279512.65249
 20  5 16  3 20 35.0000000  0  6G01G04G08G09G11G27                  -0.000142517
  22187572.461 5   -131704.082 5    -66835.25449  22187574.54349
  23539649.039 4     28590.016 4     12515.82846  23539648.93446
  20703569.328 6      6815.051 6      4106.10949  20703568.66049
  23322469.523 5     11001.082 5      4765.44948  23322469.45348
  20415171.883 6    -60948.258 6    -35210.44548  20415168.54348
  22279821.602 6     45108.078 6     24902.24249  22279821.82849
 20  5 16  3 20 36.0000000  0  6G01G04G08G09G11G27                  -0.000143202
  22186725.969 5   -136151.402 5    -70300.70349  22186728.45349
  23539946.086 4     30151.383 4     13732.47746  23539945.99646
  20703615.820 6      7058.332 6      4295.68049  20703614.78149
  23322583.211 5     11599.059 5      5231.40648  23322583.27048
  20414724.117 6    -63300.914 6    -37043.68448  20414720.69548
  22280130.305 6     46728.641 6     26165.02049  22280129.97749
 20  5 16  3 20 37.0000000  0  6G01G04G08G09G11G27                  -0.000143887
  22185879.141 5   -140600.484 5    -73767.51649  22185881.37549
  23540243.094 4     31710.691 4     14947.53546  23540242.55946
  20703661.773 6      7299.879 6      4483.89549  20703661.22349
  23322697.172 5     12195.277 5      5695.99648  23322696.55548
  20414276.086 6    -65655.055 6    -38878.08648  20414272.64148
  22280438.281 6     48347.258 6     27426.27349  22280438.08649
 20  5 16  3 20 38.0000000  0  6G01G04G08G09G11G27                  -0.000144573
  22185032.164 6   -145051.223 6    -77235.62149  22185034.29749
  23540539.695 4     33268.105 4     16161.10246  23540539.06346
  20703707.352 6      7539.758 6      4670.81649  20703706.57049
  23322809.586 5     12789.844 5      6159.29348  23322809.74248
  20413827.969 6    -68010.566 6    -40713.54748  20413824.96148
  22280746.180 6     49964.004 6     28686.07449  22280745.94149
 20  5 16  3 20 39.0000000  0  6G01G04G08G09G11G27                  -0.000145260
  22184184.719 6   -149503.445 6    -80704.88349  22184187.02049
  23540835.375 5     34823.777 5     17373.32046  23540835.17246
  20703752.734 6      7778.145 6      4856.57049  20703752.30149
  23322922.445 5     13382.973 5      6621.46948  23322922.87948
  20413379.273 6    -70367.313 6    -42549.96948  20413376.08248
  22281053.531 6     51579.074 6     29944.56649  22281052.75849
 20  5 16  3 20 40.0000000  0  6G01G04G08G09G11G27                  -0.000145948
  22183337.531 5   -153956.969 5    -84175.16449  22183339.68849
  23541131.406 5     36377.887 5     18584.30546  23541130.69146
  20703797.867 7      8015.219 7      5041.30149  20703797.34849
  23323034.953 5     13974.738 5      7082.57848  23323035.66048
  20412931.148 6    -72725.121 6    -44387.22748  20412927.36348
  22281360.531 6     53192.590 6     31201.85549  22281360.08249
 20  5 16  3 20 41.0000000  0  6G01G04G08G09G11G27                  -0.000146637
  22182489.328 5   -158411.926 5    -87646.56649  22182491.98049
  23541427.109 5     37930.324 5     19793.98046  23541426.43846
  20703843.031 7      8250.922 7      5224.96949  20703842.08249
  23323147.664 5     14565.160 5      7542.64148  23323148.52048
  20412482.398 6    -75084.008 6    -46225.31648  20412478.82848
  22281667.070 6     54804.527 6     32457.91049  22281666.91449
 20  5 16  3 20 42.0000000  0  6G01G04G08G09G11G27                  -0.000147329
  22181641.430 5   -162868.145 5    -91118.95349  22181643.82049
  23541721.367 4     39481.215 4     21002.46546  23541721.81646
  20703887.563 7      8485.301 7      5407.60549  20703886.94549
  23323259.180 5     15154.254 5      8001.68048  23323260.41448
  20412032.977 6    -77443.965 6    -48064.24248  20412029.69948
  22281973.625 6     56414.953 6     33712.78949  22281973.48849
 20  5 16  3 20 43.0000000  0  6G01G04G08G09G11G27                  -0.000148020
  22180792.836 5   -167325.531 5    -94592.24249  22180795.17649
  23542016.383 4     41030.688 4     22209.85246  23542016.66446
  20703932.063 7      8718.512 7      5589.32449  20703931.55549
  23323371.523 5     15742.230 5      8459.84048  23323372.24648
  20411583.805 6    -79804.828 6    -49903.87148  20411580.53548
  22282279.578 6     58024.000 6     34966.59049  22282279.30149
 20  5 16  3 20 44.0000000  0  7G01G04G07G08G09G11G27               -0.000148712
  22179944.406 5   -171784.035 5    -98066.39849  22179946.76649
  23542311.297 5     42578.813 5     23416.18046  23542311.02346
  22193885.49216   -143825.94116    -88570.27758  22193882.21558
  20703975.984 7      8950.625 7      5770.19149  20703975.61349
  23323483.164 5     16329.090 5      8917.13348  23323483.83648
  20411134.172 6    -82166.516 6    -51744.15248  20411130.88348
  22282585.547 6     59631.715 6     36219.35249  22282585.40649
 20  5 16  3 20 45.0000000  0  7G01G04G07G08G09G11G27               -0.000149406
  22179096.648 5   -176243.496 5   -101541.30949  22179098.42249
  23542605.570 5     44125.688 5     24621.53546  23542605.49246
  22193144.203 6   -147723.313 6    -91607.18048  22193140.75448
  20704019.703 7      9181.742 7      5950.27749  20704019.48049
  23323595.180 5     16914.957 5      9373.64848  23323595.37948
  20410684.813 6    -84528.895 6    -53584.96948  20410681.25448
  22282891.266 6     61238.293 6     37471.22749  22282891.04349
 20  5 16  3 20 46.0000000  0  7G01G04G07G08G09G11G27               -0.000150099
  22178247.617 5   -180703.855 5   -105016.91049  22178249.60549
  23542899.609 5     45671.379 5     25825.96146  23542899.64146
  22192402.164 5   -151621.594 5    -94644.80148  22192399.27348
  20704063.641 7      9411.918 7      6129.63349  20704062.70349
  23323706.070 5     17499.918 5      9829.46148  23323706.65648
  20410235.117 6    -86891.961 6    -55426.31648  20410231.43848
  22283196.688 6     62843.711 6     38722.20749  22283196.22349
 20  5 16  3 20 47.0000000  0  7G01G04G07G08G09G11G27               -0.000150793
  22177398.883 5   -185165.211 5   -108493.29349  22177400.64149
  23543193.883 4     47215.863 4     27029.45746  23543193.45346
  22191660.078 6   -155520.762 6    -97683.11348  22191657.07448
  20704107.281 7      9641.156 7      6308.26249  20704106.98849
  23323817.172 5     18083.934 5     10284.53148  23323817.65248
  20409785.242 6    -89255.688 6    -57268.18448  20409781.53548
  22283502.039 6     64447.949 6     39972.25849  22283501.55949
 20  5 16  3 20 48.0000000  0  7G01G04G07G08G09G11G27               -0.000151489
  22176549.352 5   -189627.426 5   -111970.34849  22176551.41449
  23543487.063 4     48759.199 4     28232.03946  23543487.11746
  22190918.547 6   -159420.781 6   -100722.09448  22190915.07448
  20704150.820 6      9869.520 6      6486.20749  20704150.46149
  23323928.086 5     18667.074 5     10738.92648  23323928.59048
  20409335.453 6    -91620.051 6    -59110.54348  20409331.95748
  22283806.523 6     66051.105 6     41221.47349  22283806.97749
 20  5 16  3 20 49.0000000  0  7G01G04G07G08G09G11G27               -0.000152185
  22175700.375 5   -194090.539 5   -115448.09449  22175701.90249
  23543780.836 5     50301.383 5     29433.75046  23543780.64146
  22190175.828 6   -163321.641 6   -103761.73048  22190172.78548
  20704194.094 7     10097.008 7      6663.47349  20704193.27349
  23324039.484 5     19249.336 5     11192.63348  23324039.71148
  20408884.750 6    -93985.031 6    -60953.38748  20408881.90648
  22284112.234 6     67653.137 6     42469.80949  22284111.66449
 20  5 16  3 20 50.0000000  0  7G01G04G07G08G09G11G27               -0.000152882
  22174851.305 5   -198554.289 5   -118926.32449  22174852.67649
  23544074.578 4     51842.637 4     30634.72746  23544074.21146
  22189433.500 5   -167223.113 5   -106801.84048  22189430.30948
  20704237.359 7     10323.801 7      6840.19149  20704236.61749
  23324149.930 5     19830.922 5     11645.81348  23324150.48848
  20408434.961 6    -96350.430 6    -62796.55148  20408431.77748
  22284417.117 6     69254.316 6     43717.48449  22284416.48049
 20  5 16  3 20 51.0000000  0  7G01G04G07G08G09G11G27               -0.000153580
  22174001.531 5   -203018.727 5   -122405.10949  22174003.23849
  23544367.234 5     53382.938 5     31834.96546  23544367.14846
  22188690.992 5   -171125.203 5   -109842.43448  22188687.55548
  20704280.273 7     10549.945 7      7016.41049  20704279.56349
  23324260.484 5     20411.852 5     12098.48848  23324260.70348
  20407985.164 6    -98716.230 6    -64640.02748  20407981.56348
  22284721.188 6     70854.609 6     44964.46149  22284720.97349
 20  5 16  3 20 52.0000000  0  7G01G04G07G08G09G11G27               -0.000154278
  22173152.039 5   -207483.809 5   -125884.39149  22173153.39549
  23544660.016 5     54922.402 5     33034.53946  23544660.42646
  22187949.117 5   -175027.902 5   -112883.49648  22187945.03548
  20704323.148 7     10775.461 7      7192.13749  20704322.56349
  23324371.250 5     20992.148 5     12550.66048  23324371.48048
  20407534.492 6   -101082.387 6    -66483.78548  20407531.36348
  22285025.602 6     72454.063 6     46210.79349  22285025.09049
 20  5 16  3 20 53.0000000  0  7G01G04G07G08G09G11G27               -0.000154976
  22172302.359 5   -211949.602 5   -129364.23449  22172303.50849
  23544953.094 5     56460.863 5     34233.34846  23544952.93046
  22187205.688 5   -178931.250 5   -115925.06648  22187202.16448
  20704365.836 7     11000.234 7      7367.28549  20704365.31649
  23324480.961 5     21571.738 5     13002.28948  23324481.62548
  20407084.172 6   -103448.977 6    -68327.88748  20407080.93848
  22285329.992 6     74052.586 6     47456.39149  22285329.43849
 20  5 16  3 20 54.0000000  0  7G01G04G07G08G09G11G27               -0.000155676
  22171451.750 5   -216416.129 5   -132844.64849  22171453.41449
  23545245.578 5     57998.309 5     35431.33646  23545245.70346
  22186462.977 5   -182835.328 5   -118967.20348  22186459.31348
  20704408.602 6     11224.234 6      7541.82049  20704408.05949
  23324591.219 5     22150.570 5     13453.32448  23324591.74648
  20406633.828 6   -105816.074 6    -70172.38748  20406630.27048
  22285633.727 6     75650.129 6     48701.22349  22285633.28949
 20  5 16  3 20 55.0000000  0  7G01G04G07G08G09G11G27               -0.000156376
  22170601.766 5   -220883.371 5   -136325.61749  22170603.27749
  23545537.813 5     59534.801 5     36628.60546  23545537.97346
  22185719.695 5   -186740.004 5   -122009.80948  22185716.45748
  20704451.320 7     11447.543 7      7715.82849  20704450.57049
  23324701.125 5     22728.707 5     13903.81648  23324701.64848
  20406183.344 6   -108183.609 6    -72017.21948  20406179.71948
  22285937.773 6     77246.793 6     49945.37549  22285937.35249
 20  5 16  3 20 56.0000000  0  7G01G04G07G08G09G11G27               -0.000157076
  22169752.133 5   -225350.902 5   -139806.81648  22169753.12948
  23545829.617 5     61070.691 5     37825.41446  23545830.21546
  22184976.281 5   -190644.992 5   -125052.65648  22184973.46148
  20704493.586 7     11670.504 7      7889.55949  20704493.14549
  23324811.000 5     23306.531 5     14354.07048  23324811.93048
  20405732.875 6   -110551.219 6    -73862.10948  20405729.91848
  22286241.250 6     78842.883 6     51189.07849  22286241.16449
 20  5 16  3 20 57.0000000  0  7G01G04G07G08G09G11G27               -0.000157776
  22168901.555 5   -229818.992 5   -143288.43849  22168903.17649
  23546122.008 5     62605.816 5     39021.61346  23546122.61746
  22184233.594 5   -194550.473 5   -128095.88748  22184230.24648
  20704535.836 7     11892.957 7      8062.89549  20704535.19949
  23324921.000 5     23883.809 5     14803.89548  23324921.89148
  20405282.625 6   -112919.051 6    -75707.17248  20405278.84048
  22286544.836 6     80438.270 6     52432.23849  22286544.38349
 20  5 16  3 20 58.0000000  0  7G01G04G07G08G09G11G27               -0.000158478
  22168051.734 6   -234287.699 6   -146770.54749  22168052.64849
  23546414.039 5     64140.066 5     40217.13346  23546414.48446
  22183490.313 5   -198456.520 5   -131139.55948  22183487.25848
  20704578.141 7     12114.773 7      8235.73849  20704577.57849
  23325030.313 5     24460.469 5     15253.23448  23325031.69548
  20404831.469 6   -115287.266 6    -77552.53548  20404828.02748
  22286848.508 6     82032.781 6     53674.71549  22286847.78949
 20  5 16  3 20 59.0000000  0  7G01G04G07G08G09G11G27               -0.000159180
  22167200.961 6   -238756.906 6   -150253.04749  22167202.34449
  23546705.953 5     65673.492 5     41412.00046  23546706.29746
  22182746.719 5   -202363.027 5   -134183.59448  22182743.79748
  20704620.711 7     12336.082 7      8408.18849  20704619.89849
  23325140.000 5     25036.648 5     15702.20748  23325141.46548
  20404380.781 6   -117655.750 6    -79398.10548  20404377.30148
  22287151.703 6     83626.598 6     54916.65249  22287151.35549
 20  5 16  3 21  0.0000000  0  7G01G04G07G08G09G11G27               -0.000159882
  22166350.797 6   -243226.566 6   -153735.90249  22166351.59849
  23546997.078 4     67206.250 4     42606.34846  23546997.91446
  22182003.438 5   -206269.965 5   -137227.96548  22182000.38348
  20704662.180 7     12556.918 7      8580.26649  20704661.44949
  23325249.742 5     25612.371 5     16150.81648  23325250.94948
  20403930.258 6   -120024.371 6    -81243.78548  20403926.72748
  22287454.617 6     85219.754 6     56158.06649  22287453.82449
 20  5 16  3 21  1.0000000  0  7G01G04G07G08G09G11G27               -0.000160585
  22165499.758 6   -247696.613 6   -157219.05549  22165500.84449
  23547289.094 5     68738.328 5     43800.16046  23547289.52346
  22181259.883 5   -210177.223 5   -140272.58648  22181256.77748
  20704704.258 7     12777.363 7      8752.03949  20704703.45749
  23325359.789 5     26187.676 5     16599.11348  23325360.50448
  20403479.461 6   -122393.160 6    -83089.59848  20403475.80148
  22287758.547 6     86812.289 6     57399.00049  22287757.41449
 20  5 16  3 21  2.0000000  0  7G01G04G07G08G09G11G27               -0.000161287
  22164649.109 6   -252167.070 6   -160702.53549  22164650.56649
  23547580.063 5     70269.793 5     44993.50046  23547580.66846
  22180515.938 5   -214084.824 5   -143317.46548  22180513.13748
  20704746.047 7     12997.398 7      8923.49649  20704745.63749
  23325468.570 5     26762.613 5     17047.11348  23325470.13748
  20403028.680 6   -124762.059 6    -84935.49248  20403025.12148
  22288061.000 6     88404.215 6     58639.45749  22288060.27349
 20  5 16  3 21  3.0000000  0  7G01G04G07G08G09G11G27               -0.000161991
  22163798.094 6   -256637.898 6   -164186.29749  22163799.36349
  23547871.195 4     71800.574 4     46186.31346  23547872.61346
  22179772.906 5   -217992.785 5   -146362.62948  22179769.65648
  20704787.789 7     13217.039 7      9094.64849  20704787.05149
  23325577.688 5     27337.176 5     17494.82448  23325579.44948
  20402577.836 6   -127131.098 6    -86781.49648  20402574.49648
  22288364.297 6     89995.535 6     59879.44549  22288363.05949
 20  5 16  3 21  4.0000000  0  7G01G04G07G08G09G11G27               -0.000162695
  22162947.688 6   -261109.125 6   -167670.36749  22162948.74249
  23548162.883 5     73330.699 5     47378.62146  23548163.53546
  22179028.891 5   -221901.090 5   -149408.06648  22179026.27048
  20704829.734 7     13436.285 7      9265.49249  20704829.07849
  23325687.570 5     27911.324 5     17942.21148  23325688.75848
  20402126.789 6   -129500.266 6    -88627.60248  20402123.40648
  22288666.016 6     91586.258 6     61118.96949  22288665.84849
 20  5 16  3 21  5.0000000  0  7G01G04G07G08G09G11G27               -0.000163399
  22162096.828 6   -265580.688 6   -171154.69549  22162097.73049
  23548454.273 5     74860.250 5     48570.49246  23548454.62546
  22178285.492 5   -225809.645 5   -152453.69548  22178282.41448
  20704871.195 7     13655.184 7      9436.06349  20704870.59849
  23325796.203 5     28485.168 5     18389.35248  23325797.39148
  20401676.109 6   -131869.465 6    -90473.73048  20401672.71148
  22288969.328 6     93176.441 6     62358.08249  22288968.27349
 20  5 16  3 21  6.0000000  0  7G01G04G07G08G09G11G27               -0.000164104
  22161245.500 5   -270052.566 5   -174639.27349  22161246.56649
  23548745.781 5     76389.145 5     49761.84046  23548745.24246
  22177541.523 5   -229718.531 5   -155499.58248  22177538.76648
  20704912.469 7     13873.738 7      9606.36749  20704912.50849
  23325905.828 5     29058.645 5     18836.21148  23325906.91448
  20401225.219 6   -134238.758 6    -92319.92648  20401221.39548
  22289271.328 6     94766.055 6     63596.74249  22289271.19949
 20  5 16  3 21  7.0000000  0  7G01G04G07G08G09G11G27               -0.000164810
  22160394.594 5   -274524.789 5   -178124.12149  22160395.75449
  23549035.875 5     77917.496 5     50952.77046  23549036.50046
  22176797.430 5   -233627.703 5   -158545.69148  22176795.04348
  20704954.375 7     14091.969 7      9776.41849  20704953.89549
  23326014.922 5     29631.789 5     19282.81648  23326015.38348
  20400774.258 6   -136608.148 6    -94166.20348  20400770.93848
  22289573.789 6     96355.141 6     64834.98849  22289572.96949
 20  5 16  3 21  8.0000000  0  7G01G04G07G08G09G11G27               -0.000165516
  22159543.328 6   -278997.301 6   -181609.19549  22159544.67249
  23549326.250 4     79445.285 4     52143.24246  23549327.42646
  22176052.984 5   -237537.098 5   -161591.97748  22176050.97348
  20704995.836 7     14309.891 7      9946.23049  20704995.21149
  23326124.055 5     30204.641 5     19729.19548  23326125.02748
  20400323.148 6   -138977.539 6    -96012.48848  20400320.34448
  22289876.305 6     97943.707 6     66072.83249  22289875.31649
 20  5 16  3 21  9.0000000  0  7G01G04G07G08G09G11G27               -0.000166222
  22158692.453 6   -283470.039 6   -185094.44149  22158693.42249
  23549616.969 4     80972.555 4     53333.32046  23549617.65646
  22175309.719 5   -241446.695 5   -164638.41448  22175306.91048
  20705037.383 7     14527.527 7     10115.80949  20705036.60949
  23326232.445 5     30777.270 5     20175.41048  23326233.81648
  20399872.406 6   -141346.922 6    -97858.76248  20399869.34048
  22290178.047 6     99531.828 6     67310.33249  22290177.51249
 20  5 16  3 21 10.0000000  0  7G01G04G07G08G09G11G27               -0.000166927
  22157841.219 5   -287943.141 5   -188579.97749  22157842.18849
  23549907.023 4     82499.244 4     54522.94146  23549908.35546
  22174565.664 5   -245356.582 5   -167685.08648  22174563.02748
  20705078.664 7     14744.852 7     10285.15249  20705077.98449
  23326342.398 5     31349.543 5     20621.34048  23326342.89148
  20399421.602 6   -143716.395 6    -99705.10548  20399418.28148
  22290480.422 6    101119.371 6     68547.37549  22290479.50049
 20  5 16  3 21 11.0000000  0  7G01G04G07G08G09G11G27               -0.000167633
  22156990.016 5   -292416.672 5   -192065.84849  22156990.88749
  23550197.953 4     84025.191 4     55711.98446  23550198.58246
  22173821.422 5   -249266.852 5   -170732.05148  22173818.84848
  20705120.117 7     14961.727 7     10454.14549  20705119.46949
  23326450.625 5     31921.387 5     21066.93048  23326451.89548
  20398970.844 6   -146085.996 6   -101551.55548  20398967.26248
  22290782.211 6    102706.273 6     69783.92649  22290781.59849
 20  5 16  3 21 12.0000000  0  7G01G04G07G08G09G11G27               -0.000168341
  22156138.234 5   -296890.457 5   -195551.91449  22156139.38349
  23550487.656 4     85550.598 4     56900.60546  23550488.98446
  22173077.688 5   -253177.359 5   -173779.19948  22173074.78148
  20705161.078 7     15178.344 7     10622.93849  20705160.66849
  23326559.047 5     32492.941 5     21512.29348  23326560.57048
  20398520.063 6   -148455.617 6   -103398.01248  20398516.39548
  22291084.266 6    104292.688 6     71020.09049  22291083.85549
 20  5 16  3 21 13.0000000  0  7G01G04G07G08G09G11G27               -0.000169048
  22155287.203 5   -301364.469 5   -199038.14849  22155288.11349
  23550777.961 4     87075.570 4     58088.90646  23550778.69146
  22172333.016 5   -257088.012 5   -176826.46548  22172330.67648
  20705202.516 7     15394.762 7     10791.57849  20705201.84449
  23326668.016 5     33064.328 5     21957.52748  23326669.46148
  20398069.141 6   -150825.164 6   -105244.40648  20398065.39148
  22291385.914 6    105878.715 6     72255.95349  22291385.28149
 20  5 16  3 21 14.0000000  0  7G01G04G07G08G09G11G27               -0.000169758
  22154435.719 5   -305838.742 5   -202524.59449  22154436.89549
  23551068.023 4     88599.980 4     59276.75446  23551069.59046
  22171588.711 5   -260998.902 5   -179873.91048  22171586.44148
  20705243.508 7     15610.832 7     10959.94549  20705242.85949
  23326776.844 5     33635.406 5     22402.51648  23326777.58248
  20397617.992 6   -153194.770 6   -107090.84848  20397614.60248
  22291687.938 6    107464.203 6     73491.39849  22291687.06649
 20  5 16  3 21 15.0000000  0  7G01G04G07G08G09G11G27               -0.000170465
  22153584.188 6   -310313.289 6   -206011.25449  22153585.32049
  23551358.469 4     90123.898 4     60464.21146  23551359.52046
  22170844.406 5   -264910.000 5   -182921.51648  22170842.30148
  20705284.719 7     15826.660 7     11128.12149  20705283.61749
  23326885.109 5     34206.234 5     22847.30948  23326886.14848
  20397166.750 6   -155564.316 6   -108937.25448  20397163.74248
  22291989.055 5    109049.227 5     74726.48449  22291988.56349
 20  5 16  3 21 16.0000000  0  7G01G04G07G08G09G11G27               -0.000171173
  22152732.859 5   -314788.156 5   -209498.16849  22152733.89849
  23551647.820 4     91647.152 4     61651.15246  23551649.12946
  22170100.672 5   -268821.410 5   -185969.37548  22170097.97348
  20705325.445 7     16042.129 7     11296.01649  20705325.15249
  23326994.305 5     34776.699 5     23291.82448  23326994.71948
  20396715.875 6   -157933.969 6   -110783.73448  20396712.57448
  22292290.570 6    110633.680 6     75961.11749  22292290.07849
 20  5 16  3 21 17.0000000  0  7G01G04G07G08G09G11G27               -0.000171883
  22151880.820 5   -319263.297 5   -212985.28549  22151882.20349
  23551937.508 4     93169.953 4     62837.75446  23551938.62146
  22169356.547 5   -272733.023 5   -189017.38348  22169353.64148
  20705366.852 7     16257.359 7     11463.72749  20705365.43849
  23327102.234 5     35346.945 5     23736.17248  23327103.31348
  20396265.359 6   -160303.613 6   -112630.21148  20396261.77048
  22292591.797 5    112217.672 5     77195.39549  22292591.30149
 20  5 16  3 21 18.0000000  0  7G01G04G07G08G09G11G27               -0.000172592
  22151029.070 5   -323738.664 5   -216472.58249  22151030.71549
  23552227.617 4     94692.219 4     64023.93046  23552228.35946
  22168612.195 5   -276644.813 5   -192065.53948  22168609.35948
  20705407.500 7     16472.328 7     11631.23849  20705406.62549
  23327211.359 5     35916.926 5     24180.30948  23327211.63748
  20395814.086 6   -162673.242 6   -114476.67648  20395810.86748
  22292893.375 5    113801.211 5     78429.32449  22292892.73049
 20  5 16  3 21 19.0000000  0  7G01G04G07G08G09G11G27               -0.000173302
  22150177.063 5   -328214.215 5   -219960.02749  22150178.83649
  23552517.047 4     96214.023 4     65209.72746  23552518.03546
  22167867.883 5   -280556.770 5   -195113.81648  22167864.94548
  20705448.352 7     16687.090 7     11798.58249  20705447.54749
  23327318.891 5     36486.688 5     24624.27748  23327320.34448
  20395363.539 6   -165042.805 6   -116323.08648  20395360.10548
  22293194.633 5    115384.348 5     79662.93849  22293194.32049
 20  5 16  3 21 20.0000000  0  7G01G04G07G08G09G11G27               -0.000174011
  22149326.094 6   -332690.004 6   -223447.65649  22149327.04349
  23552806.422 3     97735.281 3     66395.10246  23552807.82446
  22167123.188 6   -284468.898 6   -198162.22748  22167120.76648
  20705489.320 7     16901.590 7     11965.72349  20705487.96549
  23327427.898 5     37056.238 5     25068.07848  23327428.90648
  20394912.789 6   -167412.320 6   -118169.46148  20394909.41048
  22293496.266 6    116967.004 6     80896.17649  22293495.21949
 20  5 16  3 21 21.0000000  0  7G01G04G07G08G09G11G27               -0.000174723
  22148474.391 6   -337166.008 6   -226935.44949  22148475.62949
  23553096.211 4     99256.090 4     67580.13746  23553096.64846
  22166378.672 5   -288381.184 5   -201210.76648  22166376.66848
  20705530.203 7     17115.875 7     12132.69549  20705528.98449
  23327535.461 5     37625.594 5     25511.73048  23327536.80948
  20394461.625 6   -169781.801 6   -120015.80548  20394458.54348
  22293797.039 6    118549.258 6     82129.10249  22293796.41449
 20  5 16  3 21 22.0000000  0  7G01G04G07G08G09G11G27               -0.000175432
  22147621.969 6   -341642.156 6   -230423.35949  22147623.77349
  23553386.063 4    100776.504 4     68764.87946  23553386.30546
  22165634.297 5   -292293.551 5   -204259.37148  22165631.61748
  20705571.039 7     17330.031 7     12299.57049  20705569.80949
  23327644.461 5     38194.762 5     25955.23448  23327645.40648
  20394010.531 6   -172151.168 6   -121862.07048  20394007.48048
  22294097.844 6    120131.152 6     83361.74649  22294097.44549
 20  5 16  3 21 23.0000000  0  7G01G04G07G08G09G11G27               -0.000176144
  22146770.586 5   -346118.402 5   -233911.34449  22146771.31349
  23553675.469 4    102296.547 4     69949.32846  23553675.56646
  22164889.438 5   -296206.023 5   -207308.04348  22164887.41048
  20705611.570 7     17544.035 7     12466.32049  20705610.27349
  23327752.617 5     38763.828 5     26398.66448  23327753.37548
  20393560.180 6   -174520.383 6   -123708.21148  20393556.98448
  22294398.734 6    121712.699 6     84594.11749  22294398.52749
 20  5 16  3 21 24.0000000  0  7G01G04G07G08G09G11G27               -0.000176853
  22145918.383 5   -350594.758 5   -237399.40649  22145919.73449
  23553964.078 4    103816.199 4     71133.47746  23553964.61346
  22164145.039 5   -300118.539 5   -210356.75448  22164143.26648
  20705651.977 7     17757.895 7     12632.96949  20705651.10249
  23327860.883 5     39332.770 5     26841.99648  23327861.83648
  20393108.742 6   -176889.461 6   -125554.24248  20393105.95348
  22294700.570 6    123293.914 6     85826.23449  22294699.21549
 20  5 16  3 21 25.0000000  0  7G01G04G07G08G09G11G27               -0.000177565
  22145066.945 6   -355071.305 6   -240887.62549  22145067.62949
  23554252.781 4    105335.395 4     72317.25846  23554254.14146
  22163400.297 5   -304031.191 5   -213405.57048  22163398.46148
  20705692.492 7     17971.582 7     12799.47349  20705691.58649
  23327968.766 5     39901.539 5     27285.19148  23327969.68048
  20392657.852 6   -179258.441 6   -127400.20348  20392654.72748
  22295000.836 6    124874.754 6     87058.05149  22295000.21149
 20  5 16  3 21 26.0000000  0  7G01G04G07G08G09G11G27               -0.000178278
  22144215.617 6   -359547.988 6   -244375.94549  22144216.20349
  23554542.188 4    106854.180 4     73500.71146  23554542.82846
  22162655.969 5   -307943.965 5   -216454.48048  22162653.89148
  20705733.320 7     18185.105 7     12965.85549  20705732.19949
  23328077.031 5     40470.188 5     27728.29748  23328077.86748
  20392207.430 6   -181627.309 6   -129246.07848  20392203.99248
  22295301.273 6    126455.223 6     88289.59049  22295300.86349
 20  5 16  3 21 27.0000000  0  7G01G04G07G08G09G11G27               -0.000178989
  22143363.508 6   -364024.777 6   -247864.34849  22143363.77349
  23554830.758 4    108372.582 4     74683.87546  23554832.02746
  22161911.211 5   -311856.750 5   -219503.41048  22161909.45348
  20705774.141 7     18398.535 7     13132.16849  20705772.89549
  23328184.898 5     41038.695 5     28171.28948  23328186.35248
  20391756.617 6   -183996.016 6   -131091.81648  20391753.15648
  22295602.203 6    128035.352 6     89520.85949  22295601.59849
 20  5 16  3 21 28.0000000  0  7G01G04G07G08G09G11G27               -0.000179701
  22142511.484 6   -368501.898 6   -251353.01649  22142512.03949
  23555118.844 4    109890.445 4     75866.62146  23555120.48446
  22161166.672 5   -315769.836 5   -222552.57448  22161164.71548
  20705814.219 7     18611.641 7     13298.22349  20705813.55149
  23328293.359 5     41606.863 5     28614.00848  23328294.05948
  20391305.852 6   -186364.766 6   -132937.59848  20391302.52048
  22295903.008 6    129614.945 6     90751.70349  22295901.87149
 20  5 16  3 21 29.0000000  0  7G01G04G07G08G09G11G27               -0.000180414
  22141659.758 6   -372979.094 6   -254841.74249  22141660.31349
  23555407.695 3    111407.840 3     77049.01246  23555409.69546
  22160422.180 5   -319683.004 5   -225601.79348  22160420.25848
  20705854.781 7     18824.598 7     13464.16849  20705854.04349
  23328401.523 5     42174.965 5     29056.68448  23328402.23048
  20390855.828 6   -188733.395 6   -134783.28548  20390851.91448
  22296203.594 6    131194.219 6     91982.31349  22296202.72749
 20  5 16  3 21 30.0000000  0  7G01G04G07G08G09G11G27               -0.000181126
  22140808.117 6   -377456.445 6   -258330.59049  22140807.97749
  23555697.422 4    112924.898 4     78231.13346  23555698.24246
  22159677.086 5   -323596.223 5   -228651.05948  22159675.52348
  20705895.328 7     19037.438 7     13630.01649  20705894.32849
  23328509.883 5     42742.918 5     29499.24248  23328510.22748
  20390404.133 6   -191101.867 6   -136628.84848  20390400.87948
  22296503.883 6    132773.141 6     93212.63749  22296502.99649
 20  5 16  3 21 31.0000000  0  7G01G04G07G08G09G11G27               -0.000181839
  22139955.172 6   -381933.816 6   -261819.44949  22139955.82049
  23555985.984 4    114441.648 4     79413.01246  23555986.74646
  22158932.922 6   -327509.496 6   -231700.36348  22158930.75448
  20705935.820 7     19250.203 7     13795.80549  20705934.44549
  23328617.406 5     43310.797 5     29941.74248  23328617.97748
  20389953.789 6   -193470.105 6   -138474.23048  20389950.41848
  22296804.172 6    134351.813 6     94442.77049  22296803.58249
 20  5 16  3 21 32.0000000  0  7G01G04G07G08G09G11G27               -0.000182552
  22139103.234 6   -386411.336 6   -265308.42649  22139103.81649
  23556274.953 4    115957.988 4     80594.58246  23556275.67646
  22158188.680 6   -331422.820 6   -234749.70348  22158186.30548
  20705976.031 7     19462.840 7     13961.49249  20705975.67249
  23328725.672 5     43878.574 5     30384.16448  23328726.40648
  20389502.875 6   -195838.242 6   -140319.53148  20389499.77748
  22297104.336 6    135930.105 6     95672.60949  22297104.30549
 20  5 16  3 21 33.0000000  0  7G01G04G07G08G09G11G27               -0.000183266
  22138251.727 6   -390889.004 6   -268797.51649  22138251.69549
  23556562.758 4    117473.914 4     81775.82046  23556563.47746
  22157443.016 6   -335336.242 6   -237799.12548  22157441.71148
  20706017.117 7     19675.301 7     14127.04749  20706015.89849
  23328834.055 5     44446.172 5     30826.45748  23328834.19548
  20389052.141 6   -198206.266 6   -142164.74648  20389049.54348
  22297404.859 6    137508.043 6     96902.17249  22297404.25049
 20  5 16  3 21 34.0000000  0  7G01G04G07G08G09G11G27               -0.000183979
  22137399.531 6   -395366.785 6   -272286.69949  22137399.94949
  23556851.867 4    118989.398 4     82956.70346  23556852.52046
  22156698.117 6   -339249.758 6   -240848.62948  22156697.00048
  20706057.320 7     19887.633 7     14292.50049  20706056.45749
  23328941.625 5     45013.605 5     31268.61748  23328942.03948
  20388602.102 6   -200574.180 6   -144009.86748  20388598.87148
  22297705.148 6    139085.645 6     98131.46549  22297704.60549
 20  5 16  3 21 35.0000000  0  7G01G04G07G08G09G11G27               -0.000184694
  22136547.305 6   -399844.637 6   -275775.93449  22136547.36749
  23557139.984 4    120504.586 4     84137.37146  23557140.70746
  22155953.859 6   -343163.309 6   -243898.14848  22155952.19548
  20706097.930 7     20099.910 7     14457.91849  20706096.63349
  23329049.500 5     45581.020 5     31710.75048  23329049.69548
  20388151.406 6   -202941.871 6   -145854.82848  20388148.40248
  22298005.031 6    140662.957 6     99360.53549  22298004.67249
 20  5 16  3 21 36.0000000  0  7G01G04G07G08G09G11G27               -0.000185408
  22135695.445 6   -404322.695 6   -279265.33249  22135695.67649
  23557427.945 3    122019.297 3     85317.66046  23557429.25846
  22155209.586 6   -347077.008 6   -246947.78148  22155207.30548
  20706138.125 7     20311.961 7     14623.14849  20706137.04749
  23329157.492 5     46148.215 5     32152.71548  23329158.18048
  20387700.523 6   -205309.504 6   -147699.73448  20387697.24648
  22298305.266 6    142239.824 6    100589.26649  22298304.92249
 20  5 16  3 21 37.0000000  0  7G01G04G07G08G09G11G27               -0.000186123
  22134842.609 6   -408800.840 6   -282754.79349  22134843.03949
  23557716.227 4    123533.645 4     86497.66846  23557717.10546
  22154464.219 6   -350990.754 6   -249997.45348  22154462.80148
  20706178.539 7     20523.906 7     14788.30549  20706177.31349
  23329265.289 5     46715.277 5     32594.58248  23329265.89548
  20387250.633 6   -207676.984 6   -149544.52748  20387247.18848
  22298605.859 6    143816.422 6    101817.78149  22298605.00049
 20  5 16  3 21 38.0000000  0  7G01G04G07G08G09G11G27               -0.000186838
  22133991.234 6   -413279.027 6   -286244.28549  22133991.82049
  23558003.875 4    125047.684 4     87677.43046  23558005.18846
  22153719.844 5   -354904.488 5   -253047.12149  22153717.93449
  20706218.602 7     20735.797 7     14953.41449  20706217.75049
  23329373.453 5     47282.313 5     33036.42248  23329373.97348
  20386799.953 6   -210044.238 6   -151389.14548  20386796.60948
  22298905.711 6    145392.703 6    103046.05149  22298904.73449
 20  5 16  3 21 39.0000000  0  7G01G04G07G08G09G11G27               -0.000187553
  22133138.500 6   -417757.238 6   -289733.79749  22133139.16049
  23558292.305 3    126561.402 3     88856.94146  23558293.26646
  22152974.672 5   -358818.195 5   -256096.76248  22152973.29348
  20706259.086 7     20947.668 7     15118.51249  20706257.86749
  23329481.039 5     47849.332 5     33478.25448  23329481.22348
  20386349.422 6   -212411.246 6   -153233.56648  20386346.21148
  22299205.563 6    146968.770 6    104274.15649  22299204.77349
 20  5 16  3 21 40.0000000  0  7G01G04G07G08G09G11G27               -0.000188269
  22132286.344 6   -422235.574 6   -293223.40649  22132286.78149
  23558580.078 3    128074.719 3     90036.15246  23558581.42646
  22152230.523 5   -362732.004 5   -259146.47749  22152228.55949
  20706299.344 7     21159.344 7     15283.44949  20706298.58249
  23329588.383 5     48416.215 5     33919.97748  23329589.65248
  20385899.164 6   -214778.133 6   -155077.89148  20385895.57848
  22299504.867 6    148544.473 6    105501.96949  22299504.42249
 20  5 16  3 21 41.0000000  0  7G01G04G07G08G09G11G27               -0.000188984
  22131434.148 6   -426714.164 6   -296713.21949  22131434.40249
  23558868.758 4    129587.516 4     91214.94546  23558869.41446
  22151485.797 6   -366646.016 6   -262196.36349  22151483.74249
  20706339.875 7     21370.785 7     15448.21149  20706338.43449
  23329696.664 5     48982.781 5     34361.45748  23329697.44948
  20385448.820 6   -217145.051 6   -156922.24648  20385445.51248
  22299804.930 6    150119.680 6    106729.40649  22299804.17249
 20  5 16  3 21 42.0000000  0  7G01G04G07G08G09G11G27               -0.000189699
  22130581.188 6   -431192.938 6   -300203.17649  22130582.15649
  23559155.930 4    131099.867 4     92393.39846  23559157.21146
  22150741.125 6   -370560.180 6   -265246.36348  22150738.61348
  20706379.703 7     21582.027 7     15612.81649  20706379.02049
  23329804.297 5     49549.191 5     34802.81648  23329805.14148
  20384997.992 6   -219511.848 6   -158766.50448  20384994.73048
  22300104.594 6    151694.527 6    107956.55949  22300103.87149
 20  5 16  3 21 43.0000000  0  7G01G04G07G08G09G11G27               -0.000190416
  22129729.438 6   -435671.848 6   -303693.23049  22129729.84049
  23559443.750 3    132611.797 3     93571.52046  23559444.68046
  22149996.000 6   -374474.430 6   -268296.43048  22149994.26248
  20706419.984 7     21793.117 7     15777.30149  20706418.88749
  23329913.031 5     50115.484 5     35244.08248  23329913.00448
  20384547.500 6   -221878.527 6   -160610.66848  20384544.53548
  22300403.813 6    153269.004 6    109183.42649  22300403.45349
 20  5 16  3 21 44.0000000  0  7G01G04G07G08G09G11G27               -0.000191132
  22128877.172 6   -440150.848 6   -307183.35949  22128877.53149
  23559731.781 3    134123.363 3     94749.37146  23559732.54346
  22149251.156 6   -378388.734 6   -271346.54349  22149249.07849
  20706460.039 7     22004.078 7     15941.68849  20706459.28549
  23330020.242 4     50681.641 4     35685.23848  23330020.53948
  20384097.828 6   -224245.070 6   -162454.72748  20384094.33248
  22300703.617 6    154843.113 6    110410.00449  22300703.08249
 20  5 16  3 21 45.0000000  0  7G01G04G07G08G09G11G27               -0.000191849
  22128024.586 6   -444630.125 6   -310673.70749  22128025.21149
  23560019.633 3    135634.379 3     95926.78146  23560019.76246
  22148506.117 6   -382303.246 6   -274396.80949  22148504.24249
  20706499.961 7     22214.793 7     16105.88349  20706499.73449
  23330128.117 5     51247.551 5     36126.19948  23330128.18448
  20383646.922 6   -226611.586 6   -164298.77048  20383643.77348
  22301003.297 6    156416.813 6    111636.27049  22301002.15649
 20  5 16  3 21 46.0000000  0  7G01G04G07G08G09G11G27               -0.000192566
  22127172.414 6   -449109.344 6   -314164.00449  22127172.73049
  23560306.742 3    137145.172 3     97104.02746  23560307.25446
  22147760.953 6   -386217.676 6   -277447.01249  22147759.52349
  20706540.016 7     22425.516 7     16270.07849  20706539.43049
  23330235.836 5     51813.465 5     36567.16848  23330235.86348
  20383197.031 6   -228977.832 6   -166142.59448  20383193.74648
  22301302.359 6    157990.316 6    112862.36749  22301301.72349
 20  5 16  3 21 47.0000000  0  7G01G04G07G08G09G11G27               -0.000193283
  22126319.930 6   -453588.809 6   -317654.49649  22126320.25449
  23560594.047 3    138655.516 3     98280.92246  23560595.08646
  22147016.609 6   -390132.297 6   -280497.36349  22147014.73449
  20706580.430 7     22635.992 7     16434.09449  20706579.62949
  23330343.641 5     52379.172 5     37007.97748  23330343.89848
  20382746.984 6   -231344.012 6   -167986.36748  20382743.41048
  22301601.305 5    159563.293 5    114088.06349  22301600.93049
 20  5 16  3 21 48.0000000  0  7G01G04G07G08G09G11G27               -0.000194000
  22125467.188 6   -458068.320 6   -321145.01249  22125468.06649
  23560881.445 4    140165.465 4     99457.50446  23560882.21146
  22146271.727 6   -394046.914 6   -283547.72348  22146269.55148
  20706620.258 7     22846.395 7     16598.03949  20706619.58649
  23330451.664 5     52944.746 5     37448.68848  23330451.15248
  20382296.234 6   -233710.020 6   -169830.00848  20382293.07848
  22301900.320 5    161136.082 5    115313.60549  22301900.37549
 20  5 16  3 21 49.0000000  0  7G01G04G07G08G09G11G27               -0.000194717
  22124615.266 6   -462547.789 6   -324635.51249  22124616.04749
  23561168.867 4    141675.180 4    100633.90246  23561169.51646
  22145526.211 6   -397961.500 6   -286598.04749  22145524.64149
  20706660.656 7     23056.813 7     16762.00449  20706659.62149
  23330559.008 5     53510.387 5     37889.44548  23330558.81348
  20381846.336 6   -236075.742 6   -171673.43448  20381843.11348
  22302200.445 5    162708.613 5    116538.95349  22302199.80949
 20  5 16  3 21 50.0000000  0  7G01G04G07G08G09G11G27               -0.000195436
  22123762.859 6   -467027.297 6   -328126.03949  22123763.53549
  23561455.914 4    143184.574 4    101810.04746  23561457.14546
  22144781.625 6   -401876.020 6   -289648.32848  22144779.02048
  20706700.672 7     23267.188 7     16925.93049  20706699.74249
  23330666.750 5     54075.996 5     38330.18448  23330666.40248
  20381395.938 6   -238441.207 6   -173516.65648  20381392.78148
  22302499.828 6    164280.918 6    117764.11749  22302498.91449
 20  5 16  3 21 51.0000000  0  7G01G04G07G08G09G11G27               -0.000196154
  22122910.508 6   -471506.957 6   -331616.69149  22122911.42249
  23561742.820 4    144693.570 4    102985.88746  23561744.11746
  22144036.953 6   -405790.676 6   -292698.71949  22144034.77749
  20706740.547 7     23477.410 7     17089.74649  20706739.95349
  23330773.672 5     54641.438 5     38770.78148  23330773.68448
  20380945.875 6   -240806.590 6   -175359.80948  20380942.74648
  22302798.484 5    165852.848 5    118989.00049  22302797.93449
 20  5 16  3 21 52.0000000  0  7G01G04G07G08G09G11G27               -0.000196873
  22122057.625 6   -475986.613 6   -335107.32449  22122058.92649
  23562029.813 4    146202.277 4    104161.48446  23562031.14846
  22143291.805 6   -409705.301 6   -295749.08249  22143289.66849
  20706780.344 7     23687.613 7     17253.53149  20706779.93049
  23330881.852 5     55206.848 5     39211.35548  23330881.57848
  20380496.195 6   -243171.703 6   -177202.75048  20380492.70748
  22303097.648 5    167424.555 5    120213.70349  22303096.81349
 20  5 16  3 21 53.0000000  0  7G01G04G07G08G09G11G27               -0.000197592
  22121205.320 6   -480466.281 6   -338597.97749  22121206.37949
  23562317.070 4    147710.738 4    105336.91046  23562318.36746
  22142546.828 6   -413619.875 6   -298799.39849  22142544.50049
  20706820.492 7     23897.785 7     17417.30149  20706820.02349
  23330989.211 5     55772.270 5     39651.94148  23330989.14548
  20380046.375 6   -245536.563 6   -179045.49648  20380042.35548
  22303396.844 5    168996.012 5    121438.21549  22303395.84449
 20  5 16  3 21 54.0000000  0  7G01G04G07G08G09G11G27               -0.000198311
  22120352.727 6   -484946.016 6   -342088.68049  22120353.84849
  23562604.563 4    149218.820 4    106512.03146  23562605.54746
  22141801.773 6   -417534.449 6   -301849.71949  22141800.07449
  20706860.352 7     24107.879 7     17581.01649  20706860.09849
  23331096.766 5     56337.602 5     40092.45348  23331096.16448
  20379595.742 6   -247901.246 6   -180888.10948  20379592.29348
  22303696.102 5    170567.180 5    122662.50049  22303694.80549
 20  5 16  3 21 55.0000000  0  7G01G04G07G08G09G11G27               -0.000199028
  22119500.445 6   -489425.680 6   -345579.32449  22119501.55549
  23562891.086 4    150726.676 4    107686.99246  23562892.43446
  22141057.234 6   -421448.941 6   -304899.97349  22141055.01249
  20706900.055 7     24318.051 7     17744.78549  20706899.64549
  23331205.039 5     56902.973 5     40533.00848  23331204.16848
  20379146.125 6   -250265.605 6   -182730.46548  20379142.62948
  22303994.656 5    172138.199 5    123886.67249  22303993.94949
 20  5 16  3 21 56.0000000  0  7G01G04G07G08G09G11G27               -0.000199747
  22118647.602 6   -493905.359 6   -349069.98449  22118648.74649
  23563177.227 4    152234.313 4    108861.77746  23563179.42646
  22140311.883 6   -425363.426 6   -307950.21949  22140310.17649
  20706940.148 7     24528.148 7     17908.48849  20706939.62949
  23331311.781 5     57468.316 5     40973.52748  23331311.66848
  20378696.172 6   -252629.707 6   -184572.62548  20378692.85248
  22304293.883 5    173708.973 5    125110.65249  22304292.67649
 20  5 16  3 21 57.0000000  0  7G01G04G07G08G09G11G27               -0.000200468
  22117795.367 6   -498384.953 6   -352560.57049  22117796.86749
  23563464.508 4    153741.699 4    110036.35946  23563466.19146
  22139567.117 6   -429277.727 6   -311000.31649  22139565.18849
  20706980.617 7     24738.320 7     18072.25849  20706979.94149
  23331419.148 5     58033.777 5     41414.15248  23331418.86348
  20378246.328 6   -254993.449 6   -186414.49648  20378242.98048
  22304592.727 5    175279.637 5    126334.54749  22304592.19149
 20  5 16  3 21 58.0000000  0  7G01G04G07G08G09G11G27               -0.000201187
  22116943.359 6   -502864.645 6   -356051.23049  22116944.29349
  23563751.516 4    155248.746 4    111210.68046  23563753.23046
  22138822.664 6   -433192.133 6   -314050.51249  22138820.32449
  20707019.984 7     24948.375 7     18235.93849  20707019.46149
  23331527.188 5     58599.063 5     41854.63748  23331526.67248
  20377796.797 6   -257357.066 6   -188256.27748  20377793.37548
  22304891.523 6    176849.914 6    127558.13749  22304890.46549
 20  5 16  3 21 59.0000000  0  7G01G04G07G08G09G11G27               -0.000201906
  22116090.609 6   -507344.289 6   -359541.85949  22116091.67649
  23564038.250 4    156755.516 4    112384.78946  23564039.79746
  22138077.859 6   -437106.438 6   -317100.61749  22138075.22349
  20707059.820 7     25158.449 7     18399.63349  20707059.64549
  23331635.117 5     59164.414 5     42295.17248  23331634.17248
  20377346.891 6   -259720.391 6   -190097.82848  20377343.30548
  22305189.711 5    178420.055 5    128781.62149  22305189.38349
 20  5 16  3 22  0.0000000  0  7G01G04G07G08G09G11G27               -0.000202627
  22115237.969 6   -511823.930 6   -363032.48849  22115238.86749
  23564324.953 4    158262.004 4    113558.67646  23564326.05946
  22137332.844 6   -441020.684 6   -320150.68049  22137330.44149
  20707100.203 7     25368.500 7     18563.31649  20707099.91449
  23331742.477 5     59729.773 5     42735.70748  23331742.02748
  20376897.117 6   -262083.434 6   -191939.16848  20376893.88748
  22305488.758 5    179989.938 5    130004.91049  22305488.08649
 20  5 16  3 22  1.0000000  0  7G01G04G07G08G09G11G27               -0.000203346
  22114385.484 6   -516303.664 6   -366523.18849  22114386.72749
  23564611.555 4    159768.156 4    114732.29546  23564613.00046
  22136588.406 6   -444934.969 6   -323200.77349  22136585.60949
  20707139.906 7     25578.484 7     18726.93449  20707139.59449
  23331849.852 5     60295.023 5     43176.15648  23331849.00848
  20376447.602 6   -264446.313 6   -193780.37148  20376444.08248
  22305787.398 5    181559.578 5    131228.00049  22305786.82849
 20  5 16  3 22  2.0000000  0  7G01G04G07G08G09G11G27               -0.000204067
  22113533.258 6   -520783.332 6   -370013.84049  22113533.91449
  23564897.883 4    161274.082 4    115905.74246  23564899.28146
  22135843.070 6   -448849.176 6   -326250.80149  22135840.93049
  20707180.055 7     25788.484 7     18890.57049  20707179.90249
  23331957.203 5     60860.285 5     43616.62148  23331956.97748
  20375997.945 6   -266808.895 6   -195621.35248  20375994.49648
  22306086.070 6    183128.953 6    132450.88749  22306085.18049
 20  5 16  3 22  3.0000000  0  7G01G04G07G08G09G11G27               -0.000204786
  22112680.453 6   -525262.992 6   -373504.48049  22112681.18849
  23565184.625 4    162779.773 4    117079.00446  23565185.78946
  22135098.391 6   -452763.324 6   -329300.79349  22135096.20349
  20707219.633 7     25998.434 7     19054.16049  20707219.46149
  23332065.250 5     61425.523 5     44057.06648  23332064.21148
  20375548.289 6   -269171.199 6   -197462.10948  20375544.94148
  22306385.094 5    184698.160 5    133673.64149  22306383.80949
 20  5 16  3 22  4.0000000  0  7G01G04G07G08G09G11G27               -0.000205507
  22111827.984 6   -529742.750 6   -376995.19949  22111829.30549
  23565471.094 4    164285.063 4    118251.94146  23565472.26246
  22134353.578 6   -456677.500 6   -332350.79748  22134351.19948
  20707259.672 7     26208.344 7     19217.73049  20707259.48049
  23332172.180 5     61990.785 5     44497.53548  23332171.63748
  20375098.578 6   -271533.316 6   -199302.71548  20375095.28148
  22306683.938 6    186267.051 6    134896.15249  22306682.57849
 20  5 16  3 22  5.0000000  0  7G01G04G07G08G09G11G27               -0.000206228
  22110975.781 6   -534222.414 6   -380485.84049  22110976.88349
  23565757.445 4    165790.180 4    119424.75446  23565758.58246
  22133608.953 6   -460591.543 6   -335400.70749  22133606.55149
  20707299.828 7     26418.285 7     19381.31349  20707299.93849
  23332280.320 5     62556.000 5     44937.95348  23332279.32048
  20374649.328 6   -273895.070 6   -201143.04748  20374645.98848
  22306982.039 5    187835.820 5    136118.57449  22306981.26249
 20  5 16  3 22  6.0000000  0  7G01G04G07G08G09G11G27               -0.000206949
  22110123.023 5   -538702.055 5   -383976.47349  22110123.93049
  23566043.758 4    167295.043 4    120597.37546  23566044.74646
  22132864.266 6   -464505.543 6   -338450.57449  22132861.21549
  20707339.969 7     26628.242 7     19544.91849  20707339.39849
  23332387.594 5     63121.273 5     45378.43048  23332386.63748
  20374200.055 6   -276256.594 6   -202983.19148  20374196.98048
  22307280.148 6    189404.367 6    137340.82049  22307279.13349
 20  5 16  3 22  7.0000000  0  7G01G04G07G08G09G11G27               -0.000207670
  22109270.773 6   -543181.660 6   -387467.06349  22109271.98449
  23566330.180 4    168799.660 4    121769.79746  23566331.62546
  22132119.188 6   -468419.426 6   -341500.35248  22132116.61348
  20707379.516 7     26838.242 7     19708.55549  20707379.55549
  23332495.086 5     63686.555 5     45818.90648  23332494.28948
  20373750.750 6   -278617.797 6   -204823.09448  20373747.25448
  22307579.188 6    190972.738 6    138562.93049  22307578.29749
 20  5 16  3 22  8.0000000  0  7G01G04G07G08G09G11G27               -0.000208391
  22108418.031 6   -547661.137 6   -390957.56649  22108419.66449
  23566616.141 4    170304.105 4    122942.10946  23566617.52346
  22131374.609 6   -472333.172 6   -344550.02748  22131371.79748
  20707419.695 7     27048.277 7     19872.22349  20707419.66049
  23332602.727 5     64251.965 5     46259.48048  23332601.87548
  20373301.313 6   -280978.617 6   -206662.69548  20373297.63748
  22307877.445 5    192540.957 5    139784.91849  22307876.53149
 20  5 16  3 22  9.0000000  0  7G01G04G07G08G09G11G27               -0.000209114
  22107566.367 6   -552140.672 6   -394448.10949  22107567.30149
  23566902.359 4    171808.227 4    124114.14146  23566903.78946
  22130630.063 6   -476246.922 6   -347599.70748  22130627.13348
  20707459.508 7     27258.273 7     20035.85549  20707459.39549
  23332711.094 5     64817.262 5     46699.96548  23332709.73848
  20372852.359 6   -283339.254 6   -208502.14148  20372848.72748
  22308175.547 6    194108.938 6    141006.71949  22308174.62549
 20  5 16  3 22 10.0000000  0  7G01G04G07G08G09G11G27               -0.000209835
  22106713.508 5   -556620.066 5   -397938.54749  22106714.64149
  23567188.227 3    173312.180 3    125286.04746  23567189.83646
  22129884.914 6   -480160.469 6   -350649.22749  22129882.56349
  20707499.492 7     27468.367 7     20199.56649  20707499.35249
  23332817.930 5     65382.727 5     47140.59848  23332816.97348
  20372403.070 6   -285699.488 6   -210341.28148  20372400.04348
  22308473.875 5    195676.813 5    142228.43849  22308473.20349
 20  5 16  3 22 11.0000000  0  7G01G04G07G08G09G11G27               -0.000210556
  22105860.898 6   -561099.367 6   -401428.90649  22105862.09049
  23567474.867 3    174815.992 3    126457.84846  23567476.10946
  22129140.180 6   -484073.938 6   -353698.69149  22129137.60249
  20707539.297 7     27678.527 7     20363.32849  20707539.21149
  23332925.664 5     65948.223 5     47581.24648  23332924.81348
  20371954.109 6   -288059.387 6   -212180.16448  20371950.47748
  22308772.414 5    197244.535 5    143450.03949  22308771.44549
 20  5 16  3 22 12.0000000  0  7G01G04G07G08G09G11G27               -0.000211279
  22105008.813 5   -565578.652 5   -404919.25449  22105010.28549
  23567761.094 3    176319.527 3    127629.42246  23567762.28946
  22128395.445 6   -487987.277 6   -356748.04349  22128393.39149
  20707579.172 7     27888.676 7     20527.07849  20707579.07049
  23333033.352 5     66513.773 5     48021.93048  23333032.44548
  20371505.539 6   -290418.992 6   -214018.82048  20371501.73448
  22309070.633 5    198812.082 5    144671.50849  22309069.93449
 20  5 16  3 22 13.0000000  0  7G01G04G07G08G09G11G27               -0.000212002
  22104155.867 5   -570058.008 5   -408409.66449  22104157.58249
  23568047.375 4    177822.699 4    128800.71546  23568048.34446
  22127651.352 6   -491900.691 6   -359797.45749  22127647.86749
  20707619.375 7     28098.734 7     20690.75849  20707619.21549
  23333140.180 5     67079.188 5     48462.51248  23333140.27348
  20371056.234 6   -292778.445 6   -215857.35548  20371052.60248
  22309368.758 5    200379.301 5    145892.71149  22309368.16849
 20  5 16  3 22 14.0000000  0  7G01G04G07G08G09G11G27               -0.000212723
  22103304.125 6   -574537.344 6   -411900.04749  22103304.99649
  23568333.289 4    179325.625 4    129971.82046  23568334.53946
  22126906.289 6   -495814.047 6   -362846.82449  22126903.68049
  20707659.656 7     28308.781 7     20854.43049  20707659.01249
  23333247.656 5     67644.633 5     48903.11348  23333247.56348
  20370607.141 6   -295137.598 6   -217695.65648  20370604.18848
  22309667.063 5    201946.309 5    147113.75849  22309666.07849
 20  5 16  3 22 15.0000000  0  7G01G04G07G08G09G11G27               -0.000213446
  22102452.031 6   -579016.727 6   -415390.47349  22102452.53549
  23568619.320 3    180828.234 3    131142.67646  23568620.28546
  22126161.625 6   -499727.359 6   -365896.16049  22126158.76249
  20707699.703 7     28518.809 7     21018.08649  20707698.89849
  23333355.945 5     68210.047 5     49343.70348  23333355.38348
  20370157.992 6   -297496.516 6   -219533.77348  20370154.37548
  22309965.234 5    203513.094 5    148334.63749  22309964.38749
 20  5 16  3 22 16.0000000  0  7G01G04G07G08G09G11G27               -0.000214169
  22101598.680 5   -583496.270 5   -418881.02049  22101600.36749
  23568904.602 3    182330.359 3    132313.17246  23568906.21946
  22125417.117 6   -503640.844 6   -368945.62949  22125414.28149
  20707739.578 7     28728.660 7     21181.60549  20707739.05949
  23333462.953 5     68775.258 5     49784.12548  23333463.18048
  20369709.484 6   -299855.355 6   -221371.82848  20369705.72348
  22310263.469 5    205079.438 5    149555.16049  22310262.44549
 20  5 16  3 22 17.0000000  0  7G01G04G07G08G09G11G27               -0.000214891
  22100746.430 5   -587975.773 5   -422371.54349  22100748.08649
  23569191.258 4    183832.277 4    133483.50846  23569192.03946
  22124672.180 6   -507554.227 6   -371995.02049  22124669.21949
  20707779.758 7     28938.496 7     21345.11349  20707779.04349
  23333570.992 4     69340.434 4     50224.52748  23333570.30548
  20369260.656 6   -302213.926 6   -223209.68048  20369256.96948
  22310561.367 5    206645.602 5    150775.54749  22310560.41049
 20  5 16  3 22 18.0000000  0  7G01G04G07G08G09G11G27               -0.000215614
  22099894.359 5   -592455.141 5   -425861.95749  22099895.34449
  23569477.078 3    185334.043 3    134653.71546  23569477.88346
  22123927.625 6   -511467.402 6   -375044.24649  22123924.73449
  20707819.430 7     29148.492 7     21508.74249  20707819.16049
  23333678.586 4     69905.804 4     50665.06448  23333678.24248
  20368811.945 6   -304572.082 6   -225047.19948  20368808.39148
  22310859.180 6    208211.672 6    151995.85549  22310858.28949
 20  5 16  3 22 19.0000000  0  7G01G04G07G08G09G11G27               -0.000216339
  22099042.133 5   -596934.508 5   -429352.36749  22099042.96149
  23569762.477 3    186835.496 3    135823.66846  23569763.39846
  22123183.367 6   -515380.590 6   -378093.48049  22123180.00049
  20707859.297 7     29358.418 7     21672.32449  20707858.77049
  23333785.813 4     70471.098 4     51105.55548  23333785.87148
  20368363.164 6   -306930.012 6   -226884.55548  20368359.62548
  22311157.711 5    209777.480 5    153215.96949  22311156.20749
 20  5 16  3 22 20.0000000  0  7G01G04G07G08G09G11G27               -0.000217062
  22098189.266 5   -601413.914 5   -432842.82449  22098190.97749
  23570047.750 3    188336.648 3    136993.38746  23570049.13746
  22122438.352 6   -519293.773 6   -381142.71549  22122435.47349
  20707899.422 7     29568.289 7     21835.85549  20707898.87549
  23333894.563 5     71036.348 5     51546.00048  23333893.03948
  20367914.633 6   -309287.715 6   -228721.71948  20367910.92248
  22311455.102 5    211343.047 5    154435.88749  22311454.77049
 20  5 16  3 22 21.0000000  0  7G01G04G07G08G09G11G27               -0.000217785
  22097337.047 5   -605893.262 5   -436333.23049  22097338.49249
  23570334.180 3    189837.594 3    138162.94546  23570334.46946
  22121693.781 6   -523206.805 6   -384191.82849  22121691.07449
  20707939.320 6     29778.195 6     21999.41849  20707938.56649
  23334001.875 5     71601.676 5     51986.51248  23334000.89848
  20367466.063 6   -311645.086 6   -230558.63748  20367462.63748
  22311753.188 6    212908.449 6    155655.67649  22311752.54349
 20  5 16  3 22 22.0000000  0  7G01G04G07G08G09G11G27               -0.000218510
  22096483.922 6   -610372.570 6   -439823.59849  22096485.57049
  23570620.000 3    191338.234 3    139332.27746  23570619.89546
  22120949.070 6   -527119.766 6   -387240.89549  22120946.21149
  20707979.313 6     29988.125 6     22163.00049  20707978.70349
  23334109.336 5     72167.016 5     52427.02748  23334108.64148
  20367017.648 6   -314002.160 6   -232395.32048  20367014.34048
  22312050.867 6    214473.664 6    156875.32849  22312050.10249
 20  5 16  3 22 23.0000000  0  7G01G04G07G08G09G11G27               -0.000219233
  22095632.016 5   -614851.859 5   -443313.94949  22095633.62549
  23570905.047 3    192838.684 3    140501.45346  23570905.60546
  22120204.672 6   -531032.664 6   -390289.89549  22120201.62149
  20708018.836 7     30198.039 7     22326.56349  20708018.35249
  23334216.164 5     72732.352 5     52867.53948  23334216.04348
  20366568.875 6   -316358.973 6   -234231.79748  20366565.60248
  22312349.242 6    216038.664 6    158094.80549  22312347.89549
 20  5 16  3 22 24.0000000  0  7G01G04G07G08G09G11G27               -0.000219957
  22094779.719 6   -619330.992 6   -446804.18049  22094781.57049
  23571190.555 3    194338.988 3    141670.52346  23571191.31346
  22119459.727 6   -534945.379 6   -393338.77049  22119456.71949
  20708059.242 6     30408.082 6     22490.23449  20708058.45349
  23334323.883 5     73297.816 5     53308.16448  23334323.71148
  20366119.992 6   -318715.371 6   -236067.94148  20366117.01248
  22312646.594 5    217603.570 5    159314.21149  22312645.71949
 20  5 16  3 22 25.0000000  0  7G01G04G07G08G09G11G27               -0.000220682
  22093927.164 6   -623810.207 6   -450294.46949  22093928.79349
  23571475.969 3    195838.953 3    142839.32046  23571476.72346
  22118715.695 6   -538858.102 6   -396387.64149  22118712.37149
  20708098.758 6     30618.055 6     22653.85549  20708098.65249
  23334431.789 5     73863.199 5     53748.72748  23334431.08648
  20365671.508 6   -321071.574 6   -237903.94548  20365668.85948
  22312944.117 5    219168.211 5    160533.41449  22312943.28549
 20  5 16  3 22 26.0000000  0  7G01G04G07G08G09G11G27               -0.000221407
  22093075.039 6   -628289.402 6   -453784.74649  22093076.67649
  23571761.500 4    197338.594 4    144007.86346  23571761.90246
  22117970.891 6   -542770.809 6   -399436.50849  22117967.75849
  20708138.914 6     30827.957 6     22817.41449  20708138.37549
  23334539.117 5     74428.578 5     54189.28948  23334538.83648
  20365223.789 6   -323427.563 6   -239739.77748  20365219.93848
  22313241.992 5    220732.563 5    161752.39149  22313240.95749
 20  5 16  3 22 27.0000000  0  7G01G04G07G08G09G11G27               -0.000222130
  22092222.555 5   -632768.566 5   -457275.00449  22092223.98849
  23572047.281 4    198838.008 4    145176.24646  23572047.82446
  22117225.953 6   -546683.422 6   -402485.29749  22117223.29749
  20708178.883 6     31037.918 6     22981.02349  20708178.71949
  23334646.672 5     74993.918 5     54629.81348  23334646.07448
  20364775.375 6   -325783.219 6   -241575.35548  20364772.25448
  22313539.617 5    222296.754 5    162971.23849  22313538.73449
 20  5 16  3 22 28.0000000  0  7G01G04G07G08G09G11G27               -0.000222857
  22091370.414 5   -637247.648 5   -460765.19549  22091371.98849
  23572332.172 4    200337.227 4    146344.44946  23572332.96546
  22116481.664 6   -550595.895 6   -405533.97749  22116478.54349
  20708218.602 6     31247.926 6     23144.65649  20708218.45749
  23334754.391 5     75559.402 5     55070.44948  23334753.88748
  20364327.328 6   -328138.520 6   -243410.66048  20364324.10948
  22313837.266 5    223860.824 5    164189.98849  22313836.15649
 20  5 16  3 22 29.0000000  0  7G01G04G07G08G09G11G27               -0.000223581
  22090518.055 5   -641726.563 5   -464255.25849  22090519.78149
  23572617.297 3    201836.340 3    147512.59846  23572618.32846
  22115737.422 6   -554508.160 6   -408582.50049  22115734.32049
  20708258.875 7     31458.105 7     23308.43449  20708258.40249
  23334861.633 5     76124.957 5     55511.13748  23334862.18848
  20363879.211 6   -330493.418 6   -245245.64848  20363875.84048
  22314134.805 5    225424.828 5    165408.69549  22314133.91449
 20  5 16  3 22 30.0000000  0  7G01G04G07G08G09G11G27               -0.000224306
  22089666.211 6   -646205.191 6   -467745.10249  22089667.26649
  23572901.984 3    203335.430 3    148680.72346  23572903.83646
  22114993.086 6   -558420.113 6   -411630.77349  22114989.68049
  20708299.023 6     31668.523 6     23472.39149  20708298.31649
  23334969.203 4     76690.840 4     55952.07848  23334968.99648
  20363431.258 6   -332847.813 6   -247080.24248  20363427.98048
  22314432.719 5    226988.828 5    166627.40249  22314432.11749
 20  5 16  3 22 31.0000000  0  7G01G04G07G08G09G11G27               -0.000225031
  22088814.078 6   -650683.871 6   -471234.98849  22088815.22349
  23573187.977 3    204834.223 3    149848.61346  23573188.86346
  22114248.680 6   -562332.070 6   -414679.05149  22114245.47349
  20708338.898 6     31878.883 6     23636.30949  20708338.52049
  23335076.727 4     77256.621 4     56392.94148  23335077.12548
  20362983.445 6   -335201.965 6   -248914.65248  20362979.91448
  22314730.484 6    228552.582 6    167845.91049  22314729.46549
 20  5 16  3 22 32.0000000  0  7G01G04G07G08G09G11G27               -0.000225756
  22087961.125 6   -655162.359 6   -474724.71549  22087962.97749
  23573473.070 4    206332.836 4    151016.34446  23573473.93446
  22113503.898 6   -566243.813 6   -417727.16049  22113501.16049
  20708378.852 7     32089.359 7     23800.31649  20708378.34049
  23335184.656 4     77822.555 4     56833.93048  23335184.82448
  20362534.969 6   -337555.703 6   -250748.73448  20362531.61348
  22315027.789 6    230116.270 6    169064.36749  22315026.94949
 20  5 16  3 22 33.0000000  0  7G01G04G07G08G09G11G27               -0.000226480
  22087108.914 6   -659640.805 6   -478214.41849  22087110.44149
  23573758.375 3    207831.293 3    152183.98046  23573759.10546
  22112759.648 6   -570155.410 6   -420775.15249  22112756.51249
  20708419.266 7     32299.910 7     23964.38749  20708418.83249
  23335291.820 4     78388.617 4     57275.01648  23335292.48848
  20362087.352 6   -339909.109 6   -252582.55548  20362083.98848
  22315325.109 6    231679.789 6    170282.68849  22315324.63749
 20  5 16  3 22 34.0000000  0  7G01G04G07G08G09G11G27               -0.000227207
  22086256.547 6   -664119.211 6   -481704.07849  22086257.98849
  23574042.750 4    209329.480 4    153351.39546  23574044.02746
  22112014.797 6   -574066.988 6   -423823.13349  22112012.07049
  20708458.813 7     32510.426 7     24128.42249  20708458.74249
  23335399.867 4     78954.574 4     57716.01648  23335400.46948
  20361640.016 6   -342262.254 6   -254416.17248  20361635.97748
  22315622.273 5    233243.094 5    171500.85249  22315621.67249
 20  5 16  3 22 35.0000000  0  7G01G04G07G08G09G11G27               -0.000227932
  22085404.594 5   -668597.438 5   -485193.60549  22085406.33249
  23574328.602 3    210827.551 3    154518.72746  23574329.49646
  22111271.039 6   -577978.320 6   -426870.92649  22111267.87549
  20708499.031 7     32721.125 7     24292.60949  20708498.68449
  23335507.828 4     79520.719 4     58157.16848  23335508.25448
  20361192.281 6   -344614.945 6   -256249.43448  20361188.91048
  22315920.273 6    234806.375 6    172718.99249  22315919.43449
 20  5 16  3 22 36.0000000  0  7G01G04G07G08G09G11G27               -0.000228659
  22084552.172 6   -673075.668 6   -488683.12949  22084553.89549
  23574613.164 3    212325.383 3    155685.86346  23574614.41846
  22110526.188 6   -581889.543 6   -429918.63749  22110524.02749
  20708539.266 6     32931.797 6     24456.76649  20708538.59849
  23335615.227 4     80086.863 4     58598.32048  23335615.75448
  20360743.984 6   -346967.371 6   -258082.49248  20360740.50448
  22316217.742 5    236369.441 5    173936.96549  22316217.02349
 20  5 16  3 22 37.0000000  0  7G01G04G07G08G09G11G27               -0.000229383
  22083700.117 6   -677553.641 6   -492172.46149  22083701.71549
  23574898.016 3    213823.145 3    156852.94146  23574899.27046
  22109782.195 6   -585800.547 6   -432966.17649  22109778.97349
  20708579.086 6     33142.660 6     24621.07449  20708578.94549
  23335723.367 4     80653.254 4     59039.66848  23335723.48048
  20360296.914 6   -349319.340 6   -259915.19548  20360293.19148
  22316514.773 5    237932.508 5    175154.93849  22316514.17649
 20  5 16  3 22 38.0000000  0  7G01G04G07G08G09G11G27               -0.000230110
  22082848.414 5   -682031.609 5   -495661.78149  22082849.65649
  23575183.203 3    215320.594 3    158019.76646  23575184.10946
  22109038.320 6   -589711.523 6   -436013.69149  22109035.30149
  20708619.359 7     33353.512 7     24785.37149  20708619.05549
  23335830.805 4     81219.566 4     59480.94948  23335831.77048
  20359849.063 6   -351671.051 6   -261747.69948  20359845.68448
  22316812.234 5    239495.293 5    176372.68849  22316811.68449
 20  5 16  3 22 39.0000000  0  7G01G04G07G08G09G11G27               -0.000230837
  22081995.609 6   -686509.590 6   -499151.11349  22081997.70749
  23575467.898 3    216817.824 3    159186.43446  23575469.84846
  22108293.852 6   -593622.422 6   -439061.14149  22108290.70749
  20708659.625 7     33564.332 7     24949.64849  20708658.89549
  23335939.227 4     81785.895 4     59922.23848  23335939.04748
  20359401.438 6   -354022.465 6   -263579.96948  20359398.32848
  22317109.344 5    241057.898 5    177590.30149  22317109.35549
 20  5 16  3 22 40.0000000  0  7G01G04G07G08G09G11G27               -0.000231564
  22081144.219 6   -690987.465 6   -502640.37149  22081145.54349
  23575752.805 3    218314.773 3    160352.87546  23575754.17646
  22107550.039 6   -597533.203 6   -442108.48849  22107546.64549
  20708699.742 6     33775.219 6     25113.96949  20708699.35249
  23336046.672 4     82352.262 4     60363.56648  23336047.11348
  20358954.320 6   -356373.555 6   -265411.98448  20358950.53948
  22317407.438 5    242620.328 5    178807.77049  22317406.18049
 20  5 16  3 22 41.0000000  0  7G01G04G07G08G09G11G27               -0.000232290
  22080292.094 6   -695465.270 6   -506129.57449  22080293.66049
  23576037.086 3    219811.559 3    161519.19946  23576038.57046
  22106806.063 6   -601443.828 6   -445155.72349  22106802.41049
  20708740.047 6     33986.188 6     25278.35949  20708739.18449
  23336154.930 4     82918.723 4     60804.95748  23336154.81348
  20358506.734 6   -358724.313 6   -267243.74248  20358503.10948
  22317704.742 5    244182.641 5    180025.14849  22317703.68849
 20  5 16  3 22 42.0000000  0  7G01G04G07G08G09G11G27               -0.000233017
  22079439.719 6   -699943.051 6   -509618.75049  22079441.50049
  23576322.094 3    221308.086 3    162685.32846  23576323.78546
  22106061.703 6   -605354.438 6   -448202.94549  22106058.34449
  20708780.078 6     34197.133 6     25442.73049  20708779.50849
  23336262.563 4     83485.168 4     61246.34448  23336262.54348
  20358059.492 6   -361074.816 6   -269075.29748  20358056.52748
  22318001.688 5    245744.691 5    181242.32849  22318000.91049
 20  5 16  3 22 43.0000000  0  7G01G04G07G08G09G11G27               -0.000233744
  22078587.875 6   -704420.715 6   -513107.84049  22078589.39849
  23576607.297 3    222804.477 3    163851.35546  23576608.95746
  22105317.391 6   -609264.859 6   -451250.03949  22105314.41449
  20708820.047 6     34408.152 6     25607.16449  20708819.40249
  23336369.836 4     84051.730 4     61687.80948  23336370.42648
  20357612.156 6   -363424.953 6   -270906.57448  20357609.20348
  22318299.102 5    247306.641 5    182459.43449  22318297.97749
 20  5 16  3 22 44.0000000  0  7G01G04G07G08G09G11G27               -0.000234470
  22077735.992 6   -708898.309 6   -516596.87149  22077737.52349
  23576892.023 4    224300.582 4    165017.15646  23576893.33246
  22104573.281 6   -613175.168 6   -454297.03149  22104570.07049
  20708860.844 6     34619.242 6     25771.64849  20708860.06649
  23336477.766 4     84618.270 4     62129.27048  23336478.29348
  20357164.898 6   -365774.727 6   -272737.57048  20357162.09048
  22318596.070 5    248868.430 5    183676.41049  22318595.59449
 20  5 16  3 22 45.0000000  0  7G01G04G07G08G09G11G27               -0.000235197
  22076883.570 6   -713375.844 6   -520085.85249  22076885.37549
  23577176.344 4    225796.480 4    166182.77746  23577177.98846
  22103828.477 6   -617085.363 6   -457343.93849  22103825.42649
  20708900.789 6     34830.352 6     25936.14849  20708900.21549
  23336585.602 4     85184.906 4     62570.81348  23336586.12148
  20356717.930 6   -368124.215 6   -274568.34448  20356714.81648
  22318893.352 5    250430.035 5    184893.24249  22318892.57049
 20  5 16  3 22 46.0000000  0  7G01G04G07G08G09G11G27               -0.000235924
  22076031.500 6   -717853.313 6   -523574.78549  22076033.29349
  23577461.305 4    227292.164 4    167348.23846  23577462.62146
  22103084.820 6   -620995.445 6   -460390.74649  22103081.46949
  20708940.664 7     35041.523 7     26100.69949  20708940.29749
  23336694.070 4     85751.609 4     63012.39548  23336694.01248
  20356271.258 6   -370473.355 6   -276398.84048  20356267.83248
  22319190.258 5    251991.520 5    186109.98049  22319189.73449
 20  5 16  3 22 47.0000000  0  7G01G04G07G08G09G11G27               -0.000236652
  22075179.523 5   -722330.691 5   -527063.65249  22075181.17649
  23577746.063 4    228787.637 4    168513.54346  23577747.48446
  22102341.016 6   -624905.430 6   -463437.49249  22102337.81349
  20708980.984 7     35252.684 7     26265.23849  20708980.64149
  23336801.969 4     86318.352 4     63454.00448  23336801.83248
  20355824.266 6   -372822.199 6   -278229.10948  20355820.82848
  22319487.547 5    253552.777 5    187326.54349  22319486.69549
 20  5 16  3 22 48.0000000  0  7G01G04G07G08G09G11G27               -0.000237379
  22074327.484 6   -726808.012 6   -530552.47749  22074328.86349
  23578030.195 4    230282.914 4    169678.68446  23578031.99646
  22101596.766 6   -628815.273 6   -466484.11749  22101593.75049
  20709021.195 7     35463.930 7     26429.84849  20709020.45749
  23336909.695 4     86885.117 4     63895.63348  23336910.12548
  20355377.031 6   -375170.703 6   -280059.11348  20355374.34448
  22319784.820 5    255113.934 5    188543.02749  22319783.85249
 20  5 16  3 22 49.0000000  0  7G01G04G07G08G09G11G27               -0.000238106
  22073475.789 6   -731284.992 6   -534041.03149  22073477.08249
  23578314.938 4    231778.207 4    170843.84846  23578315.53146
  22100852.797 6   -632724.781 6   -469530.48449  22100849.41449
  20709061.289 7     35675.457 7     26594.66849  20709061.10249
  23337017.859 4     87452.176 4     64337.49648  23337017.64848
  20354930.281 6   -377518.637 6   -281888.67248  20354927.18048
  22320081.109 5    256675.117 5    189759.53149  22320080.86749
 20  5 16  3 22 50.0000000  0  7G01G04G07G08G09G11G27               -0.000238834
  22072623.547 6   -735761.902 6   -537529.53149  22072625.38349
  23578599.492 4    233273.261 4    172008.82346  23578600.17646
  22100109.352 6   -636634.137 6   -472576.73049  22100105.63749
  20709101.914 7     35887.020 7     26759.52049  20709101.32849
  23337125.289 4     88019.324 4     64779.42648  23337125.78148
  20354483.758 6   -379866.234 6   -283717.96948  20354480.57048
  22320378.469 5    258236.195 5    190975.95749  22320377.95749
 20  5 16  3 22 51.0000000  0  7G01G04G07G08G09G11G27               -0.000239561
  22071771.336 6   -740238.777 6   -541018.01249  22071773.00449
  23578883.984 4    234768.105 4    173173.63746  23578885.10246
  22099364.883 6   -640543.434 6   -475622.93449  22099361.76649
  20709141.500 7     36098.625 7     26924.40649  20709141.12949
  23337232.883 4     88586.469 4     65221.35948  23337233.49248
  20354037.258 6   -382213.496 6   -285547.00848  20354033.64848
  22320675.445 5    259797.055 5    192192.21149  22320675.04749
 20  5 16  3 22 52.0000000  0  7G01G04G07G08G09G11G27               -0.000240290
  22070919.461 5   -744715.594 5   -544506.44149  22070921.67649
  23579168.461 4    236262.699 4    174338.25446  23579169.37946
  22098620.891 6   -644452.625 6   -478669.06649  22098617.41049
  20709182.195 6     36310.242 6     27089.30149  20709181.71949
  23337341.086 4     89153.637 4     65663.30548  23337341.19948
  20353590.805 6   -384560.520 6   -287375.85548  20353587.13748
  22320972.766 5    261357.723 5    193408.31349  22320971.79349
 20  5 16  3 22 53.0000000  0  7G01G04G07G08G09G11G27               -0.000241018
  22070067.891 5   -749192.199 5   -547994.69949  22070069.59449
  23579452.711 4    237757.227 4    175502.81646  23579453.48046
  22097877.188 6   -648361.555 6   -481714.98449  22097873.57849
  20709222.781 6     36522.035 6     27254.34049  20709221.87549
  23337449.203 4     89721.020 4     66105.41848  23337449.37548
  20353143.977 6   -386907.066 6   -289204.33648  20353140.53148
  22321269.461 5    262918.363 5    194624.39549  22321268.94149
 20  5 16  3 22 54.0000000  0  7G01G04G07G08G09G11G27               -0.000241747
  22069215.805 5   -753668.727 5   -551482.90649  22069217.53949
  23579737.633 4    239251.531 4    176667.19946  23579738.24646
  22097133.398 6   -652270.387 6   -484760.82449  22097129.80949
  20709263.117 6     36733.871 6     27419.40249  20709262.10249
  23337556.633 4     90288.383 4     66547.50848  23337557.91448
  20352697.523 6   -389253.285 6   -291032.55148  20352694.16048
  22321566.180 5    264478.852 5    195840.35949  22321565.47749
 20  5 16  3 22 55.0000000  0  7G01G04G07G08G09G11G27               -0.000242476
  22068364.266 5   -758145.195 5   -554971.06349  22068365.79349
  23580021.680 4    240745.676 4    177831.47346  23580022.67646
  22096390.750 6   -656179.059 6   -487806.54749  22096386.23049
  20709303.117 6     36945.734 6     27584.49249  20709302.71549
  23337664.828 4     90855.871 4     66989.69948  23337665.48448
  20352251.109 6   -391599.164 6   -292860.50848  20352247.75848
  22321863.336 5    266039.203 5    197056.21949  22321863.06349
 20  5 16  3 22 56.0000000  0  7G01G04G07G08G09G11G27               -0.000243204
  22067512.258 5   -762621.613 5   -558459.17249  22067513.81649
  23580305.273 4    242239.457 4    178995.44546  23580307.02346
  22095645.922 6   -660087.727 6   -490852.26649  22095642.05949
  20709343.539 6     37157.602 6     27749.59049  20709343.07049
  23337773.086 4     91423.324 4     67431.87548  23337773.44148
  20351804.813 6   -393944.777 6   -294688.25848  20351801.25448
  22322160.711 5    267599.316 5    198271.89149  22322160.15249
 20  5 16  3 22 57.0000000  0  7G01G04G07G08G09G11G27               -0.000243933
  22066660.156 5   -767097.820 5   -561947.12149  22066661.90249
  23580589.617 4    243733.215 4    180159.42246  23580591.30546
  22094901.898 6   -663996.074 6   -493897.72749  22094898.46549
  20709383.898 6     37369.676 6     27914.84049  20709383.48849
  23337880.539 4     91990.988 4     67874.21148  23337881.68048
  20351358.133 6   -396289.902 6   -296515.62548  20351355.26248
  22322456.852 5    269159.402 5    199487.53549  22322456.57449
 20  5 16  3 22 58.0000000  0  7G01G04G07G08G09G11G27               -0.000244661
  22065808.648 5   -771573.840 5   -565434.92649  22065810.18849
  23580874.078 4    245226.910 4    181323.34446  23580875.31646
  22094158.367 6   -667904.199 6   -496943.01649  22094154.89849
  20709424.125 6     37581.934 6     28080.23449  20709423.57849
  23337988.938 4     92558.805 4     68316.66848  23337989.78948
  20350912.086 6   -398634.594 6   -298342.65648  20350908.93048
  22322753.992 5    270719.457 5    200703.16848  22322753.21548
 20  5 16  3 22 59.0000000  0  7G01G04G07G08G09G11G27               -0.000245390
  22064957.242 5   -776049.719 5   -568922.62549  22064958.43449
  23581157.961 4    246720.402 4    182487.09046  23581159.69546
  22093414.172 6   -671812.137 6   -499988.16449  22093410.99649
  20709464.758 6     37794.273 6     28245.68849  20709464.03549
  23338097.391 4     93126.715 4     68759.19148  23338097.58648
  20350466.055 6   -400978.910 6   -300169.39848  20350462.94948
  22323050.914 5    272279.422 5    201918.71949  22323049.98849
 20  5 16  3 23  0.0000000  0  7G01G04G07G08G09G11G27               -0.000246119
  22064105.289 5   -780525.598 5   -572410.32449  22064107.33249
  23581442.430 4    248213.613 4    183650.63746  23581443.95746
  22092670.898 6   -675720.047 6   -503033.28149  22092667.23849
  20709504.773 6     38006.590 6     28411.13349  20709504.14849
  23338205.102 4     93694.660 4     69201.74248  23338205.79348
  20350019.742 6   -403322.957 6   -301995.93048  20350016.96948
  22323347.828 5    273839.145 5    203134.09049  22323346.99249
 20  5 16  3 23  1.0000000  0  7G01G04G07G08G09G11G27               -0.000246847
  22063253.516 5   -785001.359 5   -575897.93049  22063255.13349
  23581726.125 4    249706.648 4    184814.02746  23581728.13346
  22091927.398 6   -679627.773 6   -506078.27049  22091923.47349
  20709545.141 6     38219.004 6     28576.64849  20709544.89549
  23338312.891 4     94262.645 4     69644.31648  23338314.04748
  20349574.250 6   -405666.621 6   -303822.16048  20349570.76248
  22323644.695 5    275398.730 5    204349.35549  22323643.60549
 20  5 16  3 23  2.0000000  0  7G01G04G07G08G09G11G27               -0.000247578
  22062402.172 5   -789477.051 5   -579385.48049  22062403.40649
  23582010.688 4    251199.457 4    185977.23846  23582011.89846
  22091183.531 6   -683535.422 6   -509123.18849  22091180.05149
  20709586.070 6     38431.449 6     28742.19149  20709585.41049
  23338421.109 4     94830.691 4     70086.94548  23338422.03148
  20349127.938 6   -408009.977 6   -305648.15648  20349124.70348
  22323941.023 5    276958.156 5    205564.48449  22323940.44949
 20  5 16  3 23  3.0000000  0  7G01G04G07G08G09G11G27               -0.000248306
  22061550.281 5   -793952.746 5   -582873.03949  22061552.04349
  23582294.688 4    252691.977 4    187140.23846  23582295.89546
  22090440.008 6   -687443.027 6   -512168.08249  22090436.44549
  20709626.531 6     38643.840 6     28907.68849  20709625.65649
  23338529.852 4     95398.688 4     70529.53548  23338530.16448
  20348682.070 6   -410353.098 6   -307473.96148  20348678.96148
  22324238.328 5    278517.316 5    206779.42249  22324236.91049
 20  5 16  3 23  4.0000000  0  7G01G04G07G08G09G11G27               -0.000249037
  22060698.516 5   -798428.406 5   -586360.56349  22060700.39149
  23582578.773 4    254184.246 4    188303.04746  23582579.62546
  22089696.266 6   -691350.531 6   -515212.89549  22089692.81649
  20709666.836 6     38856.230 6     29073.18849  20709666.37149
  23338637.094 4     95966.668 4     70972.10948  23338638.05548
  20348236.820 6   -412695.910 6   -309299.53148  20348233.42648
  22324535.016 5    280076.297 5    207994.20749  22324533.88749
 20  5 16  3 23  5.0000000  0  7G01G04G07G08G09G11G27               -0.000249765
  22059846.773 5   -802904.031 5   -589848.06349  22059848.46149
  23582862.375 4    255676.223 4    189465.63146  23582863.89846
  22088952.781 6   -695257.984 6   -518257.65649  22088949.44949
  20709706.984 6     39068.617 6     29238.68449  20709706.38749
  23338745.727 4     96534.695 4     71414.72748  23338745.98848
  20347790.484 6   -415038.449 6   -311124.87948  20347787.28148
  22324831.453 5    281635.059 5    209208.82849  22324830.68849
 20  5 16  3 23  6.0000000  0  7G01G04G07G08G09G11G27               -0.000250496
  22058994.773 5   -807379.617 5   -593335.52749  22058996.80949
  23583145.914 4    257168.039 4    190628.09046  23583147.96146
  22088209.594 6   -699165.344 6   -521302.35249  22088205.49649
  20709747.602 6     39281.051 6     29404.22349  20709746.85949
  23338854.023 4     97102.730 4     71857.34848  23338854.23048
  20347344.680 6   -417380.684 6   -312950.00048  20347341.63748
  22325127.352 5    283193.656 5    210423.32449  22325126.91049
 20  5 16  3 23  7.0000000  0  7G01G04G07G08G09G11G27               -0.000251226
  22058143.133 5   -811855.012 5   -596822.84849  22058145.39849
  23583430.445 4    258659.688 4    191790.40246  23583431.64846
  22087465.172 6   -703072.449 6   -524346.84849  22087461.97749
  20709788.094 6     39493.617 6     29569.85249  20709787.43449
  23338962.000 4     97670.941 4     72300.10948  23338962.29348
  20346899.695 6   -419722.469 6   -314774.77348  20346895.98448
  22325424.234 5    284752.195 5    211637.77049  22325423.59049
 20  5 16  3 23  8.0000000  0  7G01G04G07G08G09G11G27               -0.000251955
  22057292.164 5   -816330.156 5   -600309.96949  22057293.80949
  23583713.141 4    260151.258 4    192952.66046  23583715.21146
  22086722.547 6   -706979.305 6   -527391.15249  22086718.73449
  20709828.594 6     39706.352 6     29735.62149  20709827.95749
  23339070.750 4     98239.324 4     72743.01248  23339070.44148
  20346453.898 6   -422063.809 6   -316599.19148  20346450.35948
  22325721.148 5    286310.703 5    212852.19148  22325720.10548
 20  5 16  3 23  9.0000000  0  7G01G04G07G08G09G11G27               -0.000252686
  22056439.922 5   -820805.273 5   -603797.07449  22056441.83249
  23583997.555 4    261642.656 4    194114.78546  23583998.59046
  22085978.938 6   -710886.051 6   -530435.36748  22085975.25048
  20709869.125 7     39919.109 7     29901.41049  20709868.59449
  23339178.672 4     98807.789 4     73185.97348  23339178.82848
  20346008.070 6   -424404.813 6   -318423.34848  20346005.10248
  22326017.344 5    287869.023 5    214066.46548  22326016.82848
 20  5 16  3 23 10.0000000  0  7G01G04G07G08G09G11G27               -0.000253416
  22055588.422 5   -825280.133 5   -607283.97749  22055590.45349
  23584281.375 4    263133.934 4    195276.80146  23584282.62946
  22085235.172 6   -714792.535 6   -533479.38348  22085231.88748
  20709909.734 7     40132.102 7     30067.37549  20709909.03549
  23339286.383 4     99376.438 4     73629.07048  23339286.96948
  20345563.164 6   -426745.344 6   -320247.13748  20345559.83648
  22326313.922 5    289427.375 5    215280.76248  22326313.53948
 20  5 16  3 23 11.0000000  0  7G01G04G07G08G09G11G27               -0.000254147
  22054737.219 5   -829754.840 5   -610770.76249  22054738.73049
  23584564.992 4    264625.125 4    196438.75046  23584566.38746
  22084491.844 6   -718698.754 6   -536523.20748  22084488.36348
  20709950.414 7     40345.227 7     30233.43449  20709949.03549
  23339395.594 4     99945.227 4     74072.27348  23339395.17248
  20345117.344 6   -429085.426 6   -322070.58648  20345114.28948
  22326610.055 5    290985.664 5    216494.99648  22326609.40648
 20  5 16  3 23 12.0000000  0  7G01G04G07G08G09G11G27               -0.000254877
  22053885.344 5   -834229.410 5   -614257.44549  22053887.02349
  23584848.797 4    266116.133 4    197600.56646  23584850.05946
  22083748.633 6   -722604.891 6   -539566.95748  22083745.14548
  20709990.555 7     40558.438 7     30399.56649  20709990.05549
  23339502.430 4    100514.059 4     74515.50048  23339502.99248
  20344672.211 6   -431425.176 6   -323893.77748  20344669.18048
  22326906.625 5    292543.777 5    217709.10248  22326906.34048
 20  5 16  3 23 13.0000000  0  7G01G04G07G08G09G11G27               -0.000255608
  22053034.258 5   -838703.859 5   -617744.02749  22053036.16049
  23585132.367 4    267606.961 4    198762.25046  23585133.76246
  22083005.586 6   -726510.805 6   -542610.53148  22083001.43048
  20710031.164 7     40771.738 7     30565.77049  20710030.34449
  23339611.461 4    101083.023 4     74958.83648  23339611.57848
  20344227.117 6   -433764.555 6   -325716.67248  20344223.53148
  22327203.320 5    294101.809 5    218923.15248  22327202.78148
 20  5 16  3 23 14.0000000  0  7G01G04G07G08G09G11G27               -0.000256338
  22052182.742 5   -843178.090 5   -621230.44549  22052184.16449
  23585416.852 4    269097.742 4    199923.89146  23585417.60946
  22082262.008 6   -730416.492 6   -545653.92248  22082258.44548
  20710071.898 7     40985.238 7     30732.13349  20710071.53949
  23339719.727 4    101652.199 4     75402.34848  23339720.04348
  20343782.180 6   -436103.422 6   -327539.16848  20343778.65248
  22327500.320 5    295659.820 5    220137.18848  22327499.33648
 20  5 16  3 23 15.0000000  0  7G01G04G07G08G09G11G27               -0.000257069
  22051331.367 5   -847652.020 5   -624716.61749  22051332.89849
  23585700.078 4    270588.460 4    201085.49446  23585701.13346
  22081519.219 6   -734321.820 6   -548697.03148  22081516.05948
  20710112.648 7     41199.004 7     30898.70349  20710111.94949
  23339827.703 4    102221.609 4     75846.03548  23339828.77748
  20343336.945 6   -438441.773 6   -329361.26248  20343333.42648
  22327796.469 5    297217.871 5    221351.25448  22327795.71948
 20  5 16  3 23 16.0000000  0  7G01G04G07G08G09G11G27               -0.000257799
  22050480.164 5   -852125.742 5   -628202.63749  22050481.97349
  23585983.680 4    272079.207 4    202247.10546  23585984.85246
  22080775.742 6   -738226.855 6   -551739.91448  22080772.28148
  20710153.344 7     41412.980 7     31065.44549  20710152.87549
  23339936.453 4    102791.234 4     76289.90648  23339936.50848
  20342892.477 6   -440779.633 6   -331182.96548  20342888.97748
  22328093.000 5    298775.918 5    222565.31648  22328092.05948
 20  5 16  3 23 17.0000000  0  7G01G04G07G08G09G11G27               -0.000258530
  22049629.070 5   -856599.359 5   -631688.56349  22049630.88349
  23586266.836 4    273569.691 4    203408.53146  23586268.38346
  22080032.563 6   -742131.785 6   -554782.70748  22080029.13748
  20710194.016 7     41626.977 7     31232.20349  20710194.11349
  23340044.578 4    103360.883 4     76733.79348  23340045.34848
  20342447.875 6   -443117.180 6   -333004.42648  20342443.95748
  22328389.914 5    300333.816 5    223779.27349  22328388.87149
 20  5 16  3 23 18.0000000  0  7G01G04G07G08G09G11G27               -0.000259262
  22048777.586 5   -861072.777 5   -635174.33649  22048779.79349
  23586550.742 4    275060.078 4    204569.87946  23586551.97746
  22079289.867 6   -746036.492 6   -557825.32048  22079286.27348
  20710234.641 7     41841.133 7     31399.08249  20710234.49249
  23340152.938 4    103930.719 4     77177.82448  23340153.35548
  20342002.742 6   -445454.262 6   -334825.52748  20341999.77348
  22328686.125 5    301891.660 5    224993.18049  22328685.32049
 20  5 16  3 23 19.0000000  0  7G01G04G07G08G09G11G27               -0.000259993
  22047926.438 5   -865546.145 5   -638660.07049  22047928.40249
  23586834.242 4    276550.238 4    205731.03546  23586835.65246
  22078546.727 6   -749941.082 6   -560867.85549  22078543.49649
  20710275.523 7     42055.352 7     31566.00849  20710275.53549
  23340261.711 4    104500.590 4     77621.86748  23340262.01648
  20341557.898 6   -447791.035 6   -336646.38348  20341555.10248
  22328982.523 5    303449.332 5    226206.94948  22328982.09448
 20  5 16  3 23 20.0000000  0  7G01G04G07G08G09G11G27               -0.000260723
  22047075.219 5   -870019.367 5   -642145.70349  22047077.45749
  23587118.109 4    278040.246 4    206892.09046  23587119.25046
  22077803.383 6   -753845.488 6   -563910.25448  22077800.75448
  20710316.375 7     42269.641 7     31732.99249  20710316.35549
  23340369.383 4    105070.586 4     78066.02348  23340370.42648
  20341113.234 6   -450127.441 6   -338466.95748  20341110.57848
  22329278.570 5    305006.895 5    227420.64148  22329278.76248
 20  5 16  3 23 21.0000000  0  7G01G04G07G08G09G11G27               -0.000261456
  22046224.148 5   -874492.504 5   -645631.25849  22046226.00449
  23587401.414 4    279530.035 4    208052.95346  23587403.18846
  22077060.570 6   -757749.750 6   -566952.53948  22077057.29348
  20710356.773 7     42484.023 7     31900.03949  20710356.57049
  23340478.695 4    105640.602 4     78510.19448  23340479.17648
  20340669.039 6   -452463.445 6   -340287.22348  20340665.85248
  22329575.422 5    306564.332 5    228634.23049  22329575.39149
 20  5 16  3 23 22.0000000  0  7G01G04G07G08G09G11G27               -0.000262186
  22045372.641 5   -878965.449 5   -649116.67649  22045375.16849
  23587685.195 4    281019.691 4    209213.71146  23587686.25446
  22076317.891 6   -761653.840 6   -569994.68848  22076314.72348
  20710397.984 7     42698.523 7     32067.17649  20710397.87149
  23340586.586 4    106210.781 4     78954.48048  23340587.87148
  20340224.258 6   -454799.105 6   -342107.22348  20340221.69948
  22329871.320 5    308121.645 5    229847.72349  22329871.35949
 20  5 16  3 23 23.0000000  0  7G01G04G07G08G09G11G27               -0.000262918
  22044521.656 5   -883438.234 5   -652601.96549  22044523.64549
  23587968.516 4    282509.254 4    210374.41046  23587969.74646
  22075574.969 6   -765557.688 6   -573036.64548  22075571.21548
  20710438.578 7     42913.164 7     32234.42649  20710438.62149
  23340694.688 4    106781.117 4     79398.89848  23340695.98848
  20339779.781 6   -457134.297 6   -343926.85548  20339777.39848
  22330167.523 5    309678.941 5    231061.19548  22330167.59048
 20  5 16  3 23 24.0000000  0  7G01G04G07G08G09G11G27               -0.000263649
  22043670.477 5   -887911.016 5   -656087.25049  22043673.00849
  23588251.852 4    283998.500 4    211534.85946  23588253.19946
  22074831.930 6   -769461.457 6   -576078.54748  22074828.74648
  20710479.367 7     43127.801 7     32401.67649  20710479.49649
  23340803.703 4    107351.434 4     79843.29348  23340804.26248
  20339335.617 6   -459469.238 6   -345746.28148  20339332.78548
  22330464.102 5    311236.000 5    232274.48849  22330464.09449
 20  5 16  3 23 25.0000000  0  7G01G04G07G08G09G11G27               -0.000264381
  22042819.508 5   -892383.750 5   -659572.49249  22042821.37149
  23588535.570 4    285487.516 4    212695.13746  23588536.52346
  22074089.031 6   -773365.164 6   -579120.39848  22074085.82048
  20710520.539 7     43342.441 7     32568.93049  20710520.50049
  23340912.289 4    107921.730 4     80287.68848  23340913.21948
  20338891.867 6   -461803.895 6   -347565.50048  20338888.58248
  22330760.297 5    312792.828 5    233487.59849  22330760.52749
 20  5 16  3 23 26.0000000  0  7G01G04G07G08G09G11G27               -0.000265114
  22041968.461 5   -896856.332 5   -663057.61749  22041970.39849
  23588818.836 4    286976.355 4    213855.26246  23588819.76646
  22073346.469 6   -777268.672 6   -582162.09848  22073342.47748
  20710561.172 7     43557.188 7     32736.26249  20710560.96549
  23341020.586 4    108492.152 4     80732.16448  23341021.16048
  20338447.234 6   -464138.145 6   -349384.39548  20338444.49648
  22331055.945 5    314349.566 5    234700.63348  22331056.52348
 20  5 16  3 23 27.0000000  0  7G01G04G07G08G09G11G27               -0.000265846
  22041117.156 5   -901328.672 5   -666542.55549  22041119.54349
  23589101.742 4    288465.180 4    215015.39146  23589103.01246
  22072603.406 6   -781171.902 6   -585203.57048  22072600.16848
  20710602.125 7     43772.148 7     32903.77349  20710602.38749
  23341129.383 4    109062.797 4     81176.81648  23341130.03948
  20338003.219 6   -466471.910 6   -351202.91448  20338000.21548
  22331353.031 5    315906.313 5    235913.68049  22331352.99249
 20  5 16  3 23 28.0000000  0  7G01G04G07G08G09G11G27               -0.000266579
  22040266.008 5   -905801.000 5   -670027.48849  22040268.42649
  23589384.883 4    289953.715 4    216175.28946  23589385.95746
  22071860.484 6   -785075.078 6   -588245.00448  22071857.10248
  20710642.836 6     43987.090 6     33071.25049  20710642.69949
  23341238.047 4    109633.395 4     81621.43448  23341238.46148
  20337559.172 6   -468805.395 6   -353021.20748  20337555.98848
  22331648.984 5    317462.836 5    237126.55949  22331649.13349
 20  5 16  3 23 29.0000000  0  7G01G04G07G08G09G11G27               -0.000267309
  22039415.688 5   -910273.137 5   -673512.27049  22039416.95749
  23589668.258 4    291442.102 4    217335.04746  23589669.26246
  22071118.031 6   -788978.004 6   -591286.24248  22071114.57848
  20710683.930 6     44202.188 6     33238.86749  20710684.05549
  23341346.398 4    110204.184 4     82066.20348  23341347.01648
  20337115.016 6   -471138.457 6   -354839.18048  20337112.03948
  22331944.695 5    319019.281 5    238339.37548  22331945.45348
 20  5 16  3 23 30.0000000  0  7G01G04G07G08G09G11G27               -0.000268042
  22038564.039 5   -914745.164 5   -676996.96149  22038565.95749
  23589952.055 4    292930.320 4    218494.68846  23589952.18446
  22070375.773 6   -792880.824 6   -594327.39148  22070372.04348
  20710724.781 7     44417.328 7     33406.50449  20710725.09049
  23341455.516 4    110775.012 4     82511.00048  23341455.49248
  20336671.156 6   -473471.160 6   -356656.86748  20336668.30548
  22332241.641 5    320575.621 5    239552.10549  22332241.52049
 20  5 16  3 23 31.0000000  0  7G01G04G07G08G09G11G27               -0.000268774
  22037712.961 6   -919217.156 6   -680481.62949  22037714.86349
  23590235.117 4    294418.289 4    219654.14146  23590235.77746
  22069632.219 6   -796783.559 6   -597368.48448  22069629.18848
  20710765.523 7     44632.461 7     33574.14149  20710766.03149
  23341564.609 5    111345.859 5     82955.81348  23341564.48448
  20336227.414 6   -475803.586 6   -358474.34048  20336224.36748
  22332537.023 5    322131.738 5    240764.66449  22332537.91449
 20  5 16  3 23 32.0000000  0  7G01G04G07G08G09G11G27               -0.000269508
  22036862.211 6   -923689.047 6   -683966.22349  22036864.02349
  23590517.781 4    295906.086 4    220813.46946  23590519.03146
  22068889.523 6   -800686.125 6   -600409.44148  22068886.47748
  20710806.758 6     44847.676 6     33741.84449  20710806.73049
  23341672.688 4    111916.789 4     83400.69548  23341672.92648
  20335783.547 6   -478135.648 6   -360291.53948  20335780.60948
  22332833.117 5    323687.730 5    241977.11748  22332833.73848
 20  5 16  3 23 33.0000000  0  7G01G04G07G08G09G11G27               -0.000270241
  22036011.063 5   -928160.711 5   -687450.63349  22036013.24649
  23590801.320 4    297393.766 4    221972.69546  23590802.27346
  22068147.000 6   -804588.422 6   -603450.19148  22068143.44548
  20710847.445 6     45063.063 6     33909.68049  20710847.43849
  23341781.086 4    112487.918 4     83845.73048  23341781.73848
  20335339.648 6   -480467.242 6   -362108.36348  20335336.80948
  22333129.313 5    325243.648 5    243189.52049  22333129.84049
 20  5 16  3 23 34.0000000  0  7G01G04G07G08G09G11G27               -0.000270973
  22035160.555 5   -932632.164 5   -690934.88349  22035162.32449
  23591083.563 4    298881.375 4    223131.87146  23591085.22746
  22067404.398 6   -808490.484 6   -606490.75848  22067401.16448
  20710888.469 7     45278.652 7     34077.66849  20710889.01249
  23341890.594 4    113059.188 4     84290.86748  23341890.39148
  20334896.023 6   -482798.391 6   -363924.84048  20334893.34848
  22333425.688 5    326799.598 5    244401.95349  22333425.95349
 20  5 16  3 23 35.0000000  0  7G01G04G07G08G09G11G27               -0.000271706
  22034309.305 5   -937103.535 5   -694419.06649  22034311.23449
  23591367.313 4    300368.743 4    224290.86046  23591368.28146
  22066662.078 6   -812392.375 6   -609531.19548  22066658.39148
  20710929.469 6     45494.285 6     34245.69149  20710929.94949
  23341998.547 4    113630.531 4     84736.07048  23341999.24248
  20334452.445 6   -485129.156 6   -365741.02348  20334450.32048
  22333721.953 5    328355.395 5    245614.25449  22333721.53949
 20  5 16  3 23 36.0000000  0  7G01G04G07G08G09G11G27               -0.000272438
  22033458.633 5   -941574.848 5   -697903.20749  22033460.50849
  23591650.375 4    301855.871 4    225449.66446  23591651.52046
  22065919.469 6   -816294.207 6   -612571.59048  22065916.13348
  20710970.633 6     45709.910 6     34413.71549  20710970.89849
  23342107.719 4    114201.875 4     85181.26648  23342108.01648
  20334009.219 6   -487459.668 6   -367557.00848  20334006.66448
  22334017.648 5    329910.922 5    246826.35549  22334018.05949
 20  5 16  3 23 37.0000000  0  7G01G04G07G08G09G11G27               -0.000273172
  22032607.469 5   -946046.090 5   -701387.29349  22032609.55149
  23591933.063 4    303342.828 4    226608.32846  23591934.80146
  22065177.273 6   -820195.914 6   -615611.87948  22065173.72748
  20711011.727 7     45925.590 7     34581.77749  20711011.95749
  23342216.203 4    114773.309 4     85626.54748  23342216.55548
  20333565.625 6   -489789.840 6   -369372.72348  20333562.92648
  22334313.242 5    331466.348 5    248038.37549  22334313.92249
 20  5 16  3 23 38.0000000  0  7G01G04G07G08G09G11G27               -0.000273905
  22031756.211 5   -950517.141 5   -704871.22349  22031758.71549
  23592215.945 4    304829.605 4    227766.85946  23592217.57446
  22064434.961 6   -824097.406 6   -618652.00448  22064430.63348
  20711052.766 7     46141.379 7     34749.91849  20711053.24249
  23342325.070 4    115344.848 4     86071.89148  23342325.43048
  20333122.477 6   -492119.594 6   -371188.11748  20333119.74648
  22334609.547 5    333021.676 5    249250.31649  22334609.66849
 20  5 16  3 23 39.0000000  0  7G01G04G07G08G09G11G27               -0.000274639
  22030906.430 5   -954988.156 5   -708355.13349  22030907.85949
  23592498.773 4    306316.148 4    228925.19546  23592500.63746
  22063692.438 6   -827998.816 6   -621692.05948  22063688.34848
  20711093.609 6     46357.184 6     34918.07849  20711093.77049
  23342433.789 4    115916.359 4     86517.22748  23342433.82048
  20332679.422 6   -494449.047 6   -373003.28148  20332676.10948
  22334905.750 5    334576.813 5    250462.10949  22334905.56349
 20  5 16  3 23 40.0000000  0  7G01G04G07G08G09G11G27               -0.000275373
  22030055.453 5   -959458.930 5   -711838.85249  22030057.07049
  23592782.086 4    307802.656 4    230083.50846  23592783.07846
  22062950.227 6   -831899.934 6   -624731.89148  22062945.75048
  20711135.031 6     46573.195 6     35086.39849  20711135.48049
  23342543.141 4    116488.141 4     86962.76248  23342543.28948
  20332235.828 6   -496778.004 6   -374818.05148  20332233.15648
  22335201.406 5    336131.961 5    251673.91049  22335202.00049
 20  5 16  3 23 41.0000000  0  7G01G04G07G08G09G11G27               -0.000276106
  22029204.656 5   -963929.531 5   -715322.44149  22029206.86749
  23593064.727 4    309289.012 4    231241.71146  23593066.09446
  22062207.594 6   -835800.824 6   -627771.53948  22062203.80948
  20711175.828 6     46789.313 6     35254.80549  20711176.29749
  23342651.359 4    117060.035 4     87408.39548  23342651.88348
  20331793.070 6   -499106.582 6   -376632.52748  20331790.20348
  22335497.250 5    337687.023 5    252885.65249  22335497.73449
 20  5 16  3 23 42.0000000  0  7G01G04G07G08G09G11G27               -0.000276840
  22028353.844 5   -968400.016 5   -718805.93449  22028355.98849
  23593347.031 4    310775.184 4    232399.76646  23593348.95346
  22061465.617 6   -839701.570 6   -630811.08248  22061461.46948
  20711217.383 6     47005.543 6     35423.29749  20711217.19549
  23342759.938 4    117632.000 4     87854.08248  23342760.59448
  20331349.766 6   -501434.754 6   -378446.69148  20331347.09048
  22335793.359 5    339241.945 5    254097.27749  22335793.66449
 20  5 16  3 23 43.0000000  0  7G01G04G07G08G09G11G27               -0.000277575
  22027502.984 5   -972870.348 5   -722289.31349  22027504.66049
  23593629.680 4    312261.199 4    233557.69546  23593631.31646
  22060723.109 6   -843602.129 6   -633850.47748  22060719.13348
  20711258.289 7     47221.852 7     35591.85249  20711258.63349
  23342869.227 4    118204.070 4     88299.84848  23342869.89548
  20330906.563 6   -503762.555 6   -380260.55948  20330903.92648
  22336088.719 5    340796.777 5    255308.83649  22336089.69949
 20  5 16  3 23 44.0000000  0  7G01G04G07G08G09G11G27               -0.000278307
  22026651.922 5   -977340.469 5   -725772.52049  22026654.53149
  23593913.023 4    313747.133 4    234715.56646  23593914.72746
  22059980.758 6   -847502.430 6   -636889.66848  22059976.53948
  20711299.930 6     47438.355 6     35760.55149  20711299.66849
  23342977.359 4    118776.340 4     88745.77748  23342978.29348
  20330464.258 6   -506089.871 6   -382074.04748  20330461.26648
  22336385.664 5    342351.563 5    256520.35549  22336385.32049
 20  5 16  3 23 45.0000000  0  7G01G04G07G08G09G11G27               -0.000279041
  22025802.070 5   -981810.539 5   -729255.68449  22025803.36349
  23594195.313 4    315232.809 4    235873.22346  23594197.43446
  22059238.633 6   -851402.633 6   -639928.78548  22059234.45348
  20711340.820 6     47654.840 6     35929.23849  20711340.82049
  23343087.273 4    119348.602 4     89191.69548  23343087.48848
  20330021.031 6   -508416.906 6   -383887.32448  20330018.42248
  22336681.039 5    343906.145 5    257731.71949  22336681.23449
 20  5 16  3 23 46.0000000  0  7G01G04G07G08G09G11G27               -0.000279776
  22024951.461 5   -986280.371 5   -732738.67649  22024952.94549
  23594478.211 4    316718.477 4    237030.89846  23594479.90646
  22058496.719 6   -855302.535 6   -642967.67648  22058492.28948
  20711382.172 6     47871.559 6     36098.11349  20711382.01649
  23343195.758 4    119921.105 4     89637.80148  23343196.44148
  20329578.430 6   -510743.434 6   -385700.20348  20329575.94548
  22336976.852 5    345460.770 5    258943.10949  22336976.96149
 20  5 16  3 23 47.0000000  0  7G01G04G07G08G09G11G27               -0.000280510
  22024101.242 5   -990750.125 5   -736221.60249  22024103.16049
  23594761.148 4    318203.844 4    238188.32046  23594762.70346
  22057754.148 6   -859202.359 6   -646006.49648  22057750.06648
  20711423.023 7     48088.289 7     36266.98449  20711423.67249
  23343304.727 4    120493.609 4     90083.89848  23343305.63748
  20329135.867 6   -513069.660 6   -387512.84848  20329133.17648
  22337272.250 5    347015.176 5    260154.33249  22337272.51649
 20  5 16  3 23 48.0000000  0  7G01G04G07G08G09G11G27               -0.000281244
  22023250.328 5   -995219.711 5   -739704.39849  22023251.85949
  23595043.227 4    319689.121 4    239345.67646  23595045.20746
  22057012.234 6   -863101.938 6   -649045.12948  22057008.28148
  20711464.680 6     48305.148 6     36435.97349  20711465.01249
  23343413.781 4    121066.281 4     90530.12948  23343414.32448
  20328693.117 6   -515395.449 6   -389325.14848  20328690.51648
  22337567.867 5    348569.520 5    261365.50849  22337568.42649
 20  5 16  3 23 49.0000000  0  7G01G04G07G08G09G11G27               -0.000281979
  22022399.977 5   -999689.066 5   -743187.01249  22022401.46149
  23595325.820 3    321174.297 3    240502.94946  23595328.30546
  22056269.898 6   -867001.293 6   -652083.58248  22056265.91848
  20711505.758 7     48522.168 7     36605.07449  20711505.69949
  23343522.852 4    121639.086 4     90976.47348  23343523.09048
  20328250.484 6   -517720.793 6   -391137.10948  20328248.04748
  22337863.984 5    350123.844 5    262576.66449  22337864.44549
 20  5 16  3 23 50.0000000  0  7G01G04G07G08G09G11G27               -0.000282713
  22021549.086 5  -1004158.277 5   -746669.51249  22021551.10549
  23595608.852 3    322659.383 3    241660.14846  23595610.65246
  22055528.188 6   -870900.406 6   -655121.85248  22055523.81348
  20711547.422 7     48739.320 7     36774.29349  20711547.35249
  23343632.203 4    122212.063 4     91422.94548  23343632.78548
  20327808.352 6   -520045.703 6   -392948.72748  20327805.58248
  22338159.773 5    351678.070 5    263787.75848  22338160.39548
 20  5 16  3 23 51.0000000  0  7G01G04G07G08G09G11G27               -0.000283449
  22020698.852 5  -1008627.285 5   -750151.84849  22020700.84849
  23595891.039 3    324144.281 3    242817.21146  23595893.47346
  22054786.063 6   -874799.289 6   -658159.93848  22054782.19148
  20711588.164 7     48956.633 7     36943.62549  20711588.46949
  23343740.891 4    122785.164 4     91869.51648  23343741.44148
  20327366.023 6   -522370.211 6   -394760.03148  20327363.27048
  22338455.633 5    353232.246 5    264998.80149  22338455.78549
 20  5 16  3 23 52.0000000  0  7G01G04G07G08G09G11G27               -0.000284184
  22019848.680 5  -1013096.051 5   -753634.00049  22019850.13349
  23596174.133 4    325629.195 4    243974.27746  23596175.97346
  22054044.336 6   -878697.898 6   -661197.82048  22054040.27348
  20711629.898 7     49174.141 7     37113.10949  20711630.12149
  23343849.688 4    123358.465 4     92316.23848  23343850.52048
  20326923.477 6   -524694.184 6   -396570.91848  20326921.19148
  22338751.484 5    354786.422 5    266209.85248  22338751.93448
 20  5 16  3 23 53.0000000  0  7G01G04G07G08G09G11G27               -0.000284918
  22018998.406 5  -1017564.629 5   -757116.00849  22018999.97349
  23596456.781 3    327113.918 3    245131.20746  23596458.67646
  22053302.711 6   -882596.301 6   -664235.53548  22053298.81648
  20711671.203 7     49391.777 7     37282.69949  20711671.57049
  23343959.000 4    123931.961 4     92763.11748  23343959.83648
  20326481.594 6   -527017.789 6   -398381.51648  20326478.98848
  22339047.602 5    356340.527 5    267420.84449  22339047.29349
 20  5 16  3 23 54.0000000  0  7G01G04G07G08G09G11G27               -0.000285652
  22018148.039 5  -1022033.004 5   -760597.85549  22018149.78949
  23596738.953 3    328598.609 3    246288.11346  23596741.13346
  22052559.992 6   -886494.414 6   -667273.02348  22052556.43848
  20711712.734 7     49609.609 7     37452.44549  20711713.00449
  23344068.234 4    124505.578 4     93210.08648  23344068.73848
  20326039.742 6   -529340.875 6   -400191.71148  20326036.95748
  22339343.234 5    357894.609 5    268631.80949  22339343.12549
 20  5 16  3 23 55.0000000  0  7G01G04G07G08G09G11G27               -0.000286386
  22017296.914 5  -1026501.145 5   -764079.52749  22017299.55149
  23597021.523 4    330083.203 4    247444.93046  23597023.17646
  22051819.133 6   -890392.324 6   -670310.35548  22051814.66848
  20711753.828 7     49827.582 7     37622.29349  20711754.62549
  23344177.367 4    125079.441 4     93657.25048  23344178.16448
  20325597.938 6   -531663.543 6   -402001.58248  20325594.84048
  22339639.336 5    359448.637 5    269842.73849  22339638.69949
 20  5 16  3 23 56.0000000  0  7G01G04G07G08G09G11G27               -0.000287123
  22016447.516 5  -1030969.156 5   -767561.09049  22016448.88349
  23597304.641 3    331567.629 3    248601.61746  23597305.95746
  22051076.875 6   -894289.949 6   -673347.46948  22051072.93048
  20711795.664 7     50045.742 7     37792.28549  20711795.57449
  23344286.422 4    125653.336 4     94104.44148  23344287.43448
  20325155.406 6   -533985.746 6   -403811.09848  20325152.84048
  22339934.469 5    361002.602 5    271053.61748  22339934.46948
 20  5 16  3 23 57.0000000  0  7G01G04G07G08G09G11G27               -0.000287857
  22015597.250 5  -1035436.980 5   -771042.50849  22015598.86349
  23597586.750 4    333051.910 4    249758.20346  23597588.21946
  22050335.617 6   -898187.434 6   -676384.46948  22050331.28548
  20711836.977 6     50263.973 6     37962.33649  20711837.61749
  23344395.883 4    126227.406 4     94551.77048  23344396.43048
  20324713.453 6   -536307.594 6   -405620.32448  20324710.72348
  22340230.188 5    362556.465 5    272264.41849  22340230.26249
 20  5 16  3 23 58.0000000  0  7G01G04G07G08G09G11G27               -0.000288593
  22014747.109 5  -1039904.684 5   -774523.83649  22014748.91049
  23597869.125 4    334536.020 4    250914.64146  23597870.27346
  22049593.703 6   -902084.711 6   -679421.30948  22049589.89148
  20711878.734 6     50482.313 6     38132.46949  20711878.81649
  23344505.117 4    126801.582 4     94999.17648  23344505.98848
  20324272.047 6   -538629.051 6   -407429.25448  20324269.68848
  22340525.406 5    364110.211 5    273475.13749  22340526.32849
 20  5 16  3 23 59.0000000  0  7G01G04G07G08G09G11G27               -0.000289328
  22013896.961 5  -1044372.180 5   -778004.99649  22013898.52349
  23598151.320 4    336020.051 4    252071.02046  23598153.28146
  22048852.266 6   -905981.738 6   -682457.95348  22048847.88748
  20711920.328 6     50700.805 6     38302.71949  20711920.51249
  23344614.477 4    127375.887 4     95446.67648  23344614.99648
  20323830.547 6   -540950.031 6   -409237.81648  20323827.96948
  22340821.367 5    365663.926 5    274685.82049  22340821.60549
 20  5 16  3 24  0.0000000  0  7G01G04G07G08G09G11G27               -0.000290062
  22013047.148 5  -1048839.523 5   -781486.04349  22013048.43849
  23598433.898 4    337503.910 4    253227.27046  23598435.01246
  22048110.570 6   -909878.590 6   -685494.45748  22048106.60548
  20711961.930 6     50919.434 6     38473.07449  20711961.93049
  23344723.219 4    127950.316 4     95894.27748  23344724.51248
  20323388.609 6   -543270.645 6   -411046.07848  20323386.15648
  22341116.875 5    367217.531 5    275896.41449  22341117.33249
 20  5 16  3 24  1.0000000  0  7G01G04G07G08G09G11G27               -0.000290798
  22012197.000 5  -1053306.449 5   -784966.76249  22012198.84049
  23598716.164 3    338987.922 3    254383.64146  23598717.73446
  22047369.500 6   -913774.992 6   -688530.61748  22047365.04748
  20712003.586 6     51138.418 6     38643.71549  20712003.77349
  23344832.953 4    128525.125 4     96342.18048  23344833.96948
  20322947.063 6   -545590.594 6   -412853.83248  20322944.48848
  22341412.523 5    368771.289 5    277107.13749  22341412.91449
 20  5 16  3 24  2.0000000  0  7G01G04G07G08G09G11G27               -0.000291534
  22011346.852 6  -1057773.164 6   -788447.32049  22011348.42249
  23598998.828 4    340471.777 4    255539.89846  23598999.97346
  22046628.211 6   -917671.160 6   -691566.59448  22046623.64148
  20712045.016 6     51357.555 6     38814.47349  20712045.39149
  23344941.977 4    129100.055 4     96790.18048  23344943.32848
  20322506.063 6   -547910.113 6   -414661.24648  20322503.02048
  22341708.148 5    370324.996 5    278317.81349  22341708.52049
 20  5 16  3 24  3.0000000  0  7G01G04G07G08G09G11G27               -0.000292269
  22010496.805 5  -1062239.750 5   -791927.77749  22010498.63349
  23599280.422 4    341955.504 4    256696.05546  23599282.29346
  22045886.773 6   -921567.109 6   -694602.39548  22045882.16848
  20712086.961 7     51576.820 7     38985.32849  20712087.70749
  23345051.695 4    129675.141 4     97238.29348  23345052.55948
  20322064.305 6   -550229.199 6   -416468.33248  20322061.88348
  22342004.070 5    371878.609 5    279528.42649  22342004.21149
 20  5 16  3 24  4.0000000  0  7G01G04G07G08G09G11G27               -0.000293005
  22009646.766 6  -1066706.141 6   -795408.08249  22009648.74649
  23599563.719 4    343439.105 4    257852.09846  23599564.68446
  22045145.125 6   -925462.852 6   -697638.03948  22045140.84448
  20712128.992 7     51796.211 7     39156.28149  20712129.15249
  23345161.055 4    130250.340 4     97686.50448  23345162.29748
  20321623.305 6   -552547.871 6   -418275.09048  20321620.49248
  22342299.695 5    373432.160 5    280738.98049  22342299.91849
 20  5 16  3 24  5.0000000  0  7G01G04G07G08G09G11G27               -0.000293739
  22008797.125 6  -1071172.453 6   -798888.31649  22008799.00049
  23599845.500 4    344922.465 4    259007.95346  23599846.90646
  22044404.156 6   -929358.449 6   -700673.57048  22044399.48848
  20712170.758 7     52015.656 7     39327.27749  20712170.69549
  23345270.391 4    130825.605 4     98134.75048  23345271.74248
  20321182.031 6   -554866.211 6   -420081.59048  20321179.09048
  22342595.781 5    374985.551 5    281949.41849  22342595.29349
 20  5 16  3 24  6.0000000  0  7G01G04G07G08G09G11G27               -0.000294476
  22007947.133 5  -1075638.703 5   -802368.51649  22007948.81349
  23600128.078 4    346405.594 4    260163.62946  23600129.21946
  22043662.891 6   -933253.996 6   -703709.06348  22043658.63348
  20712212.742 7     52235.082 7     39498.25449  20712212.32049
  23345380.117 4    131400.863 4     98583.00848  23345381.32448
  20320740.742 6   -557184.270 6   -421887.86748  20320738.06348
  22342890.703 5    376538.730 5    283159.68849  22342891.00449
 20  5 16  3 24  7.0000000  0  7G01G04G07G08G09G11G27               -0.000295212
  22007097.047 5  -1080104.637 5   -805848.45749  22007099.22349
  23600409.969 3    347888.734 3    261319.31646  23600411.40646
  22042920.930 6   -937149.160 6   -706744.25048  22042916.68448
  20712254.484 7     52454.762 7     39669.42649  20712254.29349
  23345489.922 4    131976.402 4     99031.47748  23345491.06648
  20320300.344 6   -559501.766 6   -423693.70748  20320297.23048
  22343186.156 5    378091.965 5    284370.00048  22343186.52048
 20  5 16  3 24  8.0000000  0  7G01G04G07G08G09G11G27               -0.000295948
  22006247.641 5  -1084570.395 5   -809328.26649  22006249.36349
  23600691.492 4    349371.715 4    262474.88746  23600693.44146
  22042179.977 6   -941044.098 6   -709779.26648  22042175.93048
  20712296.242 7     52674.641 7     39840.76649  20712296.32049
  23345600.227 4    132552.102 4     99480.07448  23345599.98048
  20319858.961 6   -561818.828 6   -425499.20748  20319856.28548
  22343481.930 5    379645.168 5    285580.28949  22343482.04749
 20  5 16  3 24  9.0000000  0  7G01G04G07G08G09G11G27               -0.000296684
  22005397.766 5  -1089035.906 5   -812807.89149  22005399.79349
  23600974.367 3    350854.656 3    263630.42246  23600975.97746
  22041439.086 6   -944938.758 6   -712814.06348  22041434.75848
  20712337.570 7     52894.684 7     40012.22749  20712338.11749
  23345709.195 4    133127.957 4     99928.78548  23345710.16448
  20319418.008 6   -564135.410 6   -427304.33648  20319415.42648
  22343777.422 5    381198.324 5    286790.53548  22343777.55148
 20  5 16  3 24 10.0000000  0  7G01G04G07G08G09G11G27               -0.000297421
  22004547.867 6  -1093501.313 6   -816287.42649  22004549.73849
  23601256.523 3    352337.379 3    264785.79346  23601257.98446
  22040697.523 6   -948833.262 6   -715848.74248  22040693.34048
  20712379.969 6     53114.797 6     40183.73849  20712379.89849
  23345818.570 4    133703.926 4    100377.58648  23345819.67248
  20318977.570 6   -566451.594 6   -429109.16048  20318974.80548
  22344073.219 5    382751.383 5    288000.71149  22344073.19949
 20  5 16  3 24 11.0000000  0  7G01G04G07G08G09G11G27               -0.000298157
  22003698.695 6  -1097966.453 6   -819766.75449  22003700.24249
  23601538.406 3    353820.074 3    265941.14146  23601540.39546
  22039956.633 6   -952727.473 6   -718883.19148  22039952.51648
  20712421.375 6     53335.129 6     40355.42649  20712421.67249
  23345928.453 4    134280.066 4    100826.52748  23345929.19948
  20318536.844 6   -568767.340 6   -430913.63748  20318533.67648
  22344368.758 5    384304.395 5    289210.85549  22344368.74649
 20  5 16  3 24 12.0000000  0  7G01G04G07G08G09G11G27               -0.000298891
  22002848.641 6  -1102431.293 6   -823245.85249  22002850.61349
  23601821.000 3    355302.824 3    267096.52346  23601822.25446
  22039215.633 6   -956621.309 6   -721917.34848  22039211.50048
  20712463.648 6     53555.711 6     40527.30149  20712463.92249
  23346038.898 4    134856.523 4    101275.70748  23346038.90248
  20318096.648 6   -571082.492 6   -432717.65648  20318093.12548
  22344663.703 5    385857.484 5    290421.05548  22344664.46148
 20  5 16  3 24 13.0000000  0  7G01G04G07G08G09G11G27               -0.000299627
  22001999.164 6  -1106895.875 6   -826724.74649  22002001.01649
  23602102.594 3    356785.473 3    268251.82046  23602104.53946
  22038475.086 6   -960514.879 6   -724951.30148  22038470.70748
  20712505.758 6     53776.484 6     40699.33649  20712506.23049
  23346147.680 4    135433.164 4    101725.03148  23346148.73848
  20317655.930 6   -573397.156 6   -434521.28548  20317653.11348
  22344959.500 5    387410.570 5    291631.25048  22344960.19548
 20  5 16  3 24 14.0000000  0  7G01G04G07G08G09G11G27               -0.000300364
  22001149.516 6  -1111360.402 6   -830203.60549  22001151.62949
  23602384.984 4    358267.859 4    269406.91846  23602386.59046
  22037733.914 6   -964408.340 6   -727985.17248  22037729.69948
  20712547.844 6     53997.293 6     40871.39149  20712547.91049
  23346257.266 4    136009.786 4    102174.35148  23346258.68048
  20317215.133 6   -575711.523 6   -436324.69148  20317212.54748
  22345255.188 5    388963.469 5    292841.30948  22345255.02348
 20  5 16  3 24 15.0000000  0  7G01G04G07G08G09G11G27               -0.000301100
  22000300.047 5  -1115824.715 5   -833682.28949  22000301.96549
  23602666.719 4    359750.121 4    270561.93046  23602668.60246
  22036992.781 6   -968301.555 6   -731018.84048  22036988.76648
  20712589.383 6     54218.262 6     41043.57849  20712590.09849
  23346367.266 4    136586.605 4    102623.82848  23346367.99648
  20316774.703 6   -578025.430 6   -438127.73448  20316772.19148
  22345550.563 5    390516.332 5    294051.32848  22345550.32048
 20  5 16  3 24 16.0000000  0  7G01G04G07G08G09G11G27               -0.000301838
  21999450.680 5  -1120288.816 5   -837160.80549  21999452.68849
  23602949.516 4    361232.324 4    271716.88346  23602951.18046
  22036252.289 6   -972194.512 6   -734052.31648  22036247.89548
  20712631.961 7     54439.410 7     41215.90249  20712631.98849
  23346476.945 4    137163.625 4    103073.44548  23346477.96148
  20316334.680 6   -580338.883 6   -439930.41848  20316332.06348
  22345846.648 5    392069.145 5    295261.31348  22345845.89548
 20  5 16  3 24 17.0000000  0  7G01G04G07G08G09G11G27               -0.000302574
  21998601.477 6  -1124752.777 6   -840639.21149  21998603.16849
  23603231.797 4    362714.348 4    272871.70346  23603232.89146
  22035511.453 6   -976087.281 6   -737085.63748  22035507.55148
  20712674.188 7     54660.668 7     41388.30549  20712674.32449
  23346586.266 4    137740.727 4    103523.13348  23346587.64148
  20315894.891 6   -582651.953 6   -441732.81648  20315892.09048
  22346142.430 5    393621.887 5    296471.23848  22346141.68448
 20  5 16  3 24 18.0000000  0  7G01G04G07G08G09G11G27               -0.000303310
  21997752.086 6  -1129216.473 6   -844117.40649  21997753.49649
  23603513.102 4    364196.348 4    274026.50446  23603514.84846
  22034770.875 6   -979979.750 6   -740118.72748  22034766.79348
  20712715.992 6     54882.098 6     41560.85249  20712716.24249
  23346696.555 4    138318.020 4    103972.96948  23346697.62948
  20315454.500 6   -584964.512 6   -443534.80948  20315451.80148
  22346437.141 5    395174.578 5    297681.12548  22346436.91848
 20  5 16  3 24 19.0000000  0  7G01G04G07G08G09G11G27               -0.000304047
  21996902.555 6  -1133680.051 6   -847595.52049  21996904.19549
  23603795.156 4    365678.152 4    275181.15646  23603796.60246
  22034029.844 6   -983872.035 6   -743151.67648  22034025.55148
  20712758.023 6     55103.645 6     41733.48849  20712758.08649
  23346806.867 5    138895.438 5    104422.89548  23346807.47748
  20315014.938 6   -587276.703 6   -445336.52048  20315012.00448
  22346732.758 5    396727.168 5    298890.93848  22346732.29748
 20  5 16  3 24 20.0000000  0  7G01G04G07G08G09G11G27               -0.000304783
  21996052.938 6  -1138143.273 6   -851073.35549  21996055.05949
  23604077.227 4    367159.977 4    276335.81646  23604078.69146
  22033289.617 6   -987763.973 6   -746184.35948  22033285.22748
  20712800.266 6     55325.453 6     41906.31649  20712800.36349
  23346916.781 4    139473.109 4    104873.02348  23346917.62548
  20314574.750 6   -589588.320 6   -447137.77748  20314572.52048
  22347028.195 5    398279.828 5    300100.80948  22347027.97748
 20  5 16  3 24 21.0000000  0  7G01G04G07G08G09G11G27               -0.000305521
  21995203.758 6  -1142606.410 6   -854551.12549  21995205.39549
  23604359.109 4    368641.633 4    277490.35246  23604360.53946
  22032549.227 6   -991655.730 6   -749216.89848  22032544.63348
  20712842.500 6     55547.324 6     42079.20749  20712843.06649
  23347026.219 4    140050.848 4    105323.20348  23347027.39548
  20314134.977 6   -591899.590 6   -448938.77048  20314132.11348
  22347323.250 5    399832.359 5    301310.57448  22347323.39148
 20  5 16  3 24 22.0000000  0  7G01G04G07G08G09G11G27               -0.000306257
  21994354.336 6  -1147069.414 6   -858028.78949  21994356.27049
  23604641.523 4    370123.082 4    278644.72346  23604642.68846
  22031808.430 5   -995547.344 5   -752249.32848  22031803.80548
  20712884.930 6     55769.266 6     42252.14849  20712885.05149
  23347136.555 4    140628.648 4    105773.43848  23347137.48848
  20313695.102 6   -594210.469 6   -450739.45348  20313692.11748
  22347618.609 5    401384.773 5    302520.24248  22347619.05548
 20  5 16  3 24 23.0000000  0  7G01G04G07G08G09G11G27               -0.000306995
  21993505.055 6  -1151532.223 6   -861506.30149  21993506.89849
  23604922.430 4    371604.402 4    279798.98046  23604924.37546
  22031068.078 6   -999438.727 6   -755281.57048  22031063.52748
  20712927.070 6     55991.375 6     42425.22349  20712927.27749
  23347246.688 4    141206.629 4    106223.81348  23347247.32848
  20313255.227 6   -596520.918 6   -452539.80548  20313252.45748
  22347914.023 5    402937.105 5    303729.85248  22347914.40648
 20  5 16  3 24 24.0000000  0  7G01G04G07G08G09G11G27               -0.000307732
  21992656.203 6  -1155994.715 6   -864983.56649  21992657.88349
  23605204.594 4    373085.699 4    280953.24246  23605206.00446
  22030327.266 6  -1003329.750 6   -758313.53148  22030322.91448
  20712969.234 6     56213.719 6     42598.48049  20712969.58249
  23347356.734 4    141784.867 4    106674.38348  23347357.78148
  20312815.602 6   -598830.840 6   -454339.73848  20312812.86748
  22348209.742 5    404489.504 5    304939.51248  22348209.80948
 20  5 16  3 24 25.0000000  0  7G01G04G07G08G09G11G27               -0.000308468
  21991806.883 5  -1160456.984 5   -868460.65649  21991809.02349
  23605486.805 4    374566.986 4    282107.48846  23605487.80146
  22029586.938 6  -1007220.516 6   -761345.30548  22029582.84448
  20713011.930 6     56436.266 6     42771.89149  20713012.07849
  23347467.234 4    142363.285 4    107125.10248  23347467.74648
  20312376.453 6   -601140.258 6   -456139.28548  20312373.78948
  22348505.148 5    406041.848 5    306149.12548  22348505.43048
 20  5 16  3 24 26.0000000  0  7G01G04G07G08G09G11G27               -0.000309206
  21990957.461 5  -1164919.082 5   -871937.61349  21990959.47349
  23605768.625 4    376048.066 4    283261.57046  23605769.46546
  22028847.000 6  -1011111.051 6   -764376.89148  22028842.74648
  20713053.992 7     56658.910 7     42945.37549  20713054.22749
  23347576.625 4    142941.828 4    107575.91048  23347577.71548
  20311936.828 6   -603449.301 6   -457938.54348  20311934.34048
  22348800.250 5    407594.109 5    307358.68448  22348800.41048
 20  5 16  3 24 27.0000000  0  7G01G04G07G08G09G11G27               -0.000309942
  21990108.977 5  -1169380.938 5   -875414.38749  21990110.51249
  23606050.313 4    377529.090 4    284415.60946  23606051.74646
  22028106.313 6  -1015001.309 6   -767408.26248  22028102.09848
  20713096.641 6     56881.777 6     43119.03949  20713097.13349
  23347687.156 4    143520.588 4    108026.89848  23347687.86348
  20311497.859 6   -605757.801 6   -459737.37548  20311494.89848
  22349096.359 5    409146.406 5    308568.25548  22349096.19548
 20  5 16  3 24 28.0000000  0  7G01G04G07G08G09G11G27               -0.000310680
  21989259.625 5  -1173842.547 5   -878890.96549  21989261.64149
  23606331.914 4    379010.044 4    285569.60546  23606333.05146
  22027366.758 5  -1018891.277 5   -770439.41048  22027361.80548
  20713139.234 6     57104.824 6     43292.83649  20713138.72349
  23347797.203 4    144099.512 4    108478.01648  23347797.89848
  20311058.703 6   -608065.852 6   -461535.85548  20311055.72348
  22349391.125 5    410698.672 5    309777.81648  22349391.44548
 20  5 16  3 24 29.0000000  0  7G01G04G07G08G09G11G27               -0.000311419
  21988410.836 5  -1178304.066 5   -882367.47749  21988412.20749
  23606613.703 3    380490.871 3    286723.50046  23606615.47746
  22026626.328 5  -1022781.074 5   -773470.41848  22026621.80948
  20713181.719 6     57327.945 6     43466.70349  20713181.35549
  23347907.523 4    144678.520 4    108929.18048  23347907.72348
  20310619.344 6   -610373.535 6   -463334.04748  20310616.06348
  22349686.586 5    412250.785 5    310987.25849  22349686.75049
 20  5 16  3 24 30.0000000  0  7G01G04G07G08G09G11G27               -0.000312155
  21987562.148 5  -1182765.223 5   -885843.69949  21987563.62549
  23606895.164 4    381971.641 4    287877.33646  23606896.98446
  22025886.234 5  -1026670.535 5   -776501.16448  22025881.57048
  20713224.047 7     57551.328 7     43640.76249  20713223.99649
  23348017.766 4    145257.805 4    109380.56348  23348018.22748
  20310180.602 6   -612680.668 6   -465131.81348  20310177.57448
  22349982.195 5    413802.992 5    312196.76648  22349982.28548
 20  5 16  3 24 31.0000000  0  7G01G04G07G08G09G11G27               -0.000312891
  21986712.953 5  -1187226.191 5   -889319.78149  21986714.77749
  23607177.703 4    383452.316 4    289031.09846  23607178.23046
  22025145.992 5  -1030559.723 5   -779531.70348  22025141.41448
  20713266.492 6     57774.871 6     43814.95349  20713266.53949
  23348128.211 4    145837.270 4    109832.07448  23348128.06648
  20309741.727 6   -614987.328 6   -466929.21548  20309738.89848
  22350277.539 5    415355.117 5    313406.21549  22350277.65649
 20  5 16  3 24 32.0000000  0  7G01G04G07G08G09G11G27               -0.000313629
  21985864.180 5  -1191686.961 5   -892795.70349  21985865.44149
  23607459.406 4    384932.895 4    290184.79346  23607460.11746
  22024405.883 5  -1034448.684 5   -782562.05548  22024401.09848
  20713309.406 7     57998.574 7     43989.26649  20713309.34849
  23348238.055 5    146416.844 5    110283.68048  23348239.01648
  20309302.727 6   -617293.574 6   -468726.28948  20309299.66048
  22350572.609 5    416907.207 5    314615.63748  22350573.14548
 20  5 16  3 24 33.0000000  0  7G01G04G07G08G09G11G27               -0.000314367
  21985015.367 5  -1196147.516 5   -896271.45349  21985016.75849
  23607741.078 4    386413.359 4    291338.39546  23607741.62146
  22023666.625 5  -1038337.379 5   -785592.21148  22023661.76648
  20713351.875 7     58222.418 7     44163.69149  20713351.63349
  23348349.344 4    146996.598 4    110735.43448  23348349.05548
  20308863.969 6   -619599.359 6   -470522.99648  20308861.12948
  22350868.117 5    418459.246 5    315825.01649  22350868.85949
 20  5 16  3 24 34.0000000  0  7G01G04G07G08G09G11G27               -0.000315105
  21984166.156 5  -1200607.766 5   -899746.97349  21984167.98049
  23608022.359 4    387893.816 4    292491.99646  23608023.95746
  22022926.781 5  -1042225.754 5   -788622.11348  22022921.38748
  20713394.555 6     58446.559 6     44338.34449  20713394.05949
  23348459.453 5    147576.602 5    111187.39148  23348459.18448
  20308425.297 6   -621904.605 6   -472319.29748  20308422.05948
  22351163.102 5    420011.324 5    317034.43049  22351163.71949
 20  5 16  3 24 35.0000000  0  7G01G04G07G08G09G11G27               -0.000315844
  21983318.211 5  -1205067.711 5   -903222.25049  21983319.61749
  23608304.469 4    389374.297 4    293645.62946  23608305.90646
  22022186.266 5  -1046113.785 5   -791651.75048  22022181.84448
  20713437.414 7     58670.969 7     44513.21549  20713437.09449
  23348568.766 5    148156.859 5    111639.54348  23348569.82048
  20307986.352 6   -624209.285 6   -474115.15648  20307983.35948
  22351458.859 5    421563.441 5    318243.86748  22351459.09048
 20  5 16  3 24 36.0000000  0  7G01G04G07G08G09G11G27               -0.000316580
  21982469.313 5  -1209527.461 5   -906697.38349  21982470.50049
  23608585.563 4    390854.598 4    294799.10946  23608587.48846
  22021446.469 5  -1050001.543 5   -794681.17648  22021442.05148
  20713479.953 7     58895.520 7     44688.18449  20713479.55149
  23348680.109 5    148737.293 5    112091.82848  23348680.25048
  20307547.477 6   -626513.527 6   -475910.66448  20307545.09448
  22351754.445 5    423115.516 5    319453.27348  22351754.51248
 20  5 16  3 24 37.0000000  0  7G01G04G07G08G09G11G27               -0.000317318
  21981620.977 5  -1213986.891 5   -910172.26249  21981622.07849
  23608868.336 4    392334.969 4    295952.62546  23608868.94946
  22020707.125 5  -1053888.984 5   -797710.35248  22020702.12148
  20713522.461 7     59120.348 7     44863.37549  20713522.39549
  23348790.430 4    149318.000 4    112544.32048  23348790.70348
  20307109.484 6   -628817.219 6   -477705.74648  20307107.02048
  22352049.359 5    424667.664 5    320662.73848  22352049.55548
 20  5 16  3 24 38.0000000  0  7G01G04G07G08G09G11G27               -0.000318056
  21980771.977 6  -1218446.066 6   -913646.94949  21980773.44949
  23609149.789 4    393815.262 4    297106.09046  23609150.70346
  22019967.289 6  -1057776.105 6   -800739.27748  22019962.52348
  20713565.570 6     59345.383 6     45038.73049  20713565.05149
  23348900.844 4    149898.895 4    112996.96148  23348901.25848
  20306671.445 6   -631120.406 6   -479500.43848  20306668.84848
  22352345.000 5    426219.793 5    321872.18848  22352345.35248
 20  5 16  3 24 39.0000000  0  7G01G04G07G08G09G11G27               -0.000318794
  21979923.586 5  -1222904.922 5   -917121.38349  21979925.08649
  23609431.438 4    395295.551 4    298259.56346  23609432.77746
  22019227.453 6  -1061662.852 6   -803767.91048  22019222.82048
  20713608.641 7     59570.672 7     45214.28149  20713608.23449
  23349010.930 4    150480.070 4    113449.82048  23349011.60248
  20306233.563 6   -633423.027 6   -481294.69548  20306230.51248
  22352640.242 5    427772.004 5    323081.69948  22352640.72348
 20  5 16  3 24 40.0000000  0  7G01G04G07G08G09G11G27               -0.000319530
  21979075.266 6  -1227363.582 6   -920595.66049  21979076.48049
  23609713.227 5    396775.703 5    299412.93846  23609714.63746
  22018488.047 6  -1065549.398 6   -806796.38748  22018483.62948
  20713651.008 6     59796.094 6     45389.93449  20713650.84449
  23349121.758 5    151061.367 5    113902.77748  23349122.28548
  20305795.211 6   -635725.207 6   -483088.60248  20305792.45348
  22352935.539 5    429324.117 5    324291.13348  22352936.22348
 20  5 16  3 24 41.0000000  0  7G01G04G07G08G09G11G27               -0.000320269
  21978227.227 6  -1231821.906 6   -924069.68049  21978228.10249
  23609995.195 4    398255.914 4    300566.34446  23609995.92246
  22017748.523 6  -1069435.531 6   -809824.53948  22017744.24248
  20713694.047 6     60021.832 6     45565.83249  20713693.57449
  23349232.469 5    151642.973 5    114355.98048  23349232.89848
  20305357.125 6   -638026.813 6   -484882.05548  20305354.27348
  22353230.688 5    430876.363 5    325500.67648  22353231.39548
 20  5 16  3 24 42.0000000  0  7G01G04G07G08G09G11G27               -0.000321007
  21977378.359 6  -1236279.938 6   -927543.47749  21977379.54749
  23610276.930 4    399736.051 4    301719.69946  23610277.43846
  22017009.125 6  -1073321.367 6   -812852.46548  22017004.83248
  20713737.258 6     60247.773 6     45741.89149  20713736.59049
  23349343.750 5    152224.805 5    114809.34848  23349344.03148
  20304919.344 6   -640327.910 6   -486675.11748  20304916.16048
  22353526.602 5    432428.590 5    326710.19948  22353526.83248
 20  5 16  3 24 43.0000000  0  7G01G04G07G08G09G11G27               -0.000321745
  21976530.375 6  -1240737.656 6   -931017.02049  21976531.08649
  23610558.258 4    401216.246 4    302873.09846  23610559.54346
  22016269.781 5  -1077206.813 5   -815880.08648  22016265.16848
  20713780.273 7     60474.023 7     45918.19149  20713780.28149
  23349454.703 5    152806.914 5    115262.93848  23349455.16448
  20304481.422 6   -642628.426 6   -488467.73048  20304478.88348
  22353821.344 5    433980.883 5    327919.77748  22353822.12948
 20  5 16  3 24 44.0000000  0  7G01G04G07G08G09G11G27               -0.000322483
  21975681.445 6  -1245195.137 6   -934490.37949  21975683.12549
  23610839.875 4    402696.344 4    304026.42246  23610841.27046
  22015530.086 5  -1081091.980 5   -818907.48848  22015525.94948
  20713823.172 7     60700.477 7     46094.64849  20713823.05949
  23349565.133 5    153389.238 5    115716.69148  23349565.45348
  20304043.914 6   -644928.469 6   -490259.96948  20304040.76648
  22354116.992 5    435533.188 5    329129.36348  22354117.52748
 20  5 16  3 24 45.0000000  0  7G01G04G07G08G09G11G27               -0.000323221
  21974833.688 6  -1249652.492 6   -937963.64149  21974835.17249
  23611121.641 4    404176.215 4    305179.55946  23611122.72346
  22014791.297 6  -1084977.020 6   -821934.79748  22014786.86348
  20713866.547 7     60926.949 7     46271.12149  20713865.87549
  23349676.305 5    153971.594 5    116170.47748  23349676.42648
  20303606.188 6   -647228.148 6   -492051.93048  20303603.30948
  22354412.383 5    437085.336 5    330338.83248  22354413.16448
 20  5 16  3 24 46.0000000  0  7G01G04G07G08G09G11G27               -0.000323957
  21973985.859 6  -1254109.492 6   -941436.63349  21973986.88749
  23611402.828 4    405656.170 4    306332.77646  23611404.38346
  22014052.078 6  -1088861.652 6   -824961.78548  22014047.50448
  20713909.594 7     61153.707 7     46447.80949  20713909.03549
  23349787.070 5    154554.223 5    116624.46948  23349787.18448
  20303168.773 6   -649527.258 6   -493843.43848  20303165.84048
  22354707.969 5    438637.570 5    331548.36349  22354708.98449
 20  5 16  3 24 47.0000000  0  7G01G04G07G08G09G11G27               -0.000324696
  21973137.852 6  -1258566.176 6   -944909.36749  21973139.13749
  23611684.266 4    407136.145 4    307485.99246  23611685.81646
  22013312.617 6  -1092745.918 6   -827988.48848  22013308.35248
  20713952.789 7     61380.770 7     46624.74649  20713952.35949
  23349898.125 5    155137.160 5    117078.71148  23349898.06348
  20302731.586 6   -651825.785 6   -495634.50048  20302728.66448
  22355003.188 5    440189.887 5    332757.95749  22355003.65249
 20  5 16  3 24 48.0000000  0  7G01G04G07G08G09G11G27               -0.000325434
  21972289.773 6  -1263022.598 6   -948381.90649  21972290.64149
  23611966.492 4    408616.035 4    308639.14846  23611967.50446
  22012573.578 6  -1096629.863 6   -831014.93848  22012569.55148
  20713996.227 7     61608.063 7     46801.85249  20713995.71549
  23350009.117 5    155720.375 5    117533.16048  23350009.17648
  20302293.852 6   -654123.785 6   -497425.15248  20302291.63748
  22355298.305 5    441742.195 5    333967.54749  22355299.42249
 20  5 16  3 24 49.0000000  0  7G01G04G07G08G09G11G27               -0.000326172
  21971441.977 6  -1267478.824 6   -951854.28549  21971442.84049
  23612247.953 4    410095.789 4    309792.20346  23612248.85946
  22011834.625 6  -1100513.598 6   -834041.21948  22011830.26648
  20714039.609 6     61835.449 6     46979.03949  20714039.13749
  23350119.977 5    156303.605 5    117987.62548  23350119.99248
  20301856.938 6   -656421.395 6   -499215.50448  20301854.05148
  22355593.664 5    443294.422 5    335177.07849  22355594.57049
 20  5 16  3 24 50.0000000  0  7G01G04G07G08G09G11G27               -0.000326910
  21970593.414 6  -1271934.738 6   -955326.42249  21970595.10549
  23612529.242 4    411575.531 4    310945.24246  23612530.46546
  22011095.688 6  -1104396.984 6   -837067.23848  22011091.28948
  20714082.492 6     62063.102 6     47156.43049  20714082.04349
  23350230.805 5    156887.195 5    118442.37148  23350231.13748
  20301419.883 6   -658718.418 6   -501005.38748  20301417.33648
  22355888.719 5    444846.688 5    336386.63349  22355889.78549
 20  5 16  3 24 51.0000000  0  7G01G04G07G08G09G11G27               -0.000327648
  21969745.953 6  -1276390.477 6   -958798.43049  21969747.02749
  23612811.438 4    413055.172 4    312098.20346  23612812.23046
  22010356.844 6  -1108280.137 6   -840093.06648  22010352.49248
  20714126.055 6     62290.887 6     47333.92249  20714125.70749
  23350341.570 5    157470.879 5    118897.19148  23350341.87148
  20300982.906 6   -661015.039 6   -502794.96548  20300980.02048
  22356184.813 5    446398.941 5    337596.17649  22356185.08249
 20  5 16  3 24 52.0000000  0  7G01G04G07G08G09G11G27               -0.000328386
  21968898.078 6  -1280845.863 6   -962270.15649  21968898.75049
  23613093.078 4    414534.813 4    313251.18046  23613093.73446
  22009618.047 6  -1112162.914 6   -843118.60948  22009613.53948
  20714169.367 6     62518.938 6     47511.63349  20714168.66049
  23350452.984 5    158054.848 5    119352.23048  23350453.34048
  20300545.883 6   -663311.070 6   -504584.08248  20300543.27048
  22356480.063 5    447951.234 5    338805.75049  22356480.92249
 20  5 16  3 24 53.0000000  0  7G01G04G07G08G09G11G27               -0.000329124
  21968050.109 6  -1285301.059 6   -965741.74249  21968051.47349
  23613373.711 4    416014.359 4    314404.07446  23613374.75846
  22008879.164 6  -1116045.445 6   -846143.95748  22008875.07848
  20714212.602 6     62747.156 6     47689.46149  20714212.32049
  23350564.414 5    158638.945 5    119807.36348  23350564.41848
  20300109.078 6   -665606.648 6   -506372.84048  20300106.61748
  22356775.563 5    449503.453 5    340015.27349  22356775.72349
 20  5 16  3 24 54.0000000  0  7G01G04G07G08G09G11G27               -0.000329863
  21967202.750 6  -1289756.047 6   -969213.15649  21967203.39849
  23613655.664 4    417493.789 4    315556.87146  23613656.76646
  22008140.563 6  -1119927.707 6   -849169.10248  22008136.40248
  20714256.180 7     62975.523 7     47867.41049  20714255.94949
  23350675.633 5    159223.246 5    120262.65648  23350675.57448
  20299672.547 6   -667901.801 6   -508161.27348  20299669.43448
  22357070.320 5    451055.645 5    341224.77049  22357071.00849
 20  5 16  3 24 55.0000000  0  7G01G04G07G08G09G11G27               -0.000330601
  21966355.289 6  -1294210.824 6   -972684.41449  21966355.89149
  23613937.094 4    418973.137 4    316709.60946  23613938.00046
  22007402.063 6  -1123809.746 6   -852194.06648  22007397.67648
  20714299.891 7     63204.043 7     48045.48449  20714299.24249
  23350786.648 5    159807.641 5    120718.03148  23350786.65648
  20299235.539 6   -670196.492 6   -509949.34448  20299232.48448
  22357365.836 5    452607.793 5    342434.23449  22357366.77749
 20  5 16  3 24 56.0000000  0  7G01G04G07G08G09G11G27               -0.000331341
  21965506.516 6  -1298665.375 6   -976155.48449  21965507.90649
  23614218.656 4    420452.363 4    317862.23446  23614219.80546
  22006662.773 6  -1127691.504 6   -855218.80948  22006658.99648
  20714343.172 7     63432.746 7     48223.69149  20714343.13749
  23350897.453 5    160392.273 5    121173.59048  23350897.82448
  20298799.117 6   -672490.734 6   -511737.06648  20298796.41048
  22357661.664 5    454159.891 5    343643.66449  22357662.29349
 20  5 16  3 24 57.0000000  0  7G01G04G07G08G09G11G27               -0.000332079
  21964659.281 6  -1303119.609 6   -979626.32049  21964660.76249
  23614500.195 4    421931.563 4    319014.86346  23614501.19146
  22005924.469 6  -1131572.906 6   -858243.27748  22005920.37948
  20714386.844 7     63661.656 7     48402.06649  20714386.28549
  23351009.141 5    160977.098 5    121629.29748  23351009.12148
  20298362.938 6   -674784.406 6   -513524.33648  20298359.66448
  22357956.531 5    455712.039 5    344853.12549  22357957.16449
 20  5 16  3 24 58.0000000  0  7G01G04G07G08G09G11G27               -0.000332817
  21963811.625 6  -1307573.547 6   -983096.92249  21963813.08249
  23614781.805 4    423410.805 4    320167.51646  23614782.82046
  22005186.180 6  -1135453.984 6   -861267.49248  22005182.09048
  20714430.391 7     63890.863 7     48580.67249  20714430.17649
  23351120.359 5    161562.227 5    122085.23848  23351120.52048
  20297926.508 6   -677077.539 6   -515311.19548  20297923.61348
  22358252.930 5    457264.230 5    346062.62549  22358252.86349
 20  5 16  3 24 59.0000000  0  7G01G04G07G08G09G11G27               -0.000333555
  21962964.148 6  -1312027.148 6   -986567.26249  21962965.56349
  23615063.258 4    424889.996 4    321320.12946  23615064.32846
  22004447.703 6  -1139334.676 6   -864291.40648  22004443.48048
  20714473.828 7     64120.309 7     48759.46149  20714473.77049
  23351231.961 5    162147.621 5    122541.39148  23351232.18848
  20297490.047 6   -679370.098 6   -517097.60948  20297487.39148
  22358547.383 5    458816.484 5    347272.17649  22358548.25849
 20  5 16  3 25  0.0000000  0  7G01G04G07G08G09G11G27               -0.000334293
  21962116.961 6  -1316480.633 6   -990037.50449  21962118.31349
  23615344.461 4    426369.027 4    322472.61746  23615345.64846
  22003709.359 6  -1143215.195 6   -867315.18849  22003705.37549
  20714517.398 7     64349.840 7     48938.30949  20714517.46949
  23351343.070 5    162733.094 5    122997.60248  23351343.21548
  20297054.359 6   -681662.305 6   -518883.74248  20297051.26248
  22358842.547 5    460368.605 5    348481.61349  22358843.33249
 20  5 16  3 25  1.0000000  0  7G01G04G07G08G09G11G27               -0.000335033
  21961269.516 6  -1320933.805 6   -993507.50449  21961270.98449
  23615625.727 4    427848.055 4    323625.10546  23615627.20746
  22002970.859 6  -1147095.387 6   -870338.71148  22002966.99648
  20714561.117 7     64579.633 7     49117.37549  20714561.19949
  23351455.063 5    163318.797 5    123453.98848  23351454.83648
  20296618.133 6   -683953.949 6   -520669.44148  20296614.87148
  22359138.273 5    461920.809 5    349691.12149  22359138.91849
 20  5 16  3 25  2.0000000  0  7G01G04G07G08G09G11G27               -0.000335772
  21960421.727 6  -1325386.699 6   -996977.28949  21960423.54749
  23615907.414 5    429327.051 5    324777.56346  23615908.35946
  22002232.500 6  -1150975.238 6   -873361.97749  22002228.81649
  20714604.648 6     64809.641 6     49296.59849  20714604.59449
  23351566.469 5    163904.711 5    123910.53948  23351566.39548
  20296181.766 6   -686245.102 6   -522454.75048  20296178.99248
  22359433.898 5    463472.969 5    350900.59049  22359434.34849
 20  5 16  3 25  3.0000000  0  7G01G04G07G08G09G11G27               -0.000336510
  21959574.500 6  -1329839.285 6  -1000446.83649  21959576.30549
  23616189.094 4    430805.996 4    325929.98446  23616189.64846
  22001493.906 6  -1154854.730 6   -876384.95748  22001490.22748
  20714648.695 6     65039.941 6     49476.05149  20714648.79749
  23351678.414 5    164490.926 5    124367.33648  23351677.70748
  20295745.781 6   -688535.648 6   -524239.59048  20295742.90248
  22359728.844 5    465025.219 5    352110.14148  22359729.55948
 20  5 16  3 25  4.0000000  0  7G01G04G07G08G09G11G27               -0.000337248
  21958727.367 6  -1334291.762 6  -1003916.29749  21958729.07849
  23616470.570 4    432284.754 4    327082.25046  23616471.69546
  22000755.906 6  -1158734.125 6   -879407.86348  22000752.14548
  20714692.672 6     65270.262 6     49655.52049  20714692.87949
  23351789.141 5    165077.203 5    124824.17648  23351789.24248
  20295310.125 6   -690825.891 6   -526024.19948  20295307.08248
  22360024.383 5    466577.305 5    353319.55549  22360024.82449
 20  5 16  3 25  5.0000000  0  7G01G04G07G08G09G11G27               -0.000337988
  21957880.172 6  -1338744.137 6  -1007385.67249  21957881.70349
  23616752.063 4    433763.316 4    328234.37546  23616752.78946
  22000017.734 6  -1162613.316 6   -882430.60949  22000014.13349
  20714736.539 6     65500.652 6     49835.04749  20714736.35549
  23351901.063 5    165663.509 5    125281.03548  23351901.08648
  20294874.219 6   -693115.785 6   -527808.52348  20294870.89548
  22360320.180 5    468129.230 5    354528.84449  22360320.32849
 20  5 16  3 25  6.0000000  0  7G01G04G07G08G09G11G27               -0.000338726
  21957033.070 6  -1343196.199 6  -1010854.81649  21957034.50849
  23617032.992 4    435241.805 4    329386.43846  23617033.94546
  21999279.984 6  -1166492.227 6   -885453.13749  21999276.43049
  20714780.828 6     65731.270 6     50014.74649  20714780.07049
  23352012.742 5    166250.016 5    125738.05548  23352012.34448
  20294438.609 6   -695405.125 6   -529592.43048  20294435.89848
  22360614.938 5    469681.164 5    355738.14549  22360614.88349
 20  5 16  3 25  7.0000000  0  7G01G04G07G08G09G11G27               -0.000339464
  21956185.648 6  -1347647.996 6  -1014323.73849  21956187.23049
  23617314.234 5    436720.301 5    330538.52046  23617315.00446
  21998541.703 6  -1170370.777 6   -888475.38349  21998538.02749
  20714824.711 6     65962.125 6     50194.63349  20714824.33649
  23352124.328 5    166836.789 5    126195.28548  23352124.77348
  20294003.125 6   -697693.977 6   -531375.94548  20294000.34448
  22360910.320 5    471233.164 5    356947.49249  22360910.76249
 20  5 16  3 25  8.0000000  0  7G01G04G07G08G09G11G27               -0.000340204
  21955338.563 6  -1352099.328 6  -1017792.30949  21955340.46949
  23617595.953 5    438198.910 5    331690.68046  23617596.57046
  21997804.078 6  -1174248.863 6   -891497.26649  21997800.30949
  20714868.367 6     66193.367 6     50374.82049  20714868.31649
  23352236.109 5    167423.957 5    126652.80948  23352236.06348
  20293567.445 6   -699982.117 6   -533158.91448  20293565.03148
  22361206.102 5    472785.340 5    358156.97749  22361205.84449
 20  5 16  3 25  9.0000000  0  7G01G04G07G08G09G11G27               -0.000340942
  21954491.953 6  -1356550.559 6  -1021260.79349  21954492.88349
  23617877.609 5    439677.301 5    332842.67646  23617878.10546
  21997065.859 6  -1178126.770 6   -894519.01649  21997062.50049
  20714912.328 6     66424.652 6     50555.05149  20714912.32449
  23352347.953 5    168011.172 5    127110.37948  23352348.12548
  20293132.578 6   -702269.914 6   -534941.61748  20293129.67248
  22361501.344 5    474337.348 5    359366.33249  22361501.67249
 20  5 16  3 25 10.0000000  0  7G01G04G07G08G09G11G27               -0.000341682
  21953644.484 6  -1361001.434 6  -1024729.01249  21953645.98049
  23618159.016 5    441155.695 5    333994.67246  23618159.10546
  21996328.211 6  -1182004.289 6   -897540.45349  21996324.79749
  20714956.219 6     66656.242 6     50735.50849  20714956.55549
  23352459.414 5    168598.676 5    127568.17248  23352459.84048
  20292697.047 6   -704557.098 6   -536723.84048  20292694.47748
  22361796.984 5    475889.441 5    360575.75449  22361796.47349
 20  5 16  3 25 11.0000000  0  7G01G04G07G08G09G11G27               -0.000342421
  21952797.406 6  -1365451.945 6  -1028196.93849  21952799.21549
  23618440.063 5    442634.188 5    335146.74246  23618440.57846
  21995590.586 6  -1185881.410 6   -900561.59449  21995586.75849
  20715000.688 6     66888.133 6     50916.19949  20715000.74649
  23352571.305 4    169186.562 4    128026.27348  23352571.07448
  20292261.727 6   -706843.695 6   -538505.60248  20292258.91848
  22362092.094 5    477441.688 5    361785.29749  22362092.18849
 20  5 16  3 25 12.0000000  0  7G01G04G07G08G09G11G27               -0.000343159
  21951950.547 6  -1369902.039 6  -1031664.53949  21951952.61749
  23618721.352 5    444112.773 5    336298.87946  23618721.54746
  21994852.453 6  -1189758.090 6   -903582.37949  21994849.12949
  20715044.969 6     67120.375 6     51097.16449  20715045.00849
  23352682.953 5    169774.680 5    128484.54748  23352683.90248
  20291826.898 6   -709129.637 6   -540286.85948  20291824.48848
  22362387.805 5    478994.023 5    362994.90249  22362387.38749
 20  5 16  3 25 13.0000000  0  7G01G04G07G08G09G11G27               -0.000343899
  21951103.375 6  -1374352.059 6  -1035132.08649  21951105.65649
  23619002.953 5    445591.094 5    337450.80946  23619002.87146
  21994114.844 6  -1193634.621 6   -906603.05149  21994111.57049
  20715088.906 6     67352.676 6     51278.17649  20715089.30949
  23352795.234 4    170362.930 4    128942.92248  23352795.55148
  20291392.063 6   -711415.246 6   -542067.85548  20291389.29348
  22362683.203 5    480546.242 5    364204.42649  22362682.76249
 20  5 16  3 25 14.0000000  0  7G01G04G07G08G09G11G27               -0.000344637
  21950256.961 6  -1378801.707 6  -1038599.35249  21950259.29349
  23619284.133 5    447069.461 5    338602.77346  23619284.62946
  21993376.758 6  -1197510.805 6   -909623.44949  21993373.63349
  20715132.984 6     67585.242 6     51459.39549  20715133.33249
  23352907.344 4    170951.422 4    129401.48448  23352907.54748
  20290957.281 6   -713700.305 6   -543848.41848  20290954.68848
  22362978.063 5    482098.469 5    365413.95349  22362978.36349
 20  5 16  3 25 15.0000000  0  7G01G04G07G08G09G11G27               -0.000345377
  21949409.961 6  -1383251.148 6  -1042066.44549  21949412.03949
  23619565.609 5    448547.707 5    339754.64146  23619565.59446
  21992639.852 6  -1201386.711 6   -912643.63349  21992636.18849
  20715177.688 6     67817.973 6     51640.73849  20715177.53149
  23353019.188 4    171540.074 4    129860.17648  23353019.50048
  20290522.445 6   -715984.875 6   -545628.60248  20290519.57448
  22363273.820 5    483650.668 5    366623.44949  22363273.52749
 20  5 16  3 25 16.0000000  0  7G01G04G07G08G09G11G27               -0.000346115
  21948563.023 5  -1387700.293 5  -1045533.31349  21948565.69949
  23619846.156 5    450025.957 5    340906.51246  23619846.72746
  21991902.750 6  -1205262.254 6   -915663.54349  21991899.41049
  20715222.125 6     68050.945 6     51822.27049  20715222.32049
  23353130.922 5    172128.988 5    130319.06648  23353131.91048
  20290088.250 6   -718268.891 6   -547408.35248  20290084.90648
  22363569.391 5    485202.918 5    367833.00049  22363569.01649
 20  5 16  3 25 17.0000000  0  7G01G04G07G08G09G11G27               -0.000346855
  21947716.594 5  -1392149.309 5  -1049000.07049  21947718.90249
  23620127.867 5    451504.039 5    342058.27046  23620127.96946
  21991164.211 6  -1209137.625 6   -918683.30149  21991161.30149
  20715266.188 6     68284.027 6     52003.89549  20715266.32849
  23353243.773 5    172718.000 5    130778.03148  23353243.54348
  20289653.539 6   -720552.547 6   -549187.82848  20289650.56348
  22363865.016 5    486755.102 5    369042.50049  22363864.18849
 20  5 16  3 25 18.0000000  0  7G01G04G07G08G09G11G27               -0.000347593
  21946869.820 5  -1396597.992 5  -1052466.57449  21946872.42249
  23620409.250 5    452982.039 5    343209.96146  23620409.44946
  21990427.078 6  -1213012.660 6   -921702.80949  21990424.52049
  20715310.578 6     68517.309 6     52185.67249  20715310.90249
  23353355.648 5    173307.246 5    131237.18448  23353355.83248
  20289218.984 6   -722835.680 6   -550966.89548  20289215.81648
  22364160.117 5    488307.219 5    370251.94149  22364159.71149
 20  5 16  3 25 19.0000000  0  7G01G04G07G08G09G11G27               -0.000348333
  21946023.711 5  -1401046.359 5  -1055932.82849  21946025.89549
  23620690.414 5    454460.117 5    344361.71146  23620690.80946
  21989690.164 6  -1216887.316 6   -924722.02749  21989687.09849
  20715355.031 6     68750.891 6     52367.68849  20715355.03549
  23353467.859 5    173896.777 5    131696.55548  23353468.44548
  20288784.625 6   -725118.227 6   -552745.50448  20288781.80148
  22364455.344 5    489859.492 5    371461.50449  22364455.18049
 20  5 16  3 25 20.0000000  0  7G01G04G07G08G09G11G27               -0.000349072
  21945177.570 5  -1405494.320 5  -1059398.76249  21945179.64149
  23620972.539 5    455938.227 5    345513.48846  23620972.39146
  21988952.219 6  -1220761.523 6   -927740.88749  21988950.05949
  20715399.516 6     68984.836 6     52549.98449  20715399.99649
  23353579.656 5    174486.617 5    132156.17248  23353580.18848
  20288350.102 6   -727400.117 6   -554523.60248  20288347.71948
  22364750.516 5    491411.855 5    372671.13349  22364750.30549
 20  5 16  3 25 21.0000000  0  7G01G04G07G08G09G11G27               -0.000349812
  21944330.680 5  -1409942.051 5  -1062864.52349  21944333.59049
  23621254.063 5    457416.258 5    346665.20346  23621253.44546
  21988215.141 6  -1224635.488 6   -930759.55949  21988212.82849
  20715444.266 6     69218.941 6     52732.40649  20715444.48849
  23353691.633 4    175076.602 4    132615.90248  23353692.48048
  20287916.586 6   -729681.582 6   -556301.36348  20287913.05948
  22365046.344 5    492964.188 5    373880.73849  22365045.93849
 20  5 16  3 25 22.0000000  0  7G01G04G07G08G09G11G27               -0.000350550
  21943484.445 5  -1414389.563 5  -1066330.11349  21943486.89149
  23621534.977 5    458894.199 5    347816.84046  23621534.27746
  21987478.570 6  -1228509.180 6   -933778.02049  21987475.87549
  20715489.016 6     69453.230 6     52914.97349  20715489.36749
  23353804.500 4    175666.832 4    133075.82048  23353805.19548
  20287482.164 6   -731962.551 6   -558078.73848  20287479.25448
  22365341.813 5    494516.523 5    375090.34848  22365341.37148
 20  5 16  3 25 23.0000000  0  7G01G04G07G08G09G11G27               -0.000351290
  21942638.211 5  -1418836.813 5  -1069795.50449  21942640.79349
  23621815.313 5    460372.082 5    348968.43446  23621815.45346
  21986741.547 6  -1232382.563 6   -936796.23849  21986738.83649
  20715533.234 6     69687.691 6     53097.66849  20715533.29749
  23353916.711 5    176257.234 5    133535.87148  23353917.05548
  20287048.305 6   -734243.016 6   -559855.73048  20287044.89848
  22365637.188 5    496068.773 5    376299.89548  22365636.82848
 20  5 16  3 25 24.0000000  0  7G01G04G07G08G09G11G27               -0.000352030
  21941791.906 5  -1423283.844 5  -1073260.71949  21941794.33649
  23622096.969 5    461849.844 5    350119.93446  23622096.67646
  21986004.141 6  -1236255.684 6   -939814.25449  21986001.53949
  20715578.141 6     69922.344 6     53280.50849  20715578.12949
  23354029.320 5    176847.776 5    133996.02448  23354029.85548
  20286614.320 6   -736523.047 6   -561632.36748  20286611.34048
  22365932.656 5    497621.051 5    377509.46549  22365932.05149
 20  5 16  3 25 25.0000000  0  7G01G04G07G08G09G11G27               -0.000352768
  21940945.313 5  -1427730.668 5  -1076725.77749  21940947.88749
  23622378.023 5    463327.453 5    351271.31646  23622378.36346
  21985267.320 6  -1240128.563 6   -942832.08649  21985264.62549
  20715622.750 6     70157.125 6     53463.44949  20715623.15249
  23354141.594 4    177438.512 4    134456.33648  23354142.08648
  20286180.266 6   -738802.633 6   -563408.66848  20286177.90248
  22366227.828 5    499173.242 5    378718.96149  22366227.75049
 20  5 16  3 25 26.0000000  0  7G01G04G07G08G09G11G27               -0.000353508
  21940099.125 5  -1432177.289 5  -1080190.67249  21940102.12149
  23622658.570 5    464804.992 5    352422.63346  23622659.41046
  21984530.375 6  -1244001.211 6   -945849.72349  21984527.94549
  20715667.523 6     70392.031 6     53646.49249  20715667.91049
  23354253.969 5    178029.320 5    134916.70548  23354254.24248
  20285746.555 6   -741081.789 6   -565184.63748  20285743.60948
  22366522.695 5    500725.324 5    379928.37149  22366522.85949
 20  5 16  3 25 27.0000000  0  7G01G04G07G08G09G11G27               -0.000354248
  21939253.422 5  -1436623.563 5  -1083655.30149  21939255.91449
  23622940.633 5    466282.539 5    353573.96546  23622940.76646
  21983793.523 6  -1247873.461 6   -948867.05949  21983791.11349
  20715712.016 6     70627.246 6     53829.77749  20715712.25449
  23354366.922 5    178620.465 5    135377.34048  23354367.22748
  20285312.977 6   -743360.336 6   -566960.13348  20285309.84048
  22366818.406 5    502277.539 5    381137.89549  22366818.26649
 20  5 16  3 25 28.0000000  0  7G01G04G07G08G09G11G27               -0.000354988
  21938407.266 5  -1441069.434 5  -1087119.61349  21938409.62149
  23623222.039 5    467760.207 5    354725.39546  23623221.78946
  21983056.570 6  -1251745.242 6   -951884.03549  21983054.35549
  20715757.414 6     70862.809 6     54013.33649  20715757.46949
  23354479.031 5    179211.949 5    135838.23848  23354479.68448
  20284879.586 6   -745638.230 6   -568735.11348  20284876.59848
  22367114.070 5    503829.902 5    382347.52349  22367113.48449
 20  5 16  3 25 29.0000000  0  7G01G04G07G08G09G11G27               -0.000355726
  21937561.313 5  -1445515.117 5  -1090583.77749  21937563.69149
  23623502.867 5    469237.677 5    355876.66046  23623502.81646
  21982320.023 6  -1255616.848 6   -954900.86749  21982317.87149
  20715802.531 6     71098.441 6     54196.93849  20715802.47349
  23354591.563 4    179803.539 4    136299.21548  23354592.32048
  20284446.570 6   -747915.734 6   -570509.78948  20284442.98048
  22367409.555 5    505382.152 5    383557.06349  22367409.07449
 20  5 16  3 25 30.0000000  0  7G01G04G07G08G09G11G27               -0.000356466
  21936715.391 5  -1449960.508 5  -1094047.72749  21936717.86749
  23623783.570 5    470715.102 5    357027.90646  23623783.98846
  21981583.477 6  -1259488.102 6   -957917.43049  21981581.30949
  20715846.844 6     71334.332 6     54380.75049  20715847.23449
  23354703.969 4    180395.387 4    136760.39148  23354704.86348
  20284012.898 6   -750192.715 6   -572284.06648  20284010.01248
  22367704.563 5    506934.414 5    384766.62149  22367704.16049
 20  5 16  3 25 31.0000000  0  7G01G04G07G08G09G11G27               -0.000357206
  21935869.297 5  -1454405.684 5  -1097511.49649  21935871.82849
  23624065.047 5    472192.457 5    358179.09046  23624065.49246
  21980847.078 6  -1263359.070 6   -960933.76649  21980844.85549
  20715892.000 6     71570.387 6     54564.68849  20715892.27749
  23354816.727 4    180987.387 4    137221.67648  23354817.78548
  20283579.641 6   -752469.203 6   -574057.94548  20283576.82448
  22368000.305 6    508486.664 6    385976.16849  22367999.49649
 20  5 16  3 25 32.0000000  0  7G01G04G07G08G09G11G27               -0.000357944
  21935023.539 5  -1458850.504 5  -1100974.99249  21935026.31649
  23624345.609 5    473669.832 5    359330.28546  23624346.10546
  21980110.188 6  -1267229.723 6   -963949.86349  21980107.78949
  20715936.828 6     71806.707 6     54748.83649  20715937.16049
  23354929.914 5    181579.629 5    137683.16048  23354930.56648
  20283147.148 6   -754745.156 6   -575831.42248  20283143.77048
  22368295.836 5    510038.977 5    387185.77048  22368294.93448
 20  5 16  3 25 33.0000000  0  7G01G04G07G08G09G11G27               -0.000358685
  21934177.656 5  -1463295.168 5  -1104438.36349  21934180.29749
  23624626.609 5    475147.051 5    360481.37546  23624627.73846
  21979373.445 6  -1271100.094 6   -966965.73849  21979371.23049
  20715981.656 6     72043.152 6     54933.07049  20715982.03149
  23355042.188 5    182172.012 5    138144.75848  23355043.30948
  20282713.688 6   -757020.684 6   -577604.55948  20282710.43848
  22368591.352 5    511591.184 5    388395.27748  22368590.15648
 20  5 16  3 25 34.0000000  0  7G01G04G07G08G09G11G27               -0.000359425
  21933332.094 5  -1467739.543 5  -1107901.51649  21933334.30549
  23624907.859 5    476624.227 5    361632.41446  23624908.96146
  21978636.930 6  -1274970.176 6   -969981.38349  21978635.18849
  20716026.867 7     72279.816 7     55117.48849  20716026.82449
  23355154.602 5    182764.641 5    138606.54748  23355155.98448
  20282280.820 6   -759295.680 6   -579377.28148  20282277.97748
  22368886.500 5    513143.426 5    389604.81648  22368885.37548
 20  5 16  3 25 35.0000000  0  7G01G04G07G08G09G11G27               -0.000360165
  21932487.172 5  -1472183.648 5  -1111364.45349  21932488.76649
  23625189.094 5    478101.328 5    362783.39146  23625190.10246
  21977900.680 6  -1278839.984 6   -972996.82049  21977898.66049
  20716071.781 6     72516.676 6     55302.05149  20716072.15249
  23355268.375 5    183357.449 5    139068.46548  23355268.89548
  20281848.000 6   -761570.203 6   -581149.64548  20281845.12548
  22369182.203 5    514695.625 5    390814.32448  22369181.07848
 20  5 16  3 25 36.0000000  0  7G01G04G07G08G09G11G27               -0.000360905
  21931641.453 5  -1476627.402 5  -1114827.11749  21931643.02349
  23625470.055 5    479578.461 5    363934.39546  23625471.00046
  21977164.227 6  -1282709.367 6   -976011.92249  21977162.67649
  20716117.273 6     72753.840 6     55486.85549  20716117.46949
  23355381.008 5    183950.555 5    139530.62148  23355381.46548
  20281415.023 6   -763844.105 6   -582921.51248  20281412.36348
  22369476.602 5    516247.930 5    392023.91448  22369476.35948
 20  5 16  3 25 37.0000000  0  7G01G04G07G08G09G11G27               -0.000361645
  21930795.195 5  -1481070.973 5  -1118289.63749  21930797.53149
  23625751.742 5    481055.453 5    365085.29746  23625752.17246
  21976427.977 6  -1286578.523 6   -979026.85249  21976426.20749
  20716162.266 6     72991.117 6     55671.74649  20716162.61349
  23355493.523 5    184543.797 5    139992.89148  23355494.21948
  20280982.867 6   -766117.602 6   -584693.06648  20280979.72348
  22369772.477 5    517800.180 5    393233.45348  22369771.76648
 20  5 16  3 25 38.0000000  0  7G01G04G07G08G09G11G27               -0.000362383
  21929949.719 5  -1485514.191 5  -1121751.88749  21929952.10549
  23626032.477 4    482532.473 4    366236.21546  23626033.49646
  21975691.656 6  -1290447.281 6   -982041.45749  21975690.18849
  20716207.336 6     73228.691 6     55856.87149  20716207.41449
  23355606.859 4    185137.273 4    140455.32848  23355607.43848
  20280550.156 6   -768390.488 6   -586464.14548  20280547.34448
  22370067.898 5    519352.504 5    394443.05948  22370067.15648
 20  5 16  3 25 39.0000000  0  7G01G04G07G08G09G11G27               -0.000363123
  21929104.203 5  -1489956.973 5  -1125213.80149  21929106.25049
  23626313.141 5    484009.605 5    367387.23046  23626314.35946
  21974956.367 6  -1294315.578 6   -985055.71949  21974954.08249
  20716252.383 6     73466.625 6     56042.27349  20716253.16449
  23355719.922 5    185731.141 5    140918.08248  23355720.57448
  20280117.781 6   -770662.715 6   -588234.71548  20280114.80548
  22370362.586 5    520904.980 5    395652.77748  22370362.43848
 20  5 16  3 25 40.0000000  0  7G01G04G07G08G09G11G27               -0.000363863
  21928258.688 5  -1494399.555 5  -1128675.55549  21928260.87549
  23626594.539 5    485486.617 5    368538.15646  23626595.41446
  21974220.898 6  -1298183.633 6   -988069.78549  21974218.14549
  20716298.047 6     73704.715 6     56227.80149  20716298.54749
  23355832.156 4    186325.191 4    141380.97748  23355833.45348
  20279685.867 6   -772934.512 6   -590004.94548  20279682.16448
  22370658.570 5    522457.402 5    396862.44948  22370658.16448
 20  5 16  3 25 41.0000000  0  7G01G04G07G08G09G11G27               -0.000364603
  21927413.563 5  -1498841.777 5  -1132137.02349  21927415.60949
  23626875.422 5    486963.664 5    369689.09846  23626876.90646
  21973483.852 6  -1302051.281 6   -991083.53949  21973481.98049
  20716343.180 6     73943.109 6     56413.55949  20716343.53549
  23355945.914 4    186919.535 4    141844.10548  23355946.44148
  20279253.336 6   -775205.695 6   -591774.69948  20279250.15248
  22370954.352 5    524009.914 5    398072.19549  22370953.65249
 20  5 16  3 25 42.0000000  0  7G01G04G07G08G09G11G27               -0.000365343
  21926568.750 5  -1503283.730 5  -1135598.28948  21926570.16448
  23627156.953 5    488440.648 5    370839.98846  23627157.64146
  21972748.164 6  -1305918.605 6   -994097.03149  21972746.09449
  20716388.711 6     74181.695 6     56599.46949  20716389.14149
  23356058.875 4    187514.043 4    142307.35248  23356059.50848
  20278820.977 6   -777476.379 6   -593544.06348  20278818.08248
  22371248.891 5    525562.438 5    399281.94949  22371248.94149
 20  5 16  3 25 43.0000000  0  7G01G04G07G08G09G11G27               -0.000366083
  21925723.609 5  -1507725.414 5  -1139059.34049  21925725.19549
  23627437.078 5    489917.551 5    371990.81346  23627439.01246
  21972012.234 6  -1309785.648 6   -997110.31349  21972010.35249
  20716434.227 6     74420.500 6     56785.54749  20716434.52049
  23356172.430 5    188108.738 5    142770.75848  23356173.01248
  20278389.320 6   -779746.574 6   -595313.04748  20278386.17648
  22371544.750 5    527114.914 5    400491.66849  22371544.64549
 20  5 16  3 25 44.0000000  0  7G01G04G07G08G09G11G27               -0.000366823
  21924878.164 5  -1512166.855 5  -1142520.19549  21924880.03549
  23627718.273 5    491394.383 5    373141.58246  23627719.95746
  21971276.500 6  -1313652.398 6  -1000123.36749  21971274.38749
  20716479.656 6     74659.434 6     56971.72749  20716480.13349
  23356285.836 4    188703.688 4    143234.34848  23356286.18448
  20277957.078 6   -782016.305 6   -597081.67648  20277954.08248
  22371840.055 5    528667.359 5    401701.37549  22371839.43449
 20  5 16  3 25 45.0000000  0  7G01G04G07G08G09G11G27               -0.000367563
  21924033.180 5  -1516608.016 5  -1145980.84049  21924034.52749
  23627999.883 4    492871.195 4    374292.33646  23628000.99246
  21970540.297 6  -1317518.801 6  -1003136.14849  21970538.58649
  20716525.016 6     74898.652 6     57158.13349  20716525.22749
  23356398.727 5    189298.820 5    143698.08648  23356399.62548
  20277525.141 6   -784285.461 6   -598849.84848  20277522.13348
  22372135.484 5    530219.863 5    402911.12149  22372135.23049
 20  5 16  3 25 46.0000000  0  7G01G04G07G08G09G11G27               -0.000368303
  21923188.266 5  -1521048.742 5  -1149441.14149  21923189.46949
  23628280.844 5    494348.098 5    375443.17246  23628282.04746
  21969804.984 6  -1321384.762 6  -1006148.58249  21969802.71149
  20716570.984 6     75138.203 6     57344.78949  20716570.80549
  23356511.195 4    189894.316 4    144162.10948  23356512.84848
  20277093.648 6   -786553.992 6   -600617.53548  20277090.75048
  22372430.539 5    531772.500 5    404120.97349  22372430.80549
 20  5 16  3 25 47.0000000  0  7G01G04G07G08G09G11G27               -0.000369041
  21922342.633 5  -1525489.137 5  -1152901.18848  21922344.86748
  23628561.602 5    495824.977 5    376593.98446  23628563.06646
  21969069.070 6  -1325250.355 6  -1009160.73449  21969067.70349
  20716616.344 6     75378.020 6     57531.66449  20716616.30149
  23356625.023 5    190490.094 5    144626.35248  23356625.87148
  20276662.172 6   -788821.953 6   -602384.77748  20276658.99648
  22372725.859 5    533325.211 5    405330.88349  22372726.07849
 20  5 16  3 25 48.0000000  0  7G01G04G07G08G09G11G27               -0.000369781
  21921498.578 5  -1529929.332 5  -1156361.07448  21921499.47748
  23628842.969 5    497301.734 5    377744.70346  23628844.35546
  21968333.953 6  -1329115.691 6  -1012172.68849  21968331.82849
  20716662.180 6     75617.996 6     57718.65649  20716662.34449
  23356738.469 4    191085.973 4    145090.67248  23356739.78548
  20276230.883 6   -791089.461 6   -604151.66048  20276228.07448
  22373021.484 5    534877.879 5    406540.74248  22373021.46948
 20  5 16  3 25 49.0000000  0  7G01G04G07G08G09G11G27               -0.000370522
  21920653.258 5  -1534369.184 5  -1159820.70748  21920654.27348
  23629123.563 5    498778.527 5    378895.43446  23629125.26646
  21967598.383 6  -1332980.660 6  -1015184.34849  21967596.75449
  20716707.898 6     75858.258 6     57905.87549  20716707.84449
  23356851.984 4    191682.109 4    145555.19148  23356853.13348
  20275799.500 6   -793356.406 6   -605918.11348  20275796.14548
  22373317.227 5    536430.535 5    407750.59848  22373317.18048
 20  5 16  3 25 50.0000000  0  7G01G04G07G08G09G11G27               -0.000371262
  21919808.289 5  -1538808.777 5  -1163280.13348  21919809.57048
  23629405.117 5    500255.273 5    380046.14546  23629406.28546
  21966862.945 6  -1336845.309 6  -1018195.75849  21966860.83249
  20716753.758 6     76098.730 6     58093.24649  20716753.51249
  23356965.391 4    192278.583 4    146019.96648  23356966.73848
  20275368.117 6   -795622.824 6   -607684.15648  20275365.10948
  22373612.148 5    537983.289 5    408960.53148  22373612.39148
 20  5 16  3 25 51.0000000  0  7G01G04G07G08G09G11G27               -0.000372002
  21918963.828 5  -1543247.988 5  -1166739.25849  21918964.76249
  23629686.320 4    501732.016 4    381196.84846  23629687.02346
  21966127.695 6  -1340709.555 6  -1021206.85949  21966125.84449
  20716799.469 6     76339.473 6     58280.83649  20716799.23049
  23357078.555 4    192875.187 4    146484.84348  23357080.02348
  20274936.938 6   -797888.664 6   -609449.75048  20274933.49648
  22373907.383 5    539536.102 5    410170.51248  22373908.09048
 20  5 16  3 25 52.0000000  0  7G01G04G07G08G09G11G27               -0.000372742
  21918118.750 6  -1547687.031 6  -1170198.25849  21918120.16849
  23629967.281 4    503208.633 4    382347.45746  23629968.38346
  21965392.625 6  -1344573.605 6  -1024217.81349  21965390.65249
  20716845.563 6     76580.320 6     58468.50849  20716844.79749
  23357192.367 4    193472.023 4    146949.91448  23357193.73448
  20274505.922 6   -800154.117 6   -611215.03948  20274502.80948
  22374203.211 5    541088.809 5    411380.41048  22374203.32448
 20  5 16  3 25 53.0000000  0  7G01G04G07G08G09G11G27               -0.000373482
  21917274.203 5  -1552125.961 5  -1173657.16049  21917275.59049
  23630247.273 4    504684.980 4    383497.85946  23630248.51246
  21964656.828 6  -1348437.488 6  -1027228.63349  21964655.18849
  20716891.297 6     76821.223 6     58656.23049  20716890.98449
  23357306.328 4    194068.803 4    147414.93648  23357307.24248
  20274074.688 6   -802419.191 6   -612980.03148  20274071.77348
  22374498.227 5    542641.332 5    412590.17648  22374498.54748
 20  5 16  3 25 54.0000000  0  7G01G04G07G08G09G11G27               -0.000374224
  21916429.406 5  -1556564.836 5  -1177116.02048  21916430.95748
  23630528.922 4    506161.117 4    384648.08646  23630529.65246
  21963921.930 6  -1352301.258 6  -1030239.36349  21963920.03549
  20716936.984 6     77062.113 6     58843.93849  20716936.75049
  23357419.547 4    194665.703 4    147880.05548  23357420.56348
  20273643.695 6   -804683.969 6   -614744.79348  20273640.41048
  22374794.391 5    544193.688 5    413799.80548  22374794.42648
 20  5 16  3 25 55.0000000  0  7G01G04G07G08G09G11G27               -0.000374964
  21915585.375 5  -1561003.273 5  -1180574.54748  21915586.14148
  23630809.508 4    507637.340 4    385798.39546  23630810.80546
  21963186.656 6  -1356164.582 6  -1033249.74249  21963184.89849
  20716982.703 6     77303.387 6     59031.94549  20716983.02749
  23357533.766 5    195262.916 5    148345.41648  23357534.35248
  20273212.609 6   -806948.098 6   -616509.04348  20273209.49248
  22375089.547 5    545746.195 5    415009.55148  22375089.85548
 20  5 16  3 25 56.0000000  0  7G01G04G07G08G09G11G27               -0.000375704
  21914739.805 5  -1565441.176 5  -1184032.64848  21914741.68048
  23631091.000 5    509113.715 5    386948.80546  23631091.62546
  21962451.188 6  -1360027.340 6  -1036259.68049  21962449.86749
  20717028.992 6     77545.074 6     59220.27349  20717029.04749
  23357647.602 5    195860.488 5    148811.05548  23357648.08648
  20272781.883 6   -809211.473 6   -618272.71548  20272779.25848
  22375385.156 5    547298.945 5    416219.48449  22375385.46949
 20  5 16  3 25 57.0000000  0  7G01G04G07G08G09G11G27               -0.000376444
  21913895.914 5  -1569878.605 5  -1187490.38748  21913897.04748
  23631371.281 5    510590.285 5    388099.38346  23631372.94546
  21961716.195 6  -1363889.547 6  -1039269.19149  21961714.78549
  20717074.844 6     77787.207 6     59408.94949  20717074.53949
  23357761.445 5    196458.605 5    149277.12148  23357761.59048
  20272351.430 6   -811474.102 6   -620035.80148  20272348.70348
  22375680.500 5    548851.891 5    417429.57848  22375681.01648
 20  5 16  3 25 58.0000000  0  7G01G04G07G08G09G11G27               -0.000377184
  21913052.133 5  -1574315.426 5  -1190947.65648  21913052.75448
  23631652.359 5    512067.117 5    389250.14146  23631653.72746
  21960981.680 6  -1367751.113 6  -1042278.20349  21960979.94949
  20717121.227 7     78029.902 7     59598.05949  20717121.09049
  23357875.359 5    197057.184 5    149743.54348  23357875.62548
  20271921.000 6   -813735.906 6   -621798.24248  20271918.36348
  22375976.750 5    550405.191 5    418639.94548  22375976.93048
 20  5 16  3 25 59.0000000  0  7G01G04G07G08G09G11G27               -0.000377924
  21912207.445 5  -1578751.805 5  -1194404.57048  21912208.38748
  23631933.563 5    513544.066 5    390401.02046  23631934.52046
  21960246.688 6  -1371612.199 6  -1045286.84449  21960245.19549
  20717166.984 7     78272.973 7     59787.46549  20717167.37149
  23357989.313 5    197656.203 5    150210.30948  23357989.74648
  20271491.180 6   -815997.016 6   -623560.14848  20271487.61348
  22376272.023 5    551958.645 5    419850.42648  22376272.08648
 20  5 16  3 26  0.0000000  0  7G01G04G07G08G09G11G27               -0.000378662
  21911363.711 5  -1583187.777 5  -1197861.16448  21911364.83248
  23632214.734 4    515021.105 4    391551.95346  23632215.98446
  21959512.406 6  -1375472.820 6  -1048295.11749  21959510.93449
  20717213.773 7     78516.414 7     59977.15649  20717213.67249
  23358102.406 5    198255.543 5    150677.32048  23358103.45348
  20271060.930 6   -818257.480 6   -625321.55148  20271057.82848
  22376567.711 5    553512.297 5    421061.05148  22376567.69548
 20  5 16  3 26  1.0000000  0  7G01G04G07G08G09G11G27               -0.000379402
  21910519.109 6  -1587623.340 6  -1201317.44548  21910520.61748
  23632495.734 4    516498.207 4    392702.93046  23632496.96946
  21958777.766 6  -1379333.027 6  -1051303.07449  21958776.35549
  20717260.070 7     78760.164 7     60167.09449  20717259.98049
  23358217.172 5    198855.234 5    151144.60848  23358217.96148
  20270630.508 6   -820517.348 6   -627082.48048  20270627.49648
  22376863.359 5    555066.055 5    422271.77049  22376863.48449
 20  5 16  3 26  2.0000000  0  7G01G04G07G08G09G11G27               -0.000380142
  21909675.500 6  -1592058.609 6  -1204773.50048  21909676.72348
  23632776.211 5    517975.262 5    393853.87946  23632777.78146
  21958043.172 6  -1383192.902 6  -1054310.76649  21958041.90249
  20717306.570 7     79004.145 7     60357.20749  20717306.56349
  23358331.180 5    199455.113 5    151612.05148  23358332.07848
  20270200.945 6   -822776.668 6   -628842.99248  20270197.64548
  22377159.383 5    556619.813 5    423482.48049  22377158.97349
 20  5 16  3 26  3.0000000  0  7G01G04G07G08G09G11G27               -0.000380882
  21908831.297 5  -1596493.508 5  -1208229.26648  21908832.63748
  23633057.977 4    519452.363 4    395004.86346  23633059.09446
  21957308.570 6  -1387052.359 6  -1057318.13749  21957307.55949
  20717353.133 6     79248.426 6     60547.55549  20717352.95749
  23358445.531 5    200055.328 5    152079.75848  23358446.06648
  20269771.258 6   -825035.379 6   -630603.03148  20269768.00048
  22377454.484 5    558173.648 5    424693.25449  22377454.38749
 20  5 16  3 26  4.0000000  0  7G01G04G07G08G09G11G27               -0.000381622
  21907987.313 5  -1600928.070 5  -1211684.77048  21907988.80148
  23633339.195 5    520929.480 5    396155.87946  23633340.10946
  21956574.500 6  -1390911.426 6  -1060325.19949  21956573.06649
  20717399.602 6     79492.961 6     60738.10249  20717399.69149
  23358559.289 5    200655.777 5    152547.63348  23358560.46148
  20269341.313 6   -827293.523 6   -632362.62148  20269337.99648
  22377750.203 5    559727.574 5    425904.11348  22377750.60948
 20  5 16  3 26  5.0000000  0  7G01G04G07G08G09G11G27               -0.000382360
  21907144.000 5  -1605362.238 5  -1215139.95748  21907144.66848
  23633620.188 4    522406.648 4    397306.91846  23633621.03146
  21955839.984 6  -1394770.074 6  -1063331.93849  21955838.78149
  20717446.344 6     79737.785 6     60928.87149  20717446.16049
  23358674.125 5    201256.574 5    153015.79348  23358674.80948
  20268911.594 6   -829551.031 6   -634121.71148  20268908.14548
  22378045.961 5    561281.633 5    427115.07448  22378046.35948
 20  5 16  3 26  6.0000000  0  7G01G04G07G08G09G11G27               -0.000383101
  21906299.969 5  -1609796.031 5  -1218594.85948  21906301.34048
  23633901.352 5    523883.790 5    398457.93446  23633901.84846
  21955105.797 6  -1398628.328 6  -1066338.36749  21955104.12549
  20717493.023 6     79982.938 6     61119.89549  20717492.61349
  23358788.484 4    201857.656 4    153484.16048  23358788.96548
  20268481.961 6   -831807.953 6   -635880.35548  20268479.02348
  22378341.867 5    562835.746 5    428326.06349  22378341.98849
 20  5 16  3 26  7.0000000  0  7G01G04G07G08G09G11G27               -0.000383841
  21905456.492 5  -1614229.633 5  -1222049.60948  21905457.46948
  23634182.805 4    525360.883 4    399608.91446  23634183.00846
  21954371.992 6  -1402486.301 6  -1069344.58249  21954370.16049
  20717539.688 6     80228.238 6     61311.03949  20717539.37549
  23358902.961 5    202458.887 5    153952.64148  23358903.22748
  20268052.820 6   -834064.398 6   -637638.62548  20268049.58648
  22378637.492 5    564389.832 5    429537.03949  22378637.48849
 20  5 16  3 26  8.0000000  0  7G01G04G07G08G09G11G27               -0.000384581
  21904612.516 5  -1618662.953 5  -1225504.14548  21904613.98448
  23634463.625 5    526837.879 5    400759.80946  23634464.42646
  21953638.055 6  -1406344.012 6  -1072350.59049  21953636.29749
  20717586.500 6     80473.734 6     61502.32849  20717586.26249
  23359017.102 4    203060.332 4    154421.29348  23359017.95348
  20267623.258 6   -836320.406 6   -639396.55548  20267620.37948
  22378933.742 5    565943.902 5    430748.00049  22378933.25049
 20  5 16  3 26  9.0000000  0  7G01G04G07G08G09G11G27               -0.000385321
  21903768.977 5  -1623095.988 5  -1228958.46148  21903770.32048
  23634744.039 4    528314.852 4    401910.68846  23634745.18446
  21952903.172 6  -1410201.375 6  -1075356.32849  21952902.24249
  20717633.234 6     80719.449 6     61693.79349  20717633.04749
  23359131.563 5    203662.004 5    154890.12548  23359132.34848
  20267194.570 6   -838575.848 6   -641154.03548  20267191.43048
  22379229.469 5    567497.969 5    431958.95349  22379228.94149
 20  5 16  3 26 10.0000000  0  7G01G04G07G08G09G11G27               -0.000386061
  21902925.602 5  -1627528.855 5  -1232412.64548  21902927.03148
  23635025.000 4    529791.641 4    403061.42646  23635025.87946
  21952169.656 6  -1414058.523 6  -1078361.90249  21952168.54349
  20717680.219 6     80965.297 6     61885.35949  20717679.68049
  23359246.250 4    204263.730 4    155358.99648  23359246.59048
  20266764.961 6   -840830.910 6   -642911.22748  20266762.22348
  22379525.219 5    569051.941 5    433169.84049  22379524.91849
 20  5 16  3 26 11.0000000  0  7G01G04G07G08G09G11G27               -0.000386801
  21902082.000 5  -1631961.711 5  -1235866.81648  21902083.28548
  23635306.688 4    531268.109 4    404211.93446  23635307.45346
  21951435.305 6  -1417915.629 6  -1081367.43849  21951434.49649
  20717726.188 6     81211.066 6     62076.87549  20717726.23049
  23359359.766 4    204865.375 4    155827.81348  23359361.20348
  20266335.688 6   -843085.703 6   -644668.20748  20266332.95348
  22379820.813 5    570605.652 5    434380.52048  22379820.23848
 20  5 16  3 26 12.0000000  0  7G01G04G07G08G09G11G27               -0.000387541
  21901238.250 5  -1636394.066 5  -1239320.59448  21901239.85548
  23635587.305 4    532744.734 4    405362.54346  23635588.27746
  21950701.633 6  -1421772.195 6  -1084372.55149  21950700.22749
  20717773.344 6     81457.262 6     62268.71549  20717773.41049
  23359475.609 4    205467.516 4    156297.01648  23359475.52348
  20265906.969 6   -845339.770 6   -646424.62948  20265904.04748
  22380116.258 5    572159.574 5    435591.36349  22380116.26249
 20  5 16  3 26 13.0000000  0  7G01G04G07G08G09G11G27               -0.000388281
  21900394.914 5  -1640826.141 5  -1242774.16049  21900396.42249
  23635868.031 4    534221.316 4    406513.10946  23635869.24646
  21949967.516 6  -1425628.426 6  -1087377.40249  21949966.54349
  20717820.453 6     81703.695 6     62460.74249  20717820.00449
  23359589.820 5    206069.875 5    156766.38348  23359590.48448
  20265477.828 6   -847593.313 6   -648180.63748  20265475.28148
  22380411.719 5    573713.539 5    436802.24648  22380411.63748
 20  5 16  3 26 14.0000000  0  7G01G04G07G08G09G11G27               -0.000389021
  21899551.242 5  -1645257.965 5  -1246227.52349  21899552.88749
  23636149.086 4    535697.797 4    407663.61346  23636150.24646
  21949233.945 6  -1429484.387 6  -1090382.05149  21949232.94549
  20717867.492 6     81950.293 6     62652.89849  20717867.04349
  23359704.406 5    206672.379 5    157235.86748  23359704.82048
  20265049.320 6   -849846.383 6   -649936.27748  20265046.54748
  22380707.055 5    575267.426 5    438013.06349  22380707.37549
 20  5 16  3 26 15.0000000  0  7G01G04G07G08G09G11G27               -0.000389761
  21898707.672 5  -1649689.621 5  -1249680.75849  21898709.61349
  23636430.133 4    537174.156 4    408814.02346  23636431.09446
  21948500.289 6  -1433340.109 6  -1093386.51649  21948499.62549
  20717914.164 7     82197.008 7     62845.14549  20717914.25449
  23359820.375 4    207274.965 4    157705.41448  23359819.59048
  20264620.906 6   -852099.039 6   -651691.59048  20264617.52048
  22381003.672 5    576821.254 5    439223.84048  22381003.18048
 20  5 16  3 26 16.0000000  0  7G01G04G07G08G09G11G27               -0.000390501
  21897865.297 5  -1654120.906 5  -1253133.71149  21897866.44149
  23636711.305 4    538650.527 4    409964.44946  23636712.01646
  21947766.320 6  -1437195.457 6  -1096390.68449  21947765.74249
  20717961.352 6     82443.973 6     63037.57849  20717961.42249
  23359934.516 4    207877.898 4    158175.23048  23359934.74648
  20264191.711 6   -854351.125 6   -653446.46548  20264188.94548
  22381299.336 5    578375.145 5    440434.66048  22381299.05948
 20  5 16  3 26 17.0000000  0  7G01G04G07G08G09G11G27               -0.000391241
  21897021.953 5  -1658551.906 5  -1256586.43049  21897023.18849
  23636992.461 4    540126.813 4    411114.78946  23636992.96946
  21947032.930 6  -1441050.492 6  -1099394.60249  21947032.20749
  20718008.148 7     82691.156 7     63230.19549  20718007.97749
  23360049.328 4    208481.000 4    158645.18048  23360049.37948
  20263763.648 6   -856602.680 6   -655200.91848  20263760.62548
  22381594.578 5    579929.070 5    441645.51249  22381594.68049
 20  5 16  3 26 18.0000000  0  7G01G04G07G08G09G11G27               -0.000391981
  21896178.734 6  -1662982.625 6  -1260038.93848  21896180.22748
  23637273.109 4    541603.098 4    412265.13746  23637273.73846
  21946299.625 6  -1444905.164 6  -1102398.25049  21946298.67249
  20718055.250 7     82938.598 7     63423.00049  20718055.36749
  23360163.750 4    209084.367 4    159115.33248  23360164.28148
  20263335.695 6   -858853.680 6   -656954.94548  20263332.45748
  22381890.430 5    581482.980 5    442856.34449  22381890.42249
 20  5 16  3 26 19.0000000  0  7G01G04G07G08G09G11G27               -0.000392721
  21895336.148 6  -1667413.082 6  -1263491.23848  21895336.77748
  23637553.633 4    543079.289 4    413415.40246  23637555.02346
  21945565.930 6  -1448759.551 6  -1105401.66849  21945565.09849
  20718102.516 6     83186.199 6     63615.93849  20718102.25849
  23360278.508 4    209687.879 4    159585.60248  23360278.65248
  20262907.320 6   -861104.215 6   -658708.60948  20262904.19548
  22382186.172 5    583036.883 5    444067.17649  22382185.90249
 20  5 16  3 26 20.0000000  0  7G01G04G07G08G09G11G27               -0.000393461
  21894492.781 6  -1671843.289 6  -1266943.34849  21894493.88349
  23637834.719 3    544555.375 3    414565.59446  23637835.43046
  21944832.680 6  -1452613.633 6  -1108404.85249  21944831.50449
  20718149.578 7     83433.984 7     63809.02049  20718149.69149
  23360393.695 4    210291.598 4    160056.02748  23360394.26248
  20262478.852 6   -863354.262 6   -660461.89848  20262476.12148
  22382481.758 5    584590.773 5    445277.99649  22382481.25449
 20  5 16  3 26 21.0000000  0  7G01G04G07G08G09G11G27               -0.000394201
  21893649.742 6  -1676273.199 6  -1270395.22749  21893650.82849
  23638116.156 3    546031.465 3    415715.78546  23638116.84446
  21944098.992 6  -1456467.402 6  -1111407.78149  21944098.10249
  20718196.609 7     83682.004 7     64002.27749  20718196.55549
  23360508.172 4    210895.496 4    160526.59448  23360508.83648
  20262050.688 6   -865603.789 6   -662214.77348  20262048.21948
  22382777.492 5    586144.660 5    446488.82049  22382777.30549
 20  5 16  3 26 22.0000000  0  7G01G04G07G08G09G11G27               -0.000394941
  21892806.922 5  -1680702.816 5  -1273846.88349  21892807.90249
  23638396.578 3    547507.422 3    416865.87946  23638397.68846
  21943365.914 6  -1460320.863 6  -1114410.47349  21943364.93049
  20718243.992 6     83930.227 6     64195.69949  20718243.96949
  23360622.586 4    211499.617 4    160997.34048  23360623.61748
  20261622.328 6   -867852.813 6   -663967.26248  20261619.81648
  22383073.383 5    587698.531 5    447699.63349  22383072.94149
 20  5 16  3 26 23.0000000  0  7G01G04G07G08G09G11G27               -0.000395683
  21891963.695 6  -1685132.129 6  -1277298.30149  21891965.03549
  23638677.422 4    548983.426 4    418016.03146  23638678.59446
  21942633.094 6  -1464173.945 6  -1117412.87949  21942631.68449
  20718291.195 6     84178.730 6     64389.34049  20718291.58649
  23360737.781 4    212104.020 4    161468.30148  23360738.82448
  20261195.141 6   -870101.281 6   -665719.31348  20261192.10548
  22383368.641 5    589252.473 5    448910.49649  22383368.22349
 20  5 16  3 26 24.0000000  0  7G01G04G07G08G09G11G27               -0.000396423
  21891121.641 5  -1689561.094 5  -1280749.43449  21891122.55549
  23638957.820 4    550459.434 4    419166.15246  23638959.20346
  21941899.430 6  -1468026.602 6  -1120414.94149  21941898.83649
  20718338.602 6     84427.520 6     64583.20349  20718338.67649
  23360852.953 5    212708.699 5    161939.48048  23360854.38748
  20260767.109 6   -872349.121 6   -667470.88748  20260764.23848
  22383665.023 5    590806.516 5    450121.43049  22383664.24649
 20  5 16  3 26 25.0000000  0  7G01G04G07G08G09G11G27               -0.000397163
  21890279.266 6  -1693989.789 6  -1284200.36749  21890279.53949
  23639238.695 4    551935.375 4    420316.22746  23639239.84446
  21941166.234 6  -1471879.016 6  -1123416.82849  21941165.60249
  20718386.086 6     84676.449 6     64777.16849  20718386.16049
  23360968.367 5    213313.551 5    162410.79348  23360969.06648
  20260339.484 6   -874596.531 6   -669222.10948  20260335.97748
  22383960.750 5    592360.539 5    451332.35549  22383960.23449
 20  5 16  3 26 26.0000000  0  7G01G04G07G08G09G11G27               -0.000397903
  21889435.883 5  -1698418.219 5  -1287651.08648  21889436.93448
  23639520.508 3    553411.242 3    421466.25446  23639520.69946
  21940433.727 6  -1475731.059 6  -1126418.41849  21940432.34849
  20718433.547 6     84925.621 6     64971.33649  20718433.36749
  23361083.227 4    213918.605 4    162882.25848  23361083.93448
  20259911.977 6   -876843.367 6   -670972.88348  20259908.59448
  22384256.352 5    593914.543 5    452543.26249  22384255.52749
 20  5 16  3 26 27.0000000  0  7G01G04G07G08G09G11G27               -0.000398643
  21888593.445 5  -1702846.359 5  -1291101.58248  21888594.34448
  23639801.461 3    554887.023 3    422616.20346  23639801.68846
  21939700.414 6  -1479582.836 6  -1129419.80149  21939699.55149
  20718481.125 6     85174.934 6     65165.60249  20718481.22749
  23361198.430 4    214523.820 4    163353.85248  23361199.46948
  20259484.477 6   -879089.777 6   -672723.34048  20259481.07448
  22384552.102 5    595468.520 5    453754.15649  22384551.35949
 20  5 16  3 26 28.0000000  0  7G01G04G07G08G09G11G27               -0.000399384
  21887750.727 5  -1707274.203 5  -1294551.85248  21887751.28148
  23640081.930 4    556362.793 4    423766.13746  23640082.32446
  21938967.336 6  -1483434.297 6  -1132420.94549  21938966.91849
  20718528.445 6     85424.480 6     65360.05549  20718528.65249
  23361313.648 4    215129.297 4    163825.65248  23361314.69548
  20259057.117 6   -881335.621 6   -674473.34848  20259053.86348
  22384847.672 5    597022.512 5    454965.05549  22384847.48849
 20  5 16  3 26 29.0000000  0  7G01G04G07G08G09G11G27               -0.000400126
  21886908.422 5  -1711701.738 5  -1298001.87549  21886909.12549
  23640362.867 3    557838.547 3    424916.07046  23640363.46546
  21938234.938 6  -1487285.340 6  -1135421.75849  21938233.79749
  20718576.344 6     85674.297 6     65554.71549  20718576.01249
  23361428.664 4    215735.004 4    164297.62948  23361429.64848
  20258630.359 6   -883580.914 6   -676222.93048  20258627.36748
  22385143.977 5    598576.594 5    456176.02349  22385143.16049
 20  5 16  3 26 30.0000000  0  7G01G04G07G08G09G11G27               -0.000400866
  21886066.023 5  -1716128.891 5  -1301451.60949  21886066.66849
  23640643.828 3    559314.316 3    426066.02046  23640643.88346
  21937502.086 6  -1491136.008 6  -1138422.28149  21937500.97749
  20718623.766 6     85924.395 6     65749.59849  20718623.29349
  23361543.883 4    216341.035 4    164769.86348  23361544.57848
  20258202.906 6   -885825.605 6   -677972.03948  20258199.98448
  22385439.008 5    600130.723 5    457387.03149  22385438.23049
 20  5 16  3 26 31.0000000  0  7G01G04G07G08G09G11G27               -0.000401606
  21885223.273 5  -1720555.738 5  -1304901.09849  21885224.35949
  23640924.461 3    560790.094 3    427215.97346  23640925.00846
  21936769.445 6  -1494986.301 6  -1141422.51649  21936768.59049
  20718671.477 6     86174.734 6     65944.66849  20718671.14149
  23361659.477 4    216947.301 4    165242.27748  23361660.24248
  20257775.383 6   -888069.742 6   -679720.71148  20257773.16848
  22385734.922 5    601684.910 5    458598.09049  22385734.28949
 20  5 16  3 26 32.0000000  0  7G01G04G07G08G09G11G27               -0.000402346
  21884380.773 5  -1724982.344 5  -1308350.40249  21884382.10949
  23641205.188 3    562265.695 3    428365.78946  23641205.80546
  21936036.539 6  -1498836.352 6  -1144422.55549  21936035.84049
  20718719.180 6     86425.234 6     66139.86349  20718719.10249
  23361775.227 4    217553.711 4    165714.80548  23361775.59048
  20257348.727 6   -890313.465 6   -681469.06648  20257345.78548
  22386030.484 5    603239.027 5    459809.09449  22386030.30549
 20  5 16  3 26 33.0000000  0  7G01G04G07G08G09G11G27               -0.000403086
  21883538.500 5  -1729408.723 5  -1311799.52349  21883539.53549
  23641485.977 4    563741.238 4    429515.56646  23641486.66846
  21935303.969 6  -1502686.113 6  -1147422.36749  21935303.02749
  20718766.633 6     86675.879 6     66335.17249  20718766.61749
  23361890.313 4    218160.293 4    166187.46148  23361890.99248
  20256921.883 6   -892556.680 6   -683217.02348  20256919.12148
  22386326.242 5    604793.109 5    461020.07049  22386325.96549
 20  5 16  3 26 34.0000000  0  7G01G04G07G08G09G11G27               -0.000403828
  21882696.570 5  -1733834.863 5  -1315248.46149  21882697.22349
  23641766.680 4    565216.645 4    430665.22346  23641767.52046
  21934571.438 6  -1506535.602 6  -1150421.96949  21934570.90249
  20718814.688 6     86926.707 6     66530.62149  20718814.27749
  23362006.703 4    218767.027 4    166660.23848  23362006.22748
  20256494.930 6   -894799.422 6   -684964.61748  20256491.97748
  22386622.070 5    606347.180 5    462231.03549  22386621.28549
 20  5 16  3 26 35.0000000  0  7G01G04G07G08G09G11G27               -0.000404568
  21881853.656 6  -1738260.641 6  -1318697.11749  21881854.89549
  23642047.664 3    566692.133 3    431814.94946  23642048.19546
  21933838.984 6  -1510384.691 6  -1153421.26249  21933838.34849
  20718862.203 6     87177.828 6     66726.29349  20718862.11349
  23362121.375 4    219374.082 4    167133.27048  23362122.05548
  20256068.523 6   -897041.594 6   -686711.76648  20256065.41448
  22386918.141 5    607901.313 5    463442.03949  22386917.10249
 20  5 16  3 26 36.0000000  0  7G01G04G07G08G09G11G27               -0.000405308
  21881011.961 5  -1742685.949 5  -1322145.41048  21881013.39148
  23642328.148 3    568167.750 3    432964.77346  23642328.65646
  21933106.961 6  -1514233.270 6  -1156420.15249  21933105.64849
  20718909.922 6     87429.336 6     66922.27349  20718909.90649
  23362237.094 4    219981.488 4    167606.56648  23362237.42248
  20255641.828 6   -899283.051 6   -688458.34848  20255638.52348
  22387214.180 5    609455.648 5    464653.20749  22387212.79349
 20  5 16  3 26 37.0000000  0  7G01G04G07G08G09G11G27               -0.000406048
  21880169.477 5  -1747110.941 5  -1325593.44948  21880171.06648
  23642609.250 3    569643.270 3    434114.52346  23642609.95346
  21932374.109 6  -1518081.512 6  -1159418.78149  21932373.38349
  20718957.617 6     87681.074 6     67118.43049  20718957.74249
  23362352.617 4    220589.137 4    168080.05548  23362352.73848
  20255215.359 6   -901523.984 6   -690204.53148  20255212.44148
  22387509.375 5    611009.973 5    465864.37549  22387508.88749
 20  5 16  3 26 38.0000000  0  7G01G04G07G08G09G11G27               -0.000406790
  21879328.039 5  -1751535.594 5  -1329041.23449  21879328.75049
  23642889.984 3    571118.879 3    435264.34446  23642890.62946
  21931642.016 6  -1521929.324 6  -1162417.07849  21931641.31349
  20719005.930 6     87933.148 6     67314.85549  20719006.03949
  23362468.406 4    221197.121 4    168553.81348  23362468.81348
  20254789.148 6   -903764.293 6   -691950.23448  20254786.40248
  22387804.875 5    612564.434 5    467075.64149  22387804.40649
 20  5 16  3 26 39.0000000  0  7G01G04G07G08G09G11G27               -0.000407530
  21878486.094 5  -1755959.781 5  -1332488.64849  21878486.94949
  23643170.797 3    572594.570 3    436414.23846  23643171.32046
  21930909.906 6  -1525776.668 6  -1165415.00849  21930909.05949
  20719054.203 6     88185.586 6     67511.55549  20719053.79349
  23362584.117 4    221805.371 4    169027.76648  23362584.40248
  20254363.000 6   -906003.930 6   -693695.39848  20254360.02748
  22388101.383 5    614119.035 5    468287.02049  22388100.19549
 20  5 16  3 26 40.0000000  0  7G01G04G07G08G09G11G27               -0.000408270
  21877643.977 5  -1760383.781 5  -1335935.92249  21877644.91449
  23643451.094 3    574070.039 3    437563.94546  23643452.28146
  21930177.461 6  -1529623.828 6  -1168412.79749  21930176.96949
  20719101.688 6     88438.086 6     67708.30949  20719101.86349
  23362699.531 4    222413.789 4    169501.85948  23362700.09848
  20253936.781 6   -908243.191 6   -695440.28148  20253933.88348
  22388397.313 5    615673.508 5    469498.30149  22388396.39849
 20  5 16  3 26 41.0000000  0  7G01G04G07G08G09G11G27               -0.000409010
  21876801.828 5  -1764807.414 5  -1339382.91048  21876803.51248
  23643732.258 3    575545.621 3    438713.75046  23643733.02346
  21929446.039 6  -1533470.516 6  -1171410.21949  21929445.18449
  20719149.992 6     88690.949 6     67905.34849  20719149.84849
  23362815.703 4    223022.520 4    169976.20248  23362816.19148
  20253510.563 6   -910481.820 6   -697184.66448  20253508.26248
  22388692.359 5    617228.121 5    470709.68049  22388692.03149
 20  5 16  3 26 42.0000000  0  7G01G04G07G08G09G11G27               -0.000409752
  21875960.492 5  -1769230.633 5  -1342829.57048  21875961.86348
  23644013.516 3    577021.285 3    439863.62546  23644013.56646
  21928713.711 6  -1537316.793 6  -1174407.31649  21928712.81649
  20719198.250 6     88944.125 6     68102.62149  20719198.22349
  23362932.227 4    223631.582 4    170450.79348  23362931.95348
  20253085.148 6   -912719.797 6   -698928.53948  20253082.09048
  22388988.727 5    618782.871 5    471921.17649  22388987.87549
 20  5 16  3 26 43.0000000  0  7G01G04G07G08G09G11G27               -0.000410492
  21875118.930 5  -1773653.484 5  -1346275.94948  21875119.97748
  23644293.469 3    578496.945 3    441013.48446  23644294.30546
  21927982.141 6  -1541162.625 6  -1177404.07049  21927981.34049
  20719246.500 6     89197.598 6     68300.13349  20719246.37549
  23363047.313 4    224240.934 4    170925.60548  23363047.77348
  20252658.883 6   -914957.180 6   -700671.95748  20252655.82848
  22389284.938 5    620337.672 5    473132.70349  22389283.79749
 20  5 16  3 26 44.0000000  0  7G01G04G07G08G09G11G27               -0.000411232
  21874277.453 5  -1778076.098 5  -1349722.13349  21874278.18049
  23644574.922 3    579972.520 3    442163.27046  23644575.60546
  21927250.477 6  -1545008.211 6  -1180400.62549  21927249.45749
  20719294.500 6     89451.246 6     68497.78149  20719294.51649
  23363163.969 4    224850.418 4    171400.52748  23363164.12548
  20252233.641 6   -917194.090 6   -702415.00448  20252230.86748
  22389580.414 5    621892.477 5    474344.24249  22389579.50849
 20  5 16  3 26 45.0000000  0  7G01G04G07G08G09G11G27               -0.000411972
  21873435.539 5  -1782498.488 5  -1353168.15249  21873436.92249
  23644855.320 4    581447.973 4    443312.95346  23644856.38746
  21926518.820 6  -1548853.512 6  -1183396.96949  21926517.79749
  20719342.930 6     89704.996 6     68695.50449  20719342.74249
  23363279.625 4    225460.117 4    171875.61348  23363279.62548
  20251807.789 6   -919430.563 6   -704157.71148  20251804.47348
  22389876.250 5    623447.172 5    475555.69549  22389875.15249
 20  5 16  3 26 46.0000000  0  7G01G04G07G08G09G11G27               -0.000412714
  21872594.344 5  -1786920.598 5  -1356613.94949  21872595.35249
  23645135.742 4    582923.328 4    444462.57046  23645137.00446
  21925786.742 6  -1552698.504 6  -1186393.06649  21925786.22749
  20719391.445 6     89958.984 6     68893.41849  20719391.35949
  23363395.711 4    226069.898 4    172350.76648  23363396.06348
  20251382.281 6   -921666.527 6   -705900.02348  20251379.43448
  22390171.984 5    625001.879 5    476767.15249  22390171.35249
 20  5 16  3 26 47.0000000  0  7G01G04G07G08G09G11G27               -0.000413454
  21871752.766 5  -1791342.461 5  -1360059.55548  21871753.88748
  23645416.820 4    584398.594 4    445612.12546  23645417.78946
  21925054.695 6  -1556543.211 6  -1189388.94149  21925054.56649
  20719439.844 6     90213.148 6     69091.46949  20719439.48449
  23363511.648 4    226679.926 4    172826.10948  23363512.03948
  20250956.977 6   -923902.000 6   -707641.94948  20250953.98048
  22390468.164 5    626556.574 5    477978.60249  22390466.93049
 20  5 16  3 26 48.0000000  0  7G01G04G07G08G09G11G27               -0.000414194
  21870911.516 5  -1795763.977 5  -1363504.88748  21870912.55948
  23645697.234 3    585873.883 3    446761.70346  23645698.23846
  21924323.828 6  -1560387.547 6  -1192384.53149  21924322.94949
  20719488.219 6     90467.570 6     69289.71949  20719488.17649
  23363627.805 4    227290.273 4    173301.70348  23363627.76248
  20250531.852 6   -926136.914 6   -709383.44148  20250529.16848
  22390764.289 5    628111.316 5    479190.09049  22390763.03149
 20  5 16  3 26 49.0000000  0  7G01G04G07G08G09G11G27               -0.000414934
  21870070.438 5  -1800185.133 5  -1366949.94948  21870071.52048
  23645978.633 3    587349.188 3    447911.28546  23645979.14546
  21923592.086 6  -1564231.512 6  -1195379.82849  21923591.63749
  20719536.539 6     90722.273 6     69488.19549  20719536.61749
  23363743.844 4    227900.777 4    173777.41448  23363744.85948
  20250106.656 6   -928371.277 6   -711124.50048  20250103.53948
  22391059.844 6    629666.102 6    480401.60249  22391058.98049
 20  5 16  3 26 50.0000000  0  7G01G04G07G08G09G11G27               -0.000415676
  21869228.781 5  -1804606.082 5  -1370394.84448  21869230.07048
  23646259.461 4    588824.402 4    449060.78546  23646260.05946
  21922860.383 6  -1568075.125 6  -1198374.84849  21922859.92249
  20719585.172 6     90977.141 6     69686.78949  20719584.74649
  23363860.305 4    228511.543 4    174253.33648  23363860.79348
  20249681.203 6   -930605.113 6   -712865.14848  20249678.77048
  22391355.648 6    631220.875 6    481613.11349  22391354.62949
 20  5 16  3 26 51.0000000  0  7G01G04G07G08G09G11G27               -0.000416416
  21868387.055 5  -1809026.578 5  -1373839.37948  21868389.50848
  23646540.117 4    590299.637 4    450210.31646  23646540.87946
  21922129.336 6  -1571918.324 6  -1201369.55549  21922128.38349
  20719633.516 6     91232.352 6     69885.66049  20719633.50049
  23363976.727 4    229122.633 4    174729.50848  23363977.07448
  20249256.328 6   -932838.328 6   -714605.32448  20249253.91848
  22391651.500 5    632775.813 5    482824.75049  22391650.63749
 20  5 16  3 26 52.0000000  0  7G01G04G07G08G09G11G27               -0.000417156
  21867546.320 5  -1813446.699 5  -1377283.62948  21867547.91448
  23646821.047 4    591774.930 4    451359.89146  23646821.77046
  21921397.703 6  -1575761.141 6  -1204363.95749  21921397.31649
  20719682.289 6     91487.840 6     70084.73449  20719682.05549
  23364092.672 4    229733.957 4    175205.85948  23364093.43848
  20248831.719 6   -935070.938 6   -716345.02048  20248828.66848
  22391947.016 5    634330.789 5    484036.42649  22391946.54349
 20  5 16  3 26 53.0000000  0  7G01G04G07G08G09G11G27               -0.000417898
  21866705.055 5  -1817866.547 5  -1380727.66048  21866706.83248
  23647101.352 4    593250.184 4    452509.43846  23647102.05546
  21920666.508 6  -1579603.566 6  -1207358.05149  21920665.92249
  20719730.797 6     91743.613 6     70284.04749  20719730.90249
  23364208.883 4    230345.602 4    175682.46148  23364209.60548
  20248407.102 6   -937303.023 6   -718084.30548  20248404.12148
  22392243.508 5    635885.813 5    485248.12949  22392242.61749
 20  5 16  3 26 54.0000000  0  7G01G04G07G08G09G11G27               -0.000418638
  21865864.008 5  -1822286.109 5  -1384171.46949  21865866.03149
  23647382.008 4    594725.363 4    453658.92646  23647382.83646
  21919935.883 6  -1583445.695 6  -1210351.92249  21919935.02349
  20719779.766 6     91999.539 6     70483.46549  20719779.33249
  23364325.438 4    230957.348 4    176159.14148  23364326.09448
  20247982.031 6   -939534.590 6   -719823.18448  20247979.27348
  22392540.047 5    637440.824 5    486459.82449  22392538.58249
 20  5 16  3 26 55.0000000  0  7G01G04G07G08G09G11G27               -0.000419378
  21865023.344 5  -1826705.289 5  -1387614.98049  21865024.96149
  23647663.266 4    596200.551 4    454808.41446  23647663.72346
  21919204.547 6  -1587287.430 6  -1213345.48449  21919203.89149
  20719828.250 6     92255.742 6     70683.10249  20719828.01649
  23364442.430 4    231569.402 4    176636.06648  23364441.94948
  20247557.734 6   -941765.586 6   -721561.62148  20247555.03948
  22392835.234 5    638995.914 5    487671.58249  22392834.43849
 20  5 16  3 26 56.0000000  0  7G01G04G07G08G09G11G27               -0.000420120
  21864182.398 5  -1831124.102 5  -1391058.21148  21864184.17248
  23647943.906 4    597675.789 4    455957.95346  23647944.48846
  21918473.695 6  -1591128.762 6  -1216338.73049  21918473.10249
  20719876.953 6     92512.242 6     70882.96949  20719877.07449
  23364559.156 4    232181.758 4    177113.22748  23364559.01648
  20247133.008 6   -943995.973 6   -723299.58248  20247130.43048
  22393130.883 5    640551.102 5    488883.41449  22393130.45349
 20  5 16  3 26 57.0000000  0  7G01G04G07G08G09G11G27               -0.000420860
  21863341.570 5  -1835542.563 5  -1394501.17248  21863343.14148
  23648224.367 4    599151.047 4    457107.50046  23648224.80946
  21917742.828 6  -1594969.691 6  -1219331.66449  21917742.09449
  20719925.672 6     92769.016 6     71083.05549  20719925.61749
  23364675.703 4    232794.355 4    177590.56648  23364675.43048
  20246709.070 6   -946225.773 6   -725037.08648  20246705.96548
  22393426.906 5    642106.359 5    490095.30549  22393426.26649
 20  5 16  3 26 58.0000000  0  7G01G04G07G08G09G11G27               -0.000421600
  21862500.930 5  -1839960.742 5  -1397943.91048  21862502.80948
  23648505.172 4    600626.234 4    458256.99646  23648505.79346
  21917012.070 6  -1598810.273 6  -1222324.32449  21917011.31349
  20719974.734 6     93026.023 6     71283.32449  20719974.95349
  23364792.836 4    233407.230 4    178068.13348  23364792.02048
  20246284.289 6   -948455.047 6   -726774.18448  20246281.68448
  22393723.125 5    643661.633 5    491307.20349  22393722.65249
 20  5 16  3 26 59.0000000  0  7G01G04G07G08G09G11G27               -0.000422340
  21861660.398 6  -1844378.367 6  -1401386.20749  21861661.71549
  23648786.156 4    602101.625 4    459406.65246  23648786.37546
  21916280.945 6  -1602650.305 6  -1225316.56349  21916280.50049
  20720023.813 6     93283.453 6     71483.91449  20720023.74649
  23364908.703 4    234020.543 4    178546.02748  23364908.64148
  20245860.109 6   -950683.578 6   -728510.69948  20245857.93048
  22394018.719 5    645217.156 5    492519.29349  22394018.06649
 20  5 16  3 27  0.0000000  0  7G01G04G07G08G09G11G27               -0.000423082
  21860819.570 6  -1848795.551 6  -1404828.17249  21860821.33649
  23649066.750 4    603577.121 4    460556.39546  23649067.70746
  21915550.430 6  -1606489.809 6  -1228308.38349  21915549.79749
  20720073.055 7     93541.285 7     71684.82449  20720072.56349
  23365025.461 4    234634.211 4    179024.21148  23365025.26248
  20245436.602 6   -952911.391 6   -730246.66048  20245434.03948
  22394314.852 5    646772.859 5    493731.53149  22394314.32449
 20  5 16  3 27  1.0000000  0  7G01G04G07G08G09G11G27               -0.000423822
  21859979.156 5  -1853212.441 5  -1408269.90649  21859981.20349
  23649347.461 4    605052.523 4    461706.04746  23649347.94946
  21914819.828 6  -1610329.012 6  -1231299.96949  21914819.26649
  20720122.070 6     93799.328 6     71885.90249  20720122.03149
  23365142.594 4    235248.082 4    179502.54348  23365141.95748
  20245013.070 6   -955138.738 6   -731982.25448  20245009.91448
  22394610.602 5    648328.504 5    494943.71949  22394610.49249
 20  5 16  3 27  2.0000000  0  7G01G04G07G08G09G11G27               -0.000424562
  21859138.766 5  -1857629.074 5  -1411711.43849  21859140.73449
  23649627.883 4    606527.887 4    462855.67246  23649628.89546
  21914089.414 6  -1614167.926 6  -1234291.33649  21914088.80149
  20720171.336 7     94057.547 7     72087.10949  20720170.97749
  23365259.211 4    235862.141 4    179981.03148  23365259.07048
  20244588.852 6   -957365.551 6   -733717.42648  20244586.59448
  22394907.398 5    649884.176 5    496155.92649  22394906.38349
 20  5 16  3 27  3.0000000  0  7G01G04G07G08G09G11G27               -0.000425303
  21858298.484 6  -1862045.391 6  -1415152.72749  21858300.24249
  23649909.531 4    608003.211 4    464005.27746  23649909.36746
  21913358.711 6  -1618006.453 6  -1237282.39549  21913357.88349
  20720220.391 6     94316.027 6     72288.52049  20720220.10949
  23365375.930 4    236476.461 4    180459.71548  23365375.76648
  20244165.273 6   -959591.840 6   -735452.19948  20244162.51648
  22395202.727 5    651439.887 5    497368.16849  22395202.51249
 20  5 16  3 27  4.0000000  0  7G01G04G07G08G09G11G27               -0.000426043
  21857457.984 6  -1866461.320 6  -1418593.70349  21857459.98849
  23650190.102 4    609478.539 4    465154.87546  23650190.55146
  21912628.688 6  -1621844.582 6  -1240273.14549  21912627.93049
  20720269.773 6     94574.770 6     72490.13749  20720269.68849
  23365493.289 4    237091.027 4    180938.59848  23365492.52748
  20243741.773 6   -961817.516 6   -737186.49248  20243739.08248
  22395499.180 5    652995.660 5    498580.46149  22395498.62149
 20  5 16  3 27  5.0000000  0  7G01G04G07G08G09G11G27               -0.000426785
  21856618.266 6  -1870876.871 6  -1422034.38749  21856619.56649
  23650470.109 4    610953.930 4    466304.53546  23650471.19546
  21911898.211 6  -1625682.313 6  -1243263.58649  21911897.57849
  20720318.922 7     94833.824 7     72691.99649  20720318.36349
  23365609.320 5    237705.887 5    181417.71148  23365609.49248
  20243318.266 6   -964042.594 6   -738920.32048  20243315.73448
  22395795.086 5    654551.563 5    499792.84849  22395794.54749
 20  5 16  3 27  6.0000000  0  7G01G04G07G08G09G11G27               -0.000427525
  21855777.063 6  -1875292.090 6  -1425474.81649  21855779.64849
  23650751.242 4    612429.309 4    467454.17646  23650752.02046
  21911168.320 6  -1629519.629 6  -1246253.70749  21911167.51249
  20720368.453 6     95093.164 6     72894.07449  20720368.26649
  23365727.070 4    238321.031 4    181897.04348  23365726.89548
  20242895.102 6   -966267.078 6   -740653.68448  20242892.27748
  22396091.078 6    656107.520 6    501005.28149  22396090.87149
 20  5 16  3 27  7.0000000  0  7G01G04G07G08G09G11G27               -0.000428265
  21854937.563 6  -1879706.941 6  -1428914.96149  21854939.36349
  23651032.633 4    613904.699 4    468603.82446  23651033.02346
  21910437.930 6  -1633356.535 6  -1249243.50449  21910437.31349
  20720417.906 6     95352.762 6     73096.35949  20720417.25449
  23365843.789 4    238936.504 4    182376.62948  23365843.95748
  20242472.188 6   -968491.008 6   -742386.62148  20242469.31348
  22396387.344 5    657663.535 5    502217.76249  22396386.86749
 20  5 16  3 27  8.0000000  0  7G01G04G07G08G09G11G27               -0.000429005
  21854097.367 6  -1884121.383 6  -1432354.78549  21854099.48849
  23651312.891 4    615380.164 4    469753.53546  23651313.57046
  21909707.375 6  -1637193.000 6  -1252232.95749  21909707.00449
  20720467.031 7     95612.703 7     73298.91449  20720466.50849
  23365960.914 5    239552.262 5    182856.43048  23365960.89848
  20242048.586 6   -970714.277 6   -744119.03948  20242045.74648
  22396683.398 5    659219.691 5    503430.35249  22396682.89149
 20  5 16  3 27  9.0000000  0  7G01G04G07G08G09G11G27               -0.000429745
  21853257.359 6  -1888535.434 6  -1435794.30549  21853259.27749
  23651593.719 4    616855.621 4    470903.23846  23651594.51646
  21908978.391 6  -1641029.102 6  -1255222.12949  21908977.62949
  20720516.273 7     95872.906 7     73501.66449  20720516.22349
  23366078.664 5    240168.289 5    183336.44548  23366078.14548
  20241626.219 6   -972936.988 6   -745851.01648  20241623.34048
  22396979.203 5    660775.891 5    504642.97749  22396979.07449
 20  5 16  3 27 10.0000000  0  7G01G04G07G08G09G11G27               -0.000430485
  21852417.758 6  -1892949.117 6  -1439233.53949  21852419.64849
  23651874.477 5    618331.145 5    472052.99646  23651875.82046
  21908248.070 6  -1644864.734 6  -1258210.93449  21908247.25849
  20720566.133 7     96133.445 7     73704.68049  20720566.02349
  23366195.867 5    240784.652 5    183816.72748  23366195.35248
  20241202.922 6   -975159.035 6   -747582.48848  20241200.21948
  22397275.555 5    662332.242 5    505855.71549  22397275.24249
 20  5 16  3 27 11.0000000  0  7G01G04G07G08G09G11G27               -0.000431227
  21851578.266 6  -1897362.648 6  -1442672.65249  21851579.69149
  23652155.344 5    619806.492 5    473202.62546  23652156.14846
  21907518.039 6  -1648700.168 6  -1261199.58649  21907517.41449
  20720615.914 7     96394.078 7     73907.77349  20720615.57849
  23366313.070 5    241401.090 5    184297.06648  23366312.55148
  20240780.531 6   -977380.711 6   -749313.66048  20240777.45748
  22397572.211 5    663888.457 5    507068.34849  22397571.21949
 20  5 16  3 27 12.0000000  0  7G01G04G07G08G09G11G27               -0.000431967
  21850738.711 6  -1901775.836 6  -1446111.50049  21850740.00849
  23652435.883 5    621281.813 5    474352.21546  23652436.93446
  21906788.516 6  -1652535.234 6  -1264187.94549  21906787.31649
  20720665.672 6     96654.965 6     74111.06649  20720665.54349
  23366430.461 5    242017.773 5    184777.59848  23366429.82848
  20240357.414 6   -979601.832 6   -751044.41048  20240354.82848
  22397868.188 5    665444.707 5    508281.00449  22397867.28949
 20  5 16  3 27 13.0000000  0  7G01G04G07G08G09G11G27               -0.000432707
  21849898.828 6  -1906188.664 6  -1449550.05949  21849900.03149
  23652716.164 5    622757.137 5    475501.80946  23652717.46546
  21906058.602 6  -1656369.910 6  -1267176.00849  21906057.48449
  20720714.719 6     96916.102 6     74314.53949  20720714.55549
  23366548.305 5    242634.715 5    185258.32848  23366547.55948
  20239934.789 6   -981822.371 6   -752774.70348  20239932.07048
  22398163.805 5    667001.012 5    509493.71149  22398163.55549
 20  5 16  3 27 14.0000000  0  7G01G04G07G08G09G11G27               -0.000433447
  21849058.891 5  -1910601.113 5  -1452988.34049  21849060.69949
  23652997.313 5    624232.457 5    476651.40646  23652998.32046
  21905328.906 6  -1660204.191 6  -1270163.76249  21905327.90249
  20720764.633 6     97177.523 6     74518.25449  20720764.42249
  23366665.852 5    243251.930 5    185739.27748  23366664.83248
  20239512.695 6   -984042.352 6   -754504.55948  20239509.44148
  22398460.297 5    668557.441 5    510706.51249  22398459.89549
 20  5 16  3 27 15.0000000  0  7G01G04G07G08G09G11G27               -0.000434187
  21848219.453 5  -1915013.191 5  -1456426.31649  21848220.88749
  23653278.227 5    625707.891 5    477801.09046  23653278.81646
  21904599.586 6  -1664038.016 6  -1273151.15649  21904598.54349
  20720814.352 6     97439.281 6     74722.21949  20720814.40249
  23366783.398 5    243869.516 5    186220.50448  23366782.85548
  20239090.344 6   -986261.648 6   -756233.87548  20239087.48848
  22398756.305 5    670113.945 5    511919.37549  22398755.83649
 20  5 16  3 27 16.0000000  0  7G01G04G07G08G09G11G27               -0.000434929
  21847379.773 6  -1919424.922 6  -1459864.03149  21847381.39849
  23653558.875 5    627183.273 5    478950.75446  23653559.62546
  21903870.016 6  -1667871.445 6  -1276138.24649  21903869.04349
  20720864.430 6     97701.297 6     74926.38749  20720864.06649
  23366901.305 5    244487.336 5    186701.92648  23366900.10248
  20238667.719 6   -988480.383 6   -757962.76248  20238665.39848
  22399052.195 5    671670.512 5    513132.28549  22399052.09049
 20  5 16  3 27 17.0000000  0  7G01G04G07G08G09G11G27               -0.000435669
  21846540.250 6  -1923836.215 6  -1463301.40649  21846541.64849
  23653839.859 4    628658.730 4    480100.46146  23653840.60546
  21903140.797 6  -1671704.461 6  -1279125.01249  21903139.62549
  20720913.969 6     97963.645 6     75130.81349  20720913.54349
  23367018.992 5    245105.477 5    187183.59448  23367017.43048
  20238245.727 6   -990698.523 6   -759691.17648  20238243.32048
  22399348.898 5    673227.207 5    514345.29349  22399348.34849
 20  5 16  3 27 18.0000000  0  7G01G04G07G08G09G11G27               -0.000436409
  21845701.266 6  -1928247.230 6  -1466738.55949  21845702.48449
  23654120.758 4    630134.129 4    481250.10546  23654121.24246
  21902411.586 6  -1675537.102 6  -1282111.49249  21902410.43849
  20720964.305 6     98226.238 6     75335.42649  20720963.93449
  23367136.297 5    245723.836 5    187665.43048  23367135.65648
  20237823.414 6   -992916.070 6   -761419.13748  20237821.00848
  22399645.203 5    674783.941 5    515558.33249  22399644.74249
 20  5 16  3 27 19.0000000  0  7G01G04G07G08G09G11G27               -0.000437149
  21844861.500 6  -1932657.875 6  -1470175.43049  21844863.27049
  23654401.266 4    631609.574 4    482399.79346  23654401.78946
  21901682.086 6  -1679369.387 6  -1285097.69149  21901680.85249
  20721014.086 6     98489.070 6     75540.23449  20721013.86749
  23367254.234 5    246342.414 5    188147.43448  23367253.19548
  20237401.852 6   -995133.105 6   -763146.69948  20237399.40648
  22399941.656 5    676340.711 5    516771.39549  22399940.93849
 20  5 16  3 27 20.0000000  0  7G01G04G07G08G09G11G27               -0.000437889
  21844022.578 6  -1937068.250 6  -1473612.08649  21844023.96149
  23654681.805 4    633084.867 4    483549.37146  23654682.70346
  21900953.063 6  -1683201.363 6  -1288083.64549  21900951.75049
  20721063.883 6     98752.098 6     75745.18449  20721064.13349
  23367371.641 5    246961.258 5    188629.64848  23367370.98448
  20236980.305 6   -997349.621 6   -764873.85548  20236977.71948
  22400237.883 5    677897.461 5    517984.44949  22400237.10949
 20  5 16  3 27 21.0000000  0  7G01G04G07G08G09G11G27               -0.000438629
  21843183.297 6  -1941478.297 6  -1477048.48049  21843184.91449
  23654961.180 4    634560.195 4    484698.96746  23654963.39146
  21900223.531 6  -1687032.922 6  -1291069.27349  21900222.62949
  20721114.500 6     99015.406 6     75950.36349  20721114.62949
  23367489.695 5    247580.316 5    189112.02348  23367488.46148
  20236558.984 6   -999565.555 6   -766600.55148  20236556.27348
  22400533.773 5    679454.289 5    519197.55949  22400533.69949
 20  5 16  3 27 22.0000000  0  7G01G04G07G08G09G11G27               -0.000439369
  21842344.070 6  -1945888.133 6  -1480484.71149  21842345.78549
  23655243.031 5    636035.391 5    485848.46546  23655244.09846
  21899495.031 6  -1690864.270 6  -1294054.74649  21899493.57449
  20721164.797 6     99278.789 6     76155.59449  20721164.51649
  23367607.367 5    248199.465 5    189594.47348  23367606.53548
  20236137.078 6  -1001781.082 6   -768326.93448  20236134.27748
  22400830.055 5    681011.016 5    520410.59049  22400829.87549
 20  5 16  3 27 23.0000000  0  7G01G04G07G08G09G11G27               -0.000440111
  21841504.641 6  -1950297.508 6  -1483920.59049  21841506.85549
  23655524.078 5    637510.660 5    486998.02346  23655524.69946
  21898765.906 6  -1694695.117 6  -1297039.82049  21898764.55549
  20721214.648 6     99542.574 6     76361.14149  20721214.74649
  23367724.844 5    248819.020 5    190077.24648  23367724.41048
  20235715.477 6  -1003995.902 6   -770052.77048  20235712.84848
  22401125.930 5    682567.906 5    521623.75449  22401125.57449
 20  5 16  3 27 24.0000000  0  7G01G04G07G08G09G11G27               -0.000440851
  21840665.945 6  -1954706.605 6  -1487356.25049  21840667.71949
  23655804.766 5    638985.902 5    488147.55946  23655805.08646
  21898036.633 6  -1698525.637 6  -1300024.63749  21898035.72349
  20721264.484 6     99806.570 6     76566.84849  20721264.60549
  23367843.453 5    249438.770 5    190560.16848  23367842.39148
  20235293.922 6  -1006210.238 6   -771778.23048  20235291.29748
  22401422.609 5    684124.785 5    522836.90249  22401421.92649
 20  5 16  3 27 25.0000000  0  7G01G04G07G08G09G11G27               -0.000441591
  21839827.203 6  -1959115.410 6  -1490791.68449  21839828.85949
  23656085.703 5    640461.027 5    489297.02046  23656086.15646
  21897307.648 6  -1702355.820 6  -1303009.20349  21897306.71549
  20721315.227 6    100070.773 6     76772.72349  20721314.92649
  23367961.242 5    250058.734 5    191043.25848  23367960.31348
  20234872.641 6  -1008424.051 6   -773503.28548  20234870.10248
  22401718.789 5    685681.711 5    524050.09049  22401718.30149
 20  5 16  3 27 26.0000000  0  7G01G04G07G08G09G11G27               -0.000442331
  21838987.797 6  -1963523.797 6  -1494226.78949  21838989.68049
  23656366.180 4    641936.270 4    490446.57446  23656366.82446
  21896579.086 6  -1706185.578 6  -1305993.42649  21896577.68449
  20721365.594 6    100335.289 6     76978.84049  20721365.09849
  23368079.703 5    250678.990 5    191526.57448  23368078.35948
  20234451.352 6  -1010637.203 6   -775227.81348  20234449.11748
  22402014.789 5    687238.730 5    525263.35249  22402015.16849
 20  5 16  3 27 27.0000000  0  7G01G04G07G08G09G11G27               -0.000443071
  21838149.227 6  -1967931.848 6  -1497661.63349  21838151.26249
  23656646.891 4    643411.484 4    491596.07446  23656647.60946
  21895850.703 6  -1710014.926 6  -1308977.33649  21895849.16449
  20721416.031 6    100600.090 6     77185.17649  20721415.75049
  23368197.391 5    251299.527 5    192010.10548  23368196.48848
  20234030.680 6  -1012849.789 6   -776951.90648  20234028.12148
  22402310.930 5    688795.809 5    526476.65649  22402311.34449
 20  5 16  3 27 28.0000000  0  7G01G04G07G08G09G11G27               -0.000443811
  21837310.695 6  -1972339.668 6  -1501096.29749  21837312.53549
  23656927.922 4    644886.574 4    492745.48046  23656928.47746
  21895121.633 6  -1713844.020 6  -1311961.04349  21895120.35549
  20721466.500 6    100865.016 6     77391.60949  20721466.27749
  23368315.594 5    251920.211 5    192493.75448  23368314.53948
  20233609.578 6  -1015061.941 6   -778675.66048  20233607.22748
  22402607.336 5    690352.813 5    527689.90649  22402607.17249
 20  5 16  3 27 29.0000000  0  7G01G04G07G08G09G11G27               -0.000444553
  21836472.414 6  -1976747.105 6  -1504530.66049  21836473.70749
  23657208.297 4    646361.664 4    493894.89146  23657209.17246
  21894393.094 6  -1717672.711 6  -1314944.44149  21894391.66049
  20721517.055 6    101130.230 6     77598.27749  20721516.46549
  23368433.961 5    252541.172 5    192977.62148  23368432.84848
  20233188.867 6  -1017273.512 6   -780398.96548  20233186.25048
  22402903.945 5    691909.914 5    528903.23049  22402903.78549
 20  5 16  3 27 30.0000000  0  7G01G04G07G08G09G11G27               -0.000445293
  21835632.930 6  -1981154.160 6  -1507964.72349  21835634.79349
  23657489.086 4    647836.848 4    495044.38346  23657489.72346
  21893665.141 6  -1721500.957 6  -1317927.49649  21893663.36749
  20721567.398 6    101395.773 6     77805.19549  20721567.28949
  23368551.773 5    253162.457 5    193461.73448  23368551.30948
  20232768.273 6  -1019484.422 6   -782121.75048  20232765.80148
  22403200.438 5    693467.125 5    530116.63749  22403200.17249
 20  5 16  3 27 31.0000000  0  7G01G04G07G08G09G11G27               -0.000446033
  21834794.414 6  -1985560.871 6  -1511398.52749  21834796.02749
  23657769.539 4    649311.970 4    496193.82646  23657770.45346
  21892936.602 6  -1725328.816 6  -1320910.24249  21892934.84449
  20721618.039 6    101661.551 6     78012.28949  20721618.12149
  23368670.148 5    253783.980 5    193946.03148  23368669.63348
  20232347.797 6  -1021694.770 6   -783844.10248  20232344.63348
  22403496.320 5    695024.391 5    531330.09449  22403496.69549
 20  5 16  3 27 32.0000000  0  7G01G04G07G08G09G11G27               -0.000446774
  21833955.656 6  -1989967.148 6  -1514831.98849  21833957.79749
  23658049.633 4    650787.199 4    497343.34846  23658051.34446
  21892208.086 6  -1729156.238 6  -1323892.64549  21892206.52749
  20721668.883 6    101927.652 6     78219.64549  20721668.80949
  23368787.836 5    254405.863 5    194430.61748  23368787.75848
  20231927.063 6  -1023904.496 6   -785565.96148  20231924.24248
  22403792.313 5    696581.758 5    532543.62549  22403792.75049
 20  5 16  3 27 33.0000000  0  7G01G04G07G08G09G11G27               -0.000447514
  21833117.477 6  -1994373.141 6  -1518265.23449  21833119.66049
  23658330.844 4    652262.348 4    498492.81346  23658332.06346
  21891479.445 6  -1732983.313 6  -1326874.78549  21891478.08649
  20721718.945 6    102193.949 6     78427.14149  20721718.77049
  23368906.742 5    255027.898 5    194915.31648  23368906.26248
  20231506.633 6  -1026113.668 6   -787287.39548  20231504.15648
  22404089.484 5    698139.172 5    533757.18849  22404088.99649
 20  5 16  3 27 34.0000000  0  7G01G04G07G08G09G11G27               -0.000448254
  21832279.266 6  -1998778.758 6  -1521698.17649  21832280.88349
  23658611.992 4    653737.500 4    499642.28546  23658612.59046
  21890751.313 6  -1736809.980 6  -1329856.60249  21890749.81649
  20721769.992 6    102460.566 6     78634.89849  20721769.88349
  23369024.984 5    255650.281 5    195400.28948  23369025.13348
  20231086.516 6  -1028322.223 6   -789008.35248  20231083.80948
  22404385.977 5    699696.645 5    534970.80149  22404385.62549
 20  5 16  3 27 35.0000000  0  7G01G04G07G08G09G11G27               -0.000448996
  21831440.680 6  -2003184.055 6  -1525130.87549  21831442.58649
  23658892.617 4    655212.699 4    500791.79346  23658893.30946
  21890023.523 6  -1740636.285 6  -1332838.14149  21890021.94549
  20721820.508 6    102727.414 6     78842.82849  20721820.68849
  23369144.297 5    256272.824 5    195885.38748  23369143.24248
  20230666.172 6  -1030530.238 6   -790728.88748  20230663.34048
  22404682.352 5    701254.184 5    536184.46149  22404682.17649
 20  5 16  3 27 36.0000000  0  7G01G04G07G08G09G11G27               -0.000449736
  21830602.891 6  -2007588.984 6  -1528563.28549  21830604.54749
  23659173.211 4    656687.797 4    501941.21146  23659174.07046
  21889295.328 6  -1744462.180 6  -1335819.35549  21889293.75849
  20721871.328 6    102994.504 6     79050.95349  20721871.62549
  23369261.898 5    256895.707 5    196370.74648  23369261.63348
  20230246.039 6  -1032737.707 6   -792448.98848  20230243.20348
  22404978.570 5    702811.766 5    537398.16449  22404978.51649
 20  5 16  3 27 37.0000000  0  7G01G04G07G08G09G11G27               -0.000450476
  21829764.461 6  -2011993.473 6  -1531995.35249  21829766.41449
  23659453.914 3    658163.066 3    503090.77746  23659454.96546
  21888567.383 6  -1748287.613 6  -1338800.22349  21888565.84449
  20721922.352 6    103261.969 6     79259.36349  20721922.62949
  23369381.172 5    257518.906 5    196856.35548  23369380.62948
  20229825.867 6  -1034944.492 6   -794168.56648  20229823.25048
  22405275.188 5    704369.469 5    538611.95349  22405274.60549
 20  5 16  3 27 38.0000000  0  7G01G04G07G08G09G11G27               -0.000451216
  21828926.570 6  -2016397.648 6  -1535427.18449  21828928.25049
  23659734.484 4    659638.254 4    504240.26246  23659735.50046
  21887839.688 6  -1752112.691 6  -1341780.80149  21887837.93849
  20721973.563 6    103529.660 6     79467.94949  20721973.26249
  23369499.938 5    258142.359 5    197342.16448  23369499.12148
  20229406.461 6  -1037150.738 6   -795887.71548  20229403.57848
  22405571.211 5    705927.227 5    539825.78949  22405571.29349
 20  5 16  3 27 39.0000000  0  7G01G04G07G08G09G11G27               -0.000451956
  21828088.664 6  -2020801.504 6  -1538858.75849  21828090.08249
  23660015.070 4    661113.426 4    505389.73446  23660016.19146
  21887112.063 6  -1755937.410 6  -1344761.10249  21887110.17649
  20722024.234 6    103797.551 6     79676.69949  20722024.27349
  23369617.727 5    258765.984 5    197828.10248  23369617.76248
  20228986.820 6  -1039356.438 6   -797606.44548  20228984.03948
  22405867.672 5    707484.984 5    541039.62949  22405867.55149
 20  5 16  3 27 40.0000000  0  7G01G04G07G08G09G11G27               -0.000452696
  21827250.188 6  -2025204.898 6  -1542289.97349  21827251.88349
  23660295.758 3    662588.723 3    506539.32046  23660296.80946
  21886384.305 6  -1759761.625 6  -1347741.00849  21886382.69149
  20722075.391 6    104065.887 6     79885.78949  20722075.33649
  23369736.563 5    259390.055 5    198314.39548  23369736.87148
  20228567.172 6  -1041561.434 6   -799324.62148  20228564.40648
  22406164.750 5    709042.984 5    542253.65249  22406164.10949
 20  5 16  3 27 41.0000000  0  7G01G04G07G08G09G11G27               -0.000453436
  21826412.555 6  -2029607.820 6  -1545720.81649  21826414.16849
  23660576.836 3    664064.133 3    507688.98046  23660577.92646
  21885655.969 6  -1763585.332 6  -1350720.51649  21885654.59849
  20722126.438 6    104334.598 6     80095.17249  20722126.48849
  23369855.602 5    260014.484 5    198800.96148  23369855.70748
  20228147.773 6  -1043765.754 6   -801042.27748  20228145.09048
  22406460.742 5    710601.098 5    543467.76249  22406460.79749
 20  5 16  3 27 42.0000000  0  7G01G04G07G08G09G11G27               -0.000454176
  21825574.852 6  -2034010.359 6  -1549151.37149  21825576.40249
  23660858.352 4    665539.547 4    508838.64846  23660858.97746
  21884928.945 6  -1767408.609 6  -1353699.69549  21884927.07049
  20722177.742 6    104603.602 6     80304.78549  20722177.76649
  23369973.719 5    260639.195 5    199287.74248  23369974.69548
  20227728.508 6  -1045969.457 6   -802759.44948  20227725.28548
  22406757.250 5    712159.309 5    544681.95349  22406757.20349
 20  5 16  3 27 43.0000000  0  7G01G04G07G08G09G11G27               -0.000454916
  21824736.789 6  -2038412.559 6  -1552581.65249  21824738.58649
  23661138.758 3    667014.945 3    509988.30146  23661139.84046
  21884201.258 6  -1771231.535 6  -1356678.59849  21884199.44949
  20722229.281 6    104872.832 6     80514.57849  20722228.59849
  23370093.078 5    261264.168 5    199774.74248  23370093.61348
  20227308.594 6  -1048172.625 6   -804476.19948  20227306.20748
  22407053.727 5    713717.590 5    545896.19549  22407053.91849
 20  5 16  3 27 44.0000000  0  7G01G04G07G08G09G11G27               -0.000455656
  21823898.609 6  -2042814.434 6  -1556011.68849  21823900.81649
  23661418.883 4    668490.320 4    511137.95346  23661420.41046
  21883473.828 6  -1775054.070 6  -1359657.19949  21883471.69549
  20722280.359 6    105142.340 6     80724.58649  20722280.18049
  23370212.125 5    261889.316 5    200261.86748  23370212.26248
  20226890.063 6  -1050375.211 6   -806192.50848  20226886.70748
  22407349.945 5    715275.902 5    547110.46549  22407350.38749
 20  5 16  3 27 45.0000000  0  7G01G04G07G08G09G11G27               -0.000456396
  21823061.914 6  -2047215.824 6  -1559441.33649  21823063.34849
  23661699.852 3    669965.824 3    512287.69546  23661700.80946
  21882746.859 6  -1778876.121 6  -1362635.41449  21882744.62549
  20722331.805 6    105412.215 6     80934.87549  20722331.73849
  23370331.117 5    262514.938 5    200749.36348  23370331.23048
  20226470.953 6  -1052577.113 6   -807908.27348  20226468.18848
  22407646.758 5    716834.387 5    548324.86749  22407646.90649
 20  5 16  3 27 46.0000000  0  7G01G04G07G08G09G11G27               -0.000457136
  21822224.219 6  -2051617.008 6  -1562870.84049  21822226.15249
  23661980.094 4    671441.176 4    513437.31346  23661981.39546
  21882019.188 6  -1782697.879 6  -1365613.40649  21882017.42249
  20722383.203 6    105682.234 6     81145.28149  20722382.66849
  23370449.938 5    263140.625 5    201236.91048  23370450.46948
  20226052.117 6  -1054778.559 6   -809623.68848  20226049.21948
  22407943.289 5    718392.777 5    549539.19149  22407943.54349
 20  5 16  3 27 47.0000000  0  7G01G04G07G08G09G11G27               -0.000457876
  21821386.563 6  -2056017.727 6  -1566299.96949  21821388.44149
  23662261.258 4    672916.629 4    514587.01246  23662262.51646
  21881292.469 6  -1786519.156 6  -1368591.02749  21881290.21149
  20722434.516 6    105952.578 6     81355.93849  20722434.25449
  23370569.133 5    263766.711 5    201724.76248  23370569.44548
  20225632.883 6  -1056979.371 6   -811338.60548  20225630.53148
  22408240.078 5    719951.383 5    550753.69149  22408239.82849
 20  5 16  3 27 48.0000000  0  7G01G04G07G08G09G11G27               -0.000458616
  21820549.578 6  -2060418.086 6  -1569728.81649  21820551.22349
  23662541.938 4    674392.098 4    515736.71146  23662543.27346
  21880565.414 6  -1790340.055 6  -1371568.35549  21880562.93849
  20722486.234 6    106223.211 6     81566.81649  20722485.99249
  23370688.906 5    264393.027 5    202212.80548  23370689.07448
  20225214.484 6  -1059179.559 6   -813053.03548  20225212.00048
  22408536.609 5    721510.016 5    551968.21149  22408536.49249
 20  5 16  3 27 49.0000000  0  7G01G04G07G08G09G11G27               -0.000459356
  21819712.273 6  -2064818.078 6  -1573157.38749  21819713.94949
  23662823.164 4    675867.594 4    516886.44546  23662824.15246
  21879838.578 6  -1794160.516 6  -1374545.33649  21879835.46549
  20722537.539 6    106494.172 6     81777.95749  20722537.20349
  23370807.211 5    265019.676 5    202701.08648  23370807.68848
  20224796.055 6  -1061379.148 6   -814767.00448  20224793.50048
  22408832.867 5    723068.750 5    553182.80949  22408833.11749
 20  5 16  3 27 50.0000000  0  7G01G04G07G08G09G11G27               -0.000460096
  21818874.742 6  -2069217.594 6  -1576585.57849  21818876.50049
  23663103.742 4    677343.180 4    518036.25446  23663104.60546
  21879111.445 6  -1797980.484 6  -1377521.93449  21879109.02749
  20722589.227 6    106765.484 6     81989.36349  20722588.92249
  23370927.000 5    265646.672 5    203189.65248  23370927.40648
  20224377.461 6  -1063578.055 6   -816480.43048  20224374.55548
  22409130.125 5    724627.625 5    554397.51249  22409129.57449
 20  5 16  3 27 51.0000000  0  7G01G04G07G08G09G11G27               -0.000460836
  21818038.227 6  -2073616.660 6  -1580013.42249  21818039.57449
  23663384.148 4    678818.848 4    519186.13746  23663385.53146
  21878384.531 6  -1801799.969 6  -1380498.15249  21878382.16849
  20722640.781 6    107037.168 6     82201.06349  20722640.72349
  23371046.633 5    266274.016 5    203678.48848  23371046.78948
  20223959.320 6  -1065776.273 6   -818193.33648  20223956.53548
  22409426.531 5    726186.691 5    555612.36749  22409426.37549
 20  5 16  3 27 52.0000000  0  7G01G04G07G08G09G11G27               -0.000461576
  21817200.719 6  -2078015.473 6  -1583441.06649  21817202.55949
  23663665.617 4    680294.480 4    520335.98046  23663666.39146
  21877657.656 6  -1805619.125 6  -1383474.11349  21877655.34849
  20722693.047 6    107309.039 6     82412.91449  20722692.40249
  23371166.094 5    266901.582 5    204167.49648  23371166.50448
  20223540.805 6  -1067974.004 6   -819905.84448  20223538.12948
  22409723.195 5    727745.734 5    556827.20349  22409723.30949
 20  5 16  3 27 53.0000000  0  7G01G04G07G08G09G11G27               -0.000462317
  21816363.352 6  -2082413.941 6  -1586868.44149  21816365.47349
  23663946.000 4    681770.016 4    521485.73846  23663947.38346
  21876930.789 6  -1809437.945 6  -1386449.81649  21876928.79749
  20722744.734 6    107581.102 6     82624.91049  20722744.07849
  23371285.203 4    267529.332 4    204656.64148  23371285.99648
  20223123.203 6  -1070171.211 6   -821617.95748  20223120.11748
  22410019.508 5    729304.789 5    558042.05949  22410019.76649
 20  5 16  3 27 54.0000000  0  7G01G04G07G08G09G11G27               -0.000463057
  21815526.609 6  -2086811.980 6  -1590295.48049  21815528.85249
  23664226.617 4    683245.668 4    522635.59846  23664227.74646
  21876203.891 6  -1813256.281 6  -1389425.14849  21876201.90249
  20722796.445 6    107853.559 6     82837.21949  20722795.97749
  23371404.695 4    268157.461 4    205146.08648  23371405.51648
  20222705.070 6  -1072367.746 6   -823329.54348  20222702.34848
  22410316.211 5    730863.992 5    559257.02049  22410316.41449
 20  5 16  3 27 55.0000000  0  7G01G04G07G08G09G11G27               -0.000463797
  21814690.422 6  -2091209.668 6  -1593722.25449  21814691.89549
  23664507.789 4    684721.297 4    523785.43446  23664508.71946
  21875477.766 6  -1817074.227 6  -1392400.17249  21875475.15649
  20722848.055 6    108126.270 6     83049.72349  20722848.01249
  23371523.805 5    268785.840 5    205635.73148  23371524.60248
  20222286.727 6  -1074563.723 6   -825040.69548  20222284.13348
  22410613.328 5    732423.254 5    560472.02349  22410613.18849
 20  5 16  3 27 56.0000000  0  7G01G04G07G08G09G11G27               -0.000464537
  21813853.094 6  -2095607.098 6  -1597148.82449  21813855.21149
  23664788.148 4    686196.836 4    524935.19546  23664789.57846
  21874751.359 6  -1820891.887 6  -1395374.97349  21874748.36749
  20722900.406 6    108399.141 6     83262.34849  20722899.95349
  23371643.984 4    269414.406 4    206125.53148  23371644.72748
  20221869.078 6  -1076759.203 6   -826751.45348  20221866.37548
  22410909.945 5    733982.449 5    561686.98049  22410910.08649
 20  5 16  3 27 57.0000000  0  7G01G04G07G08G09G11G27               -0.000465277
  21813016.313 6  -2100004.117 6  -1600575.07449  21813018.25449
  23665069.328 4    687672.434 4    526085.00446  23665070.46946
  21874024.883 6  -1824709.102 6  -1398349.42649  21874022.34449
  20722952.313 6    108672.336 6     83475.22349  20722951.84049
  23371763.344 5    270043.203 5    206615.49648  23371764.46148
  20221451.508 6  -1078954.070 6   -828461.74248  20221448.80948
  22411206.602 5    735541.793 5    562902.05549  22411206.63749
 20  5 16  3 27 58.0000000  0  7G01G04G07G08G09G11G27               -0.000466015
  21812179.789 5  -2104400.633 5  -1604000.92649  21812181.60949
  23665350.273 4    689148.172 4    527234.92246  23665351.60546
  21873299.164 6  -1828525.785 6  -1401323.46149  21873296.07049
  20723004.586 6    108945.934 6     83688.42249  20723003.76249
  23371883.703 5    270672.484 5    207105.83248  23371884.00848
  20221034.500 6  -1081148.203 6   -830171.45348  20221031.43448
  22411504.180 5    737101.301 5    564117.25449  22411503.14149
 20  5 16  3 27 59.0000000  0  7G01G04G07G08G09G11G27               -0.000466755
  21811343.461 6  -2108796.875 6  -1607426.56349  21811345.41049
  23665630.727 4    690623.781 4    528384.74246  23665632.53946
  21872572.375 6  -1832342.129 6  -1404297.24649  21872570.11749
  20723056.680 6    109219.750 6     83901.78149  20723056.11349
  23372003.016 5    271301.902 5    207596.28948  23372004.04748
  20220616.406 6  -1083341.816 6   -831880.76648  20220613.95748
  22411800.211 5    738660.863 5    565332.49249  22411800.58249
 20  5 16  3 28  0.0000000  0  7G01G04G07G08G09G11G27               -0.000467495
  21810506.688 6  -2113192.633 6  -1610851.83249  21810508.76249
  23665911.070 5    692099.598 5    529534.72346  23665912.86346
  21871846.266 6  -1836157.973 6  -1407270.62549  21871843.70749
  20723108.672 6    109493.926 6     84115.42649  20723108.06349
  23372122.656 5    271931.734 5    208087.06648  23372123.71948
  20220199.484 6  -1085534.719 6   -833589.52048  20220196.57848
  22412097.453 5    740220.590 5    566547.86349  22412097.38749
 20  5 16  3 28  1.0000000  0  7G01G04G07G08G09G11G27               -0.000468235
  21809670.711 6  -2117588.078 6  -1614276.85549  21809671.93849
  23666191.992 4    693575.309 4    530684.62146  23666193.79746
  21871120.078 6  -1839973.453 6  -1410243.73049  21871117.49249
  20723161.000 6    109768.359 6     84329.27049  20723159.88349
  23372242.719 5    272561.766 5    208578.00048  23372244.09048
  20219782.188 6  -1087727.094 6   -835297.86348  20219779.15248
  22412394.453 5    741780.332 5    567763.24249  22412393.94949
 20  5 16  3 28  2.0000000  0  7G01G04G07G08G09G11G27               -0.000468975
  21808834.414 6  -2121983.047 6  -1617701.50449  21808835.53949
  23666472.648 4    695051.176 4    531834.66046  23666474.67646
  21870394.531 6  -1843788.395 6  -1413216.40249  21870391.94949
  20723213.016 6    110043.164 6     84543.40649  20723212.56649
  23372362.508 4    273192.234 4    209069.27048  23372363.91848
  20219365.164 6  -1089918.781 6   -837005.67248  20219362.17248
  22412690.703 5    743340.254 5    568978.77049  22412690.69549
 20  5 16  3 28  3.0000000  0  7G01G04G07G08G09G11G27               -0.000469713
  21807997.984 6  -2126377.574 6  -1621125.80949  21807999.46149
  23666753.828 5    696527.113 5    532984.73846  23666755.14146
  21869668.602 6  -1847602.871 6  -1416188.72749  21869665.56349
  20723265.367 6    110318.320 6     84757.80949  20723265.14849
  23372482.773 5    273822.988 5    209560.76248  23372484.02048
  20218948.086 6  -1092109.789 6   -838712.94948  20218945.28148
  22412988.094 5    744900.289 5    570194.38349  22412988.08249
 20  5 16  3 28  4.0000000  0  7G01G04G07G08G09G11G27               -0.000470453
  21807161.711 6  -2130771.676 6  -1624549.78549  21807163.38349
  23667034.344 5    698003.098 5    534134.85546  23667036.19146
  21868942.578 6  -1851416.867 6  -1419160.67249  21868939.88349
  20723317.844 6    110593.797 6     84972.46549  20723317.82849
  23372603.391 5    274454.098 5    210052.53548  23372603.47748
  20218531.172 6  -1094300.180 6   -840419.75048  20218528.71948
  22413284.695 5    746460.484 5    571410.11749  22413284.30149
 20  5 16  3 28  5.0000000  0  7G01G04G07G08G09G11G27               -0.000471193
  21806325.625 6  -2135165.555 6  -1627973.58249  21806327.48049
  23667315.930 5    699478.961 5    535284.87146  23667317.15246
  21868216.891 6  -1855230.625 6  -1422132.43849  21868213.80149
  20723370.680 6    110869.422 6     85187.24249  20723370.32049
  23372723.172 5    275085.355 5    210544.41848  23372723.98448
  20218114.305 6  -1096490.098 6   -842126.18048  20218111.80948
  22413581.602 5    748020.609 5    572625.79749  22413581.34049
 20  5 16  3 28  6.0000000  0  7G01G04G07G08G09G11G27               -0.000471933
  21805489.516 6  -2139559.023 6  -1631397.05949  21805491.39149
  23667596.711 5    700954.859 5    536434.91846  23667597.77346
  21867491.609 6  -1859043.957 6  -1425103.85949  21867488.11749
  20723422.875 6    111145.332 6     85402.23449  20723422.48849
  23372843.359 4    275716.875 4    211036.50448  23372844.16448
  20217697.688 6  -1098679.438 6   -843832.15648  20217694.96148
  22413879.141 5    749580.801 5    573841.53549  22413878.14849
 20  5 16  3 28  7.0000000  0  7G01G04G07G08G09G11G27               -0.000472672
  21804653.563 6  -2143952.137 6  -1634820.26249  21804655.32449
  23667877.563 4    702430.805 4    537584.99646  23667878.66046
  21866765.602 6  -1862856.855 6  -1428074.94949  21866762.76249
  20723475.273 6    111421.551 6     85617.46549  20723475.13349
  23372963.516 4    276348.670 4    211528.81448  23372964.04348
  20217281.328 6  -1100868.121 6   -845537.62548  20217278.58248
  22414175.203 5    751141.133 5    575057.37549  22414174.98849
 20  5 16  3 28  8.0000000  0  7G01G04G07G08G09G11G27               -0.000473412
  21803818.164 6  -2148344.859 6  -1638243.15649  21803819.38749
  23668158.438 4    703906.703 4    538735.02746  23668159.60946
  21866040.445 6  -1866669.387 6  -1431045.75049  21866037.00049
  20723527.852 6    111698.004 6     85832.88349  20723527.45349
  23373083.859 5    276980.734 5    212021.32448  23373084.39548
  20216865.156 6  -1103056.270 6   -847242.68448  20216862.18448
  22414472.508 5    752701.453 5    576273.21549  22414472.04749
 20  5 16  3 28  9.0000000  0  7G01G04G07G08G09G11G27               -0.000474152
  21802981.828 6  -2152737.145 6  -1641665.71949  21802983.55949
  23668439.656 4    705382.719 4    539885.18046  23668440.55146
  21865314.617 6  -1870481.383 6  -1434016.13349  21865311.44949
  20723581.180 6    111974.871 6     86048.62149  20723580.29349
  23373204.344 5    277613.215 5    212514.16848  23373205.01248
  20216448.852 6  -1105243.676 6   -848947.15648  20216445.96148
  22414769.359 5    754262.012 5    577489.23049  22414769.35949
 20  5 16  3 28 10.0000000  0  7G01G04G07G08G09G11G27               -0.000474890
  21802145.828 6  -2157128.996 6  -1645087.93849  21802147.86349
  23668720.766 4    706858.809 4    541035.37946  23668721.31346
  21864589.313 6  -1874292.949 6  -1436986.18849  21864586.09849
  20723633.742 6    112252.031 6     86264.59049  20723633.35949
  23373324.766 5    278245.984 5    213007.23448  23373324.93448
  20216032.891 6  -1107430.500 6   -850651.16848  20216029.84048
  22415066.633 5    755822.672 5    578705.32849  22415066.05549
 20  5 16  3 28 11.0000000  0  7G01G04G07G08G09G11G27               -0.000475630
  21801310.172 6  -2161520.465 6  -1648509.86349  21801312.11749
  23669001.984 4    708334.887 4    542185.57046  23669002.15646
  21863864.203 6  -1878104.078 6  -1439955.89849  21863860.75449
  20723686.242 6    112529.512 6     86480.81349  20723685.82049
  23373444.719 5    278879.074 5    213500.54748  23373446.01248
  20215616.789 6  -1109616.672 6   -852354.68048  20215613.93048
  22415363.656 5    757383.402 5    579921.48449  22415363.07049
 20  5 16  3 28 12.0000000  0  7G01G04G07G08G09G11G27               -0.000476368
  21800474.906 6  -2165911.449 6  -1651931.40249  21800476.48849
  23669282.719 4    709811.145 4    543335.91046  23669282.93846
  21863139.273 6  -1881914.672 6  -1442925.19149  21863135.71549
  20723739.094 7    112807.371 7     86697.32449  20723738.78149
  23373565.773 5    279512.531 5    213994.14548  23373566.03548
  20215200.813 6  -1111802.156 6   -854057.66048  20215197.80148
  22415661.039 5    758944.344 5    581137.79749  22415660.37549
 20  5 16  3 28 13.0000000  0  7G01G04G07G08G09G11G27               -0.000477108
  21799638.938 6  -2170302.109 6  -1655352.69549  21799640.85249
  23669563.055 4    711287.313 4    544486.15646  23669563.66446
  21862413.945 6  -1885724.926 6  -1445894.21949  21862410.29749
  20723792.422 7    113085.484 7     86914.03549  20723792.12549
  23373686.055 5    280146.215 5    214487.92248  23373686.57448
  20214785.070 6  -1113987.094 6   -855760.20748  20214782.13748
  22415957.500 5    760505.293 5    582354.12149  22415957.59449
 20  5 16  3 28 14.0000000  0  7G01G04G07G08G09G11G27               -0.000477848
  21798803.609 6  -2174692.543 6  -1658773.81349  21798805.43849
  23669843.969 4    712763.379 4    545636.34046  23669844.35946
  21861689.039 6  -1889534.910 6  -1448863.03949  21861685.54749
  20723844.875 7    113363.734 7     87130.85549  20723844.68449
  23373807.438 5    280780.016 5    214981.78948  23373807.67648
  20214369.164 6  -1116171.563 6   -857462.39148  20214366.63348
  22416254.539 5    762066.195 5    583570.40649  22416254.05549
 20  5 16  3 28 15.0000000  0  7G01G04G07G08G09G11G27               -0.000478586
  21797968.891 6  -2179082.535 6  -1662194.58649  21797970.11749
  23670124.820 4    714239.527 4    546786.57846  23670125.94546
  21860964.422 6  -1893344.402 6  -1451831.47349  21860960.26649
  20723897.969 7    113642.316 7     87347.93449  20723897.71949
  23373927.844 5    281414.176 5    215475.93448  23373928.00848
  20213953.695 6  -1118355.402 6   -859164.08648  20213951.23448
  22416552.211 5    763627.219 5    584786.78949  22416551.45349
 20  5 16  3 28 16.0000000  0  7G01G04G07G08G09G11G27               -0.000479326
  21797133.484 6  -2183471.980 6  -1665614.93849  21797134.58649
  23670406.266 5    715715.824 5    547936.94146  23670406.61746
  21860239.414 6  -1897153.352 6  -1454799.48049  21860235.35549
  20723950.906 6    113921.332 6     87565.34849  20723950.27049
  23374048.563 5    282048.788 5    215970.42948  23374048.83648
  20213538.539 6  -1120538.473 6   -860865.18448  20213535.57448
  22416848.938 5    765188.488 5    586003.36349  22416848.89149
 20  5 16  3 28 17.0000000  0  7G01G04G07G08G09G11G27               -0.000480064
  21796298.453 6  -2187861.207 6  -1669035.10949  21796299.78149
  23670686.750 5    717192.027 5    549087.21946  23670687.84846
  21859514.531 6  -1900962.000 6  -1457767.25849  21859510.50049
  20724004.078 6    114200.504 6     87782.87949  20724004.19949
  23374169.352 5    282683.508 5    216465.02048  23374169.32848
  20213123.297 6  -1122721.102 6   -862565.93048  20213120.03548
  22417146.180 5    766749.691 5    587219.88349  22417145.88749
 20  5 16  3 28 18.0000000  0  7G01G04G07G08G09G11G27               -0.000480804
  21795462.797 6  -2192249.988 6  -1672454.93449  21795464.48449
  23670967.508 4    718668.262 4    550237.52746  23670968.58246
  21858789.859 6  -1904770.188 6  -1460734.67249  21858786.00049
  20724057.289 6    114480.008 6     88000.68449  20724056.74649
  23374290.102 5    283318.605 5    216959.89848  23374290.03148
  20212707.563 6  -1124903.047 6   -864266.14548  20212704.98448
  22417442.680 5    768311.020 5    588436.50049  22417442.78949
 20  5 16  3 28 19.0000000  0  7G01G04G07G08G09G11G27               -0.000481543
  21794627.992 6  -2196638.355 6  -1675874.44149  21794629.71149
  23671248.508 5    720144.539 5    551387.87146  23671249.42246
  21858064.898 6  -1908577.934 6  -1463701.75049  21858061.13349
  20724110.945 6    114759.828 6     88218.72349  20724110.74649
  23374410.594 5    283953.945 5    217454.96548  23374410.97748
  20212293.273 6  -1127084.422 6   -865965.91848  20212290.16048
  22417740.727 5    769872.469 5    589653.21149  22417740.24649
 20  5 16  3 28 20.0000000  0  7G01G04G07G08G09G11G27               -0.000482283
  21793792.930 6  -2201026.309 6  -1679293.62549  21793794.39549
  23671529.297 5    721620.926 5    552538.30146  23671530.42646
  21857340.906 6  -1912385.230 6  -1466668.46949  21857336.87149
  20724163.922 6    115039.961 6     88437.00849  20724163.89149
  23374531.945 5    284589.613 5    217950.28548  23374532.31648
  20211877.563 6  -1129265.082 6   -867665.12948  20211875.32448
  22418037.016 5    771434.027 5    590870.00849  22418037.24649
 20  5 16  3 28 21.0000000  0  7G01G04G07G08G09G11G27               -0.000483021
  21792958.000 6  -2205413.957 6  -1682712.57049  21792959.55149
  23671810.664 4    723097.203 4    553688.64146  23671811.63346
  21856616.648 6  -1916192.152 6  -1469634.90649  21856612.27749
  20724217.250 6    115320.316 6     88655.46549  20724216.89849
  23374653.352 5    285225.527 5    218445.80148  23374652.98048
  20211462.898 6  -1131445.242 6   -869363.96148  20211459.95348
  22418334.828 5    772995.629 5    592086.84049  22418334.42249
 20  5 16  3 28 22.0000000  0  7G01G04G07G08G09G11G27               -0.000483761
  21792123.000 6  -2209801.309 6  -1686131.28149  21792124.41049
  23672091.570 4    724573.414 4    554838.93446  23672092.50846
  21855891.945 6  -1919998.766 6  -1472601.10249  21855888.25049
  20724270.758 6    115600.867 6     88874.07849  20724270.53149
  23374773.859 5    285861.645 5    218941.47748  23374773.88748
  20211047.992 6  -1133624.910 6   -871062.40248  20211045.21948
  22418631.703 5    774557.184 5    593303.64149  22418631.69949
 20  5 16  3 28 23.0000000  0  7G01G04G07G08G09G11G27               -0.000484499
  21791288.391 6  -2214188.363 6  -1689549.76649  21791289.53549
  23672372.180 4    726049.648 4    555989.24646  23672373.64546
  21855167.695 6  -1923805.020 6  -1475567.01249  21855163.40649
  20724324.469 6    115881.664 6     89092.87949  20724323.98449
  23374895.727 5    286497.980 5    219437.31648  23374895.34848
  20210632.914 6  -1135804.012 6   -872760.40648  20210630.50848
  22418928.570 5    776118.777 5    594520.46549  22418928.69149
 20  5 16  3 28 24.0000000  0  7G01G04G07G08G09G11G27               -0.000485239
  21790453.836 6  -2218574.992 6  -1692967.92249  21790454.44549
  23672652.930 4    727525.844 4    557139.52746  23672654.43046
  21854443.133 6  -1927610.840 6  -1478532.58249  21854439.29749
  20724377.773 6    116162.742 6     89311.89849  20724377.48849
  23375017.023 5    287134.613 5    219933.39548  23375016.21948
  20210218.898 6  -1137982.504 6   -874457.93048  20210216.14548
  22419225.578 5    777680.473 5    595737.37149  22419226.07449
 20  5 16  3 28 25.0000000  0  7G01G04G07G08G09G11G27               -0.000485977
  21789618.883 6  -2222961.285 6  -1696385.81349  21789619.77749
  23672934.086 4    729002.047 4    558289.80146  23672935.52346
  21853719.500 6  -1931416.262 6  -1481497.84449  21853715.31349
  20724431.164 6    116444.098 6     89531.14149  20724430.98849
  23375137.602 5    287771.492 5    220429.66448  23375137.23448
  20209804.578 6  -1140160.414 6   -876155.00448  20209801.52348
  22419523.023 5    779242.223 5    596954.31649  22419523.14149
 20  5 16  3 28 26.0000000  0  7G01G04G07G08G09G11G27               -0.000486717
  21788784.195 6  -2227347.098 6  -1699803.32049  21788785.47749
  23673214.578 4    730478.379 4    559440.19146  23673216.21546
  21852995.430 6  -1935221.203 6  -1484462.72749  21852990.99649
  20724484.984 6    116725.816 6     89750.66049  20724484.36349
  23375258.563 5    288408.688 5    220926.17248  23375258.50048
  20209390.578 6  -1142337.652 6   -877851.55548  20209386.89848
  22419820.172 5    780804.117 5    598171.37949  22419820.53549
 20  5 16  3 28 27.0000000  0  7G01G04G07G08G09G11G27               -0.000487455
  21787949.367 6  -2231732.488 6  -1703220.51249  21787950.89849
  23673496.008 4    731954.766 4    560590.62946  23673497.27046
  21852271.250 6  -1939025.641 6  -1487427.23049  21852266.91049
  20724538.906 6    117007.871 6     89970.44549  20724538.60249
  23375380.266 5    289046.258 5    221422.97748  23375380.08648
  20208975.828 6  -1144514.234 6   -879547.59048  20208973.06348
  22420117.602 5    782366.168 5    599388.55949  22420117.57849
 20  5 16  3 28 28.0000000  0  7G01G04G07G08G09G11G27               -0.000488195
  21787115.500 6  -2236117.516 6  -1706637.41049  21787116.47749
  23673776.641 4    733431.137 4    561741.03546  23673778.02346
  21851547.336 6  -1942829.707 6  -1490391.43449  21851543.06349
  20724592.211 6    117290.172 6     90190.41449  20724592.30549
  23375501.602 5    289684.086 5    221919.98848  23375501.42248
  20208561.430 6  -1146690.223 6   -881243.16448  20208558.94148
  22420414.414 5    783928.266 5    600605.77749  22420414.84849
 20  5 16  3 28 29.0000000  0  7G01G04G07G08G09G11G27               -0.000488934
  21786281.289 5  -2240501.988 5  -1710053.87949  21786281.96549
  23674057.727 4    734907.688 4    562891.58646  23674059.46546
  21850823.555 6  -1946633.203 6  -1493355.19149  21850819.01649
  20724646.422 6    117572.934 6     90410.75049  20724645.78149
  23375622.891 5    290322.352 5    222417.33648  23375623.41448
  20208147.977 6  -1148865.473 6   -882938.16448  20208144.95348
  22420712.031 5    785490.598 5    601823.17649  22420711.97349
 20  5 16  3 28 30.0000000  0  7G01G04G07G08G09G11G27               -0.000489674
  21785446.516 6  -2244886.301 6  -1713470.22349  21785447.32049
  23674339.328 4    736384.063 4    564042.01246  23674339.96146
  21850099.492 6  -1950436.441 6  -1496318.75849  21850095.48849
  20724699.906 6    117855.793 6     90631.16449  20724699.46149
  23375744.063 5    290960.707 5    222914.75048  23375744.63348
  20207734.055 6  -1151040.289 6   -884632.82848  20207731.24648
  22421009.391 5    787052.832 5    603040.50449  22421009.63749
 20  5 16  3 28 31.0000000  0  7G01G04G07G08G09G11G27               -0.000490412
  21784612.523 6  -2249270.156 6  -1716886.21149  21784613.51649
  23674620.383 4    737860.465 4    565192.45346  23674621.15646
  21849375.953 6  -1954239.246 6  -1499281.97749  21849371.32849
  20724753.758 6    118138.949 6     90851.80549  20724753.29749
  23375866.305 5    291599.375 5    223412.41848  23375866.21948
  20207319.797 6  -1153214.520 6   -886327.03148  20207317.69948
  22421306.594 5    788615.168 5    604257.90649  22421307.19949
 20  5 16  3 28 32.0000000  0  7G01G04G07G08G09G11G27               -0.000491150
  21783778.250 6  -2253653.629 6  -1720301.91049  21783778.67249
  23674900.195 4    739336.930 4    566342.94546  23674902.32846
  21848652.531 6  -1958041.602 6  -1502244.85249  21848648.59849
  20724807.664 6    118422.445 6     91072.71549  20724807.74249
  23375987.516 5    292238.367 5    223910.33648  23375987.60548
  20206906.969 6  -1155388.055 6   -888020.69948  20206903.59848
  22421603.531 5    790177.629 5    605475.41049  22421604.13349
 20  5 16  3 28 33.0000000  0  7G01G04G07G08G09G11G27               -0.000491890
  21782944.398 6  -2258036.781 6  -1723717.34849  21782944.66049
  23675181.406 4    740813.352 4    567493.39546  23675183.37546
  21847928.984 6  -1961843.621 6  -1505207.46149  21847924.58649
  20724861.766 6    118706.145 6     91293.77749  20724861.75449
  23376109.578 5    292877.547 5    224408.39848  23376109.13748
  20206493.195 6  -1157561.102 6   -889713.97748  20206490.49648
  22421901.203 5    791740.086 5    606692.91049  22421902.00049
 20  5 16  3 28 34.0000000  0  7G01G04G07G08G09G11G27               -0.000492628
  21782110.484 6  -2262419.582 6  -1727132.52049  21782110.92249
  23675462.492 4    742289.738 4    568643.82846  23675464.23446
  21847205.398 6  -1965645.215 6  -1508169.74649  21847201.14849
  20724915.586 6    118990.113 6     91515.05149  20724915.61749
  23376231.219 5    293516.996 5    224906.66848  23376231.23848
  20206079.953 6  -1159733.566 6   -891406.80548  20206076.74648
  22422198.922 5    793302.598 5    607910.45349  22422198.88749
 20  5 16  3 28 35.0000000  0  7G01G04G07G08G09G11G27               -0.000493368
  21781276.117 6  -2266801.898 6  -1730547.30149  21781277.18049
  23675743.641 4    743766.289 4    569794.38346  23675744.96546
  21846482.539 6  -1969446.328 6  -1511131.65249  21846477.78149
  20724970.109 6    119274.434 6     91736.60249  20724969.78549
  23376353.109 5    294156.820 5    225405.23048  23376352.51648
  20205666.469 6  -1161905.328 6   -893099.09048  20205663.28548
  22422495.648 5    794865.309 5    609128.14149  22422496.23049
 20  5 16  3 28 36.0000000  0  7G01G04G07G08G09G11G27               -0.000494106
  21780442.188 6  -2271183.961 6  -1733961.89149  21780442.69149
  23676025.039 4    745242.684 4    570944.81646  23676026.02346
  21845758.969 6  -1973247.133 6  -1514093.31349  21845754.66049
  20725024.125 6    119558.941 6     91958.29349  20725023.89149
  23376475.063 5    294796.816 5    225903.93048  23376474.57848
  20205253.398 6  -1164076.629 6   -894791.01648  20205250.54348
  22422792.813 5    796427.949 5    610345.78149  22422793.49649
 20  5 16  3 28 37.0000000  0  7G01G04G07G08G09G11G27               -0.000494844
  21779608.617 6  -2275565.715 6  -1737376.24649  21779609.47349
  23676305.602 4    746719.000 4    572095.17646  23676306.82846
  21845035.766 6  -1977047.594 6  -1517054.71149  21845031.32849
  20725078.234 6    119843.641 6     92180.13749  20725078.14849
  23376596.938 5    295436.965 5    226402.74648  23376596.25448
  20204840.078 6  -1166247.402 6   -896482.52048  20204837.26248
  22423090.367 5    797990.605 5    611563.43449  22423090.69149
 20  5 16  3 28 38.0000000  0  7G01G04G07G08G09G11G27               -0.000495583
  21778775.016 5  -2279947.043 5  -1740790.26249  21778775.46549
  23676586.289 4    748195.457 4    573245.66846  23676587.63346
  21844312.781 6  -1980847.574 6  -1520015.73449  21844308.24649
  20725132.180 6    120128.711 6     92402.27049  20725132.28549
  23376718.078 5    296077.496 5    226901.85548  23376718.05548
  20204427.539 6  -1168417.512 6   -898173.51248  20204424.50448
  22423387.922 5    799553.418 5    612781.20749  22423388.43449
 20  5 16  3 28 39.0000000  0  7G01G04G07G08G09G11G27               -0.000496323
  21777940.742 6  -2284328.023 6  -1744204.00849  21777941.60249
  23676867.078 4    749671.820 4    574396.07046  23676868.72746
  21843589.852 6  -1984647.191 6  -1522976.47749  21843585.23849
  20725186.898 6    120413.984 6     92624.56349  20725186.87549
  23376840.188 5    296718.234 5    227401.12548  23376840.05148
  20204014.328 6  -1170587.059 6   -899864.07048  20204011.52348
  22423685.195 5    801116.258 5    613999.00849  22423685.66849
 20  5 16  3 28 40.0000000  0  7G01G04G07G08G09G11G27               -0.000497061
  21777107.500 6  -2288708.641 6  -1747617.47349  21777108.10949
  23677148.633 4    751148.223 4    575546.51646  23677149.46146
  21842866.531 6  -1988446.406 6  -1525936.90249  21842862.36749
  20725241.273 6    120699.543 6     92847.07049  20725241.16449
  23376962.258 5    297359.226 5    227900.60348  23376962.05548
  20203601.766 6  -1172756.031 6   -901554.18048  20203598.84048
  22423982.508 5    802679.109 5    615216.80949  22423983.07849
 20  5 16  3 28 41.0000000  0  7G01G04G07G08G09G11G27               -0.000497801
  21776274.352 6  -2293088.922 6  -1751030.68449  21776274.40649
  23677429.055 4    752624.570 4    576696.91846  23677430.27346
  21842143.641 6  -1992245.258 6  -1528897.04349  21842139.07449
  20725295.320 6    120985.359 6     93069.78549  20725295.31349
  23377084.188 5    298000.492 5    228400.29348  23377084.52048
  20203188.828 6  -1174924.469 6   -903243.87148  20203186.21548
  22424280.063 5    804242.020 5    616434.66849  22424280.14849
 20  5 16  3 28 42.0000000  0  7G01G04G07G08G09G11G27               -0.000498539
  21775440.438 6  -2297468.844 6  -1754443.60949  21775440.55149
  23677710.133 4    754100.930 4    577847.31646  23677711.47746
  21841420.789 6  -1996043.703 6  -1531856.86749  21841416.32849
  20725349.797 6    121271.453 6     93292.71149  20725349.85549
  23377206.195 4    298641.984 4    228900.15248  23377206.57448
  20202776.531 6  -1177092.320 6   -904933.10548  20202773.51248
  22424577.258 5    805804.996 5    617652.57049  22424577.90649
 20  5 16  3 28 43.0000000  0  7G01G04G07G08G09G11G27               -0.000499277
  21774607.055 6  -2301848.285 6  -1757856.16049  21774607.65649
  23677991.141 4    755577.348 4    578997.77346  23677992.27046
  21840698.977 6  -1999841.637 6  -1534816.29349  21840693.57049
  20725404.453 6    121557.883 6     93515.90649  20725404.45749
  23377328.625 5    299283.828 5    229400.28948  23377328.52348
  20202364.203 6  -1179259.488 6   -906621.80948  20202361.39548
  22424875.031 5    807368.137 5    618870.60949  22424875.43049
 20  5 16  3 28 44.0000000  0  7G01G04G07G08G09G11G27               -0.000500015
  21773773.680 6  -2306227.172 6  -1761268.28149  21773774.21549
  23678272.250 4    757053.973 4    580148.37546  23678273.51646
  21839975.523 6  -2003638.980 6  -1537775.26249  21839970.75049
  20725458.922 6    121844.777 6     93739.46149  20725458.91049
  23377451.305 5    299926.148 5    229900.80548  23377450.90648
  20201951.656 6  -1181425.855 6   -908309.89148  20201948.89148
  22425172.297 5    808931.547 5    620088.84849  22425172.70349
 20  5 16  3 28 44.9990000  0  7G01G04G07G08G09G11G27                0.000499247
  21772941.362 6  -2310601.414 6  -1764676.77348  21772941.92948
  23678552.565 4    758529.090 4    581297.82846  23678554.23346
  21839253.440 6  -2007432.195 6  -1540731.01249  21839249.21049
  20725513.628 6    122131.590 6     93962.95349  20725513.45649
  23377573.261 4    300568.012 4    230400.95348  23377573.26948
  20201540.612 6  -1183589.566 6   -909995.89548  20201537.37848
  22425469.378 5    810493.375 5    621305.85549  22425470.12049
 20  5 16  3 28 45.9990000  0  7G01G04G07G08G09G11G27                0.000498507
  21772108.315 5  -2314979.691 5  -1768088.42248  21772108.98048
  23678833.605 4    760005.617 4    582448.36746  23678835.30846
  21838531.644 6  -2011228.859 6  -1543689.45349  21838526.74549
  20725567.894 6    122418.898 6     94186.82449  20725568.35849
  23377695.120 4    301210.750 4    230901.78948  23377695.55048
  20201127.956 6  -1185754.902 6   -911683.16848  20201125.15548
  22425766.995 5    812056.793 5    622524.09849  22425767.28049
 20  5 16  3 28 46.9990000  0  7G01G04G07G08G09G11G27                0.000497768
  21771275.292 5  -2319357.617 5  -1771499.78948  21771275.42548
  23679114.495 4    761482.066 4    583598.84846  23679116.40546
  21837809.026 6  -2015025.137 6  -1546647.59049  21837804.15549
  20725622.980 6    122706.438 6     94410.87949  20725622.85549
  23377817.487 5    301853.688 5    231402.77348  23377817.75348
  20200716.573 6  -1187919.691 6   -913370.02048  20200713.49148
  22426064.495 5    813620.234 5    623742.36349  22426065.19049
 20  5 16  3 28 47.9990000  0  7G01G04G07G08G09G11G27                0.000497030
  21770442.097 5  -2323735.148 5  -1774910.85248  21770442.34348
  23679394.878 4    762958.586 4    584749.36746  23679397.30046
  21837086.651 6  -2018820.953 6  -1549605.37149  21837081.72649
  20725677.839 6    122994.324 6     94635.20749  20725677.69049
  23377939.808 5    302496.953 5    231904.01648  23377940.23048
  20200304.323 6  -1190083.824 6   -915056.35548  20200301.75748
  22426362.519 5    815183.785 5    624960.71949  22426362.96849
 20  5 16  3 28 48.9990000  0  7G01G04G07G08G09G11G27                0.000496292
  21769608.722 5  -2328112.340 5  -1778321.64548  21769609.67948
  23679675.800 4    764435.098 4    585899.87946  23679678.12046
  21836364.370 6  -2022616.395 6  -1552562.85249  21836359.33149
  20725732.511 6    123282.445 6     94859.71149  20725732.77649
  23378062.761 5    303140.473 5    232405.46148  23378062.38648
  20199892.628 6  -1192247.418 6   -916742.27348  20199889.93748
  22426659.542 5    816747.395 5    626179.11349  22426660.43749
 20  5 16  3 28 49.9990000  0  7G01G04G07G08G09G11G27                0.000495554
  21768775.753 5  -2332489.246 5  -1781732.21548  21768777.07748
  23679957.464 4    765911.488 4    587050.31346  23679959.08146
  21835642.347 6  -2026411.539 6  -1555520.10549  21835637.34349
  20725787.167 6    123570.695 6     95084.33249  20725787.47649
  23378184.542 4    303784.141 4    232907.02048  23378185.32748
  20199480.745 6  -1194410.523 6   -918427.80548  20199478.13648
  22426956.737 5    818310.910 5    627397.43449  22426957.85549
 20  5 16  3 28 50.9990000  0  7G01G04G07G08G09G11G27                0.000494814
  21767943.089 5  -2336865.625 5  -1785142.38348  21767944.02248
  23680237.886 4    767388.055 4    588200.88346  23680240.14746
  21834920.026 6  -2030206.113 6  -1558476.91849  21834915.46049
  20725842.339 6    123859.414 6     95309.30149  20725842.73749
  23378307.230 4    304428.211 4    233408.89148  23378307.81548
  20199069.722 6  -1196572.891 6   -920112.77748  20199066.70248
  22427254.651 5    819874.695 5    628615.97749  22427255.18749
 20  5 16  3 28 51.9990000  0  7G01G04G07G08G09G11G27                0.000494076
  21767110.511 5  -2341241.684 5  -1788552.29348  21767110.83148
  23680519.058 3    768864.598 3    589351.44146  23680520.93346
  21834198.355 6  -2034000.332 6  -1561433.45349  21834193.29649
  20725897.472 6    124148.383 6     95534.46949  20725897.58549
  23378429.519 4    305072.535 4    233910.96548  23378430.48048
  20198658.097 6  -1198734.680 6   -921797.27748  20198655.04248
  22427552.448 5    821438.484 5    629834.50849  22427552.66749
 20  5 16  3 28 52.9990000  0  7G01G04G07G08G09G11G27                0.000493338
  21766278.245 5  -2345617.453 5  -1791961.98448  21766278.77648
  23680800.315 4    770340.980 4    590501.86746  23680801.85146
  21833476.206 6  -2037794.250 6  -1564389.75049  21833471.02249
  20725952.120 6    124437.461 6     95759.72749  20725952.75749
  23378552.253 4    305717.020 4    234413.16048  23378553.10548
  20198246.878 6  -1200896.020 6   -923481.44148  20198244.30448
  22427850.042 5    823002.250 5    631053.02349  22427850.69449
 20  5 16  3 28 53.9990000  0  7G01G04G07G08G09G11G27                0.000492598
  21765445.261 5  -2349993.016 5  -1795371.50048  21765446.32348
  23681081.276 4    771817.293 4    591652.23846  23681083.22246
  21832753.823 6  -2041587.875 6  -1567345.82449  21832749.24149
  20726007.339 6    124726.707 6     95985.11349  20726007.27249
  23378675.081 4    306361.590 4    234915.41448  23378675.90148
  20197835.690 6  -1203056.891 6   -925165.23448  20197833.03848
  22428147.081 5    824565.961 5    632271.50049  22428147.87049
 20  5 16  3 28 54.9990000  0  7G01G04G07G08G09G11G27                0.000491859
  21764613.222 5  -2354368.141 5  -1798780.69148  21764613.56948
  23681361.730 4    773293.637 4    592802.62546  23681364.01946
  21832032.440 6  -2045381.043 6  -1570301.53949  21832027.68349
  20726062.300 6    125016.250 6     96210.73049  20726062.85149
  23378797.472 4    307006.496 4    235417.93448  23378798.65148
  20197424.612 6  -1205217.121 6   -926848.53148  20197422.21048
  22428445.565 5    826129.781 5    633490.06349  22428445.57749
 20  5 16  3 28 55.9990000  0  7G01G04G07G08G09G11G27                0.000491121
  21763780.355 5  -2358742.836 5  -1802189.54348  21763781.20248
  23681642.862 3    774770.055 3    593953.07446  23681644.54246
  21831310.831 6  -2049173.742 6  -1573256.88749  21831305.76149
  20726117.573 6    125306.172 6     96436.64549  20726117.76549
  23378921.222 4    307651.797 4    235920.77048  23378921.41748
  20197014.097 6  -1207376.672 6   -928531.29748  20197010.84348
  22428742.792 5    827693.723 5    634708.71549  22428743.32749
 20  5 16  3 28 56.9990000  0  7G01G04G07G08G09G11G27                0.000490383
  21762947.448 5  -2363117.016 5  -1805597.99248  21762948.24148
  23681923.909 4    776246.566 4    595103.59046  23681925.76546
  21830588.792 6  -2052965.891 6  -1576211.80549  21830583.99949
  20726172.886 6    125596.488 6     96662.86749  20726173.33149
  23379043.526 4    308297.441 4    236423.86748  23379044.05848
  20196602.933 6  -1209535.539 6   -930213.53548  20196600.01148
  22429040.386 5    829257.871 5    635927.53149  22429041.15949
 20  5 16  3 28 57.9990000  0  7G01G04G07G08G09G11G27                0.000489645
  21762115.675 5  -2367490.738 5  -1809006.09048  21762116.63648
  23682204.565 4    777723.168 4    596254.18446  23682206.91746
  21829867.987 6  -2056757.559 6  -1579166.35249  21829862.76549
  20726227.940 6    125887.141 6     96889.34849  20726228.51549
  23379166.815 4    308943.414 4    236927.21548  23379167.35548
  20196191.886 6  -1211693.734 6   -931895.24648  20196189.01148
  22429338.175 5    830822.141 5    637146.43849  22429338.84349
 20  5 16  3 28 58.9990000  0  7G01G04G07G08G09G11G27                0.000488905
  21761283.425 5  -2371864.184 5  -1812413.96948  21761284.17548
  23682486.378 4    779199.688 4    597404.71546  23682487.92946
  21829146.105 6  -2060548.906 6  -1582120.64849  21829140.84349
  20726283.636 7    126178.000 7     97115.98449  20726283.84749
  23379288.894 4    309589.602 4    237430.73048  23379290.53048
  20195781.394 6  -1213851.395 6   -933576.53548  20195778.75748
  22429636.065 5    832386.422 5    638365.35549  22429636.15149
 20  5 16  3 28 59.9990000  0  7G01G04G07G08G09G11G27                0.000488167
  21760450.776 5  -2376237.297 5  -1815821.58248  21760451.89448
  23682767.534 4    780676.191 4    598555.24246  23682768.78446
  21828424.870 6  -2064339.859 6  -1585074.64149  21828419.84349
  20726338.503 7    126469.078 7     97342.80149  20726338.87449
  23379412.331 4    310236.055 4    237934.46548  23379413.43348
  20195370.972 6  -1216008.531 6   -935257.42648  20195368.09748
  22429933.331 5    833950.754 5    639584.31349  22429933.81949
 20  5 16  3 29  0.9990000  0  7G01G04G07G08G09G11G27                0.000487429
  21759619.065 5  -2380610.078 5  -1819228.93848  21759619.68748
  23683047.644 4    782152.641 4    599705.70746  23683049.87046
  21827703.526 6  -2068130.512 6  -1588028.39849  21827698.01149
  20726394.167 6    126760.336 6     97569.75049  20726394.51149
  23379534.925 4    310882.633 4    238438.28948  23379536.52648
  20194960.409 6  -1218165.141 6   -936937.90648  20194957.87448
  22430231.425 5    835515.070 5    640803.26249  22430231.97649
 20  5 16  3 29  1.9990000  0  7G01G04G07G08G09G11G27                0.000486691
  21758786.355 6  -2384982.461 6  -1822635.99248  21758788.08148
  23683329.136 4    783629.109 4    600856.19146  23683331.04246
  21826982.339 6  -2071920.652 6  -1590981.75449  21826976.89449
  20726449.534 6    127051.957 6     97796.99249  20726449.99949
  23379658.480 4    311529.555 4    238942.37948  23379659.46448
  20194550.425 6  -1220321.109 6   -938617.87948  20194547.31548
  22430528.761 5    837079.492 5    642022.29749  22430529.40549
 20  5 16  3 29  2.9990000  0  7G01G04G07G08G09G11G27                0.000485952
  21757954.769 6  -2389354.309 6  -1826042.61748  21757956.05448
  23683610.120 4    785105.750 4    602006.81346  23683611.57746
  21826260.769 6  -2075710.277 6  -1593934.70749  21826255.67949
  20726505.675 6    127343.973 6     98024.53149  20726506.01949
  23379782.198 4    312176.883 4    239446.78548  23379782.87448
  20194140.292 6  -1222476.348 6   -940297.28548  20194137.56548
  22430825.948 5    838644.121 5    643241.48049  22430826.85149
 20  5 16  3 29  3.9990000  0  7G01G04G07G08G09G11G27                0.000485214
  21757123.019 6  -2393725.699 6  -1829448.89148  21757124.00748
  23683890.706 4    786582.512 4    603157.53946  23683892.71046
  21825540.097 6  -2079499.352 6  -1596887.23049  21825534.78049
  20726560.800 6    127636.375 6     98252.37549  20726561.46449
  23379905.058 4    312824.621 4    239951.51648  23379906.27248
  20193730.331 6  -1224630.902 6   -941976.16448  20193727.55848
  22431124.519 5    840208.906 5    644460.79349  22431124.68349
 20  5 16  3 29  4.9990000  0  7G01G04G07G08G09G11G27                0.000484476
  21756291.128 5  -2398096.715 5  -1832854.87549  21756291.74149
  23684172.339 4    788059.191 4    604308.19546  23684173.56246
  21824818.964 6  -2083288.082 6  -1599839.48449  21824814.00749
  20726617.065 6    127928.996 6     98480.39149  20726617.17549
  23380027.714 4    313472.551 4    240456.39848  23380029.31548
  20193320.534 6  -1226784.859 6   -943654.57048  20193317.63248
  22431422.019 5    841773.781 5    645680.17649  22431422.56949
 20  5 16  3 29  5.9990000  0  7G01G04G07G08G09G11G27                0.000483738
  21755459.401 5  -2402467.250 5  -1836260.48048  21755460.87448
  23684453.964 4    789536.012 4    605458.96546  23684454.25746
  21824098.003 6  -2087076.285 6  -1602791.32849  21824093.25349
  20726672.425 6    128222.008 6     98708.71149  20726672.53849
  23380151.003 4    314120.871 4    240961.58648  23380152.55848
  20192910.644 6  -1228938.160 6   -945332.46548  20192908.12848
  22431719.823 5    843338.797 5    646899.66849  22431720.49149
 20  5 16  3 29  6.9990000  0  7G01G04G07G08G09G11G27                0.000483000
  21754627.659 6  -2406837.250 6  -1839665.67248  21754629.07748
  23684734.269 4    791012.969 4    606609.84046  23684735.66346
  21823377.331 6  -2090863.902 6  -1605742.71549  21823372.68349
  20726728.253 6    128515.434 6     98937.35549  20726728.55849
  23380275.128 4    314769.629 4    241467.09448  23380275.56548
  20192500.894 6  -1231090.680 6   -947009.75048  20192498.15948
  22432017.628 5    844904.055 5    648119.34849  22432018.46449
 20  5 16  3 29  7.9990000  0  7G01G04G07G08G09G11G27                0.000482262
  21753796.612 5  -2411206.938 5  -1843070.62549  21753797.45649
  23685015.222 4    792489.922 4    607760.72746  23685017.23746
  21822656.487 6  -2094651.156 6  -1608693.82449  21822651.62049
  20726783.800 6    128809.117 6     99166.19549  20726783.96449
  23380398.276 4    315418.574 4    241972.76648  23380399.15948
  20192091.440 6  -1233242.676 6   -948686.62948  20192088.59348
  22432315.034 5    846469.320 5    649339.03149  22432315.92949
 20  5 16  3 29  8.9990000  0  7G01G04G07G08G09G11G27                0.000481524
  21752965.144 5  -2415576.344 5  -1846475.35549  21752966.32749
  23685296.558 4    793966.762 4    608911.50846  23685297.88246
  21821936.175 6  -2098438.098 6  -1611644.69149  21821931.33149
  20726840.065 6    129102.980 6     99395.18049  20726840.40549
  23380521.370 3    316067.707 3    242478.58248  23380522.65948
  20191681.784 6  -1235394.168 6   -950363.11748  20191679.39048
  22432613.245 5    848034.574 5    650558.70749  22432613.76149
 20  5 16  3 29  9.9990000  0  7G01G04G07G08G09G11G27                0.000480785
  21752133.589 6  -2419945.227 6  -1849879.67649  21752135.02649
  23685576.605 4    795443.770 4    610062.41846  23685578.75346
  21821215.401 6  -2102224.469 6  -1614595.10549  21821210.53449
  20726896.128 6    129397.230 6     99624.47349  20726896.44449
  23380645.456 4    316717.250 4    242984.71948  23380646.55848
  20191272.456 6  -1237544.898 6   -952039.01248  20191269.51948
  22432911.620 5    849600.039 5    651778.55149  22432912.06249
 20  5 16  3 29 10.9990000  0  7G01G04G07G08G09G11G27                0.000480047
  21751302.167 6  -2424313.754 6  -1853283.72349  21751303.37849
  23685858.487 4    796920.734 4    611213.28946  23685859.46446
  21820494.956 6  -2106010.488 6  -1617545.25049  21820490.06549
  20726952.097 6    129691.730 6     99853.94949  20726952.50349
  23380769.230 4    317366.995 4    243491.00648  23380770.26148
  20190863.308 6  -1239695.090 6   -953714.48848  20190860.74548
  22433209.440 5    851165.464 5    652998.35949  22433210.09749
 20  5 16  3 29 11.9990000  0  7G01G04G07G08G09G11G27                0.000479309
  21750470.730 6  -2428681.922 6  -1856687.48449  21750472.36649
  23686140.167 4    798397.711 4    612364.16046  23686141.10546
  21819774.542 6  -2109796.082 6  -1620495.06649  21819769.89049
  20727008.065 6    129986.516 6    100083.65649  20727008.32749
  23380892.792 3    318017.043 3    243997.53948  23380893.67948
  20190454.878 6  -1241844.688 6   -955389.49648  20190451.52648
  22433507.128 5    852731.066 5    654218.30949  22433507.72249
 20  5 16  3 29 12.9990000  0  7G01G04G07G08G09G11G27                0.000478571
  21749639.675 6  -2433049.633 6  -1860090.89149  21749641.13249
  23686421.159 4    799874.691 4    613515.03546  23686422.03446
  21819054.183 6  -2113581.215 6  -1623444.52049  21819049.39449
  20727064.245 6    130281.625 6    100313.60549  20727064.39049
  23381016.987 3    318667.430 3    244504.33248  23381017.15548
  20190045.644 6  -1243993.641 6   -957064.00848  20190042.87848
  22433805.128 5    854296.738 5    655438.31349  22433805.48049
 20  5 16  3 29 13.9990000  0  7G01G04G07G08G09G11G27                0.000477835
  21748808.714 6  -2437417.027 6  -1863494.05949  21748809.93749
  23686701.823 4    801351.688 4    614665.94946  23686703.08946
  21818334.159 6  -2117365.934 6  -1626393.65249  21818329.71449
  20727120.409 6    130576.992 6    100543.77049  20727120.51949
  23381140.573 4    319318.027 4    245011.28948  23381141.20648
  20189636.753 6  -1246142.039 6   -958738.08248  20189633.92548
  22434103.206 5    855862.473 5    656658.36749  22434103.64049
 20  5 16  3 29 14.9990000  0  7G01G04G07G08G09G11G27                0.000477097
  21747977.972 5  -2441784.074 5  -1866896.94949  21747978.86649
  23686983.190 4    802828.625 4    615816.80546  23686984.19046
  21817614.167 6  -2121150.313 6  -1629342.51249  21817609.14749
  20727176.573 6    130872.547 6    100774.07049  20727176.76949
  23381264.378 3    319968.844 3    245518.41848  23381265.05048
  20189227.823 6  -1248289.879 6   -960411.72348  20189225.28448
  22434401.605 5    857428.195 5    657878.40649  22434401.69049
 20  5 16  3 29 15.9990000  0  7G01G04G07G08G09G11G27                0.000476358
  21747147.050 6  -2446150.617 6  -1870299.44549  21747148.05849
  23687263.870 4    804305.703 4    616967.78146  23687265.37846
  21816893.972 6  -2124934.145 6  -1632290.95749  21816889.07749
  20727233.089 6    131168.520 6    101004.69549  20727233.55049
  23381388.440 3    320620.070 3    246025.85548  23381388.59348
  20188819.644 6  -1250437.012 6   -962084.81648  20188816.83548
  22434699.315 5    858994.148 5    659098.62549  22434699.58149
 20  5 16  3 29 16.9990000  0  7G01G04G07G08G09G11G27                0.000475620
  21746316.081 6  -2450516.754 6  -1873701.62949  21746317.08549
  23687545.237 4    805782.824 4    618118.78946  23687546.17146
  21816174.284 6  -2128717.539 6  -1635239.05949  21816169.39049
  20727289.448 6    131464.777 6    101235.54349  20727289.80849
  23381512.730 3    321271.582 3    246533.52048  23381512.72648
  20188410.901 6  -1252583.516 6   -963757.41448  20188408.16348
  22434997.190 5    860560.176 5    660318.90249  22434997.35549
 20  5 16  3 29 17.9990000  0  7G01G04G07G08G09G11G27                0.000474882
  21745485.714 6  -2454882.422 6  -1877103.44949  21745486.20249
  23687826.261 5    807260.004 5    619269.84446  23687827.45246
  21815454.331 6  -2132500.426 6  -1638186.75849  21815449.51549
  20727346.144 6    131761.410 6    101466.68849  20727346.15549
  23381636.409 3    321923.457 3    247041.47748  23381637.23748
  20188002.401 6  -1254729.328 6   -965429.48048  20187999.92948
  22435295.331 5    862126.367 5    661539.31349  22435295.71049
 20  5 16  3 29 18.9990000  0  7G01G04G07G08G09G11G27                0.000474144
  21744654.542 6  -2459247.695 6  -1880504.96149  21744655.51149
  23688106.909 5    808737.195 5    620420.88746  23688108.15546
  21814734.534 6  -2136282.883 6  -1641134.12149  21814729.54249
  20727402.495 6    132058.320 6    101698.04749  20727402.44849
  23381760.276 3    322575.590 3    247549.62548  23381760.54648
  20187594.433 6  -1256874.586 6   -967101.10948  20187591.61648
  22435593.417 5    863692.617 5    662759.77049  22435593.46849
 20  5 16  3 29 19.9990000  0  7G01G04G07G08G09G11G27                0.000473408
  21743823.948 6  -2463612.609 6  -1883906.19149  21743824.98049
  23688388.589 5    810214.387 5    621571.94946  23688389.31246
  21814014.761 6  -2140064.957 6  -1644081.19149  21814009.77649
  20727458.909 6    132355.492 6    101929.60949  20727459.21849
  23381885.534 4    323227.938 4    248057.94548  23381885.25348
  20187186.448 6  -1259019.219 6   -968772.25448  20187183.93348
  22435891.636 5    865258.926 5    663980.26649  22435891.58949
 20  5 16  3 29 20.9990000  0  7G01G04G07G08G09G11G27                0.000472670
  21742994.144 6  -2467977.207 6  -1887307.17649  21742994.59749
  23688669.394 4    811691.500 4    622722.93046  23688670.55046
  21813295.034 6  -2143846.676 6  -1647027.98849  21813290.35549
  20727515.339 6    132652.867 6    102161.32849  20727515.72249
  23382009.644 4    323880.539 4    248566.46148  23382009.46448
  20186778.261 6  -1261163.352 6   -970443.00448  20186775.48348
  22436189.409 5    866825.250 5    665200.77749  22436189.44049
 20  5 16  3 29 21.9990000  0  7G01G04G07G08G09G11G27                0.000471931
  21742163.089 6  -2472341.395 6  -1890707.84049  21742163.79649
  23688949.956 4    813168.664 4    623873.97346  23688951.26546
  21812575.917 6  -2147627.949 6  -1649974.43449  21812570.92149
  20727572.128 6    132950.555 6    102393.29749  20727572.74949
  23382133.190 4    324533.422 4    249075.20348  23382133.73748
  20186370.355 6  -1263306.840 6   -972113.25448  20186367.58148
  22436487.940 5    868391.668 5    666421.35549  22436488.13649
 20  5 16  3 29 22.9990000  0  7G01G04G07G08G09G11G27                0.000471193
  21741333.144 6  -2476705.180 6  -1894108.19149  21741333.60149
  23689231.940 4    814645.895 4    625025.05546  23689232.14446
  21811856.175 6  -2151408.762 6  -1652920.52049  21811851.51549
  20727628.589 6    133248.574 6    102625.52049  20727629.17549
  23382257.581 4    325186.668 4    249584.22348  23382257.85848
  20185962.769 6  -1265449.699 6   -973783.01248  20185959.76548
  22436785.698 5    869958.207 5    667642.03949  22436785.89449
 20  5 16  3 29 23.9990000  0  7G01G04G07G08G09G11G27                0.000470457
  21740502.269 6  -2481068.574 6  -1897508.23849  21740503.13249
  23689511.956 4    816123.129 4    626176.14146  23689513.39046
  21811136.823 6  -2155189.129 6  -1655866.25849  21811132.29249
  20727685.878 6    133546.871 6    102857.95349  20727685.86649
  23382381.855 3    325840.129 3    250093.41048  23382382.16748
  20185555.105 6  -1267591.953 6   -975452.30148  20185552.07748
  22437084.073 5    871524.828 5    668862.78949  22437083.98749
 20  5 16  3 29 24.9990000  0  7G01G04G07G08G09G11G27                0.000469719
  21739672.214 6  -2485431.629 6  -1900908.02349  21739672.80049
  23689792.573 4    817600.234 4    627327.11746  23689794.53846
  21810417.519 6  -2158969.176 6  -1658811.75049  21810412.89749
  20727742.745 6    133845.355 6    103090.53949  20727742.88249
  23382506.331 4    326493.777 4    250602.73848  23382506.62848
  20185147.253 6  -1269733.676 6   -977121.17248  20185144.89448
  22437382.206 5    873091.445 5    670083.53149  22437382.11249
 20  5 16  3 29 25.9990000  0  7G01G04G07G08G09G11G27                0.000468981
  21738841.808 6  -2489794.477 6  -1904307.64549  21738842.91749
  23690074.870 4    819077.281 4    628478.06646  23690075.59746
  21809698.565 6  -2162748.953 6  -1661757.03149  21809693.68749
  20727799.128 6    134144.008 6    103323.26249  20727799.49949
  23382630.347 4    327147.582 4    251112.19148  23382630.97248
  20184740.159 6  -1271874.953 6   -978789.70348  20184737.31248
  22437679.917 5    874657.992 5    671304.21149  22437680.28049
 20  5 16  3 29 26.9990000  0  7G01G04G07G08G09G11G27                0.000468245
  21738012.214 6  -2494156.875 6  -1907706.91449  21738012.86249
  23690356.081 4    820554.344 4    629629.03546  23690356.55446
  21808979.605 6  -2166528.230 6  -1664701.92649  21808974.94449
  20727856.081 6    134442.961 6    103556.21149  20727856.31249
  23382755.034 3    327801.711 3    251621.90248  23382755.59748
  20184332.886 6  -1274015.566 6   -980457.71548  20184330.31548
  22437978.230 5    876224.652 5    672524.98449  22437978.45249
 20  5 16  3 29 27.9990000  0  7G01G04G07G08G09G11G27                0.000467506
  21737181.776 5  -2498518.898 5  -1911105.88749  21737182.43749
  23690637.058 4    822031.426 4    630780.00446  23690638.04646
  21808260.128 6  -2170307.125 6  -1667646.51649  21808255.55449
  20727912.769 6    134742.145 6    103789.33649  20727913.26149
  23382879.823 4    328456.059 4    252131.77748  23382880.27648
  20183925.487 6  -1276155.617 6   -982125.29348  20183922.84748
  22438275.808 5    877791.367 5    673745.80149  22438276.24949
 20  5 16  3 29 28.9990000  0  7G01G04G07G08G09G11G27                0.000466768
  21736351.589 6  -2502880.387 6  -1914504.44949  21736352.77649
  23690918.620 4    823508.629 4    631931.06346  23690918.60146
  21807541.112 6  -2174085.461 6  -1670590.67649  21807536.65149
  20727970.120 6    135041.750 6    104022.79749  20727970.30849
  23383004.464 4    329110.840 4    252641.99248  23383004.48048
  20183518.237 6  -1278294.941 6   -983792.30148  20183515.19048
  22438574.425 5    879358.273 5    674966.76649  22438574.68349
 20  5 16  3 29 29.9990000  0  7G01G04G07G08G09G11G27                0.000466032
  21735521.503 5  -2507241.609 5  -1917902.80549  21735522.71849
  23691199.714 4    824985.762 4    633082.07046  23691199.78046
  21806822.019 6  -2177863.441 6  -1673534.55549  21806817.95649
  20728026.870 6    135341.574 6    104256.42649  20728027.03849
  23383129.597 4    329765.824 4    253152.37148  23383129.08548
  20183111.745 6  -1280433.707 6   -985458.86348  20183108.69048
  22438872.847 5    880925.215 5    676187.76249  22438872.74949
 20  5 16  3 29 30.9990000  0  7G01G04G07G08G09G11G27                0.000465294
  21734691.901 5  -2511602.367 5  -1921300.79349  21734692.78849
  23691480.300 4    826462.934 4    634233.10246  23691480.85146
  21806103.315 6  -2181640.961 6  -1676478.07449  21806098.85849
  20728084.237 6    135641.676 6    104490.27349  20728084.38249
  23383253.573 4    330421.105 4    253662.97348  23383254.24148
  20182704.948 6  -1282571.891 6   -987124.97748  20182701.61248
  22439170.698 5    882492.227 5    677408.81349  22439171.21449
 20  5 16  3 29 31.9990000  0  7G01G04G07G08G09G11G27                0.000464556
  21733862.003 6  -2515962.777 6  -1924698.51249  21733863.28849
  23691761.315 4    827940.094 4    635384.13346  23691762.01546
  21805384.909 6  -2185418.090 6  -1679421.29349  21805380.32349
  20728141.245 6    135942.082 6    104724.35549  20728141.36649
  23383378.300 3    331076.648 3    254173.78548  23383378.79648
  20182297.612 6  -1284709.465 6   -988790.61348  20182294.52648
  22439469.190 5    884059.336 5    678629.93849  22439469.23349
 20  5 16  3 29 32.9990000  0  7G01G04G07G08G09G11G27                0.000463818
  21733032.519 6  -2520322.777 6  -1928095.92249  21733033.47249
  23692042.667 4    829417.277 4    636535.18446  23692043.29246
  21804665.675 6  -2189194.797 6  -1682364.17649  21804661.19049
  20728198.925 6    136242.746 6    104958.63749  20728199.02649
  23383502.878 3    331732.445 3    254684.79348  23383503.54248
  20181891.394 6  -1286846.426 6   -990455.78548  20181888.33548
  22439767.019 5    885626.500 5    679851.10249  22439767.26149
 20  5 16  3 29 33.9990000  0  7G01G04G07G08G09G11G27                0.000463081
  21732203.183 6  -2524682.438 6  -1931493.05549  21732203.77249
  23692323.589 5    830894.434 5    637686.20746  23692324.18346
  21803947.503 6  -2192971.098 6  -1685306.74249  21803942.90149
  20728255.894 6    136543.688 6    105193.13749  20728256.40549
  23383628.222 3    332388.492 3    255195.99648  23383628.19848
  20181484.433 6  -1288982.820 6   -992120.50448  20181481.55848
  22440065.956 5    887193.746 5    681072.33249  22440065.26149
 20  5 16  3 29 34.9990000  0  7G01G04G07G08G09G11G27                0.000462343
  21731373.769 6  -2529041.691 6  -1934889.87549  21731374.39749
  23692604.573 5    832371.617 5    638837.24646  23692605.24546
  21803228.667 6  -2196746.961 6  -1688248.97349  21803224.65949
  20728313.011 6    136844.898 6    105427.84849  20728313.42549
  23383753.222 4    333044.820 4    255707.41048  23383753.19848
  20181078.519 6  -1291118.613 6   -993784.76648  20181075.08148
  22440363.565 5    888761.023 5    682293.58649  22440363.72249
 20  5 16  3 29 35.9990000  0  7G01G04G07G08G09G11G27                0.000461607
  21730543.917 6  -2533400.496 6  -1938286.34449  21730544.90149
  23692886.894 5    833848.863 5    639988.35246  23692886.49146
  21802510.355 6  -2200522.350 6  -1691190.84049  21802506.12849
  20728370.534 6    137146.488 6    105662.85249  20728370.72249
  23383878.886 3    333701.555 3    256219.14548  23383878.36248
  20180672.003 6  -1293253.691 6   -995448.46148  20180668.79648
  22440661.745 5    890328.469 5    683514.97349  22440662.25749
 20  5 16  3 29 36.9990000  0  7G01G04G07G08G09G11G27                0.000460869
  21729714.151 6  -2537758.938 6  -1941682.52749  21729715.54649
  23693167.401 5    835326.090 5    641139.43446  23693167.59346
  21801791.534 6  -2204297.313 6  -1694132.36749  21801787.83549
  20728427.831 6    137448.305 6    105898.03149  20728428.18749
  23384003.675 4    334358.477 4    256731.03148  23384003.01548
  20180265.909 6  -1295388.246 6   -997111.75048  20180262.71848
  22440959.784 5    891895.973 5    684736.40249  22440960.52649
