     2.10           OBSERVATION DATA    GPS(GPS)            RINEX VERSION / TYPE
cnvtToRINEX 3.07.0  convertToRINEX OPR  19-May-20 12:30 UTC PGM / RUN BY / DATE 
----------------------------------------------------------- COMMENT             
GG06                                                        MARKER NAME         
GG06                                                        MARKER NUMBER       
GNSS Observer       Trimble                                 OBSERVER / AGENCY   
0440101800          TRIMBLE 5700        2.32                REC # / TYPE / VERS 
                    TRM39105.00                             ANT # / TYPE        
 -3050163.2140  4928364.3026  2653596.8825                  APPROX POSITION XYZ 
        0.1030        0.0000        0.0000                  ANTENNA: DELTA H/E/N
     1     1     0                                          WAVELENGTH FACT L1/2
     4    C1    L1    L2    P2                              # / TYPES OF OBSERV 
  2020     5    16     0    25   45.0000000     GPS         TIME OF FIRST OBS   
  2020     5    16     1    33   52.0000000     GPS         TIME OF LAST OBS    
     0                                                      RCV CLOCK OFFS APPL 
    18                                                      LEAP SECONDS        
    11                                                      # OF SATELLITES     
   G03   188   188   188   188                              PRN / # OF OBS      
   G04  4053  4053  4053  4053                              PRN / # OF OBS      
   G08  4088  4088  4088  4088                              PRN / # OF OBS      
   G09  3459  3459  3459  3459                              PRN / # OF OBS      
   G11  2289  2289  2289  2289                              PRN / # OF OBS      
   G14  2627  2627  2627  2627                              PRN / # OF OBS      
   G16  4088  4088  4088  4088                              PRN / # OF OBS      
   G21  3603  3603  3603  3603                              PRN / # OF OBS      
   G26  4088  4088  4088  4088                              PRN / # OF OBS      
   G27  4088  4088  4088  4088                              PRN / # OF OBS      
   G31  4088  4088  4088  4088                              PRN / # OF OBS      
CARRIER PHASE MEASUREMENTS: PHASE SHIFTS REMOVED            COMMENT             
                                                            END OF HEADER       
 20  5 16  0 25 45.0000000  0  6G03G08G16G26G27G31                   0.000345095
  24854798.93014    -25863.54314    -11368.88358  24854801.40658
  23024929.66415   -262328.09415   -113131.08658  23024930.19958
  20803349.25816    -76885.09416    -44064.02758  20803346.47358
  21560315.29716    -33097.50816    -16901.68459  21560317.07859
  20927030.38317   -181648.55117   -108490.22359  20927030.05559
  22089876.67216    -54074.66016    -32537.95757  22089874.90257
 20  5 16  0 25 46.0000000  0  6G03G08G16G26G27G31                   0.000343605
  24854684.141 4    -26464.848 4    -11837.43648  24854686.75448
  23023821.070 5   -268154.398 5   -117671.06648  23023820.91848
  20802991.031 6    -78767.941 6    -45531.17248  20802988.12148
  21560175.586 6    -33833.980 6    -17475.56349  21560177.08249
  20926155.922 7   -186244.258 7   -112071.29349  20926155.47349
  22089651.008 6    -55258.656 6    -33460.55948  22089649.47348
 20  5 16  0 25 47.0000000  0  6G03G08G16G26G27G31                   0.000342113
  24854569.766 4    -27067.484 4    -12307.02048  24854571.94948
  23022711.672 5   -273981.906 5   -122211.98048  23022712.14848
  20802632.234 6    -80651.992 6    -46999.26648  20802629.53948
  21560034.992 6    -34571.848 6    -18050.52349  21560036.30949
  20925281.023 7   -190840.945 7   -115653.12949  20925280.75449
  22089425.602 6    -56443.883 6    -34384.11748  22089424.16048
 20  5 16  0 25 48.0000000  0  6G03G08G16G26G27G31                   0.000340622
  24854454.883 4    -27671.578 4    -12777.75048  24854457.25848
  23021602.375 5   -279810.734 5   -126753.92648  23021603.00448
  20802273.391 6    -82537.238 6    -48468.30148  20802270.71548
  21559894.438 6    -35311.137 6    -18626.59449  21559895.82049
  20924406.656 7   -195438.512 7   -119235.65249  20924406.13349
  22089200.234 6    -57630.336 6    -35308.62548  22089198.23848
 20  5 16  0 25 49.0000000  0  6G03G08G16G26G27G31                   0.000339128
  24854339.891 4    -28276.910 4    -13249.43848  24854342.12548
  23020493.328 5   -285640.613 5   -131296.68848  23020493.73848
  20801914.453 6    -84423.531 6    -49938.13748  20801911.93448
  21559753.594 6    -36051.680 6    -19203.64149  21559754.74249
  20923531.094 7   -200036.887 7   -122818.80149  20923531.25049
  22088974.188 6    -58817.895 6    -36233.99248  22088972.16848
 20  5 16  0 25 50.0000000  0  6G03G08G16G26G27G31                   0.000337633
  24854224.234 4    -28883.559 4    -13722.14848  24854226.67248
  23019383.586 5   -291471.699 5   -135840.39148  23019384.40648
  20801555.617 6    -86310.973 6    -51408.87548  20801552.76248
  21559612.211 6    -36793.590 6    -19781.75049  21559613.85249
  20922656.391 7   -204636.160 7   -126402.65249  20922655.79749
  22088748.055 6    -60006.680 6    -37160.32048  22088746.00048
 20  5 16  0 25 51.0000000  0  6G03G08G16G26G27G31                   0.000336140
  24854108.547 4    -29491.559 4    -14195.91448  24854111.05148
  23018274.141 5   -297303.969 5   -140385.02048  23018274.15648
  20801195.789 6    -88199.586 6    -52880.52048  20801193.30148
  21559470.141 6    -37536.879 6    -20360.94149  21559472.18049
  20921780.914 7   -209236.328 7   -129987.20349  20921780.59049
  22088521.305 6    -61196.645 6    -38087.56348  22088519.19548
 20  5 16  0 25 52.0000000  0  6G03G08G16G26G27G31                   0.000334644
  24853992.438 4    -30100.973 4    -14670.77348  24853995.10948
  23017164.242 5   -303137.512 5   -144930.63348  23017164.15648
  20800836.484 6    -90089.391 6    -54353.09448  20800833.67248
  21559328.758 6    -38281.570 6    -20941.22349  21559330.57449
  20920905.375 7   -213837.414 7   -133572.46949  20920905.42649
  22088294.734 6    -62387.855 6    -39015.77748  22088292.75048
 20  5 16  0 25 53.0000000  0  6G03G08G16G26G27G31                   0.000333147
  24853876.727 4    -30711.664 4    -15146.63748  24853878.78148
  23016053.859 5   -308972.188 5   -149477.12948  23016054.15248
  20800477.336 6    -91980.316 6    -55826.55148  20800474.17248
  21559186.586 6    -39027.570 6    -21522.52749  21559188.42249
  20920029.625 7   -218439.383 7   -137158.41849  20920029.27749
  22088067.727 6    -63580.207 6    -39944.87548  22088066.07448
 20  5 16  0 25 54.0000000  0  6G03G08G16G26G27G31                   0.000331650
  24853760.000 4    -31323.734 4    -15623.58248  24853762.28948
  23014942.977 5   -314808.078 5   -154024.58248  23014943.66048
  20800116.680 6    -93872.402 6    -57300.90248  20800113.87148
  21559044.398 6    -39774.984 6    -22104.92649  21559046.45349
  20919153.680 7   -223042.219 7   -140745.04749  20919153.24649
  22087840.945 6    -64773.793 6    -40874.93847  22087838.72347
 20  5 16  0 25 55.0000000  0  6G03G08G16G26G27G31                   0.000330151
  24853643.898 4    -31937.078 4    -16101.50848  24853645.56348
  23013832.141 5   -320645.063 5   -158572.89148  23013833.12148
  20799756.836 6    -95765.574 6    -58776.09848  20799753.79748
  21558902.688 6    -40523.660 6    -22688.31349  21558904.08249
  20918277.555 7   -227645.875 7   -144332.30949  20918277.34449
  22087613.563 6    -65968.477 6    -41805.86347  22087611.59847
 20  5 16  0 25 56.0000000  0  6G03G08G16G26G27G31                   0.000328651
  24853526.422 4    -32551.668 4    -16580.41448  24853528.98048
  23012720.695 5   -326483.164 5   -163122.06648  23012722.23848
  20799396.305 6    -97659.801 6    -60252.12548  20799393.29348
  21558759.508 6    -41273.617 6    -23272.69549  21558761.19949
  20917401.250 7   -232250.344 7   -147920.20349  20917400.96149
  22087385.594 6    -67164.266 6    -42737.64847  22087383.66847
 20  5 16  0 25 57.0000000  0  6G03G08G16G26G27G31                   0.000327152
  24853409.313 4    -33167.574 4    -17060.34448  24853412.10548
  23011609.578 5   -332322.406 5   -167672.12948  23011611.43848
  20799035.336 6    -99555.188 6    -61729.03948  20799032.33648
  21558616.531 6    -42024.934 6    -23858.14149  21558618.06649
  20916525.172 7   -236855.676 7   -151508.77749  20916524.78549
  22087157.727 6    -68361.250 6    -43670.37147  22087156.13347
 20  5 16  0 25 58.0000000  0  6G03G08G16G26G27G31                   0.000325651
  24853291.719 4    -33784.797 4    -17541.29748  24853294.37948
  23010498.273 5   -338162.760 5   -172223.04149  23010500.21949
  20798674.813 6   -101451.629 6    -63206.79748  20798671.70748
  21558473.477 6    -42777.496 6    -24444.55549  21558475.15649
  20915648.172 7   -241461.848 7   -155097.99649  20915648.89149
  22086930.023 7    -69559.293 7    -44603.93448  22086927.98048
 20  5 16  0 25 59.0000000  0  6G03G08G16G26G27G31                   0.000324148
  24853173.820 3    -34403.273 3    -18023.23848  24853177.03148
  23009387.000 5   -344004.262 5   -176774.83649  23009388.28949
  20798312.977 6   -103349.168 6    -64685.41048  20798310.62148
  21558329.961 6    -43531.371 6    -25031.99249  21558331.54749
  20914771.641 7   -246068.781 7   -158687.80149  20914771.27049
  22086701.984 6    -70758.531 6    -45538.43848  22086699.74648
 20  5 16  0 26  0.0000000  0  6G03G08G16G26G27G31                   0.000322645
  24853055.938 4    -35023.000 4    -18506.15648  24853058.86748
  23008274.969 5   -349846.828 5   -181327.47349  23008276.37149
  20797952.070 6   -105247.734 6    -66164.81348  20797949.15648
  21558186.453 6    -44286.535 6    -25620.43049  21558188.03949
  20913895.313 7   -250676.512 7   -162278.23449  20913895.03549
  22086473.633 7    -71958.836 7    -46473.75448  22086471.49648
 20  5 16  0 26  1.0000000  0  6G03G08G16G26G27G31                   0.000321142
  24852937.758 4    -35644.070 4    -18990.10948  24852941.05948
  23007163.016 5   -355690.590 5   -185881.05149  23007164.16849
  20797590.344 6   -107147.469 6    -67645.13348  20797588.12548
  21558042.523 6    -45043.059 6    -26209.91849  21558043.39849
  20913017.953 7   -255285.137 7   -165869.37949  20913017.91449
  22086244.555 6    -73160.344 6    -47409.99248  22086242.91448
 20  5 16  0 26  2.0000000  0  6G03G08G16G26G27G31                   0.000319637
  24852819.234 4    -36266.422 4    -19475.05948  24852822.71548
  23006050.945 5   -361535.488 5   -190435.51249  23006052.14849
  20797228.516 6   -109048.305 6    -69126.30148  20797226.14148
  21557898.531 6    -45800.840 6    -26800.39549  21557899.52349
  20912140.891 7   -259894.566 7   -169461.14149  20912141.03549
  22086015.688 6    -74362.969 6    -48347.09848  22086014.00448
 20  5 16  0 26  3.0000000  0  6G03G08G16G26G27G31                   0.000318132
  24852700.570 4    -36890.012 4    -19960.96948  24852704.39848
  23004938.414 5   -367381.523 5   -194990.86749  23004939.83249
  20796866.570 7   -110950.203 7    -70608.29748  20796864.18848
  21557753.883 6    -46559.984 6    -27391.94149  21557755.10549
  20911263.445 7   -264504.832 7   -173053.55949  20911263.37949
  22085786.656 6    -75566.742 6    -49285.09448  22085784.70748
 20  5 16  0 26  4.0000000  0  6G03G08G16G26G27G31                   0.000316626
  24852582.156 3    -37514.824 3    -20447.83648  24852585.64848
  23003825.688 5   -373228.617 5   -199547.04349  23003827.11749
  20796504.352 6   -112853.156 6    -72091.12148  20796502.18848
  21557609.039 6    -47320.332 6    -27984.42649  21557610.51249
  20910386.063 7   -269115.840 7   -176646.55149  20910386.02749
  22085557.602 6    -76771.570 6    -50223.92248  22085555.40248
 20  5 16  0 26  5.0000000  0  6G03G08G16G26G27G31                   0.000315119
  24852462.555 4    -38140.980 4    -20935.74648  24852465.91048
  23002712.492 5   -379076.793 5   -204104.06349  23002714.04749
  20796142.320 6   -114757.141 6    -73574.74248  20796139.83248
  21557464.266 6    -48081.957 6    -28577.89849  21557465.26249
  20909508.453 7   -273727.676 7   -180240.19549  20909508.66449
  22085327.859 6    -77977.504 6    -51163.60948  22085326.18048
 20  5 16  0 26  6.0000000  0  6G03G08G16G26G27G31                   0.000313610
  24852344.023 3    -38768.355 3    -21424.61348  24852346.48048
  23001599.609 5   -384926.094 5   -208661.96949  23001601.09049
  20795779.844 6   -116662.230 6    -75059.23448  20795777.25048
  21557318.531 6    -48844.902 6    -29172.40249  21557320.16849
  20908630.227 7   -278340.324 7   -183834.46949  20908630.52749
  22085098.484 6    -79184.590 6    -52104.20348  22085096.79348
 20  5 16  0 26  7.0000000  0  6G03G08G16G26G27G31                   0.000312101
  24852224.742 4    -39397.070 4    -21914.52748  24852226.85948
  23000486.438 5   -390776.582 5   -213220.79749  23000488.02349
  20795417.047 6   -118568.500 6    -76544.63748  20795414.20348
  21557173.867 6    -49609.191 6    -29767.95349  21557174.85549
  20907752.648 7   -282953.836 7   -187429.40649  20907752.62949
  22084868.680 6    -80392.848 6    -53045.69548  22084866.46948
 20  5 16  0 26  8.0000000  0  6G03G08G16G26G27G31                   0.000310591
  24852104.266 4    -40027.059 4    -22405.43448  24852107.04748
  22999372.883 5   -396628.172 5   -217780.48849  22999374.11349
  20795054.133 6   -120475.820 6    -78030.86348  20795051.71148
  21557027.805 6    -50374.766 6    -30364.50849  21557029.18049
  20906874.617 7   -287568.176 7   -191025.00049  20906874.75449
  22084638.055 6    -81602.234 6    -53988.07848  22084636.49248
 20  5 16  0 26  9.0000000  0  6G03G08G16G26G27G31                   0.000309080
  24851983.414 4    -40658.395 4    -22897.39148  24851987.02348
  22998259.430 5   -402480.910 5   -222341.05949  22998260.66049
  20794691.094 6   -122384.250 6    -79517.94948  20794688.18848
  21556881.852 6    -51141.652 6    -30962.07849  21556883.30549
  20905996.422 7   -292183.328 7   -194621.22349  20905996.26649
  22084407.383 6    -82812.750 6    -54931.33648  22084405.94148
 20  5 16  0 26 10.0000000  0  6G03G08G16G26G27G31                   0.000307570
  24851863.305 4    -41290.840 4    -23390.20348  24851866.60248
  22997145.078 5   -408334.684 5   -226902.44149  22997146.80149
  20794327.820 6   -124293.656 6    -81005.79348  20794325.10248
  21556735.945 6    -51909.727 6    -31560.58249  21556736.99249
  20905118.148 7   -296799.211 7   -198218.01649  20905118.07849
  22084177.273 6    -84024.297 6    -55875.39548  22084175.50848
 20  5 16  0 26 11.0000000  0  6G03G08G16G26G27G31                   0.000306057
  24851743.063 4    -41924.531 4    -23883.99248  24851745.88348
  22996031.000 5   -414189.578 5   -231464.69149  22996032.72749
  20793964.398 7   -126204.129 7    -82494.48048  20793961.46548
  21556589.250 6    -52679.070 6    -32160.07049  21556590.72749
  20904239.477 7   -301415.891 7   -201815.42249  20904239.55949
  22083946.797 6    -85236.926 6    -56820.30548  22083944.53548
 20  5 16  0 26 12.0000000  0  6G03G08G16G26G27G31                   0.000304544
  24851621.305 3    -42559.348 3    -24378.65248  24851624.97348
  22994917.320 5   -420045.359 5   -236027.63749  22994918.30549
  20793600.242 6   -128115.473 6    -83983.83648  20793597.75048
  21556442.844 6    -53449.535 6    -32760.43049  21556444.34449
  20903360.711 7   -306033.148 7   -205413.28949  20903361.14149
  22083715.680 6    -86450.496 6    -57765.94948  22083713.78148
 20  5 16  0 26 13.0000000  0  6G03G08G16G26G27G31                   0.000303030
  24851500.766 4    -43195.418 4    -24874.28548  24851504.02048
  22993802.164 5   -425902.266 5   -240591.45349  22993803.71949
  20793236.047 6   -130027.914 6    -85474.04348  20793233.62548
  21556296.156 6    -54221.277 6    -33361.79349  21556297.25449
  20902482.016 7   -310651.250 7   -209011.80949  20902482.05549
  22083484.492 6    -87665.195 6    -58712.46948  22083482.50848
 20  5 16  0 26 14.0000000  0  6G03G08G16G26G27G31                   0.000301514
  24851379.000 4    -43832.738 4    -25370.89848  24851382.93848
  22992687.352 5   -431760.270 5   -245156.13749  22992688.80949
  20792872.328 6   -131941.410 6    -86965.08648  20792870.10248
  21556149.133 6    -54994.289 6    -33964.14149  21556150.10549
  20901603.328 7   -315270.141 7   -212610.93849  20901603.27349
  22083253.273 6    -88880.988 6    -59659.84048  22083250.89548
 20  5 16  0 26 15.0000000  0  6G03G08G16G26G27G31                   0.000299999
  24851258.414 4    -44471.352 4    -25868.52048  24851261.12148
  22991572.703 5   -437619.414 5   -249721.70349  22991574.05149
  20792508.031 6   -133856.000 6    -88456.97748  20792505.15248
  21556001.211 6    -55768.613 6    -34567.50449  21556003.14149
  20900723.875 7   -319889.824 7   -216210.69549  20900724.00449
  22083021.984 6    -90097.895 6    -60608.08248  22083019.78548
 20  5 16  0 26 16.0000000  0  6G03G08G16G26G27G31                   0.000298483
  24851136.859 4    -45111.168 4    -26367.09048  24851139.37548
  22990457.461 5   -443479.574 5   -254288.05949  22990459.00449
  20792143.367 6   -135771.598 6    -89949.64848  20792140.84048
  21555853.602 6    -56544.172 6    -35171.84049  21555854.85549
  20899845.109 7   -324510.289 7   -219811.05549  20899844.78949
  22082790.141 6    -91315.875 6    -61557.16448  22082788.07048
 20  5 16  0 26 17.0000000  0  6G03G08G16G26G27G31                   0.000296965
  24851013.859 4    -45752.258 4    -26866.64848  24851017.47348
  22989341.977 5   -449340.887 5   -258855.31349  22989343.59849
  20791778.547 6   -137688.285 6    -91443.17248  20791776.15648
  21555705.805 6    -57321.004 6    -35777.16049  21555707.18049
  20898965.102 7   -329131.551 7   -223412.03949  20898965.29749
  22082557.859 6    -92534.969 6    -62507.10548  22082555.52048
 20  5 16  0 26 18.0000000  0  6G03G08G16G26G27G31                   0.000295446
  24850892.117 4    -46394.563 4    -27367.14848  24850894.73848
  22988226.320 5   -455203.230 5   -263423.36749  22988228.27749
  20791413.727 6   -139605.977 6    -92937.47748  20791410.89848
  21555557.797 6    -58099.035 6    -36383.42249  21555559.62149
  20898085.734 7   -333753.578 7   -227013.62149  20898086.13349
  22082325.938 6    -93755.113 6    -63457.86748  22082323.80948
 20  5 16  0 26 19.0000000  0  7G03G08G14G16G26G27G31                0.000293928
  24850769.914 4    -47038.152 4    -27868.64548  24850772.82848
  22987110.891 5   -461066.684 5   -267992.29349  22987112.15649
  22734161.03915     31070.21515     19808.02757  22734159.79757
  20791049.023 6   -141524.754 6    -94432.62948  20791045.78948
  21555409.883 6    -58878.395 6    -36990.71949  21555411.13749
  20897206.313 7   -338376.402 7   -230615.82449  20897206.32049
  22082093.398 7    -94976.387 7    -64409.51248  22082091.59448
 20  5 16  0 26 20.0000000  0  8G03G04G08G14G16G26G27G31             0.000292408
  24850647.117 4    -47682.996 4    -28371.12548  24850649.87548
  22229224.76616   -160977.70316   -111374.90258  22229224.05958
  22985995.148 5   -466931.184 5   -272562.03549  22985996.28149
  22734332.359 5     31968.977 5     20508.36347  22734330.78547
  20790683.445 6   -143444.594 6    -95928.60248  20790680.52048
  21555260.758 6    -59658.984 6    -37598.97349  21555262.44549
  20896326.617 7   -342999.988 7   -234218.61349  20896326.28949
  22081860.797 7    -96198.742 7    -65361.99248  22081858.71148
 20  5 16  0 26 21.0000000  0  8G03G04G08G14G16G26G27G31             0.000290886
  24850524.156 4    -48328.966 4    -28874.47648  24850527.50848
  22228361.117 6   -165514.723 6   -114910.24648  22228360.66448
  22984878.477 5   -472796.777 5   -277132.62949  22984880.06649
  22734502.969 5     32866.656 5     21207.84847  22734501.05947
  20790317.773 6   -145365.422 6    -97425.35248  20790315.43448
  21555112.305 6    -60440.832 6    -38208.20749  21555113.50849
  20895446.289 7   -347624.344 7   -237822.01249  20895446.74249
  22081628.055 6    -97422.152 6    -66315.29348  22081625.90648
 20  5 16  0 26 22.0000000  0  8G03G04G08G14G16G26G27G31             0.000289364
  24850401.164 4    -48976.375 4    -29378.95348  24850404.24248
  22227497.508 6   -170052.660 6   -118446.30148  22227497.16048
  22983761.633 5   -478663.555 5   -281704.14549  22983763.54749
  22734673.820 5     33763.227 5     21906.46947  22734672.21147
  20789952.063 6   -147287.395 6    -98923.00048  20789949.57048
  21554963.445 6    -61224.004 6    -38818.46949  21554964.59049
  20894566.070 7   -352249.551 7   -241426.07449  20894566.29349
  22081394.969 6    -98646.727 6    -67269.50848  22081392.89148
 20  5 16  0 26 23.0000000  0  8G03G04G08G14G16G26G27G31             0.000287842
  24850277.695 4    -49624.867 4    -29884.26648  24850280.68448
  22226634.070 6   -174591.355 6   -121982.94948  22226633.53148
  22982645.289 5   -484531.285 5   -286276.40249  22982646.64849
  22734843.508 5     34658.824 5     22604.33647  22734842.15247
  20789586.273 7   -149210.340 7   -100421.39548  20789583.36348
  21554814.563 6    -62008.355 6    -39429.65249  21554815.25049
  20893685.672 7   -356875.441 7   -245030.66049  20893686.14849
  22081161.734 6    -99872.332 6    -68224.52348  22081159.87548
 20  5 16  0 26 24.0000000  0  8G03G04G08G14G16G26G27G31             0.000286318
  24850154.055 4    -50274.535 4    -30390.50048  24850156.71948
  22225769.852 6   -179130.867 6   -125520.23048  22225769.23448
  22981528.531 5   -490400.066 5   -290849.47749  22981530.03149
  22735014.094 6     35553.371 6     23301.37947  22735012.62947
  20789219.984 6   -151134.289 6   -101920.58248  20789217.40248
  21554664.547 6    -62793.918 6    -40041.78149  21554665.78949
  20892805.555 7   -361502.102 7   -248635.85549  20892805.25449
  22080928.102 6   -101098.969 6    -69180.34848  22080926.01248
 20  5 16  0 26 25.0000000  0  8G03G04G08G14G16G26G27G31             0.000284794
  24850030.430 4    -50925.559 4    -30897.80148  24850033.24648
  22224905.797 6   -183671.246 6   -129058.19148  22224905.51648
  22980411.352 5   -496269.953 5   -295423.41049  22980413.06649
  22735184.219 5     36446.832 5     23997.58647  22735182.65247
  20788853.516 6   -153059.305 6   -103420.59448  20788850.66848
  21554514.922 6    -63580.781 6    -40654.92249  21554516.13349
  20891924.797 7   -366129.527 7   -252241.63749  20891924.85949
  22080694.547 7   -102326.715 7    -70137.03548  22080692.53148
 20  5 16  0 26 26.0000000  0  8G03G04G08G14G16G26G27G31             0.000283268
  24849906.539 4    -51577.758 4    -31406.00848  24849909.18848
  22224041.633 6   -188212.434 6   -132596.78148  22224041.22348
  22979294.695 5   -502140.934 5   -299998.19949  22979295.77049
  22735353.602 5     37339.246 5     24692.98047  22735352.53947
  20788487.320 6   -154985.328 6   -104921.38748  20788484.59448
  21554364.859 6    -64368.871 6    -41269.01649  21554366.53549
  20891043.898 7   -370757.723 7   -255848.02749  20891044.10949
  22080460.477 6   -103555.531 6    -71094.55548  22080458.52348
 20  5 16  0 26 27.0000000  0  8G03G04G08G14G16G26G27G31             0.000281742
  24849781.852 4    -52231.234 4    -31915.20748  24849784.33248
  22223177.445 6   -192754.527 6   -136136.07848  22223176.92248
  22978176.648 5   -508012.987 5   -304573.82049  22978178.24649
  22735523.289 5     38230.598 5     25387.54347  22735521.80147
  20788120.789 6   -156912.496 6   -106423.07448  20788117.58248
  21554214.875 6    -65158.266 6    -41884.13349  21554216.47749
  20890163.164 7   -375386.719 7   -259455.03149  20890163.56349
  22080226.719 6   -104785.484 6    -72052.96148  22080224.77748
 20  5 16  0 26 28.0000000  0  8G03G04G08G14G16G26G27G31             0.000280216
  24849656.852 4    -52885.973 4    -32425.39548  24849659.69148
  22222313.297 6   -197297.465 6   -139676.02048  22222312.70748
  22977059.320 5   -513886.145 5   -309150.31649  22977060.56349
  22735692.883 5     39120.789 5     26081.19147  22735691.50447
  20787753.711 6   -158840.691 6   -107925.56648  20787750.74248
  21554064.547 6    -65948.926 6    -42500.23849  21554065.37149
  20889282.648 7   -380016.531 7   -263062.68049  20889282.29749
  22079992.328 6   -106016.531 6    -73012.22348  22079990.77748
 20  5 16  0 26 29.0000000  0  8G03G04G08G14G16G26G27G31             0.000278688
  24849532.695 4    -53541.926 4    -32936.52048  24849535.21548
  22221448.625 6   -201841.184 6   -143216.57048  22221447.98048
  22975941.672 5   -519760.348 5   -313727.62149  22975943.04349
  22735861.805 5     40010.039 5     26774.11747  22735860.72747
  20787386.469 6   -160769.863 6   -109428.82848  20787383.89848
  21553913.641 6    -66740.766 6    -43117.25449  21553914.91449
  20888400.891 7   -384647.023 7   -266670.85549  20888401.08649
  22079758.242 6   -107248.609 6    -73972.28148  22079755.95348
 20  5 16  0 26 30.0000000  0  8G03G04G08G14G16G26G27G31             0.000277159
  24849407.742 4    -54199.169 4    -33448.65448  24849410.10548
  22220583.953 6   -206385.836 6   -146757.86748  22220583.11748
  22974823.734 5   -525635.633 5   -318305.76649  22974824.66849
  22736030.961 5     40898.117 5     27466.12147  22736029.96547
  20787018.875 6   -162700.184 6   -110932.97348  20787016.10548
  21553762.117 6    -67533.941 6    -43735.31649  21553764.03949
  20887519.891 7   -389278.398 7   -270279.71549  20887519.99249
  22079523.289 6   -108481.836 6    -74933.23848  22079521.68048
 20  5 16  0 26 31.0000000  0  8G03G04G08G14G16G26G27G31             0.000275631
  24849281.695 4    -54857.516 4    -33961.64148  24849284.42648
  22219718.859 6   -210931.215 6   -150299.72348  22219718.25048
  22973705.563 5   -531511.969 5   -322884.73049  22973706.50049
  22736199.922 5     41785.234 5     28157.37947  22736198.78147
  20786651.820 6   -164631.445 6   -112437.85248  20786649.19148
  21553611.438 6    -68328.332 6    -44354.32449  21553613.09449
  20886638.430 7   -393910.469 7   -273889.12949  20886638.52049
  22079288.477 7   -109716.078 7    -75894.98848  22079286.64548
 20  5 16  0 26 32.0000000  0  8G03G04G08G14G16G26G27G31             0.000274101
  24849156.102 4    -55517.164 4    -34475.66048  24849159.17248
  22218853.703 6   -215477.477 6   -153842.27348  22218853.12948
  22972586.648 5   -537389.410 5   -327464.55149  22972587.86749
  22736367.797 5     42671.305 5     28847.82847  22736367.25047
  20786283.992 6   -166563.762 6   -113943.54748  20786281.28948
  21553460.156 6    -69123.918 6    -44974.26649  21553461.19149
  20885756.898 7   -398543.293 7   -277499.12149  20885757.10949
  22079053.445 6   -110951.383 6    -76857.56348  22079051.75848
 20  5 16  0 26 33.0000000  0  8G03G04G08G14G16G26G27G31             0.000272570
  24849031.234 4    -56177.984 4    -34990.59048  24849033.38748
  22217988.383 6   -220024.523 6   -157385.42248  22217987.75448
  22971467.891 5   -543267.828 5   -332045.14149  22971469.44949
  22736536.352 5     43556.309 5     29537.43847  22736535.71547
  20785916.227 6   -168497.063 6   -115450.02048  20785913.12548
  21553308.516 6    -69920.758 6    -45595.17649  21553309.61349
  20884875.102 7   -403176.863 7   -281109.68849  20884875.08249
  22078817.992 6   -112187.754 6    -77820.96948  22078816.10548
 20  5 16  0 26 34.0000000  0  8G03G04G08G14G16G26G27G31             0.000271038
  24848904.398 4    -56840.098 4    -35506.52048  24848907.50048
  22217122.750 6   -224572.414 6   -160929.23048  22217122.28948
  22970349.172 5   -549147.387 5   -336626.61349  22970350.50049
  22736704.570 5     44440.242 5     30226.21147  22736703.54347
  20785548.023 6   -170431.465 6   -116957.34848  20785545.09448
  21553156.328 6    -70718.867 6    -46217.07849  21553157.94949
  20883993.141 7   -407811.230 7   -284720.89149  20883993.10949
  22078582.992 6   -113425.219 6    -78785.23048  22078580.69948
 20  5 16  0 26 35.0000000  0  8G03G04G08G14G16G26G27G31             0.000269505
  24848778.336 4    -57503.355 4    -36023.34848  24848780.93848
  22216257.086 6   -229121.141 6   -164473.68848  22216256.57048
  22969230.789 5   -555027.977 5   -341208.88749  22969231.51249
  22736872.797 5     45323.152 5     30914.19147  22736871.83647
  20785179.508 6   -172366.852 6   -118465.44148  20785176.82448
  21553004.617 6    -71518.223 6    -46839.96149  21553006.04749
  20883111.281 7   -412446.332 7   -288332.65649  20883111.48449
  22078346.969 6   -114663.750 6    -79750.31348  22078345.28548
 20  5 16  0 26 36.0000000  0  8G03G04G08G14G16G26G27G31             0.000267971
  24848651.672 4    -58167.961 4    -36541.22748  24848654.21148
  22215391.281 6   -233670.738 6   -168018.83248  22215390.71548
  22968110.859 5   -560909.672 5   -345792.02349  22968112.03549
  22737040.531 5     46204.957 5     31601.30947  22737039.50047
  20784811.289 7   -174303.324 7   -119974.37948  20784808.71548
  21552852.242 6    -72318.852 6    -47463.82449  21552853.53549
  20882229.047 7   -417082.219 7   -291945.04349  20882228.82049
  22078110.922 6   -115903.391 6    -80716.27048  22078109.07448
 20  5 16  0 26 37.0000000  0  8G03G04G08G14G16G26G27G31             0.000266436
  24848525.125 4    -58833.703 4    -37059.98848  24848527.55148
  22214525.734 6   -238221.113 6   -171564.57048  22214525.11348
  22966992.047 5   -566792.402 5   -350375.97349  22966992.60249
  22737208.484 5     47085.750 5     32287.63347  22737206.95347
  20784442.688 6   -176240.797 6   -121484.09848  20784439.75448
  21552699.406 6    -73120.660 6    -48088.61349  21552700.72349
  20881346.461 7   -421718.867 7   -295558.00849  20881346.78149
  22077874.945 6   -117144.043 6    -81683.01248  22077873.20348
 20  5 16  0 26 38.0000000  0  8G03G04G08G14G16G26G27G31             0.000264902
  24848398.031 4    -59500.648 4    -37579.68848  24848400.80148
  22213659.250 6   -242772.273 6   -175110.93448  22213659.10248
  22965872.109 5   -572676.156 5   -354960.71549  22965873.15249
  22737375.805 5     47965.531 5     32973.18447  22737374.57447
  20784073.914 6   -178179.270 6   -122994.59448  20784071.14148
  21552546.727 6    -73923.730 6    -48714.38349  21552547.80949
  20880463.977 7   -426356.223 7   -299171.53549  20880464.50849
  22077638.375 6   -118385.750 6    -82650.58248  22077636.40648
 20  5 16  0 26 39.0000000  0  8G03G04G08G14G16G26G27G31             0.000263365
  24848271.180 4    -60168.848 4    -38100.36748  24848273.41848
  22212793.484 6   -247324.262 6   -178657.93848  22212793.01248
  22964752.273 5   -578560.965 5   -359546.27749  22964753.32049
  22737543.016 5     48844.266 5     33657.91447  22737541.67247
  20783704.555 6   -180118.762 6   -124505.88748  20783702.02748
  21552393.352 6    -74728.000 6    -49341.08649  21552394.82849
  20879581.453 7   -430994.328 7   -302785.64149  20879581.96149
  22077402.148 6   -119628.527 6    -83618.98448  22077399.88748
 20  5 16  0 26 40.0000000  0  8G03G04G08G14G16G26G27G31             0.000261829
  24848144.016 4    -60838.203 4    -38621.93848  24848146.08648
  22211927.094 6   -251877.066 6   -182205.58248  22211926.53948
  22963632.547 5   -584446.809 5   -364132.65249  22963633.28149
  22737710.258 5     49722.000 5     34341.86347  22737708.88747
  20783335.016 6   -182059.258 6   -126017.96148  20783332.47748
  21552240.477 6    -75533.477 6    -49968.73049  21552241.68449
  20878698.805 7   -435633.172 7   -306400.32849  20878698.79749
  22077165.445 7   -120872.324 7    -84588.17648  22077163.47348
 20  5 16  0 26 41.0000000  0  8G03G04G08G14G16G26G27G31             0.000260290
  24848015.977 4    -61508.805 4    -39144.48448  24848018.53148
  22211060.258 6   -256430.652 6   -185753.82448  22211060.16448
  22962512.094 5   -590333.707 5   -368719.85249  22962512.81649
  22737877.188 5     50598.676 5     35024.98047  22737875.91847
  20782966.055 6   -184000.762 6   -127530.82448  20782963.09848
  21552087.078 6    -76340.191 6    -50597.34049  21552088.40249
  20877815.625 7   -440272.746 7   -310015.58249  20877815.82049
  22076928.539 6   -122117.188 6    -85558.20348  22076926.99648
 20  5 16  0 26 42.0000000  0  8G03G04G08G14G16G26G27G31             0.000258753
  24847888.727 4    -62180.551 4    -39667.91848  24847890.75848
  22210193.656 6   -260985.004 6   -189302.67248  22210193.05948
  22961391.672 5   -596221.617 5   -373307.83249  22961392.47349
  22738043.273 5     51474.395 5     35707.35947  22738042.28947
  20782595.633 6   -185943.227 6   -129044.43448  20782593.29348
  21551933.344 6    -77148.078 6    -51226.85949  21551934.59049
  20876932.992 7   -444913.031 7   -313631.38749  20876932.99649
  22076691.398 6   -123363.035 6    -86528.99248  22076689.42648
 20  5 16  0 26 43.0000000  0  8G03G04G08G14G16G26G27G31             0.000257214
  24847760.672 4    -62853.457 4    -40192.25048  24847762.75448
  22209327.133 6   -265540.164 6   -192852.14848  22209326.49248
  22960270.969 5   -602110.563 5   -377896.61749  22960271.68049
  22738209.414 5     52349.051 5     36388.91447  22738208.55147
  20782226.094 6   -187886.707 6   -130558.83248  20782223.51648
  21551779.258 6    -77957.180 6    -51857.32849  21551780.34849
  20876049.781 7   -449554.020 7   -317247.74249  20876049.91849
  22076454.109 6   -124609.961 6    -87500.61748  22076452.55948
 20  5 16  0 26 44.0000000  0  8G03G04G08G14G16G26G27G31             0.000255672
  24847631.898 4    -63527.609 4    -40717.57048  24847633.84848
  22208459.828 6   -270096.148 6   -196402.26648  22208459.09048
  22959150.133 5   -608000.547 5   -382486.21549  22959151.10249
  22738376.352 5     53222.691 5     37069.66847  22738374.70747
  20781856.156 6   -189831.191 6   -132074.01248  20781853.55548
  21551625.141 6    -78767.523 6    -52488.77049  21551626.52049
  20875166.586 7   -454195.770 7   -320864.68849  20875166.59449
  22076217.195 6   -125857.930 6    -88473.06348  22076214.89848
 20  5 16  0 26 45.0000000  0  8G03G04G08G14G16G26G27G31             0.000254131
  24847502.961 4    -64203.039 4    -41243.87548  24847505.23848
  22207593.039 6   -274652.996 6   -199953.06348  22207592.48048
  22958028.750 5   -613891.621 5   -387076.66449  22958029.89549
  22738542.320 5     54095.211 5     37749.54747  22738540.48847
  20781485.953 6   -191776.797 6   -133590.07448  20781483.00848
  21551470.406 6    -79579.145 6    -53121.19949  21551471.68049
  20874283.047 7   -458838.316 7   -324482.25849  20874283.09449
  22075979.117 7   -127107.023 7    -89446.38348  22075977.09048
 20  5 16  0 26 46.0000000  0  8G03G04G08G14G16G26G27G31             0.000252590
  24847373.984 4    -64879.707 4    -41771.14848  24847376.52748
  22206726.102 6   -279210.668 6   -203504.50048  22206724.96148
  22956908.023 5   -619783.813 5   -391667.98049  22956909.00049
  22738707.867 5     54966.684 5     38428.61747  22738706.77347
  20781115.953 6   -193723.406 6   -135106.91848  20781113.00448
  21551315.758 6    -80392.031 6    -53754.61349  21551317.19949
  20873399.461 7   -463481.648 7   -328100.44149  20873399.29749
  22075741.125 6   -128357.188 6    -90420.53548  22075738.89848
 20  5 16  0 26 47.0000000  0  8G03G04G08G14G16G26G27G31             0.000251047
  24847245.492 4    -65557.590 4    -42299.37948  24847248.04348
  22205858.406 6   -283769.172 6   -207056.57848  22205857.69548
  22955786.344 5   -625677.023 5   -396260.09449  22955787.27349
  22738873.375 6     55837.152 6     39106.91047  22738872.31647
  20780744.688 6   -195671.047 6   -136624.55548  20780742.53948
  21551160.523 6    -81206.145 6    -54388.99249  21551162.18049
  20872515.828 7   -468125.715 7   -331719.19549  20872515.94149
  22075503.188 6   -129608.398 6    -91395.50448  22075501.20348
 20  5 16  0 26 48.0000000  0  8G03G04G08G14G16G26G27G31             0.000249504
  24847116.563 4    -66236.711 4    -42828.57448  24847118.81648
  22204990.641 6   -288328.508 6   -210609.30548  22204989.79348
  22954664.648 5   -631571.297 5   -400853.03549  22954665.99249
  22739038.797 5     56706.500 5     39784.32847  22739037.53147
  20780374.180 6   -197619.750 6   -138143.02348  20780371.54748
  21551005.531 6    -82021.492 6    -55024.32449  21551007.31649
  20871631.797 7   -472770.578 7   -335338.57049  20871631.46149
  22075264.625 6   -130860.707 6    -92371.32448  22075262.97348
 20  5 16  0 26 49.0000000  0  8G03G04G08G14G16G26G27G31             0.000247959
  24846987.172 4    -66916.969 4    -43358.64848  24846988.96548
  22204122.617 6   -292888.578 6   -214162.60248  22204122.07048
  22953542.648 5   -637466.574 5   -405446.75449  22953544.05149
  22739204.344 5     57574.898 5     40460.99647  22739203.25047
  20780003.266 6   -199569.402 6   -139662.23448  20780000.53948
  21550850.172 6    -82838.016 6    -55660.57849  21550851.66849
  20870747.789 7   -477416.086 7   -338958.44549  20870747.44149
  22075026.250 6   -132113.992 6    -93347.91448  22075024.49248
 20  5 16  0 26 50.0000000  0  8G03G04G08G14G16G26G27G31             0.000246414
  24846857.242 4    -67598.496 4    -43889.70748  24846859.27748
  22203254.453 6   -297449.504 6   -217716.57448  22203254.17648
  22952420.422 5   -643362.930 5   -410041.32049  22952422.18449
  22739369.641 5     58442.230 5     41136.83247  22739368.00047
  20779631.961 6   -201520.094 6   -141182.25848  20779629.26248
  21550694.531 6    -83655.805 6    -56297.82049  21550696.19549
  20869863.328 7   -482062.387 7   -342578.94149  20869863.46549
  22074787.672 7   -133368.371 7    -94325.35548  22074785.32048
 20  5 16  0 26 51.0000000  0  8G03G04G08G14G16G26G27G31             0.000244867
  24846727.688 4    -68281.156 4    -44421.64848  24846729.21548
  22202386.797 6   -302011.188 6   -221271.12948  22202386.16848
  22951298.602 5   -649260.262 5   -414636.64149  22951299.41049
  22739533.992 5     59308.613 5     41811.93447  22739532.45747
  20779260.484 6   -203471.723 6   -142703.00448  20779257.60948
  21550538.367 6    -84474.742 6    -56935.95749  21550540.25449
  20868979.469 7   -486709.375 7   -346199.97349  20868979.76649
  22074548.398 6   -134623.738 6    -95303.56348  22074546.59848
 20  5 16  0 26 52.0000000  0  8G03G04G08G14G16G26G27G31             0.000243320
  24846597.789 4    -68965.023 4    -44954.53148  24846599.68848
  22201518.727 6   -306573.637 6   -224826.28548  22201517.60948
  22950175.883 5   -655158.602 5   -419232.75449  22950177.09849
  22739698.570 5     60173.969 5     42486.24647  22739697.37947
  20778888.906 6   -205424.387 6   -144224.56348  20778886.25048
  21550382.781 6    -85294.910 6    -57575.04749  21550384.37549
  20868094.805 7   -491357.078 7   -349821.55949  20868094.75049
  22074309.383 6   -135880.137 6    -96282.58248  22074307.52048
 20  5 16  0 26 53.0000000  0  8G03G04G08G14G16G26G27G31             0.000241774
  24846467.047 4    -69650.031 4    -45488.30948  24846469.20748
  22200649.828 6   -311136.871 6   -228382.05548  22200649.34448
  22949053.141 5   -661057.957 5   -423829.65249  22949054.80549
  22739863.367 5     61038.328 5     43159.76247  22739861.83247
  20778517.438 6   -207377.996 6   -145746.85248  20778514.54348
  21550226.727 6    -86116.270 6    -58215.06649  21550227.86349
  20867210.320 7   -496005.477 7   -353443.68049  20867210.62549
  22074070.359 6   -137137.547 6    -97262.37548  22074068.57048
 20  5 16  0 26 54.0000000  0  8G03G04G08G14G16G26G27G31             0.000240225
  24846336.344 4    -70336.277 4    -46023.03948  24846338.35548
  22199781.656 6   -315700.883 6   -231938.42648  22199780.97748
  22947930.727 5   -666958.352 5   -428427.36749  22947932.05549
  22740027.734 5     61901.680 5     43832.51247  22740026.38347
  20778145.242 6   -209332.621 6   -147269.93848  20778143.14848
  21550069.930 6    -86938.805 6    -58856.00849  21550071.29349
  20866325.602 7   -500654.602 7   -357066.37949  20866325.58249
  22073830.727 6   -138396.004 6    -98242.99648  22073828.78548
 20  5 16  0 26 55.0000000  0  8G03G04G08G14G16G26G27G31             0.000238676
  24846205.531 4    -71023.660 4    -46558.66848  24846207.91848
  22198912.586 6   -320265.695 6   -235495.43048  22198912.18048
  22946807.508 5   -672859.809 5   -433025.90649  22946808.83649
  22740192.094 5     62763.949 5     44504.40247  22740190.47747
  20777773.531 6   -211288.250 6   -148793.80948  20777770.66048
  21549913.219 6    -87762.578 6    -59497.90649  21549914.78549
  20865440.547 7   -505304.465 7   -360689.64849  20865440.70349
  22073591.398 6   -139655.508 6    -99224.43048  22073589.52748
 20  5 16  0 26 56.0000000  0  8G03G04G08G14G16G26G27G31             0.000237125
  24846074.273 4    -71712.266 4    -47095.24248  24846077.14148
  22198043.766 6   -324831.273 6   -239053.02348  22198043.33648
  22945684.453 5   -678762.242 5   -437625.20349  22945685.67249
  22740356.172 6     63625.305 6     45175.59847  22740354.11747
  20777400.719 6   -213244.828 6   -150318.41448  20777398.03548
  21549756.133 6    -88587.496 6    -60140.70349  21549757.64149
  20864555.797 7   -509955.008 7   -364313.44949  20864555.90649
  22073351.305 6   -140915.984 6   -100206.62148  22073349.31348
 20  5 16  0 26 57.0000000  0  8G03G04G08G14G16G26G27G31             0.000235575
  24845943.516 4    -72402.090 4    -47632.76648  24845945.68848
  22197175.180 6   -329397.703 6   -242611.27748  22197174.87548
  22944561.500 5   -684665.766 5   -442225.34849  22944562.43449
  22740519.281 6     64485.531 6     45845.90247  22740518.05147
  20777028.016 6   -215202.500 6   -151843.87548  20777025.53948
  21549598.961 6    -89413.711 6    -60784.50849  21549600.64849
  20863670.531 7   -514606.340 7   -367937.86749  20863670.79349
  22073111.219 6   -142177.590 6   -101189.68848  22073109.00848
 20  5 16  0 26 58.0000000  0  8G03G04G08G14G16G26G27G31             0.000234022
  24845812.102 4    -73093.234 4    -48171.32048  24845814.27048
  22196306.039 6   -333965.027 6   -246170.23048  22196305.65248
  22943437.609 5   -690570.379 5   -446826.34849  22943438.74649
  22740682.672 5     65344.645 5     46515.33647  22740681.36747
  20776655.555 6   -217161.242 6   -153370.16848  20776652.35948
  21549441.656 6    -90241.238 6    -61429.34049  21549443.05149
  20862785.242 7   -519258.492 7   -371562.91849  20862785.18849
  22072870.859 6   -143440.309 6   -102173.62148  22072869.02748
 20  5 16  0 26 59.0000000  0  8G03G04G08G14G16G26G27G31             0.000232470
  24845680.820 4    -73785.473 4    -48710.73448  24845682.54748
  22195436.219 6   -338533.098 6   -249729.76248  22195435.96148
  22942314.094 5   -696475.969 5   -451428.10549  22942315.23849
  22740845.523 6     66202.820 6     47184.04347  22740844.62947
  20776283.000 7   -219120.941 7   -154897.21148  20776280.00048
  21549283.828 6    -91069.926 6    -62075.07049  21549285.07449
  20861899.914 7   -523911.328 7   -375188.50449  20861900.19949
  22072630.555 6   -144704.023 6   -103158.33248  22072628.75048
 20  5 16  0 27  0.0000000  0  8G03G04G08G14G16G26G27G31             0.000230917
  24845548.211 4    -74478.980 4    -49251.12948  24845550.38348
  22194566.766 6   -343101.996 6   -253289.94148  22194566.60248
  22941189.547 5   -702382.691 5   -456030.75049  22941190.93049
  22741008.328 5     67059.895 5     47851.89547  22741007.51647
  20775909.969 6   -221081.691 6   -156425.06348  20775907.22348
  21549125.781 6    -91899.859 6    -62721.77349  21549127.37549
  20861014.398 7   -528564.938 7   -378814.68849  20861014.71549
  22072389.742 6   -145968.809 6   -104143.87948  22072387.93848
 20  5 16  0 27  1.0000000  0  8G03G04G08G14G16G26G27G31             0.000229362
  24845415.914 4    -75173.781 4    -49792.53548  24845418.35548
  22193698.141 6   -347671.711 6   -256850.76248  22193697.26648
  22940065.305 5   -708290.438 5   -460634.19549  22940066.78949
  22741172.063 5     67915.949 5     48518.94947  22741170.88747
  20775536.258 6   -223043.465 6   -157953.72348  20775533.75848
  21548967.547 6    -92731.051 6    -63369.45749  21548969.07049
  20860128.945 7   -533219.289 7   -382441.45349  20860128.86749
  22072149.000 6   -147234.680 6   -105130.27348  22072146.90648
 20  5 16  0 27  2.0000000  0  8G03G04G08G14G16G26G27G31             0.000227806
  24845283.578 4    -75869.711 4    -50334.81648  24845285.04748
  22192828.148 6   -352242.238 6   -260412.20348  22192827.22348
  22938940.922 5   -714199.211 5   -465238.43449  22938942.63349
  22741334.828 5     68770.961 5     49185.19147  22741333.57447
  20775162.867 6   -225006.258 6   -159483.16448  20775160.13748
  21548809.578 6    -93563.430 6    -64018.06649  21548810.73849
  20859242.836 7   -537874.383 7   -386068.80149  20859242.95349
  22071907.664 6   -148501.582 6   -106117.47348  22071906.10548
 20  5 16  0 27  3.0000000  0  8G03G04G08G14G16G26G27G31             0.000226252
  24845151.242 4    -76566.781 4    -50877.98448  24845153.05948
  22191958.297 6   -356813.496 6   -263974.22748  22191957.15648
  22937816.461 6   -720108.984 6   -469843.45349  22937817.64149
  22741496.828 5     69625.008 5     49850.67247  22741495.58647
  20774789.383 6   -226969.977 6   -161013.33648  20774786.67248
  21548650.875 6    -94396.984 6    -64667.58649  21548652.30949
  20858356.992 7   -542530.148 7   -389696.66849  20858357.10249
  22071666.516 6   -149769.480 6   -107105.44948  22071664.44548
 20  5 16  0 27  4.0000000  0  8G03G04G08G14G16G26G27G31             0.000224695
  24845017.922 5    -77265.063 5    -51422.09848  24845019.62548
  22191088.258 6   -361385.512 6   -267536.83248  22191087.31648
  22936692.008 6   -726019.738 6   -474449.23049  22936693.12949
  22741659.453 5     70478.082 5     50515.40247  22741658.12147
  20774415.164 6   -228934.668 6   -162544.27048  20774412.24248
  21548492.328 6    -95231.703 6    -65318.02049  21548493.27749
  20857470.914 7   -547186.566 7   -393325.05149  20857471.21949
  22071425.000 6   -151038.359 6   -108094.18448  22071423.13748
 20  5 16  0 27  5.0000000  0  8G03G04G08G14G16G26G27G31             0.000223137
  24844885.039 4    -77964.473 4    -51967.09448  24844887.22748
  22190218.055 6   -365958.297 6   -271100.05148  22190217.23048
  22935567.422 5   -731931.504 5   -479055.80549  22935568.36349
  22741821.234 5     71330.145 5     51179.34847  22741820.06647
  20774041.000 6   -230900.332 6   -164075.96148  20774038.60948
  21548333.023 6    -96067.613 6    -65969.37949  21548334.43849
  20856585.023 7   -551843.711 7   -396953.99649  20856584.85249
  22071183.594 6   -152308.258 6   -109083.71948  22071181.30948
 20  5 16  0 27  6.0000000  0  8G03G04G08G14G16G26G27G31             0.000221579
  24844751.672 4    -78665.055 4    -52512.99648  24844753.39148
  22189347.914 6   -370531.836 6   -274663.84848  22189347.04348
  22934441.617 5   -737844.258 5   -483663.14549  22934442.66449
  22741983.375 5     72181.203 5     51842.51647  22741982.15647
  20773666.828 6   -232866.961 6   -165608.39548  20773663.69148
  21548173.531 6    -96904.703 6    -66621.66049  21548174.77349
  20855698.453 7   -556501.563 7   -400583.48849  20855698.59849
  22070941.914 6   -153579.188 6   -110074.05948  22070939.52048
 20  5 16  0 27  7.0000000  0  8G03G04G08G14G16G26G27G31             0.000220018
  24844618.055 5    -79366.809 5    -53059.82448  24844619.71948
  22188477.547 6   -375106.164 6   -278228.26248  22188476.60948
  22933316.578 5   -743758.016 5   -488271.27049  22933317.64149
  22742145.094 5     73031.281 5     52504.91447  22742143.90647
  20773292.625 6   -234834.609 6   -167141.62948  20773289.76248
  21548013.633 6    -97743.012 6    -67274.89149  21548015.30949
  20854811.867 7   -561160.129 7   -404213.54749  20854812.09049
  22070699.695 6   -154851.113 6   -111065.16848  22070697.39848
 20  5 16  0 27  8.0000000  0  8G03G04G08G14G16G26G27G31             0.000218460
  24844484.383 4    -80069.801 4    -53607.60948  24844486.34448
  22187606.977 6   -379681.266 6   -281793.27348  22187606.02048
  22932190.984 5   -749672.789 5   -492880.18849  22932191.80549
  22742306.508 5     73880.352 5     53166.52347  22742305.23047
  20772918.078 6   -236803.246 6   -168675.63348  20772915.06348
  21547854.453 6    -98582.512 6    -67929.04349  21547855.76649
  20853925.031 7   -565819.387 7   -407844.13749  20853925.14549
  22070457.445 6   -156124.074 6   -112057.08648  22070455.27048
 20  5 16  0 27  9.0000000  0  8G03G04G08G14G16G26G27G31             0.000216898
  24844350.336 4    -80773.980 4    -54156.31648  24844352.56348
  22186735.820 6   -384257.199 6   -285358.94148  22186735.33248
  22931065.273 5   -755588.629 5   -497489.93849  22931066.46949
  22742468.313 5     74728.367 5     53827.31347  22742467.21547
  20772542.992 6   -238772.898 6   -170210.43048  20772540.30148
  21547694.125 6    -99423.242 6    -68584.15649  21547695.46149
  20853038.219 7   -570479.406 7   -411475.31649  20853038.73449
  22070214.836 6   -157398.090 6   -113049.82848  22070212.88748
 20  5 16  0 27 10.0000000  0  8G03G04G08G14G16G26G27G31             0.000215338
  24844216.008 4    -81479.242 4    -54705.87548  24844218.14848
  22185865.148 6   -388833.793 6   -288925.12148  22185863.93048
  22929939.344 5   -761505.359 5   -502100.37549  22929940.35949
  22742629.758 5     75575.469 5     54487.38347  22742627.71947
  20772167.664 6   -240743.438 6   -171745.91448  20772164.84048
  21547533.938 6   -100265.098 6    -69240.14849  21547535.29349
  20852151.609 7   -575140.047 7   -415106.98449  20852151.86349
  22069972.570 6   -158673.047 6   -114043.30148  22069970.48448
 20  5 16  0 27 11.0000000  0  8G03G04G08G14G16G26G27G31             0.000213774
  24844081.930 4    -82185.711 4    -55256.36748  24844083.82448
  22184993.969 6   -393411.199 6   -292491.93048  22184993.03548
  22928813.406 5   -767423.160 5   -506711.64849  22928813.94949
  22742790.383 5     76421.555 5     55146.67247  22742789.34847
  20771793.039 6   -242714.980 6   -173282.18048  20771790.15248
  21547373.484 6   -101108.129 6    -69897.05949  21547375.00449
  20851264.406 7   -579801.398 7   -418739.21149  20851264.76649
  22069729.563 6   -159949.016 6   -115037.56348  22069727.45348
 20  5 16  0 27 12.0000000  0  8G03G04G08G14G16G26G27G31             0.000212212
  24843947.156 5    -82893.355 5    -55807.78148  24843949.68048
  22184122.609 6   -397989.348 6   -296059.32048  22184121.82848
  22927686.578 5   -773341.922 5   -511323.67249  22927687.92649
  22742951.273 5     77266.641 5     55805.18047  22742950.11347
  20771417.656 6   -244687.492 6   -174819.20748  20771414.73048
  21547213.195 6   -101952.344 6    -70554.89149  21547214.29749
  20850377.266 7   -584463.449 7   -422371.98049  20850377.80149
  22069486.227 6   -161226.012 6   -116032.62548  22069484.48448
 20  5 16  0 27 13.0000000  0  8G03G04G08G14G16G26G27G31             0.000210648
  24843811.914 4    -83602.148 4    -56360.09048  24843814.74648
  22183251.156 6   -402568.270 6   -299627.31648  22183250.66448
  22926559.992 5   -779261.688 5   -515936.47349  22926561.38349
  22743111.938 5     78110.770 5     56462.92647  22743111.10547
  20771041.781 6   -246660.969 6   -176356.97748  20771039.02748
  21547051.984 6   -102797.754 6    -71213.64849  21547053.39849
  20849489.992 7   -589126.176 7   -426005.26649  20849490.24649
  22069243.156 6   -162503.984 6   -117028.45348  22069241.36348
 20  5 16  0 27 14.0000000  0  8G03G04G08G14G16G26G27G31             0.000209082
  24843677.188 4    -84312.102 4    -56913.30148  24843679.61748
  22182379.820 6   -407147.918 6   -303195.87148  22182379.23048
  22925433.672 5   -785182.434 5   -520550.04349  22925434.37149
  22743272.195 5     78953.891 5     57119.89847  22743270.88747
  20770666.016 6   -248635.410 6   -177895.50048  20770663.39148
  21546891.148 6   -103644.316 6    -71873.31349  21546892.65649
  20848602.461 7   -593789.586 7   -429639.09449  20848603.05149
  22068999.781 6   -163782.969 6   -118025.05948  22068998.03948
 20  5 16  0 27 15.0000000  0  8G03G04G08G14G16G26G27G31             0.000207518
  24843541.734 4    -85023.238 4    -57467.43848  24843544.70348
  22181507.883 6   -411728.371 6   -306765.05548  22181507.51648
  22924306.422 5   -791104.199 5   -525164.40249  22924307.82849
  22743432.688 5     79796.012 5     57776.09047  22743431.52347
  20770290.227 6   -250610.852 6   -179434.80948  20770287.07848
  21546729.219 6   -104492.086 6    -72533.91049  21546731.08249
  20847715.227 7   -598453.746 7   -433273.51249  20847715.27049
  22068756.117 6   -165062.992 6   -119022.48448  22068754.40248
 20  5 16  0 27 16.0000000  0  8G03G04G08G14G16G26G27G31             0.000205950
  24843406.641 4    -85735.566 4    -58022.49648  24843408.96548
  22180636.148 6   -416309.566 6   -310334.82048  22180635.83248
  22923179.570 5   -797026.945 5   -529779.52349  22923180.80549
  22743592.906 5     80637.141 5     58431.52347  22743591.37147
  20769914.008 6   -252587.254 6   -180974.86748  20769911.66848
  21546567.953 6   -105341.031 6    -73195.43049  21546569.56349
  20846827.406 7   -603118.539 7   -436908.41449  20846827.30549
  22068512.664 6   -166344.004 6   -120020.67248  22068510.51248
 20  5 16  0 27 17.0000000  0  8G03G04G08G14G16G26G27G31             0.000204384
  24843270.469 4    -86448.926 4    -58578.36348  24843273.07848
  22179764.734 6   -420891.449 6   -313905.11348  22179764.25448
  22922052.828 5   -802950.609 5   -534395.36749  22922053.50049
  22743752.719 5     81477.391 5     59086.27047  22743751.53947
  20769538.109 6   -254564.512 6   -182515.59048  20769535.16848
  21546406.070 6   -106191.063 6    -73857.78549  21546407.46549
  20845939.547 7   -607783.969 7   -440543.81349  20845939.74649
  22068268.273 6   -167625.918 6   -121019.56348  22068266.68848
 20  5 16  0 27 18.0000000  0  8G03G04G08G14G16G26G27G31             0.000202816
  24843135.430 5    -87163.523 5    -59135.18848  24843137.26248
  22178892.641 6   -425474.148 6   -317476.04748  22178891.77048
  22920924.695 5   -808875.344 5   -539012.04349  22920925.91849
  22743912.414 5     82316.547 5     59740.16047  22743910.91447
  20769161.867 6   -256542.852 6   -184057.15248  20769158.85948
  21546244.281 6   -107042.363 6    -74521.14149  21546245.84849
  20845051.344 7   -612450.156 7   -444179.80949  20845051.66049
  22068024.484 6   -168908.906 6   -122019.29748  22068022.68848
 20  5 16  0 27 19.0000000  0  8G03G04G08G14G16G26G27G31             0.000201246
  24842998.234 4    -87879.363 4    -59692.98448  24843000.60948
  22178020.133 6   -430057.672 6   -321047.61748  22178019.76648
  22919797.055 5   -814801.137 5   -543629.55149  22919798.36749
  22744071.961 5     83154.648 5     60393.21947  22744070.88347
  20768784.641 6   -258522.219 6   -185599.51248  20768782.01648
  21546081.781 6   -107894.863 6    -75185.42649  21546083.63349
  20844163.750 7   -617117.098 7   -447816.37949  20844163.86749
  22067779.734 6   -170192.980 6   -123019.87548  22067778.14548
 20  5 16  0 27 20.0000000  0  8G03G04G08G14G16G26G27G31             0.000199677
  24842861.953 5    -88596.355 5    -60251.68048  24842864.68448
  22177147.703 6   -434641.934 6   -324619.77348  22177147.41848
  22918669.367 5   -820727.887 5   -548247.79749  22918670.34849
  22744231.125 5     83991.809 5     61045.55147  22744229.86347
  20768407.898 6   -260502.520 6   -187142.60548  20768405.41848
  21545919.680 6   -108748.563 6    -75850.64849  21545920.98849
  20843275.359 7   -621784.711 7   -451453.47749  20843275.64149
  22067535.875 7   -171478.035 7   -124021.21948  22067533.65648
 20  5 16  0 27 21.0000000  0  8G03G04G08G14G16G26G27G31             0.000198107
  24842725.680 5    -89314.500 5    -60811.27348  24842727.93048
  22176275.516 6   -439226.961 6   -328192.52048  22176274.55148
  22917541.883 5   -826655.648 5   -552866.84049  22917542.67649
  22744390.266 5     84827.980 5     61697.10947  22744389.10247
  20768031.070 6   -262483.785 6   -188686.44548  20768028.48448
  21545757.250 6   -109603.426 6    -76516.77349  21545758.35949
  20842386.977 7   -626453.008 7   -455091.11349  20842387.16849
  22067290.969 6   -172764.090 6   -125023.34048  22067288.89148
 20  5 16  0 27 22.0000000  0  8G03G04G08G14G16G26G27G31             0.000196535
  24842588.211 4    -90033.781 4    -61371.75048  24842591.11348
  22175402.914 6   -443812.680 6   -331765.80948  22175402.31348
  22916413.234 5   -832584.316 5   -557486.57849  22916414.68049
  22744549.578 5     85663.168 5     62347.89547  22744548.45347
  20767654.094 6   -264465.984 6   -190231.02048  20767651.22748
  21545593.844 6   -110459.422 6    -77183.78549  21545595.42249
  20841498.477 7   -631121.965 7   -458729.26249  20841498.44149
  22067046.227 6   -174051.102 6   -126026.20748  22067044.18848
 20  5 16  0 27 23.0000000  0  8G03G04G08G14G16G26G27G31             0.000194963
  24842451.484 5    -90754.191 5    -61933.10948  24842453.83248
  22174530.234 6   -448399.160 6   -335339.69548  22174529.45748
  22915284.586 5   -838514.016 5   -562107.12949  22915285.77749
  22744708.484 5     86497.395 5     62997.93447  22744707.27047
  20767276.484 6   -266449.113 6   -191776.30948  20767273.77748
  21545431.141 6   -111316.590 6    -77851.71549  21545432.30949
  20840609.773 7   -635791.582 7   -462367.91849  20840609.97349
  22066800.852 6   -175339.102 6   -127029.85548  22066798.66848
 20  5 16  0 27 24.0000000  0  8G03G04G08G14G16G26G27G31             0.000193390
  24842314.008 5    -91475.762 5    -62495.37148  24842316.30948
  22173657.539 6   -452986.324 6   -338914.10548  22173656.76248
  22914156.453 5   -844444.629 5   -566728.38749  22914157.43849
  22744866.672 5     87330.695 5     63647.25447  22744865.26247
  20766899.148 7   -268433.160 7   -193322.32048  20766896.35248
  21545267.578 6   -112174.887 6    -78520.51649  21545269.20749
  20839721.180 7   -640461.832 7   -466007.07449  20839721.00849
  22066555.734 6   -176628.027 6   -128034.20748  22066553.60948
 20  5 16  0 27 25.0000000  0  8G03G04G08G14G16G26G27G31             0.000191816
  24842176.797 4    -92198.504 4    -63058.54748  24842178.99648
  22172784.164 6   -457574.328 6   -342489.17248  22172783.61748
  22913027.594 5   -850376.277 5   -571350.44549  22913028.46149
  22745025.203 5     88162.961 5     64295.77047  22745023.83647
  20766521.414 6   -270418.258 6   -194869.15248  20766518.81348
  21545104.313 6   -113034.398 6    -79190.26249  21545105.38749
  20838832.195 7   -645132.848 7   -469646.82449  20838832.55549
  22066309.984 6   -177918.035 6   -129039.41448  22066307.93448
 20  5 16  0 27 26.0000000  0  8G03G04G08G14G16G26G27G31             0.000190243
  24842039.227 5    -92922.387 5    -63622.60948  24842040.94148
  22171910.758 6   -462163.020 6   -346064.78148  22171910.07448
  22911898.555 5   -856308.891 5   -575973.25849  22911899.44149
  22745183.492 5     88994.258 5     64943.53947  22745182.40647
  20766143.195 6   -272404.270 6   -196416.69948  20766140.51248
  21544940.172 6   -113895.043 6    -79860.90249  21544941.84049
  20837943.461 7   -649804.512 7   -473287.08249  20837943.27749
  22066064.266 6   -179209.008 6   -130045.36748  22066062.34448
 20  5 16  0 27 27.0000000  0  8G03G04G08G14G16G26G27G31             0.000188667
  24841901.523 5    -93647.492 5    -64187.62948  24841903.00848
  22171037.656 6   -466752.539 6   -349641.02048  22171036.95748
  22910769.391 5   -862242.559 5   -580596.89149  22910770.37949
  22745341.633 5     89824.539 5     65590.52047  22745340.01247
  20765764.750 6   -274391.305 6   -197965.03548  20765762.60548
  21544776.344 6   -114756.938 6    -80532.51249  21544777.57849
  20837054.102 7   -654476.906 7   -476927.90649  20837054.66849
  22065818.273 6   -180501.023 6   -131052.12948  22065816.32048
 20  5 16  0 27 28.0000000  0  8G03G04G08G14G16G26G27G31             0.000187092
  24841762.969 5    -94373.727 5    -64753.52348  24841764.69548
  22170163.781 6   -471342.781 6   -353217.83248  22170163.49248
  22909639.953 5   -868177.168 5   -585221.26649  22909640.91449
  22745499.023 5     90653.836 5     66236.71547  22745498.13347
  20765386.813 6   -276379.270 6   -199514.10248  20765384.09048
  21544611.813 6   -115619.992 6    -81205.02049  21544613.36349
  20836165.008 7   -659149.934 7   -480569.23049  20836165.05149
  22065572.508 6   -181794.004 6   -132059.64848  22065570.52048
 20  5 16  0 27 29.0000000  0  8G03G04G08G14G16G26G27G31             0.000185514
  24841623.578 5    -95100.957 5    -65320.19548  24841626.93448
  22169290.477 6   -475933.648 6   -356795.13348  22169289.79748
  22908510.594 5   -874112.652 5   -589846.32849  22908511.27349
  22745656.961 5     91482.305 5     66882.27747  22745655.39547
  20765008.211 6   -278368.094 6   -201063.84048  20765005.40648
  21544448.070 6   -116484.066 6    -81878.32449  21544449.43449
  20835275.813 7   -663823.551 7   -484211.00849  20835275.73049
  22065326.406 6   -183087.848 6   -133067.83648  22065324.16848
 20  5 16  0 27 30.0000000  0  8G03G04G08G14G16G26G27G31             0.000183937
  24841484.984 5    -95829.535 5    -65887.93048  24841487.78548
  22168416.563 6   -480525.406 6   -360373.12948  22168415.98848
  22907380.758 5   -880049.258 5   -594472.24249  22907382.02049
  22745814.406 5     92309.625 5     67526.93847  22745812.62547
  20764629.953 6   -280357.996 6   -202614.41048  20764626.97748
  21544283.109 6   -117349.453 6    -82552.65249  21544284.19549
  20834385.945 7   -668497.965 7   -487853.41449  20834386.37949
  22065080.070 7   -184382.844 7   -134076.92648  22065077.92248
 20  5 16  0 27 31.0000000  0  8G03G04G08G14G16G26G27G31             0.000182360
  24841346.516 5    -96559.219 5    -66456.52048  24841349.32848
  22167543.008 6   -485117.848 6   -363951.64848  22167542.03948
  22906250.648 5   -885986.801 5   -599098.89149  22906251.91849
  22745971.469 5     93135.992 5     68170.85547  22745969.75047
  20764250.750 6   -282348.820 6   -204165.70348  20764248.18848
  21544118.227 6   -118215.977 6    -83227.85949  21544119.54749
  20833496.266 7   -673173.047 7   -491496.34049  20833496.92649
  22064833.352 7   -185678.809 7   -135086.76648  22064831.31648
 20  5 16  0 27 32.0000000  0  8G03G04G08G14G16G26G27G31             0.000180780
  24841207.781 5    -97290.090 5    -67026.02748  24841209.82048
  22166669.031 6   -489711.082 6   -367530.79348  22166667.84448
  22905121.047 5   -891925.352 5   -603726.32849  22905122.07449
  22746129.023 5     93961.398 5     68814.03547  22746127.16447
  20763871.516 6   -284340.656 6   -205717.78148  20763869.11748
  21543953.086 6   -119083.691 6    -83904.00449  21543954.05549
  20832606.570 7   -677848.813 7   -495139.79349  20832607.07849
  22064586.578 7   -186975.766 7   -136097.38348  22064584.37548
 20  5 16  0 27 33.0000000  0  8G03G04G08G14G16G26G27G31             0.000179199
  24841069.102 4    -98022.047 4    -67596.37548  24841071.02348
  22165794.828 6   -494304.980 6   -371110.45348  22165793.75848
  22903990.641 5   -897864.805 5   -608354.46949  22903991.65649
  22746285.383 5     94785.902 5     69456.50847  22746283.89847
  20763492.469 6   -286333.344 6   -207270.52048  20763489.94548
  21543787.477 6   -119952.488 6    -84580.98849  21543788.69549
  20831716.969 7   -682525.191 7   -498783.73849  20831716.69949
  22064339.523 6   -188273.633 6   -137108.69948  22064337.39848
 20  5 16  0 27 34.0000000  0  8G03G04G08G14G16G26G27G31             0.000177620
  24840928.227 5    -98755.199 5    -68167.65248  24840931.29348
  22164920.359 6   -498899.688 6   -374690.75048  22164919.47348
  22902860.078 5   -903805.336 5   -612983.45349  22902861.39149
  22746441.922 5     95609.324 5     70098.13347  22746440.52347
  20763112.859 6   -288327.090 6   -208824.09448  20763109.95348
  21543621.953 6   -120822.535 6    -85258.94949  21543623.70749
  20830826.789 7   -687202.309 7   -502428.24249  20830826.68449
  22064092.523 6   -189572.578 6   -138120.86748  22064090.40248
 20  5 16  0 27 35.0000000  0  8G03G04G08G14G16G26G27G31             0.000176039
  24840788.750 4    -99489.520 4    -68739.84848  24840791.77348
  22164045.672 6   -503495.180 6   -378271.65248  22164045.21148
  22901729.672 5   -909746.832 5   -617613.19149  22901730.84049
  22746598.570 5     96431.793 5     70739.01647  22746596.88747
  20762733.570 6   -290321.785 6   -210378.39848  20762731.12548
  21543456.344 6   -121693.754 6    -85937.81649  21543458.00049
  20829936.695 7   -691880.113 7   -506073.29349  20829936.79749
  22063844.844 6   -190872.523 6   -139133.80948  22063843.28548
 20  5 16  0 27 36.0000000  0  8G03G04G08G14G16G26G27G31             0.000174456
  24840649.250 5   -100225.027 5    -69312.97348  24840651.56348
  22163170.734 6   -508091.426 6   -381853.14548  22163170.34848
  22900599.227 5   -915689.316 5   -622243.69949  22900600.18849
  22746755.422 5     97253.332 5     71379.17647  22746753.39847
  20762353.938 6   -292317.469 6   -211933.48448  20762351.63348
  21543290.289 6   -122566.156 6    -86617.61349  21543291.49649
  20829046.242 7   -696558.656 7   -509718.89849  20829046.84849
  22063596.977 6   -192173.465 6   -140147.53148  22063595.27048
 20  5 16  0 27 37.0000000  0  8G03G04G08G14G16G26G27G31             0.000172873
  24840508.805 4   -100961.621 4    -69886.94148  24840511.05548
  22162295.906 6   -512688.340 6   -385435.16048  22162295.27748
  22899467.922 5   -921632.746 5   -626874.96149  22899469.38749
  22746911.469 4     98073.977 4     72018.63347  22746909.76647
  20761973.906 6   -294314.070 6   -213489.27348  20761970.94948
  21543123.977 6   -123439.734 6    -87298.32849  21543125.59849
  20828156.023 7   -701237.750 7   -513364.94949  20828155.68049
  22063349.344 6   -193475.391 6   -141162.01648  22063347.60548
 20  5 16  0 27 38.0000000  0  8G03G04G08G14G16G26G27G31             0.000171289
  24840367.797 4   -101699.418 4    -70461.84848  24840370.73848
  22161421.477 6   -517286.043 6   -389017.78548  22161420.61748
  22898336.656 5   -927577.172 5   -631507.00849  22898338.45349
  22747067.266 4     98893.539 4     72657.23046  22747065.81346
  20761593.281 6   -296311.637 6   -215045.79748  20761590.56348
  21542957.516 6   -124314.453 6    -87979.93049  21542958.85949
  20827265.359 7   -705917.586 7   -517011.58249  20827265.35549
  22063101.508 6   -194778.305 6   -142177.23848  22063099.76648
 20  5 16  0 27 39.0000000  0  8G03G04G08G14G16G26G27G31             0.000169704
  24840227.898 5   -102438.355 5    -71037.64848  24840230.00048
  22160546.172 6   -521884.484 6   -392600.97748  22160545.80148
  22897205.953 5   -933522.605 5   -636139.82049  22897207.03549
  22747223.172 4     99712.113 4     73295.05946  22747221.69946
  20761213.180 6   -298310.184 6   -216603.09448  20761210.20348
  21542791.117 6   -125190.340 6    -88662.43849  21542792.70349
  20826374.617 6   -710598.102 6   -520658.74249  20826374.60549
  22062853.398 6   -196082.219 6   -143193.25847  22062851.64847
 20  5 16  0 27 40.0000000  0  8G03G04G08G14G16G26G27G31             0.000168118
  24840086.641 5   -103178.418 5    -71614.32848  24840088.91048
  22159671.391 6   -526483.648 6   -396184.74248  22159670.07848
  22896073.664 5   -939468.945 5   -640773.34049  22896075.69549
  22747379.344 4    100529.738 4     73932.15646  22747377.53546
  20760833.289 6   -300309.629 6   -218161.10248  20760829.85548
  21542624.047 6   -126067.379 6    -89345.83249  21542625.55949
  20825483.695 6   -715279.281 6   -524306.41049  20825483.88349
  22062605.125 6   -197387.066 6   -144210.00847  22062603.37147
 20  5 16  0 27 41.0000000  0  8G03G04G08G14G16G26G27G31             0.000166533
  24839945.750 5   -103919.660 5    -72191.92248  24839947.95348
  22158795.680 6   -531083.535 6   -399769.06648  22158794.83248
  22894942.188 5   -945416.254 5   -645407.59849  22894944.01249
  22747534.523 4    101346.352 4     74568.48046  22747533.03546
  20760452.352 6   -302310.023 6   -219719.86348  20760449.14148
  21542457.094 6   -126945.539 6    -90030.12149  21542458.35949
  20824592.945 7   -719961.109 7   -527954.59049  20824593.07449
  22062356.648 6   -198692.910 6   -145227.55947  22062354.68847
 20  5 16  0 27 42.0000000  0  8G03G04G08G14G16G26G27G31             0.000164946
  24839804.617 5   -104662.012 5    -72770.37948  24839806.55148
  22157920.664 6   -535684.172 6   -403353.98048  22157919.59048
  22893810.383 5   -951364.605 5   -650042.67649  22893811.79749
  22747689.289 4    102161.996 4     75204.05146  22747688.03946
  20760071.531 6   -304311.406 6   -221279.39848  20760068.11748
  21542289.492 6   -127824.898 6    -90715.33649  21542290.64849
  20823701.891 7   -724643.613 7   -531603.29749  20823702.02049
  22062108.070 6   -199999.730 6   -146245.87147  22062105.97747
 20  5 16  0 27 43.0000000  0  8G03G04G08G14G16G26G27G31             0.000163357
  24839663.008 5   -105405.582 5    -73349.77748  24839665.30948
  22157044.531 6   -540285.566 6   -406939.48848  22157043.59848
  22892677.469 5   -957313.906 5   -654678.48849  22892679.96549
  22747845.016 4    102976.684 4     75838.88346  22747843.35946
  20759690.969 6   -306313.730 6   -222839.65248  20759686.96548
  21542122.336 6   -128705.453 6    -91401.48049  21542123.51649
  20822810.539 7   -729326.816 7   -535252.53949  20822810.94149
  22061859.594 6   -201307.559 6   -147264.96947  22061857.02347
 20  5 16  0 27 44.0000000  0  8G03G04G08G14G16G26G27G31             0.000161768
  24839521.648 5   -106150.273 5    -73930.04348  24839523.64148
  22156168.883 6   -544887.742 6   -410525.59048  22156167.69548
  22891545.656 5   -963264.242 5   -659315.10949  22891547.62549
  22747999.945 4    103790.348 4     76472.91446  22747998.21146
  20759309.594 6   -308317.043 6   -224400.68048  20759306.00448
  21541954.383 6   -129587.145 6    -92088.52049  21541955.45749
  20821919.391 7   -734010.715 7   -538902.33649  20821919.53949
  22061610.188 6   -202616.418 6   -148284.86347  22061607.96547
 20  5 16  0 27 45.0000000  0  8G03G04G08G14G16G26G27G31             0.000160179
  24839379.109 5   -106896.168 5    -74511.25848  24839381.45748
  22155292.906 6   -549490.621 6   -414112.25448  22155292.42248
  22890413.031 5   -969215.488 5   -663952.44149  22890415.08249
  22748154.555 4    104603.035 4     77106.16846  22748152.65646
  20758928.242 6   -310321.297 6   -225962.43448  20758924.61748
  21541786.125 6   -130470.035 6    -92776.48449  21541787.94149
  20821027.938 7   -738695.270 7   -542552.63749  20821028.11349
  22061360.938 6   -203926.258 6   -149305.51647  22061358.83247
 20  5 16  0 27 46.0000000  0  8G03G04G08G14G16G26G27G31             0.000158588
  24839237.547 5   -107643.116 5    -75093.29648  24839239.25848
  22154416.922 6   -554094.250 6   -417699.50048  22154416.13748
  22889280.867 5   -975167.777 5   -668590.59449  22889282.19549
  22748308.617 4    105414.754 4     77738.68846  22748307.07846
  20758546.422 6   -312326.523 6   -227524.94148  20758542.93048
  21541617.992 6   -131354.070 6    -93465.34849  21541619.70749
  20820136.406 7   -743380.496 7   -546203.46149  20820136.67649
  22061111.125 6   -205237.070 6   -150326.92247  22061109.41447
 20  5 16  0 27 47.0000000  0  8G03G04G08G14G16G26G27G31             0.000156998
  24839094.875 4   -108391.324 4    -75676.30948  24839096.70748
  22153541.148 6   -558698.605 6   -421287.30548  22153539.83248
  22888148.016 5   -981120.957 5   -673229.43049  22888149.44949
  22748462.344 5    106225.441 5     78370.38746  22748461.50046
  20758164.383 6   -314332.633 6   -229088.14148  20758161.23448
  21541449.898 6   -132239.207 6    -94155.06349  21541450.86349
  20819245.148 7   -748066.414 7   -549854.82849  20819244.96549
  22060861.883 6   -206548.824 6   -151349.06648  22060859.88348
 20  5 16  0 27 48.0000000  0  8G03G04G08G14G16G26G27G31             0.000155407
  24838951.922 4   -109140.594 4    -76260.16848  24838954.28548
  22152664.133 6   -563303.641 6   -424875.64848  22152663.68448
  22887014.430 6   -987075.063 6   -677868.97749  22887016.08249
  22748616.227 5    107035.262 5     79001.43847  22748615.83247
  20757782.453 6   -316339.715 6   -230652.10948  20757779.70348
  21541281.273 6   -133125.504 6    -94845.68849  21541282.31349
  20818352.680 7   -752752.941 7   -553506.65649  20818353.31649
  22060611.961 7   -207861.539 7   -152372.01248  22060609.69548
 20  5 16  0 27 49.0000000  0  8G03G04G08G14G16G26G27G31             0.000153814
  24838809.883 4   -109890.902 4    -76844.82448  24838811.40648
  22151787.680 6   -567909.355 6   -428464.52748  22151787.16448
  22885881.164 5   -993030.125 5   -682509.27349  22885882.45749
  22748770.156 6    107844.164 6     79631.75047  22748769.88747
  20757400.586 6   -318347.664 6   -232216.75448  20757397.70748
  21541112.023 6   -134012.895 6    -95537.16849  21541113.57849
  20817461.289 7   -757440.074 7   -557158.95349  20817461.14149
  22060361.977 6   -209175.180 6   -153395.65248  22060359.67248
 20  5 16  0 27 50.0000000  0  8G03G04G08G14G16G26G27G31             0.000152222
  24838666.648 4   -110642.453 4    -77430.45348  24838668.89148
  22150911.406 6   -572515.844 6   -432054.00048  22150910.76648
  22884748.117 5   -998986.203 5   -687150.36349  22884749.60249
  22748924.172 6    108652.059 6     80261.26647  22748923.36347
  20757018.039 6   -320356.590 6   -233782.15248  20757015.71548
  21540943.242 6   -134901.508 6    -96229.60249  21540944.28549
  20816568.922 7   -762127.891 7   -560811.79749  20816568.89149
  22060111.516 6   -210489.824 6   -154420.05948  22060109.99248
 20  5 16  0 27 51.0000000  0  8G03G04G08G14G16G26G27G31             0.000150627
  24838523.664 5   -111395.109 5    -78016.93848  24838525.50448
  22150034.359 6   -577123.070 6   -435644.04348  22150034.00848
  22883614.258 5  -1004943.223 5   -691792.19949  22883615.62149
  22749077.273 6    109459.070 6     80890.09847  22749076.58247
  20756635.484 6   -322366.473 6   -235348.29748  20756633.13748
  21540773.563 6   -135791.234 6    -96922.89149  21540775.05549
  20815677.039 7   -766816.379 7   -564465.16849  20815676.71549
  22059861.438 6   -211805.453 6   -155445.21548  22059859.41848
 20  5 16  0 27 52.0000000  0  8G03G04G08G14G16G26G27G31             0.000149031
  24838379.766 4   -112148.832 4    -78604.24648  24838382.39848
  22149157.805 6   -581730.984 6   -439234.62948  22149156.91048
  22882480.797 6  -1010901.137 6   -696434.73849  22882482.09049
  22749231.188 6    110265.105 6     81518.16447  22749230.14147
  20756252.953 6   -324377.258 6   -236915.14148  20756250.56348
  21540604.258 6   -136682.098 6    -97617.06649  21540605.41449
  20814784.563 7   -771505.477 7   -568119.02349  20814784.80149
  22059611.063 6   -213122.012 6   -156471.09848  22059609.09848
 20  5 16  0 27 53.0000000  0  8G03G04G08G14G16G26G27G31             0.000147436
  24838236.023 5   -112903.797 5    -79192.53148  24838238.66848
  22148280.820 6   -586339.637 6   -442825.78548  22148280.59848
  22881346.938 6  -1016860.074 6   -701078.07449  22881347.95349
  22749384.242 6    111070.133 6     82145.46147  22749383.22747
  20755869.898 6   -326389.008 6   -238482.74248  20755867.36348
  21540434.398 6   -137574.156 6    -98312.18449  21540435.84449
  20813892.039 7   -776195.262 7   -571773.39849  20813892.33249
  22059360.414 6   -214439.605 6   -157497.78948  22059358.31648
 20  5 16  0 27 54.0000000  0  8G03G04G08G14G16G26G27G31             0.000145840
  24838092.719 5   -113659.910 5    -79781.70748  24838095.04348
  22147403.219 6   -590949.047 6   -446417.53548  22147403.03148
  22880212.750 6  -1022819.992 6   -705722.17249  22880213.51649
  22749537.383 6    111874.176 6     82771.99247  22749536.17647
  20755487.000 6   -328401.730 6   -240051.09848  20755484.45748
  21540264.148 6   -138467.352 6    -99008.18049  21540265.68849
  20812999.477 7   -780885.738 7   -575428.32049  20812999.36749
  22059109.250 6   -215758.172 6   -158525.24248  22059107.53948
 20  5 16  0 27 55.0000000  0  8G03G04G08G14G16G26G27G31             0.000144241
  24837948.164 5   -114417.098 5    -80371.71548  24837950.59848
  22146526.289 6   -595559.160 6   -450009.83248  22146525.65648
  22879078.430 6  -1028780.848 6   -710366.99649  22879079.72749
  22749689.875 5    112677.277 5     83397.79347  22749688.90647
  20755104.180 6   -330415.387 6   -241620.17648  20755101.40648
  21540094.563 6   -139361.719 6    -99705.09049  21540095.91049
  20812106.680 7   -785576.848 7   -579083.73449  20812107.15249
  22058858.289 6   -217077.695 6   -159553.43848  22058856.18448
 20  5 16  0 27 56.0000000  0  8G03G04G08G14G16G26G27G31             0.000142645
  24837804.523 5   -115175.504 5    -80962.68048  24837806.22348
  22145648.883 6   -600170.031 6   -453602.71948  22145648.14148
  22877944.094 5  -1034742.699 5   -715012.59849  22877944.96549
  22749843.125 5    113479.391 5     84022.81647  22749841.44947
  20754720.586 6   -332429.980 6   -243189.99248  20754717.84048
  21539923.813 6   -140257.227 6   -100402.89149  21539925.15649
  20811213.820 7   -790268.652 7   -582739.68849  20811214.04349
  22058607.070 6   -218398.211 6   -160582.41848  22058604.68848
 20  5 16  0 27 57.0000000  0  8G03G04G08G14G16G26G27G31             0.000141045
  24837659.539 5   -115934.980 5    -81554.48448  24837661.50048
  22144771.086 6   -604781.609 6   -457196.15248  22144770.51248
  22876808.844 5  -1040705.465 5   -719658.90649  22876810.48449
  22749994.813 5    114280.559 5     84647.10247  22749994.10947
  20754337.133 6   -334445.496 6   -244760.52348  20754334.64848
  21539753.195 6   -141153.883 6   -101101.57849  21539754.41049
  20810320.805 7   -794961.090 7   -586396.12949  20810321.04349
  22058355.500 6   -219719.676 6   -161612.12548  22058353.49648
 20  5 16  0 27 58.0000000  0  8G03G04G08G14G16G26G27G31             0.000139446
  24837514.609 5   -116695.633 5    -82147.20348  24837517.00048
  22143893.539 6   -609393.883 6   -460790.13348  22143892.75048
  22875673.891 5  -1046669.207 5   -724305.97749  22875675.57849
  22750147.008 5    115080.785 5     85270.65647  22750146.13347
  20753953.602 6   -336461.961 6   -246331.79348  20753950.71548
  21539582.344 6   -142051.668 6   -101801.15649  21539583.52349
  20809427.492 7   -799654.176 7   -590053.07849  20809427.77349
  22058103.703 6   -221042.094 6   -162642.57848  22058101.66448
 20  5 16  0 27 59.0000000  0  8G03G04G08G14G16G26G27G31             0.000137846
  24837369.289 4   -117457.438 4    -82740.81648  24837371.87148
  22143015.867 6   -614006.926 6   -464384.71548  22143014.87948
  22874539.008 5  -1052633.934 5   -728953.80949  22874540.44549
  22750299.180 5    115880.016 5     85893.42647  22750297.94947
  20753569.281 6   -338479.371 6   -247903.80148  20753567.17648
  21539411.430 6   -142950.648 6   -102501.66049  21539412.35549
  20808535.133 7   -804347.945 7   -593710.56349  20808535.07849
  22057851.773 6   -222365.523 6   -163673.82848  22057849.80948
 20  5 16  0 28  0.0000000  0  8G03G04G08G14G16G26G27G31             0.000136244
  24837224.094 4   -118220.324 4    -83335.27748  24837227.11348
  22142138.086 6   -618620.684 6   -467979.85248  22142137.13748
  22873403.758 5  -1058599.598 5   -733602.37549  22873405.43049
  22750450.953 5    116678.301 5     86515.46547  22750449.92247
  20753185.148 6   -340497.734 6   -249476.54748  20753182.67248
  21539240.055 6   -143850.746 6   -103203.03549  21539241.55549
  20807641.664 7   -809042.355 7   -597368.54349  20807641.60249
  22057599.914 6   -223689.906 6   -164705.81348  22057597.86348
 20  5 16  0 28  1.0000000  0  8G03G04G08G14G16G26G27G31             0.000134642
  24837078.750 4   -118984.383 4    -83930.64848  24837081.67248
  22141260.078 6   -623235.164 6   -471575.54748  22141259.31348
  22872268.500 5  -1064566.191 5   -738251.66049  22872269.80149
  22750602.344 5    117475.617 5     87136.74647  22750601.81347
  20752800.641 6   -342517.023 6   -251050.02048  20752798.37548
  21539068.500 6   -144752.012 6   -103905.32049  21539069.68049
  20806747.844 7   -813737.422 7   -601027.03549  20806747.96149
  22057347.914 6   -225015.254 6   -165738.55548  22057345.68048
 20  5 16  0 28  2.0000000  0  8G03G04G08G14G16G26G27G31             0.000133039
  24836933.250 4   -119749.621 4    -84526.94548  24836936.01248
  22140381.625 6   -627850.320 6   -475171.77348  22140381.09848
  22871132.961 5  -1070533.711 5   -742901.67649  22871134.25449
  22750754.570 5    118271.977 5     87757.28547  22750753.03147
  20752416.781 6   -344537.242 6   -252624.21948  20752413.91448
  21538897.000 6   -145654.398 6   -104608.48049  21538898.35949
  20805854.383 7   -818433.125 7   -604686.02349  20805854.32449
  22057095.313 6   -226341.578 6   -166772.05948  22057093.25848
 20  5 16  0 28  3.0000000  0  8G03G04G08G14G16G26G27G31             0.000131435
  24836787.422 4   -120515.988 4    -85124.11348  24836790.15248
  22139503.359 6   -632466.297 6   -478768.64148  22139502.64848
  22869997.383 5  -1076502.281 5   -747552.50449  22869998.15649
  22750906.023 5    119067.309 5     88377.03147  22750904.91447
  20752032.008 6   -346558.477 6   -254199.20348  20752029.19548
  21538725.016 6   -146557.996 6   -105312.58249  21538726.21949
  20804960.477 7   -823129.570 7   -608345.58649  20804960.62949
  22056843.203 6   -227668.914 6   -167806.34448  22056840.66448
 20  5 16  0 28  4.0000000  0  8G03G04G08G14G16G26G27G31             0.000129831
  24836640.938 4   -121283.430 4    -85722.12148  24836644.21948
  22138624.539 6   -637082.914 6   -482366.00848  22138624.00448
  22868861.016 5  -1082471.715 5   -752204.01649  22868862.01249
  22751057.328 5    119861.809 5     88996.12147  22751056.18847
  20751647.188 6   -348580.527 6   -255774.83248  20751644.64548
  21538553.055 6   -147462.660 6   -106017.52049  21538554.03149
  20804066.813 7   -827826.551 7   -612005.56649  20804066.93449
  22056589.945 6   -228997.160 6   -168841.35248  22056588.23448
 20  5 16  0 28  5.0000000  0  8G03G04G08G14G16G26G27G31             0.000128227
  24836495.250 4   -122052.055 4    -86321.05548  24836498.00848
  22137746.000 6   -641700.289 6   -485963.96948  22137745.23048
  22867725.211 5  -1088442.172 5   -756856.32049  22867726.17649
  22751207.938 5    120655.242 5     89614.37147  22751206.52047
  20751262.375 6   -350603.629 6   -257351.27748  20751259.94548
  21538380.422 6   -148368.535 6   -106723.39849  21538381.74249
  20803172.680 7   -832524.270 7   -615666.12549  20803173.11749
  22056337.125 6   -230326.410 6   -169877.12948  22056335.18048
 20  5 16  0 28  6.0000000  0  8G03G04G08G14G16G26G27G31             0.000126621
  24836348.578 4   -122821.875 4    -86920.91448  24836351.43048
  22136867.266 6   -646318.453 6   -489562.53548  22136866.47748
  22866588.875 5  -1094413.645 5   -761509.41849  22866589.81649
  22751359.242 5    121447.672 5     90231.85247  22751357.42247
  20750877.516 6   -352627.699 6   -258928.48048  20750874.73048
  21538207.625 6   -149275.602 6   -107430.19949  21538209.00449
  20802278.609 7   -837222.695 7   -619327.23849  20802279.06649
  22056083.586 6   -231656.680 6   -170913.71148  22056082.03948
 20  5 16  0 28  7.0000000  0  8G03G04G08G14G16G26G27G31             0.000125015
  24836202.273 4   -123592.824 4    -87521.64848  24836204.94948
  22135988.422 6   -650937.344 6   -493161.66448  22135987.57448
  22865451.852 5  -1100386.063 5   -766163.25049  22865453.43449
  22751509.008 5    122239.172 5     90848.60547  22751508.16047
  20750491.984 6   -354652.703 6   -260506.40248  20750489.28948
  21538034.766 6   -150183.824 6   -108137.90649  21538035.97349
  20801384.523 7   -841921.750 7   -622988.83649  20801384.67249
  22055830.305 6   -232987.922 6   -171951.03948  22055828.40648
 20  5 16  0 28  8.0000000  0  8G03G04G08G14G16G26G27G31             0.000123407
  24836055.016 4   -124364.805 4    -88123.19548  24836057.58648
  22135109.414 6   -655556.820 6   -496761.25448  22135108.41448
  22864315.563 5  -1106359.355 5   -770817.75849  22864316.93449
  22751659.586 5    123029.801 5     91464.67647  22751658.81647
  20750106.406 6   -356678.539 6   -262084.97348  20750103.75848
  21537861.875 6   -151093.074 6   -108846.41449  21537863.13749
  20800490.242 7   -846621.375 7   -626650.88749  20800490.41849
  22055577.492 6   -234320.035 6   -172989.05548  22055575.16048
 20  5 16  0 28  9.0000000  0  8G03G04G08G14G16G26G27G31             0.000121799
  24835908.203 4   -125137.887 4    -88725.60248  24835910.68848
  22134230.227 6   -660176.973 6   -500361.37548  22134229.50448
  22863178.820 5  -1112333.527 5   -775472.95749  22863179.35949
  22751810.039 5    123819.504 5     92080.02347  22751808.92247
  20749721.109 7   -358705.270 7   -263664.24248  20749718.32848
  21537688.563 6   -152003.438 6   -109555.79349  21537690.05549
  20799595.805 7   -851321.590 7   -630313.39149  20799596.30949
  22055323.625 6   -235653.066 6   -174027.77748  22055321.36748
 20  5 16  0 28 10.0000000  0  8G03G04G08G14G16G26G27G31             0.000120190
  24835760.711 4   -125912.063 4    -89328.84848  24835763.50848
  22133350.930 6   -664797.828 6   -503962.04748  22133350.04348
  22862042.070 5  -1118308.594 5   -780128.84449  22862042.64549
  22751960.172 5    124608.328 5     92694.68847  22751958.62547
  20749335.156 6   -360732.879 6   -265244.19948  20749332.39548
  21537515.047 6   -152914.875 6   -110266.00449  21537516.35949
  20798701.766 7   -856022.418 7   -633976.37549  20798701.62949
  22055069.617 6   -236987.008 6   -175067.21148  22055067.72748
 20  5 16  0 28 11.0000000  0  8G03G04G08G14G16G26G27G31             0.000118580
  24835613.750 4   -126687.395 4    -89933.01248  24835615.89848
  22132471.398 6   -669419.426 6   -507563.28948  22132470.89148
  22860904.805 5  -1124284.672 5   -784785.52349  22860905.62949
  22752110.000 5    125396.117 5     93308.55147  22752108.77747
  20748948.852 7   -362761.465 7   -266824.91848  20748946.44548
  21537341.281 6   -153827.531 6   -110977.16049  21537342.57849
  20797806.453 7   -860723.945 7   -637639.89849  20797806.73849
  22054815.656 6   -238321.957 6   -176107.43048  22054813.58648
 20  5 16  0 28 12.0000000  0  8G03G04G08G14G16G26G27G31             0.000116970
  24835465.625 4   -127463.773 4    -90537.98848  24835468.68448
  22131591.789 6   -674041.652 6   -511165.02348  22131590.77048
  22859767.445 5  -1130261.625 5   -789442.89149  22859768.06349
  22752260.234 5    126183.055 5     93921.74647  22752258.37547
  20748562.664 6   -364790.938 6   -268406.32448  20748560.02348
  21537167.617 6   -154741.246 6   -111689.15249  21537168.65249
  20796911.820 7   -865426.043 7   -641303.87549  20796912.14549
  22054561.625 6   -239657.820 6   -177148.36348  22054559.48048
 20  5 16  0 28 13.0000000  0  8G03G04G08G14G16G26G27G31             0.000115358
  24835317.375 4   -128241.285 4    -91143.83648  24835320.35248
  22130712.266 6   -678664.578 6   -514767.30548  22130711.39548
  22858629.477 5  -1136239.492 5   -794100.96949  22858630.48049
  22752408.977 5    126969.039 5     94534.19547  22752407.94947
  20748176.141 6   -366821.305 6   -269988.43048  20748173.56648
  21536993.617 6   -155656.066 6   -112401.99249  21536994.90249
  20796017.078 7   -870128.762 7   -644968.33249  20796017.19949
  22054307.000 6   -240994.586 6   -178190.00048  22054304.81348
 20  5 16  0 28 14.0000000  0  8G03G04G08G14G16G26G27G31             0.000113747
  24835169.406 4   -129019.973 4    -91750.61348  24835172.43848
  22129832.258 6   -683288.281 6   -518370.19148  22129831.38348
  22857491.820 5  -1142218.336 5   -798759.81349  22857492.87949
  22752558.023 5    127754.023 5     95145.87147  22752557.64547
  20747789.820 6   -368852.648 6   -271571.28948  20747786.84048
  21536819.172 6   -156572.078 6   -113115.76649  21536820.74249
  20795121.945 7   -874832.145 7   -648633.30549  20795122.04749
  22054052.273 6   -242332.379 6   -179232.43848  22054050.52748
 20  5 16  0 28 15.0000000  0  8G03G04G08G14G16G26G27G31             0.000112135
  24835021.328 4   -129799.832 4    -92358.29748  24835024.01248
  22128952.539 6   -687912.723 6   -521973.65248  22128951.48848
  22856353.836 5  -1148198.211 5   -803419.45349  22856354.84849
  22752707.438 5    128538.031 5     95756.78547  22752706.50047
  20747402.875 6   -370884.988 6   -273154.93448  20747400.20348
  21536644.641 6   -157489.285 6   -113830.47749  21536645.96549
  20794226.805 7   -879536.258 7   -652298.84049  20794227.13749
  22053797.758 6   -243671.172 6   -180275.65648  22053795.85248
 20  5 16  0 28 16.0000000  0  8G03G04G08G14G16G26G27G31             0.000110521
  24834871.984 4   -130580.816 4    -92966.85948  24834875.16848
  22128072.109 6   -692537.840 6   -525577.64148  22128071.69148
  22855215.938 5  -1154179.000 5   -808079.80949  22855216.70749
  22752856.617 5    129321.102 5     96366.97347  22752855.81347
  20747016.086 6   -372918.203 6   -274739.25848  20747013.35548
  21536470.016 6   -158407.590 6   -114546.04349  21536471.37949
  20793331.633 7   -884240.973 7   -655964.85549  20793331.89149
  22053542.648 6   -245010.910 6   -181319.60948  22053540.96948
 20  5 16  0 28 17.0000000  0  8G03G04G08G14G16G26G27G31             0.000108906
  24834723.375 4   -131362.844 4    -93576.23048  24834726.53948
  22127192.367 6   -697163.641 6   -529182.16048  22127191.44548
  22854077.844 5  -1160160.688 5   -812740.85949  22854078.36749
  22753005.469 5    130103.238 5     96976.42647  22753004.70747
  20746628.625 6   -374952.332 6   -276324.28948  20746626.15248
  21536295.203 6   -159326.996 6   -115262.46949  21536296.10549
  20792436.227 7   -888946.277 7   -659631.33249  20792436.59449
  22053287.516 6   -246351.566 6   -182364.27348  22053285.60248
 20  5 16  0 28 18.0000000  0  8G03G04G08G14G16G26G27G31             0.000107292
  24834574.594 4   -132145.820 4    -94186.34848  24834577.72348
  22126311.813 6   -701789.938 6   -532787.06648  22126310.66848
  22852938.734 5  -1166143.133 5   -817402.51249  22852939.77049
  22753154.727 5    130884.656 5     97585.31647  22753153.26247
  20746241.414 6   -376987.176 6   -277909.88348  20746238.69148
  21536119.828 6   -160247.340 6   -115979.61749  21536121.18849
  20791540.695 7   -893652.051 7   -663298.16849  20791540.89549
  22053031.977 6   -247692.957 6   -183409.52348  22053030.27048
 20  5 16  0 28 19.0000000  0  8G03G04G08G14G16G26G27G31             0.000105677
  24834425.383 4   -132929.914 4    -94797.32848  24834428.62148
  22125431.133 6   -706416.980 6   -536392.55948  22125430.02048
  22851800.672 5  -1172126.555 5   -822064.91849  22851801.13749
  22753302.953 5    131665.066 5     98193.43047  22753301.73047
  20745854.289 7   -379022.977 7   -279496.21948  20745851.90248
  21535944.445 6   -161168.867 6   -116697.69149  21535945.93049
  20790644.891 7   -898358.473 7   -666965.50849  20790645.21149
  22052776.422 6   -249035.340 6   -184455.53948  22052774.84848
 20  5 16  0 28 20.0000000  0  8G03G04G08G14G16G26G27G31             0.000104059
  24834275.953 4   -133715.114 4    -95409.18348  24834279.02348
  22124550.383 6   -711044.707 6   -539998.57048  22124549.36748
  22850661.617 5  -1178110.859 5   -826728.00849  22850662.22349
  22753451.102 5    132444.582 5     98800.84447  22753450.39147
  20745466.516 6   -381059.688 6   -281083.27048  20745464.05548
  21535768.781 6   -162091.488 6   -117416.61349  21535770.69149
  20789749.508 7   -903065.527 7   -670633.34849  20789749.34849
  22052521.117 6   -250378.680 6   -185502.29348  22052519.50048
 20  5 16  0 28 21.0000000  0  8G03G04G08G14G16G26G27G31             0.000102442
  24834126.336 4   -134501.527 4    -96021.97748  24834129.28948
  22123669.617 6   -715673.152 6   -543605.15248  22123668.80948
  22849522.641 5  -1184096.117 5   -831391.84849  22849523.56649
  22753599.633 5    133223.137 5     99407.50447  22753598.05147
  20745078.898 6   -383097.313 6   -282671.02748  20745076.40648
  21535592.977 6   -163015.230 6   -118136.41849  21535594.80549
  20788853.539 7   -907773.207 7   -674301.66449  20788853.45349
  22052265.258 6   -251722.977 6   -186549.79748  22052263.36748
 20  5 16  0 28 22.0000000  0  8G03G04G08G14G16G26G27G31             0.000100824
  24833976.977 4   -135288.961 4    -96635.56348  24833979.60548
  22122788.359 6   -720302.281 6   -547212.26648  22122787.93448
  22848383.289 5  -1190082.297 5   -836056.39849  22848384.29749
  22753747.875 5    134000.770 5    100013.44547  22753746.55947
  20744691.227 6   -385135.840 6   -284259.49248  20744688.28948
  21535417.133 6   -163940.086 6   -118857.08649  21535418.46149
  20787957.531 7   -912481.520 7   -677970.48049  20787957.96549
  22052009.359 6   -253068.172 6   -187598.00048  22052007.68448
 20  5 16  0 28 23.0000000  0  8G03G04G08G14G16G26G27G31             0.000099205
  24833827.047 4   -136077.559 4    -97250.05148  24833829.28948
  22121907.391 6   -724932.121 6   -550819.93448  22121906.71548
  22847244.398 5  -1196069.449 5   -840721.71549  22847244.71549
  22753895.664 5    134777.438 5    100618.62947  22753894.18847
  20744303.164 6   -387175.324 6   -285848.69948  20744300.30948
  21535240.977 6   -164866.109 6   -119578.66449  21535242.25849
  20787061.656 7   -917190.477 7   -681639.79749  20787061.59049
  22051753.289 6   -254414.355 6   -188646.97748  22051751.58248
 20  5 16  0 28 24.0000000  0  8G03G04G08G14G16G26G27G31             0.000097586
  24833675.727 4   -136867.344 4    -97865.46948  24833678.80548
  22121026.766 6   -729562.730 6   -554428.20348  22121025.62148
  22846105.156 5  -1202057.574 5   -845387.78549  22846105.14149
  22754043.328 5    135553.066 5    101223.02047  22754041.40247
  20743914.609 6   -389215.824 6   -287438.69948  20743912.28548
  21535064.516 6   -165793.371 6   -120301.20749  21535065.91449
  20786165.156 7   -921900.160 7   -685309.68049  20786165.51649
  22051497.172 6   -255761.563 6   -189696.75048  22051494.69548
 20  5 16  0 28 25.0000000  0  8G03G04G08G14G16G26G27G31             0.000095966
  24833525.453 4   -137658.180 4    -98481.70748  24833528.34848
  22120145.094 6   -734193.941 6   -558036.93448  22120144.14148
  22844965.023 6  -1208046.551 6   -850054.52049  22844965.73849
  22754190.789 5    136327.867 5    101826.75847  22754189.33647
  20743526.156 6   -391257.105 6   -289029.31348  20743523.57048
  21534887.781 6   -166721.605 6   -121024.50849  21534889.12949
  20785268.977 7   -926610.359 7   -688979.96149  20785269.00449
  22051240.680 6   -257109.633 6   -190747.19148  22051238.55148
 20  5 16  0 28 26.0000000  0  8G03G04G08G14G16G26G27G31             0.000094345
  24833374.820 4   -138450.184 4    -99098.85248  24833377.43848
  22119263.844 6   -738825.961 6   -561646.30148  22119263.26248
  22843825.539 6  -1214036.535 6   -854722.04749  22843825.78549
  22754337.680 5    137101.652 5    102429.70747  22754336.32847
  20743137.703 6   -393299.402 6   -290620.70748  20743134.63748
  21534711.086 6   -167651.066 6   -121748.76249  21534712.45749
  20784372.367 7   -931321.250 7   -692650.78949  20784372.43049
  22050983.703 6   -258458.707 6   -191798.42248  22050981.89548
 20  5 16  0 28 27.0000000  0  8G03G04G08G14G16G26G27G31             0.000092722
  24833223.781 4   -139243.355 4    -99716.91048  24833226.36748
  22118381.938 6   -743458.648 6   -565256.19548  22118381.03948
  22842685.633 5  -1220027.449 5   -859390.29749  22842686.01249
  22754485.383 5    137874.477 5    103031.90647  22754483.50047
  20742748.883 6   -395342.648 6   -292212.85248  20742746.09448
  21534534.125 6   -168581.688 6   -122473.92249  21534535.19149
  20783476.203 7   -936032.836 7   -696322.15649  20783476.15649
  22050726.922 6   -259808.773 6   -192850.41848  22050724.83648
 20  5 16  0 28 28.0000000  0  8G03G04G08G14G16G26G27G31             0.000091101
  24833073.063 4   -140037.605 4   -100335.80948  24833075.09848
  22117500.461 6   -748092.082 6   -568866.66848  22117499.60548
  22841544.828 5  -1226019.375 5   -864059.33249  22841546.02749
  22754631.883 5    138646.344 5    103633.35947  22754630.35947
  20742359.789 7   -397386.809 7   -293805.69548  20742357.00048
  21534356.688 6   -169513.445 6   -123199.96949  21534357.93049
  20782579.461 7   -940745.047 7   -699994.01249  20782579.03149
  22050469.750 6   -261159.797 6   -193903.16448  22050467.88748
 20  5 16  0 28 29.0000000  0  8G03G04G08G14G16G26G27G31             0.000089478
  24832921.508 4   -140832.961 4   -100955.55948  24832924.07048
  22116618.664 6   -752726.129 6   -572477.60948  22116618.19948
  22840404.414 5  -1232012.090 5   -868728.97749  22840405.43849
  22754778.500 5    139417.383 5    104234.16447  22754776.62547
  20741970.484 6   -399431.793 6   -295399.19148  20741967.44948
  21534179.039 6   -170446.211 6   -123926.80149  21534180.39149
  20781682.313 7   -945457.785 7   -703666.27749  20781682.47349
  22050212.680 6   -262511.645 6   -194956.55548  22050210.71148
 20  5 16  0 28 30.0000000  0  8G03G04G08G14G16G26G27G31             0.000087852
  24832769.227 4   -141629.328 4   -101576.10548  24832772.16848
  22115736.242 6   -757360.813 6   -576089.05548  22115736.36748
  22839264.023 5  -1238005.719 5   -873399.33649  22839265.09849
  22754925.305 5    140187.469 5    104834.23847  22754923.58647
  20741581.281 6   -401477.680 6   -296993.38748  20741578.73848
  21534001.609 6   -171380.098 6   -124654.50849  21534002.64549
  20780785.531 7   -950171.129 7   -707339.01249  20780785.78549
  22049955.219 6   -263864.430 6   -196010.67648  22049953.29748
 20  5 16  0 28 31.0000000  0  8G03G04G08G14G16G26G27G31             0.000086227
  24832617.750 4   -142426.832 4   -102197.53148  24832620.51648
  22114854.148 6   -761996.207 6   -579701.05148  22114853.85948
  22838123.016 5  -1244000.301 5   -878070.43449  22838124.28949
  22755071.945 5    140956.633 5    105433.58647  22755069.76647
  20741191.547 6   -403524.480 6   -298588.29748  20741189.43048
  21533823.336 6   -172315.094 6   -125383.07049  21533825.01249
  20779888.602 7   -954885.113 7   -711012.24649  20779888.49649
  22049697.602 6   -265218.160 6   -197065.52748  22049695.62148
 20  5 16  0 28 32.0000000  0  8G03G04G08G14G16G26G27G31             0.000084602
  24832466.242 4   -143225.422 4   -102819.80548  24832468.82848
  22113972.055 6   -766632.234 6   -583313.53948  22113971.44948
  22836982.156 5  -1249995.742 5   -882742.20749  22836983.15249
  22755217.539 5    141724.910 5    106032.24247  22755216.18047
  20740801.992 6   -405572.148 6   -300183.88348  20740799.58648
  21533645.531 6   -173251.168 6   -126112.48049  21533646.78549
  20778991.414 7   -959599.656 7   -714685.91849  20778991.45749
  22049439.781 6   -266572.781 6   -198121.07448  22049437.82448
 20  5 16  0 28 33.0000000  0  8G03G04G08G14G16G26G27G31             0.000082975
  24832314.070 4   -144025.109 4   -103442.94548  24832316.35548
  22113089.672 6   -771268.965 6   -586926.57448  22113089.50848
  22835841.094 5  -1255992.090 5   -887414.69149  22835842.62949
  22755363.805 5    142492.238 5    106630.15647  22755362.45347
  20740412.141 6   -407620.703 6   -301780.15648  20740409.95348
  21533466.766 6   -174188.359 6   -126842.76249  21533468.42649
  20778094.188 7   -964314.832 7   -718360.07849  20778094.22349
  22049182.117 6   -267928.340 6   -199177.35948  22049179.96548
 20  5 16  0 28 34.0000000  0  8G03G04G08G14G16G26G27G31             0.000081348
  24832161.656 4   -144825.875 4   -104066.92248  24832164.07048
  22112207.375 6   -775906.379 6   -590540.13748  22112206.73048
  22834699.984 5  -1261989.410 5   -892087.93049  22834701.17249
  22755509.664 5    143258.660 5    107227.37147  22755508.07447
  20740021.984 6   -409670.180 6   -303377.15248  20740019.58648
  21533288.461 6   -175126.668 6   -127573.91049  21533289.84049
  20777196.805 7   -969030.605 7   -722034.70749  20777196.94549
  22048923.852 6   -269284.836 6   -200234.36348  22048921.42648
 20  5 16  0 28 35.0000000  0  8G03G04G08G14G16G26G27G31             0.000079721
  24832008.492 4   -145627.727 4   -104691.73848  24832011.23448
  22111324.836 6   -780544.398 6   -594154.18048  22111324.07848
  22833558.320 5  -1267987.535 5   -896761.79749  22833559.96949
  22755654.820 5    144024.199 5    107823.89547  22755653.58647
  20739631.930 6   -411720.500 6   -304974.80548  20739629.37948
  21533109.836 6   -176066.023 6   -128305.87549  21533110.97349
  20776299.156 7   -973746.957 7   -725709.78949  20776299.16049
  22048665.156 6   -270642.203 6   -201292.05548  22048663.47348
 20  5 16  0 28 36.0000000  0  8G03G04G08G14G16G26G27G31             0.000078093
  24831855.891 4   -146430.695 4   -105317.43448  24831858.37948
  22110442.102 6   -785183.176 6   -597768.81648  22110441.50048
  22832417.047 5  -1273986.684 5   -901436.45349  22832418.30949
  22755800.648 5    144788.781 5    108419.66847  22755799.27347
  20739241.805 6   -413771.789 6   -306573.21548  20739239.11748
  21532930.688 6   -177006.563 6   -129038.76249  21532931.85249
  20775401.672 7   -978463.988 7   -729385.39849  20775401.83649
  22048406.406 6   -272000.559 6   -202350.51248  22048404.82048
 20  5 16  0 28 37.0000000  0  8G03G04G08G14G16G26G27G31             0.000076464
  24831702.648 4   -147234.711 4   -105943.94148  24831705.52348
  22109559.273 6   -789822.543 6   -601383.91848  22109558.78548
  22831275.094 5  -1279986.645 5   -906111.74649  22831276.66049
  22755946.156 5    145552.500 5    109014.77347  22755945.07447
  20738851.320 6   -415823.887 6   -308172.25448  20738848.52348
  21532751.523 6   -177948.117 6   -129772.44149  21532753.08649
  20774503.781 7   -983181.527 7   -733061.39849  20774504.20349
  22048148.258 6   -273359.754 6   -203409.63348  22048146.32048
 20  5 16  0 28 38.0000000  0  8G03G04G08G14G16G26G27G31             0.000074833
  24831549.813 4   -148039.848 4   -106571.32448  24831552.52748
  22108676.797 6   -794462.594 6   -604999.53548  22108675.87948
  22830133.352 5  -1285987.504 5   -910787.73049  22830134.80149
  22756091.547 5    146315.297 5    109609.15647  22756089.77747
  20738460.891 6   -417876.910 6   -309772.01648  20738458.02748
  21532572.102 6   -178890.801 6   -130507.00049  21532573.70349
  20773605.914 7   -987899.699 7   -736737.89549  20773605.98049
  22047889.297 6   -274719.891 6   -204469.47748  22047887.34848
 20  5 16  0 28 39.0000000  0  8G03G04G08G14G16G26G27G31             0.000073202
  24831397.086 3   -148846.020 3   -107199.50448  24831398.95348
  22107793.445 6   -799103.281 6   -608615.65248  22107792.54348
  22828991.328 5  -1291989.250 5   -915464.41449  22828992.70749
  22756236.133 5    147077.211 5    110202.85547  22756235.06347
  20738069.820 6   -419930.762 6   -311372.40648  20738067.51248
  21532392.273 6   -179834.535 6   -131242.37949  21532393.89549
  20772707.828 7   -992618.422 7   -740414.82449  20772708.17649
  22047630.406 6   -276080.855 6   -205529.96948  22047628.63348
 20  5 16  0 28 40.0000000  0  8G03G04G08G14G16G26G27G31             0.000071569
  24831242.945 3   -149653.211 3   -107828.48048  24831245.34848
  22106909.898 6   -803744.598 6   -612232.26648  22106909.67648
  22827849.063 5  -1297991.832 5   -920141.75849  22827850.66449
  22756381.266 5    147838.258 5    110795.88347  22756379.68847
  20737678.461 6   -421985.492 6   -312973.49648  20737676.25448
  21532212.469 6   -180779.336 6   -131978.58249  21532214.05949
  20771810.297 7   -997337.715 7   -744092.19549  20771810.08649
  22047371.055 6   -277442.738 6   -206591.17648  22047369.40648
 20  5 16  0 28 41.0000000  0  8G03G04G08G14G16G26G27G31             0.000069939
  24831088.547 4   -150461.543 4   -108458.34848  24831091.76248
  22106027.133 6   -808386.570 6   -615849.38348  22106026.13348
  22826706.172 5  -1303995.297 5   -924819.78149  22826708.16849
  22756526.039 5    148598.414 5    111388.21547  22756524.22347
  20737287.320 6   -424041.074 6   -314575.24248  20737284.66448
  21532032.531 6   -181725.207 6   -132715.62949  21532033.93449
  20770911.828 7  -1002057.609 7   -747770.03549  20770911.80949
  22047111.953 6   -278805.512 6   -207653.08248  22047110.30148
 20  5 16  0 28 42.0000000  0  8G03G04G08G14G16G26G27G31             0.000068306
  24830935.320 4   -151270.980 4   -109089.08248  24830937.13348
  22105143.492 6   -813029.277 6   -619467.08248  22105142.32848
  22825563.961 5  -1309999.734 5   -929498.56349  22825565.27049
  22756669.875 5    149357.594 5    111979.78147  22756668.65647
  20736896.039 6   -426097.613 6   -316177.74648  20736893.47748
  21531852.398 6   -182672.230 6   -133453.57449  21531853.89149
  20770013.500 7  -1006778.141 7   -751448.37149  20770013.84449
  22046852.094 6   -280169.258 6   -208715.73448  22046850.38748
 20  5 16  0 28 43.0000000  0  8G03G04G08G14G16G26G27G31             0.000066671
  24830780.859 4   -152081.574 4   -109720.71948  24830782.80548
  22104259.766 6   -817672.730 6   -623085.34848  22104258.97748
  22824421.211 5  -1316005.156 5   -934178.10549  22824422.77049
  22756814.195 5    150115.766 5    112570.55947  22756812.94147
  20736504.586 6   -428155.121 6   -317781.00048  20736502.19948
  21531672.086 6   -183620.465 6   -134192.46149  21531673.71949
  20769115.211 7  -1011499.352 7   -755127.23849  20769115.41849
  22046592.680 6   -281533.996 6   -209779.16848  22046590.79748
 20  5 16  0 28 44.0000000  0  8G03G04G08G14G16G26G27G31             0.000065037
  24830626.570 4   -152893.309 4   -110353.23848  24830628.35548
  22103375.953 6   -822316.809 6   -626704.11748  22103375.32048
  22823278.109 5  -1322011.434 5   -938858.32449  22823279.66049
  22756958.406 5    150873.047 5    113160.64547  22756956.95747
  20736112.688 6   -430213.512 6   -319384.94148  20736110.18448
  21531491.398 6   -184569.785 6   -134932.18449  21531493.02049
  20768216.555 7  -1016221.160 7   -758806.56649  20768216.60949
  22046332.773 6   -282899.645 6   -210843.31348  22046330.62548
 20  5 16  0 28 45.0000000  0  8G03G04G08G14G16G26G27G31             0.000063402
  24830471.492 4   -153706.043 4   -110986.53948  24830474.02748
  22102492.367 6   -826961.574 6   -630323.42248  22102491.23448
  22822135.133 5  -1328018.672 5   -943539.28549  22822136.59049
  22757102.641 5    151629.418 5    113750.02747  22757101.54747
  20735721.102 6   -432272.770 6   -320989.55948  20735718.46948
  21531310.508 6   -185520.160 6   -135672.74249  21531312.09849
  20767317.961 7  -1020943.570 7   -762486.36749  20767317.93449
  22046072.805 6   -284266.215 6   -211908.17648  22046070.93448
 20  5 16  0 28 46.0000000  0  8G03G04G08G14G16G26G27G31             0.000061766
  24830316.773 4   -154519.988 4   -111620.77348  24830318.59448
  22101608.211 6   -831607.023 6   -633943.24648  22101607.44148
  22820991.414 5  -1334026.801 5   -948220.94149  22820992.98849
  22757246.375 5    152384.828 5    114338.65647  22757245.19947
  20735329.234 6   -434332.977 6   -322594.91448  20735326.37948
  21531129.430 6   -186471.688 6   -136414.19149  21531131.03549
  20766419.086 7  -1025666.613 7   -766166.66449  20766419.37549
  22045812.664 6   -285633.734 6   -212973.77748  22045810.67248
 20  5 16  0 28 47.0000000  0  8G03G04G08G14G16G26G27G31             0.000060129
  24830161.102 4   -155334.934 4   -112255.79348  24830164.19548
  22100723.859 6   -836253.121 6   -637563.58248  22100723.44548
  22819847.867 5  -1340035.820 5   -952903.29749  22819849.71549
  22757390.078 5    153139.375 5    114926.61347  22757388.85547
  20734937.031 6   -436394.031 6   -324200.93448  20734934.41048
  21530948.156 6   -187424.281 6   -137156.46949  21530949.65649
  20765520.250 7  -1030390.219 7   -769847.39549  20765520.39549
  22045552.156 6   -287002.145 6   -214040.07048  22045549.98048
 20  5 16  0 28 48.0000000  0  8G03G04G08G14G16G26G27G31             0.000058491
  24830006.656 4   -156150.922 4   -112891.62948  24830008.43848
  22099839.383 6   -840899.883 6   -641184.43048  22099838.93848
  22818704.125 5  -1346045.703 5   -957586.32049  22818706.10249
  22757533.445 5    153893.016 5    115513.86347  22757532.27747
  20734544.813 6   -438455.961 6   -325807.62948  20734541.61748
  21530766.930 6   -188377.969 6   -137899.60549  21530768.25049
  20764620.969 7  -1035114.402 7   -773528.57849  20764621.39549
  22045291.695 6   -288371.445 6   -215107.05548  22045289.60248
 20  5 16  0 28 49.0000000  0  8G03G04G08G14G16G26G27G31             0.000056852
  24829850.516 4   -156968.113 4   -113528.40648  24829853.19148
  22098955.328 6   -845547.285 6   -644805.79348  22098954.59448
  22817560.570 5  -1352056.520 5   -962270.07449  22817562.08249
  22757676.391 5    154645.734 5    116100.40247  22757675.79347
  20734152.281 6   -440518.781 6   -327415.02748  20734149.42248
  21530585.023 6   -189332.746 6   -138643.59049  21530586.20349
  20763722.117 7  -1039839.172 7   -777210.21949  20763722.69949
  22045030.727 6   -289741.652 6   -216174.74648  22045028.71148
 20  5 16  0 28 50.0000000  0  8G03G04G08G14G16G26G27G31             0.000055214
  24829695.477 4   -157786.246 4   -114165.91848  24829697.28948
  22098070.656 6   -850195.320 6   -648427.63748  22098070.29348
  22816416.828 5  -1358068.133 5   -966954.44549  22816418.34849
  22757819.602 5    155397.602 5    116686.27347  22757818.49647
  20733759.141 6   -442582.453 6   -329023.07848  20733756.41448
  21530403.508 6   -190288.563 6   -139388.38349  21530404.56349
  20762822.984 7  -1044564.527 7   -780892.31649  20762823.30149
  22044769.875 6   -291112.750 6   -217243.13348  22044767.99248
 20  5 16  0 28 51.0000000  0  8G03G04G08G14G16G26G27G31             0.000053564
  24829539.438 3   -158605.512 3   -114804.30948  24829541.74648
  22097185.922 6   -854844.004 6   -652049.98448  22097185.09048
  22815272.617 5  -1364080.676 5   -971639.53949  22815274.32049
  22757962.680 5    156148.559 5    117271.42247  22757961.24647
  20733366.766 6   -444647.004 6   -330631.81648  20733363.76648
  21530221.625 6   -191245.477 6   -140134.03149  21530222.60949
  20761923.648 7  -1049290.461 7   -784574.85949  20761923.74649
  22044508.594 6   -292484.750 6   -218312.23048  22044506.57848
 20  5 16  0 28 52.0000000  0  8G03G04G08G14G16G26G27G31             0.000051924
  24829383.289 4   -159425.914 4   -115443.58248  24829385.50048
  22096301.844 6   -859493.402 6   -655672.89148  22096300.93848
  22814128.703 5  -1370094.160 5   -976325.36749  22814129.71949
  22758105.930 5    156898.539 5    117855.82447  22758104.09447
  20732973.273 6   -446712.516 6   -332241.30948  20732970.36348
  21530038.820 6   -192203.547 6   -140880.57849  21530040.17249
  20761024.414 7  -1054017.051 7   -788257.91849  20761024.37149
  22044247.430 6   -293857.730 6   -219382.08648  22044245.43848
 20  5 16  0 28 53.0000000  0  7G04G08G14G16G26G27G31                0.000050282
  22095416.578 6   -864143.547 6   -659296.37948  22095416.01648
  22812983.563 5  -1376108.582 5   -981011.93049  22812985.17249
  22758247.836 6    157647.570 6    118439.47747  22758246.65247
  20732580.203 6   -448778.934 6   -333851.50048  20732577.59048
  21529856.422 6   -193162.746 6   -141628.01249  21529857.59449
  20760124.359 7  -1058744.289 7   -791941.48049  20760124.97749
  22043985.922 6   -295231.645 6   -220452.66848  22043984.10248
 20  5 16  0 28 54.0000000  0  7G04G08G14G16G26G27G31                0.000048639
  22094531.891 6   -868794.301 6   -662920.34048  22094531.15248
  22811839.406 5  -1382123.863 5   -985699.16449  22811840.59049
  22758390.016 5    158395.711 5    119022.44547  22758389.03547
  20732186.898 6   -450846.227 6   -335462.37548  20732184.35548
  21529673.648 6   -194123.051 6   -142376.30149  21529675.05549
  20759225.055 7  -1063472.094 7   -795625.48049  20759225.38349
  22043724.328 6   -296606.484 6   -221523.97748  22043722.35248
 20  5 16  0 28 55.0000000  0  7G04G08G14G16G26G27G31                0.000046997
  22093646.586 6   -873445.750 6   -666544.85248  22093645.45348
  22810694.414 5  -1388140.109 5   -990387.14849  22810695.96549
  22758532.133 6    159142.918 6    119604.68847  22758531.50047
  20731792.695 6   -452914.426 6   -337073.96148  20731790.51648
  21529490.453 6   -195084.414 6   -143125.41449  21529491.85249
  20758325.141 7  -1068200.496 7   -799309.94949  20758325.34449
  22043462.648 6   -297982.219 6   -222595.98048  22043460.48048
 20  5 16  0 28 56.0000000  0  7G04G08G14G16G26G27G31                0.000045353
  22092761.273 6   -878097.809 6   -670169.83648  22092760.07448
  22809549.164 5  -1394157.160 5   -995075.76249  22809550.53149
  22758674.133 5    159889.266 5    120186.25847  22758673.17247
  20731399.609 6   -454983.484 6   -338686.21548  20731396.52048
  21529307.094 6   -196046.902 6   -143875.41049  21529308.75049
  20757425.422 7  -1072929.473 7   -802994.86749  20757425.46549
  22043200.742 6   -299358.871 6   -223668.69548  22043198.97748
 20  5 16  0 28 57.0000000  0  7G04G08G14G16G26G27G31                0.000043709
  22091875.813 6   -882750.582 6   -673795.37148  22091875.08248
  22808404.180 5  -1400175.191 5   -999765.13749  22808405.52749
  22758815.789 5    160634.633 5    120767.06647  22758815.05547
  20731005.406 6   -457053.473 6   -340299.19148  20731002.83248
  21529124.023 6   -197010.516 6   -144626.27049  21529125.73849
  20756525.328 7  -1077659.102 7   -806680.29349  20756525.45349
  22042938.508 6   -300736.469 6   -224742.14548  22042936.70348
 20  5 16  0 28 58.0000000  0  7G04G08G14G16G26G27G31                0.000042065
  22090990.094 6   -887404.059 6   -677421.46148  22090989.40648
  22807258.906 5  -1406194.156 5  -1004455.23449  22807260.17649
  22758957.734 5    161379.082 5    121347.16047  22758956.74647
  20730611.484 6   -459124.363 6   -341912.87148  20730608.76648
  21528940.344 6   -197975.207 6   -145377.98049  21528941.95349
  20755624.977 7  -1082389.328 7   -810366.18449  20755625.36349
  22042676.234 6   -302115.000 6   -225816.32448  22042674.33648
 20  5 16  0 28 59.0000000  0  7G04G08G14G16G26G27G31                0.000040419
  22090103.898 6   -892058.176 6   -681048.04348  22090103.95348
  22806113.648 5  -1412213.988 5  -1009146.00849  22806114.58249
  22759099.773 5    162122.625 5    121926.54347  22759098.35247
  20730217.461 6   -461196.090 6   -343527.20348  20730214.19548
  21528756.734 6   -198941.016 6   -146130.56349  21528758.16049
  20754725.063 7  -1087120.141 7   -814052.53149  20754725.19949
  22042413.906 7   -303494.414 7   -226891.19548  22042412.01648
 20  5 16  0 29  0.0000000  0  7G04G08G14G16G26G27G31                0.000038771
  22089218.641 6   -896712.828 6   -684675.04348  22089218.10948
  22804967.750 5  -1418234.617 5  -1013837.41049  22804968.78949
  22759240.617 5    162865.402 5    122505.32447  22759239.86347
  20729822.844 6   -463268.641 6   -345142.18848  20729820.04748
  21528572.508 6   -199907.797 6   -146883.89849  21528574.19149
  20753824.563 7  -1091851.457 7   -817739.26649  20753824.54749
  22042151.172 6   -304874.641 6   -227966.69148  22042149.32848
 20  5 16  0 29  1.0000000  0  7G04G08G14G16G26G27G31                0.000037125
  22088332.531 6   -901368.164 6   -688302.57448  22088332.41848
  22803821.141 5  -1424256.164 5  -1018529.52049  22803822.69549
  22759381.391 5    163607.223 5    123083.35547  22759380.41847
  20729428.484 6   -465342.102 6   -346757.86748  20729425.60548
  21528388.383 6   -200875.676 6   -147638.09049  21528389.59849
  20752924.211 7  -1096583.359 7   -821426.46549  20752924.48049
  22041888.164 6   -306255.789 6   -229042.91048  22041886.48448
 20  5 16  0 29  2.0000000  0  7G04G08G14G16G26G27G31                0.000035477
  22087446.789 6   -906024.117 6   -691930.59048  22087446.05148
  22802675.766 5  -1430278.578 5  -1023222.31349  22802676.59049
  22759522.609 5    164348.188 5    123660.73047  22759521.87147
  20729033.516 6   -467416.383 6   -348374.18448  20729030.69548
  21528204.242 6   -201844.633 6   -148393.12549  21528205.34449
  20752023.711 7  -1101315.828 7   -825114.10949  20752023.96549
  22041625.391 6   -307637.840 6   -230119.84048  22041623.38348
 20  5 16  0 29  3.0000000  0  7G04G08G14G16G26G27G31                0.000033829
  22086560.906 6   -910680.711 6   -695559.10548  22086560.10948
  22801529.797 5  -1436301.852 5  -1027915.76649  22801530.84049
  22759663.711 5    165088.285 5    124237.43047  22759662.34447
  20728638.742 6   -469491.504 6   -349991.16048  20728636.13748
  21528019.500 6   -202814.621 6   -149148.95349  21528020.89149
  20751123.094 7  -1106048.848 7   -828802.17649  20751122.98849
  22041362.266 6   -309020.719 6   -231197.40648  22041360.24248
 20  5 16  0 29  4.0000000  0  7G04G08G14G16G26G27G31                0.000032179
  22085674.625 6   -915337.973 6   -699188.14148  22085673.91048
  22800383.641 5  -1442326.043 5  -1032609.94149  22800384.42649
  22759804.117 5    165827.426 5    124813.38747  22759803.33247
  20728243.438 6   -471567.566 6   -351608.87148  20728240.77348
  21527834.852 6   -203785.738 6   -149905.67249  21527836.13749
  20750222.313 7  -1110782.480 7   -832490.72349  20750222.22349
  22041098.672 6   -310404.559 6   -232275.73048  22041096.81648
 20  5 16  0 29  5.0000000  0  7G04G08G14G16G26G27G31                0.000030529
  22084788.008 6   -919995.883 6   -702817.68048  22084787.39548
  22799236.898 5  -1448351.074 5  -1037304.77049  22799238.02349
  22759944.078 5    166565.715 5    125388.66847  22759943.98047
  20727848.109 6   -473644.477 6   -353227.24248  20727845.61748
  21527650.109 6   -204757.938 6   -150663.23049  21527651.44549
  20749321.336 7  -1115516.699 7   -836179.72349  20749321.44949
  22040835.313 6   -311789.297 6   -233354.74248  22040833.55548
 20  5 16  0 29  6.0000000  0  7G04G08G14G16G26G27G31                0.000028877
  22083901.758 6   -924654.457 6   -706447.73848  22083901.10248
  22798089.531 5  -1454377.051 5  -1042000.33649  22798090.92249
  22760084.594 5    167303.035 5    125963.19947  22760084.02047
  20727453.195 6   -475722.305 6   -354846.32848  20727450.24248
  21527464.781 6   -205731.234 6   -151421.64549  21527466.30549
  20748420.305 7  -1120251.516 7   -839869.18449  20748420.62549
  22040571.469 6   -313174.945 6   -234434.46548  22040569.52048
 20  5 16  0 29  7.0000000  0  7G04G08G14G16G26G27G31                0.000027225
  22083015.602 6   -929313.684 6   -710078.30548  22083014.39148
  22796942.852 6  -1460403.879 6  -1046696.57049  22796943.93449
  22760224.500 5    168039.477 5    126537.04347  22760224.19947
  20727057.664 6   -477800.988 6   -356466.07848  20727054.96548
  21527279.086 6   -206705.605 6   -152180.89849  21527280.88349
  20747519.078 7  -1124986.918 7   -843559.10949  20747519.45749
  22040307.430 6   -314561.496 6   -235514.89548  22040305.74248
 20  5 16  0 29  8.0000000  0  7G04G08G14G16G26G27G31                0.000025574
  22082128.359 6   -933973.516 6   -713709.34848  22082127.85248
  22795795.773 6  -1466431.566 6  -1051393.48049  22795796.98849
  22760365.125 5    168775.063 5    127110.22347  22760364.46147
  20726661.664 6   -479880.500 6   -358086.48448  20726658.95348
  21527093.609 6   -207681.051 6   -152940.98449  21527094.86349
  20746617.984 7  -1129722.844 7   -847249.44149  20746618.50449
  22040043.859 6   -315948.910 6   -236596.00048  22040041.72348
 20  5 16  0 29  9.0000000  0  7G04G08G14G16G26G27G31                0.000023920
  22081241.805 6   -938634.016 6   -717340.91048  22081240.94148
  22794649.031 5  -1472460.109 5  -1056091.04349  22794649.50449
  22760505.094 5    169509.789 5    127682.72747  22760504.19147
  20726266.008 6   -481960.902 6   -359707.57848  20726262.93448
  21526907.633 6   -208657.551 6   -153701.89549  21526909.19149
  20745716.477 7  -1134459.375 7   -850940.24249  20745717.10249
  22039779.508 6   -317337.215 6   -237677.79348  22039777.68448
 20  5 16  0 29 10.0000000  0  7G04G08G14G16G26G27G31                0.000022266
  22080354.594 6   -943295.074 6   -720972.90248  22080353.71148
  22793501.094 5  -1478489.480 5  -1060789.25849  22793502.29749
  22760644.430 5    170243.641 5    128254.55547  22760643.73847
  20725869.852 6   -484042.113 6   -361329.30148  20725867.25848
  21526721.945 6   -209635.074 6   -154463.60549  21526723.10949
  20744815.094 7  -1139196.402 7   -854631.43449  20744815.48449
  22039515.422 6   -318726.359 6   -238760.24248  22039513.23048
 20  5 16  0 29 11.0000000  0  7G04G08G14G16G26G27G31                0.000020611
  22079467.391 6   -947956.820 6   -724605.43448  22079466.81348
  22792354.141 5  -1484519.734 5  -1065488.15649  22792355.30549
  22760783.719 5    170976.566 5    128825.66447  22760783.53947
  20725473.836 6   -486124.230 6   -362951.73448  20725471.12148
  21526534.977 6   -210613.688 6   -155226.15649  21526537.10949
  20743913.820 7  -1143934.059 7   -858323.11749  20743913.65649
  22039250.781 6   -320116.418 6   -239843.40648  22039249.07048
 20  5 16  0 29 12.0000000  0  7G04G08G14G16G26G27G31                0.000018957
  22078580.227 6   -952619.125 6   -728238.40248  22078579.71948
  22791206.453 6  -1490550.801 6  -1070187.69149  22791206.53949
  22760923.813 5    171708.688 5    129396.14547  22760922.78147
  20725077.219 6   -488207.109 6   -364574.75448  20725074.52748
  21526348.852 6   -211593.324 6   -155989.51249  21526350.28549
  20743012.125 7  -1148672.184 7   -862015.16449  20743012.06349
  22038986.219 6   -321507.297 6   -240927.21148  22038983.89548
 20  5 16  0 29 13.0000000  0  7G04G08G14G16G26G27G31                0.000017300
  22077692.750 6   -957282.129 6   -731871.90648  22077692.10248
  22790058.555 5  -1496582.781 5  -1074887.93849  22790059.68449
  22761062.133 5    172439.871 5    129965.89547  22761061.74247
  20724680.344 6   -490290.949 6   -366198.52048  20724677.81348
  21526162.375 6   -212574.078 6   -156753.73049  21526164.16449
  20742110.188 7  -1153410.961 7   -865707.71949  20742110.55949
  22038721.227 6   -322899.137 6   -242011.76248  22038719.12148
 20  5 16  0 29 14.0000000  0  7G04G08G14G16G26G27G31                0.000015644
  22076805.758 6   -961945.758 6   -735505.90648  22076804.55148
  22788910.656 5  -1502615.629 5  -1079588.85949  22788911.53949
  22761200.977 5    173170.176 5    130534.96147  22761200.73447
  20724284.070 6   -492375.641 6   -367822.95748  20724281.43448
  21525975.773 6   -213555.902 6   -157518.78949  21525977.10549
  20741208.359 7  -1158150.309 7   -869400.71949  20741208.83649
  22038456.141 6   -324291.844 6   -243096.98848  22038454.57848
 20  5 16  0 29 15.0000000  0  7G04G08G14G16G26G27G31                0.000013987
  22075918.016 6   -966610.051 6   -739140.41848  22075917.70748
  22787761.875 5  -1508649.359 5  -1084290.46949  22787763.60249
  22761339.930 5    173899.570 5    131103.32047  22761339.59847
  20723887.156 6   -494461.199 6   -369448.06648  20723884.39148
  21525788.438 6   -214538.816 6   -158284.70349  21525790.08249
  20740306.508 7  -1162890.219 7   -873094.16049  20740306.34049
  22038190.641 6   -325685.465 6   -244182.93048  22038188.84448
 20  5 16  0 29 16.0000000  0  7G04G08G14G16G26G27G31                0.000012327
  22075030.258 6   -971274.945 6   -742775.40248  22075029.44948
  22786613.352 5  -1514683.973 5  -1088992.75849  22786614.64849
  22761478.633 5    174628.078 5    131670.98047  22761478.19947
  20723490.164 6   -496547.602 6   -371073.83648  20723487.43848
  21525601.109 6   -215522.777 6   -159051.42649  21525602.50849
  20739404.484 7  -1167630.691 7   -876788.03149  20739404.78149
  22037925.453 6   -327079.930 6   -245269.52348  22037923.48448
 20  5 16  0 29 17.0000000  0  7G04G08G14G16G26G27G31                0.000010670
  22074142.141 6   -975940.465 6   -746410.87148  22074141.85948
  22785465.859 5  -1520719.449 5  -1093695.72349  22785466.68849
  22761616.906 5    175355.723 5    132237.97347  22761616.41447
  20723092.867 6   -498634.879 6   -372700.28148  20723089.73048
  21525413.734 6   -216507.809 6   -159818.98449  21525415.06349
  20738502.070 7  -1172371.719 7   -880482.34449  20738502.28949
  22037659.867 6   -328475.320 6   -246356.84448  22037658.43448
 20  5 16  0 29 18.0000000  0  7G04G08G14G16G26G27G31                0.000009010
  22073254.586 6   -980606.551 6   -750046.78948  22073253.78948
  22784316.898 5  -1526755.695 5  -1098399.28549  22784317.84449
  22761755.742 5    176082.559 5    132804.33647  22761755.19147
  20722695.414 6   -500722.902 6   -374327.31348  20722692.91848
  21525226.094 6   -217493.797 6   -160587.28949  21525227.66849
  20737599.914 7  -1177113.227 7   -884177.02049  20737600.25449
  22037394.219 6   -329871.477 6   -247444.75448  22037392.55148
 20  5 16  0 29 19.0000000  0  7G04G08G14G16G26G27G31                0.000007349
  22072366.336 6   -985273.313 6   -753683.22348  22072365.72348
  22783168.164 5  -1532792.878 5  -1103103.58749  22783169.14849
  22761894.242 5    176808.445 5    133369.96147  22761893.16047
  20722298.289 6   -502811.879 6   -375955.08648  20722295.21948
  21525038.617 6   -218480.969 6   -161356.50849  21525039.70349
  20736697.383 7  -1181855.379 7   -887872.20349  20736697.79749
  22037128.477 6   -331268.594 6   -248533.41448  22037126.66848
 20  5 16  0 29 20.0000000  0  7G04G08G14G16G26G27G31                0.000005688
  22071478.016 6   -989940.777 6   -757320.21148  22071477.61348
  22782018.633 5  -1538830.969 5  -1107808.59049  22782019.94149
  22762031.867 5    177533.383 5    133934.84447  22762031.06347
  20721900.117 6   -504901.758 6   -377583.57048  20721897.71548
  21524850.195 6   -219469.227 6   -162126.57849  21524851.94949
  20735794.859 7  -1186598.152 7   -891567.87549  20735795.17649
  22036862.367 6   -332666.652 6   -249622.81348  22036860.59448
 20  5 16  0 29 21.0000000  0  7G04G08G14G16G26G27G31                0.000004026
  22070589.570 6   -994608.813 6   -760957.64148  22070589.31648
  22780869.156 5  -1544869.871 5  -1112514.23049  22780870.62949
  22762168.969 5    178257.480 5    134499.07447  22762169.16447
  20721502.383 6   -506992.453 6   -379212.67648  20721499.71948
  21524662.031 6   -220458.512 6   -162897.44949  21524663.22749
  20734892.258 7  -1191341.434 7   -895263.93849  20734892.28149
  22036596.133 6   -334065.539 6   -250712.85248  22036594.32048
 20  5 16  0 29 22.0000000  0  7G04G08G14G16G26G27G31                0.000002365
  22069701.492 6   -999277.418 6   -764595.51248  22069700.56348
  22779719.734 5  -1550909.586 5  -1117220.50049  22779721.36749
  22762307.289 5    178980.789 5    135062.68447  22762306.66047
  20721104.445 6   -509083.922 6   -380842.39548  20721101.43448
  21524473.586 6   -221448.781 6   -163669.09049  21524475.00849
  20733989.586 7  -1196085.207 7   -898960.37949  20733989.89849
  22036329.648 6   -335465.238 6   -251803.52748  22036327.84048
 20  5 16  0 29 23.0000000  0  7G04G08G14G16G26G27G31                0.000000702
  22068813.156 6  -1003946.668 6   -768233.88348  22068812.48848
  22778570.602 5  -1556950.176 5  -1121927.44949  22778571.96949
  22762444.555 5    179703.172 5    135625.58247  22762443.76647
  20720706.180 6   -511176.285 6   -382472.80948  20720703.37548
  21524284.750 6   -222440.160 6   -164441.59449  21524286.20349
  20733086.727 7  -1200829.566 7   -902657.28549  20733086.93049
  22036063.102 6   -336865.824 6   -252894.89848  22036061.91848
 20  5 16  0 29 24.0000000  0  7G04G08G14G16G26G27G31               -0.000000963
  22067924.664 6  -1008616.563 6   -771872.76248  22067923.51648
  22777420.969 5  -1562991.625 5  -1126635.07049  22777422.37949
  22762582.188 5    180424.699 5    136187.81347  22762581.08647
  20720308.352 6   -513269.492 6   -384103.87548  20720305.28948
  21524095.875 6   -223432.566 6   -165214.89849  21524097.65649
  20732183.891 7  -1205574.477 7   -906354.61349  20732184.30549
  22035796.852 6   -338267.324 6   -253986.98048  22035794.89548
 20  5 16  0 29 25.0000000  0  7G04G08G14G16G26G27G31               -0.000002628
  22067035.945 6  -1013286.988 6   -775512.05948  22067034.73448
  22776271.164 5  -1569033.863 5  -1131343.30549  22776272.14549
  22762718.859 5    181145.402 5    136749.40247  22762718.36747
  20719909.898 6   -515363.492 6   -385735.57048  20719906.96148
  21523906.781 6   -224426.004 6   -165989.00849  21523908.43849
  20731281.031 7  -1210319.887 7   -910052.33249  20731281.05549
  22035529.906 6   -339669.609 6   -255079.67248  22035527.52748
 20  5 16  0 29 26.0000000  0  7G04G08G14G16G26G27G31               -0.000004293
  22066146.750 6  -1017958.027 6   -779151.83248  22066146.08248
  22775121.219 5  -1575076.945 5  -1136052.19949  22775122.12949
  22762856.234 5    181865.227 5    137310.30947  22762855.02047
  20719511.023 6   -517458.328 6   -387367.91048  20719507.85248
  21523717.930 6   -225420.445 6   -166763.89849  21523719.60949
  20730377.836 7  -1215065.828 7   -913750.46549  20730378.19949
  22035262.945 6   -341072.746 6   -256173.02748  22035261.09048
 20  5 16  0 29 27.0000000  0  7G04G08G14G16G26G27G31               -0.000005959
  22065257.891 6  -1022629.695 6   -782792.09448  22065257.10948
  22773971.406 5  -1581120.898 5  -1140761.77749  22773972.57449
  22762992.672 5    182584.211 5    137870.54747  22762992.05947
  20719112.344 6   -519554.031 6   -389000.92248  20719109.71948
  21523528.469 6   -226415.977 6   -167539.63749  21523529.67249
  20729474.508 7  -1219812.324 7   -917449.03949  20729474.71149
  22034995.398 6   -342476.789 6   -257267.08648  22034993.41048
 20  5 16  0 29 28.0000000  0  7G04G08G14G16G26G27G31               -0.000007626
  22064368.680 6  -1027301.988 6   -786432.84848  22064367.97748
  22772820.328 5  -1587165.688 5  -1145472.00449  22772822.29349
  22763129.484 5    183302.281 5    138430.07447  22763129.02047
  20718713.430 6   -521650.566 6   -390634.58248  20718710.52348
  21523338.359 6   -227412.551 6   -168316.19549  21523340.34049
  20728570.914 7  -1224559.367 7   -921148.03949  20728571.97749
  22034728.203 6   -343881.684 6   -258361.81348  22034726.62948
 20  5 16  0 29 29.0000000  0  7G04G08G14G16G26G27G31               -0.000009295
  22063479.469 6  -1031974.875 6   -790074.05948  22063478.76248
  22771670.148 5  -1593211.352 5  -1150182.90649  22771671.83649
  22763265.844 5    184019.516 5    138988.95347  22763265.27047
  20718313.914 6   -523747.973 6   -392268.93048  20718311.21148
  21523148.797 6   -228410.211 6   -169093.59449  21523150.59449
  20727667.469 7  -1229307.004 7   -924847.50049  20727668.23049
  22034460.703 6   -345287.465 6   -259457.22348  22034458.93848
 20  5 16  0 29 30.0000000  0  7G04G08G14G16G26G27G31               -0.000010962
  22062590.117 6  -1036648.434 6   -793715.79748  22062589.27748
  22770519.938 5  -1599257.883 5  -1154894.48849  22770521.46949
  22763402.063 5    184735.852 5    139547.13347  22763401.71547
  20717914.750 6   -525846.246 6   -393903.93848  20717912.10248
  21522958.711 6   -229408.914 6   -169871.80549  21522960.19949
  20726764.125 7  -1234055.188 7   -928547.37549  20726764.48449
  22034193.250 6   -346694.133 6   -260553.32848  22034191.42248
 20  5 16  0 29 31.0000000  0  7G04G08G14G16G26G27G31               -0.000012630
  22061700.617 6  -1041322.578 6   -797357.98048  22061699.72348
  22769369.148 5  -1605305.195 5  -1159606.66849  22769370.09049
  22763538.063 5    185451.352 5    140104.66047  22763537.69147
  20717515.258 6   -527945.336 6   -395539.59448  20717512.84848
  21522768.516 6   -230408.656 6   -170650.82449  21522769.95749
  20725860.484 7  -1238803.883 7   -932247.65649  20725860.70349
  22033925.320 6   -348101.645 6   -261650.08648  22033923.82048
 20  5 16  0 29 32.0000000  0  7G04G08G14G16G26G27G31               -0.000014299
  22060810.734 6  -1045997.266 6   -801000.60248  22060810.42648
  22768218.406 5  -1611353.348 5  -1164319.51649  22768219.39849
  22763674.305 5    186166.027 5    140661.55547  22763673.94547
  20717115.578 6   -530045.180 6   -397175.83648  20717112.93448
  21522578.008 6   -231409.371 6   -171430.60249  21522579.39149
  20724956.594 7  -1243553.066 7   -935948.31649  20724956.87149
  22033657.422 6   -349509.926 6   -262747.44948  22033655.39148
 20  5 16  0 29 33.0000000  0  7G04G08G14G16G26G27G31               -0.000015970
  22059921.203 6  -1050672.609 6   -804643.71948  22059920.68448
  22767067.453 5  -1617402.363 5  -1169033.03949  22767068.42249
  22763810.219 5    186879.766 5    141217.71547  22763809.41847
  20716715.719 6   -532145.945 6   -398812.80148  20716713.20348
  21522387.867 6   -232411.203 6   -172211.25049  21522389.14549
  20724053.023 7  -1248302.871 7   -939649.46949  20724053.23449
  22033389.055 6   -350919.180 6   -263845.57448  22033387.27048
 20  5 16  0 29 34.0000000  0  7G04G08G14G16G26G27G31               -0.000017641
  22059031.469 6  -1055348.594 6   -808287.34448  22059031.00048
  22765916.102 5  -1623452.258 5  -1173747.23849  22765917.21149
  22763945.781 5    187592.633 5    141773.19147  22763945.28547
  20716315.930 6   -534247.602 6   -400450.45748  20716313.64148
  21522196.852 6   -233414.102 6   -172992.73049  21522198.10949
  20723148.867 7  -1253053.207 7   -943351.03149  20723149.25449
  22033120.469 6   -352329.273 6   -264944.34848  22033118.94548
 20  5 16  0 29 35.0000000  0  7G04G08G14G16G26G27G31               -0.000019314
  22058141.609 6  -1060025.195 6   -811931.44948  22058141.01248
  22764764.664 5  -1629502.973 5  -1178462.08649  22764765.84449
  22764082.070 5    188304.676 5    142328.01647  22764080.85947
  20715915.844 6   -536350.031 6   -402088.71548  20715912.82848
  21522005.836 6   -234418.031 6   -173775.01249  21522007.18449
  20722244.727 7  -1257804.094 7   -947053.01649  20722245.02749
  22032852.367 6   -353740.227 6   -266043.79748  22032850.44148
 20  5 16  0 29 36.0000000  0  7G04G08G14G16G26G27G31               -0.000020987
  22057251.281 6  -1064702.309 6   -815575.95348  22057250.82448
  22763612.859 5  -1635554.492 5  -1183177.55149  22763614.45749
  22764217.102 5    189015.895 5    142882.21547  22764215.92247
  20715516.328 6   -538453.293 6   -403727.62148  20715512.69548
  21521814.234 6   -235422.949 6   -174558.06649  21521815.50449
  20721340.555 7  -1262555.465 7   -950755.38349  20721341.23849
  22032583.453 6   -355151.996 6   -267143.87948  22032581.77048
 20  5 16  0 29 37.0000000  0  7G04G08G14G16G26G27G31               -0.000022659
  22056361.477 6  -1069380.043 6   -819220.94548  22056360.62948
  22762461.078 5  -1641606.828 5  -1187893.65249  22762462.68449
  22764352.555 5    189726.258 5    143435.74247  22764350.78547
  20715115.523 6   -540557.332 6   -405367.12948  20715112.67248
  21521622.992 6   -236428.910 6   -175341.93449  21521624.25049
  20720436.336 7  -1267307.355 7   -954458.16049  20720436.77749
  22032314.734 6   -356564.590 6   -268244.59448  22032313.05548
 20  5 16  0 29 38.0000000  0  7G04G08G14G16G26G27G31               -0.000024332
  22055471.297 6  -1074058.359 6   -822866.38348  22055470.19948
  22761309.211 5  -1647660.020 5  -1192610.42249  22761310.33249
  22764487.078 5    190435.777 5    143988.61747  22764486.04747
  20714715.266 6   -542662.242 6   -407007.31648  20714712.22748
  21521431.352 6   -237435.891 6   -176126.59049  21521432.95349
  20719532.172 7  -1272059.785 7   -958161.35249  20719532.43449
  22032045.750 6   -357978.059 6   -269346.00048  22032043.75448
 20  5 16  0 29 39.0000000  0  7G04G08G14G16G26G27G31               -0.000026007
  22054580.820 6  -1078737.234 6   -826512.25848  22054580.25048
  22760157.289 5  -1653713.953 5  -1197327.77049  22760158.44149
  22764622.469 5    191144.484 5    144540.85547  22764621.00847
  20714314.500 7   -544767.910 7   -408648.09048  20714311.53148
  21521239.477 6   -238443.844 6   -176912.00849  21521240.97749
  20718627.891 7  -1276812.684 7   -961864.90249  20718627.85249
  22031776.672 6   -359392.320 6   -270448.01648  22031774.47348
 20  5 16  0 29 40.0000000  0  7G04G08G14G16G26G27G31               -0.000027683
  22053690.281 6  -1083416.680 6   -830158.57048  22053689.56648
  22759005.016 5  -1659768.695 5  -1202045.75449  22759006.22749
  22764756.563 5    191852.344 5    145092.43447  22764755.37147
  20713913.219 6   -546874.363 6   -410289.48448  20713910.55948
  21521047.563 6   -239452.840 6   -177698.23049  21521048.90249
  20717722.914 7  -1281566.098 7   -965568.86349  20717723.25849
  22031507.352 6   -360807.398 6   -271550.68048  22031505.59048
 20  5 16  0 29 41.0000000  0  7G04G08G14G16G26G27G31               -0.000029358
  22052799.641 6  -1088096.773 6   -833805.40648  22052798.75448
  22757852.719 5  -1665824.297 5  -1206764.40249  22757853.72349
  22764891.586 5    192559.313 5    145643.32447  22764889.94147
  20713511.969 6   -548981.719 6   -411931.57448  20713509.30548
  21520855.188 6   -240462.898 6   -178485.29349  21520856.94949
  20716818.555 7  -1286320.105 7   -969273.28549  20716818.83649
  22031238.273 6   -362223.387 6   -272654.05548  22031235.96148
 20  5 16  0 29 42.0000000  0  7G04G08G14G16G26G27G31               -0.000031034
  22051908.805 6  -1092777.516 6   -837452.73848  22051908.24648
  22756700.141 6  -1671880.820 6  -1211483.77049  22756701.35549
  22765025.484 5    193265.414 5    146193.52747  22765024.16447
  20713111.078 7   -551089.926 7   -413574.33648  20713108.20748
  21520662.406 6   -241474.059 6   -179273.21549  21520664.39849
  20715913.781 7  -1291074.672 7   -972978.14149  20715914.15649
  22030968.258 6   -363640.266 6   -273758.11748  22030966.43048
 20  5 16  0 29 43.0000000  0  7G04G08G14G16G26G27G31               -0.000032713
  22051018.336 6  -1097458.809 6   -841100.49648  22051017.36348
  22755547.695 5  -1677938.121 5  -1216203.75849  22755548.80949
  22765159.344 5    193970.672 5    146743.06647  22765158.41847
  20712709.648 6   -553198.930 6   -415217.71548  20712706.78148
  21520470.078 6   -242486.219 6   -180061.91049  21520471.62549
  20715008.844 7  -1295829.738 7   -976683.38349  20715008.87149
  22030698.352 6   -365057.949 6   -274862.80148  22030696.33248
 20  5 16  0 29 44.0000000  0  7G04G08G14G16G26G27G31               -0.000034391
  22050127.367 6  -1102140.711 6   -844748.73048  22050126.68048
  22754394.977 5  -1683996.250 5  -1220924.37549  22754395.97749
  22765293.547 5    194675.078 5    147291.95347  22765292.80947
  20712308.266 6   -555308.777 6   -416861.75448  20712305.52348
  21520277.500 6   -243499.422 6   -180851.42649  21520278.94949
  20714103.859 7  -1300585.359 7   -980389.05949  20714104.21149
  22030428.836 6   -366476.527 6   -275968.18848  22030426.72748
 20  5 16  0 29 45.0000000  0  7G04G08G14G16G26G27G31               -0.000036070
  22049236.555 6  -1106823.148 6   -848397.37948  22049235.84848
  22753241.938 5  -1690055.133 5  -1225645.57849  22753242.91049
  22765427.633 5    195378.684 5    147840.21547  22765426.40247
  20711906.313 6   -557419.395 6   -418506.39548  20711903.55548
  21520084.406 6   -244513.543 6   -181641.64849  21520086.13349
  20713198.914 7  -1305341.422 7   -984095.09049  20713199.14149
  22030158.664 6   -367895.859 6   -277074.15648  22030156.65648
 20  5 16  0 29 46.0000000  0  7G04G08G14G16G26G27G31               -0.000037748
  22048345.453 6  -1111506.066 6   -852046.40648  22048344.10948
  22752088.883 5  -1696114.746 5  -1230367.34849  22752089.91049
  22765561.125 5    196081.563 5    148387.90647  22765560.16847
  20711504.695 6   -559530.727 6   -420151.59048  20711501.97348
  21519891.266 6   -245528.633 6   -182432.62549  21519892.79749
  20712293.766 7  -1310097.898 7   -987801.43449  20712294.03549
  22029888.461 6   -369315.941 6   -278180.71948  22029886.09848
 20  5 16  0 29 47.0000000  0  7G04G08G14G16G26G27G31               -0.000039429
  22047454.063 6  -1116189.625 6   -855695.93848  22047452.93048
  22750935.078 5  -1702175.254 5  -1235089.81349  22750936.41849
  22765695.242 5    196783.504 5    148934.87147  22765693.70347
  20711102.938 6   -561642.945 6   -421797.47748  20711100.03148
  21519697.633 6   -246544.828 6   -183224.46949  21519699.35549
  20711388.352 7  -1314854.992 7   -991508.26649  20711388.89849
  22029618.281 6   -370736.930 6   -279287.98448  22029616.08248
 20  5 16  0 29 48.0000000  0  7G04G08G14G16G26G27G31               -0.000041109
  22046562.125 6  -1120873.762 6   -859345.91048  22046562.05948
  22749782.531 5  -1708236.535 5  -1239812.89149  22749783.14149
  22765828.914 5    197484.652 5    149481.22747  22765827.05547
  20710701.063 6   -563755.953 6   -423443.98048  20710698.16448
  21519504.227 6   -247562.004 6   -184017.07049  21519505.69149
  20710483.094 7  -1319612.539 7   -995215.44549  20710483.53149
  22029347.055 6   -372158.730 6   -280395.88748  22029345.34048
 20  5 16  0 29 49.0000000  0  7G04G08G14G16G26G27G31               -0.000042791
  22045670.906 6  -1125558.453 6   -862996.32048  22045670.34048
  22748628.523 5  -1714298.574 5  -1244536.57049  22748629.74649
  22765961.813 5    198184.977 5    150026.93447  22765960.08647
  20710298.711 6   -565869.723 6   -425091.07448  20710295.76648
  21519310.414 6   -248580.148 6   -184810.43049  21519312.19949
  20709577.805 7  -1324370.563 7   -998922.99649  20709577.98049
  22029076.500 6   -373581.324 6   -281504.40248  22029074.82048
 20  5 16  0 29 50.0000000  0  7G04G08G14G16G26G27G31               -0.000044474
  22044779.539 6  -1130243.730 6   -866647.18448  22044778.87948
  22747474.844 5  -1720361.484 5  -1249260.91449  22747475.62949
  22766094.586 5    198884.469 5    150571.99247  22766093.39547
  20709896.063 6   -567984.340 6   -426738.82448  20709893.49248
  21519116.883 6   -249599.340 6   -185604.60549  21519118.18849
  20708672.289 7  -1329129.152 7  -1002630.98849  20708672.64849
  22028805.914 6   -375004.781 6   -282613.58648  22028803.78148
 20  5 16  0 29 51.0000000  0  7G04G08G14G16G26G27G31               -0.000046156
  22043887.414 6  -1134929.563 6   -870298.47748  22043887.31648
  22746320.023 5  -1726425.211 5  -1253985.89549  22746321.67249
  22766228.211 5    199583.102 5    151116.37547  22766226.12547
  20709494.031 6   -570099.777 6   -428387.22348  20709490.69948
  21518922.563 6   -250619.563 6   -186399.58649  21518924.20749
  20707766.313 7  -1333888.258 7  -1006339.37949  20707766.43449
  22028534.805 6   -376429.063 6   -283723.41448  22028532.89148
 20  5 16  0 29 52.0000000  0  7G04G08G14G16G26G27G31               -0.000047840
  22042996.039 6  -1139616.043 6   -873950.27348  22042995.26248
  22745166.094 5  -1732489.762 5  -1258711.51649  22745167.93449
  22766361.141 5    200280.883 5    151660.09847  22766359.18047
  20709091.414 6   -572216.027 6   -430036.23848  20709087.83648
  21518728.281 6   -251640.828 6   -187195.37149  21518729.76649
  20706860.766 7  -1338647.879 7  -1010048.16849  20706860.71949
  22028263.305 6   -377854.191 6   -284833.89848  22028261.29748
 20  5 16  0 29 53.0000000  0  7G04G08G14G16G26G27G31               -0.000049524
  22042103.992 6  -1144303.098 6   -877602.52348  22042103.51248
  22744012.758 5  -1738555.176 5  -1263437.80149  22744013.92649
  22766493.422 5    200977.789 5    152203.14147  22766491.67647
  20708688.000 6   -574333.145 6   -431685.94148  20708684.91848
  21518533.844 6   -252663.137 6   -187991.97349  21518535.21149
  20705955.008 7  -1343408.055 7  -1013757.39849  20705954.89849
  22027992.117 6   -379280.191 6   -285945.07448  22027990.09448
 20  5 16  0 29 54.0000000  0  7G04G08G14G16G26G27G31               -0.000051208
  22041211.969 6  -1148990.805 6   -881255.28548  22041211.40248
  22742858.188 5  -1744621.406 5  -1268164.73049  22742859.18449
  22766625.797 5    201673.824 5    152745.50847  22766623.94547
  20708284.961 6   -576451.105 6   -433336.30548  20708282.03548
  21518338.703 6   -253686.496 6   -188789.40249  21518340.57849
  20705048.852 7  -1348168.777 7  -1017467.05949  20705049.10549
  22027720.539 6   -380707.051 6   -287056.91848  22027718.64548
 20  5 16  0 29 55.0000000  0  7G04G08G14G16G26G27G31               -0.000052895
  22040320.055 6  -1153679.113 6   -884908.52348  22040318.99248
  22741703.367 5  -1750688.551 5  -1272892.37949  22741704.85249
  22766758.102 5    202368.988 5    153287.18847  22766756.43847
  20707881.898 6   -578569.926 6   -434987.33248  20707879.18448
  21518143.773 6   -254710.930 6   -189587.66849  21518145.20349
  20704142.813 7  -1352930.063 7  -1021177.15249  20704143.45749
  22027448.914 6   -382134.813 6   -288169.46148  22027447.22348
 20  5 16  0 29 56.0000000  0  7G04G08G14G16G26G27G31               -0.000054581
  22039427.336 6  -1158367.961 6   -888562.17248  22039426.68448
  22740548.836 5  -1756756.402 5  -1277620.57449  22740549.71949
  22766890.883 5    203063.348 5    153828.24247  22766888.56347
  20707478.563 6   -580689.516 6   -436638.95748  20707475.42248
  21517948.992 6   -255736.340 6   -190386.69149  21517950.71949
  20703237.172 7  -1357691.809 7  -1024887.60249  20703237.15249
  22027177.172 6   -383563.352 6   -289282.61348  22027175.21148
 20  5 16  0 29 57.0000000  0  7G04G08G14G16G26G27G31               -0.000056269
  22038535.289 6  -1163057.352 6   -892216.24248  22038534.16048
  22739393.906 5  -1762825.086 5  -1282349.42249  22739395.37149
  22767022.727 5    203756.887 5    154368.66447  22767020.63347
  20707074.805 6   -582809.883 6   -438291.19148  20707071.78948
  21517753.820 6   -256762.746 6   -191186.48849  21517755.03149
  20702330.531 7  -1362454.039 7  -1028598.43049  20702330.84049
  22026905.250 6   -384992.715 6   -290396.39848  22026903.05948
 20  5 16  0 29 58.0000000  0  7G04G08G14G16G26G27G31               -0.000057957
  22037643.188 6  -1167747.270 6   -895870.72348  22037642.09848
  22738239.289 5  -1768894.508 5  -1287078.84049  22738240.34849
  22767154.273 5    204449.633 5    154908.46547  22767152.57447
  20706671.141 6   -584931.016 6   -439944.01648  20706668.71948
  21517557.984 6   -257790.125 6   -191987.04349  21517559.27349
  20701424.430 7  -1367216.746 7  -1032309.62549  20701424.62149
  22026632.836 6   -386422.836 6   -291510.77748  22026630.93448
 20  5 16  0 29 59.0000000  0  7G04G08G14G16G26G27G31               -0.000059645
  22036750.188 6  -1172437.781 6   -899525.67248  22036749.39148
  22737083.555 5  -1774964.773 5  -1291808.91449  22737084.78949
  22767285.375 5    205141.563 5    155447.63747  22767284.31347
  20706267.258 6   -587052.949 6   -441597.47348  20706265.00848
  21517362.516 6   -258818.516 6   -192788.39149  21517363.83649
  20700518.109 7  -1371979.969 7  -1036021.23049  20700517.98449
  22026360.703 6   -387853.793 6   -292625.80948  22026358.71948
 20  5 16  0 30  0.0000000  0  7G04G08G14G16G26G27G31               -0.000061333
  22035857.250 6  -1177128.750 6   -903180.97748  22035856.50048
  22735929.125 5  -1781035.688 5  -1296539.50049  22735929.92649
  22767417.125 5    205832.773 5    155986.24247  22767415.51247
  20705863.367 6   -589175.582 6   -443251.48048  20705860.76648
  21517166.719 6   -259847.762 6   -193590.39549  21517168.01249
  20699611.234 7  -1376743.566 7  -1039733.12949  20699611.43449
  22026088.477 6   -389285.461 6   -293741.39548  22026086.02048
 20  5 16  0 30  1.0000000  0  7G04G08G14G16G26G27G31               -0.000063023
  22034964.508 6  -1181820.273 6   -906836.70748  22034964.01248
  22734773.328 5  -1787107.398 5  -1301270.69949  22734774.79749
  22767548.609 5    206523.137 5    156524.18047  22767546.66447
  20705459.430 6   -591299.039 6   -444906.12148  20705456.85548
  21516970.672 6   -260878.078 6   -194393.24649  21516971.80549
  20698704.711 7  -1381507.672 7  -1043445.41849  20698704.82449
  22025815.758 6   -390717.965 6   -294857.63748  22025813.75848
 20  5 16  0 30  2.0000000  0  7G04G08G14G16G26G27G31               -0.000064713
  22034071.820 6  -1186512.313 6   -910492.83248  22034071.23048
  22733617.789 5  -1793179.863 5  -1306002.49649  22733618.98449
  22767680.078 5    207212.742 5    157061.53547  22767678.27047
  20705055.133 6   -593423.223 6   -446561.33648  20705052.66448
  21516774.367 6   -261909.328 6   -195196.81349  21516775.89849
  20697798.008 7  -1386272.207 7  -1047158.04349  20697798.32849
  22025543.000 6   -392151.227 6   -295974.46548  22025540.87148
 20  5 16  0 30  3.0000000  0  7G04G08G14G16G26G27G31               -0.000066404
  22033178.703 6  -1191204.938 6   -914149.43848  22033178.25448
  22732461.953 5  -1799253.160 5  -1310734.93449  22732463.57849
  22767811.266 5    207901.492 5    157598.22347  22767809.24647
  20704650.820 6   -595548.234 6   -448217.18448  20704648.26248
  21516577.852 6   -262941.602 6   -196001.18449  21516579.33249
  20696891.523 7  -1391037.273 7  -1050871.07849  20696891.65249
  22025270.367 6   -393585.340 6   -297091.95748  22025268.12148
 20  5 16  0 30  4.0000000  0  7G04G08G14G16G26G27G31               -0.000068096
  22032285.664 6  -1195898.148 6   -917806.48848  22032284.89148
  22731306.352 5  -1805327.230 5  -1315467.97749  22731307.41849
  22767941.773 5    208589.434 5    158134.28147  22767940.22347
  20704246.109 6   -597674.051 6   -449873.66448  20704244.00448
  21516381.070 6   -263974.879 6   -196806.33249  21516382.59449
  20695984.609 7  -1395802.852 7  -1054584.50849  20695985.11749
  22024997.070 6   -395020.254 6   -298210.06648  22024995.06648
 20  5 16  0 30  5.0000000  0  7G04G08G14G16G26G27G31               -0.000069788
  22031392.484 6  -1200591.863 6   -921463.93448  22031391.99248
  22730150.148 5  -1811402.102 5  -1320201.64149  22730151.18449
  22768072.961 6    209276.570 6    158669.70347  22768071.07447
  20703841.844 6   -599800.613 6   -451530.71948  20703838.83248
  21516184.477 6   -265009.109 6   -197612.23049  21516185.77349
  20695077.359 7  -1400568.879 7  -1058298.29749  20695077.58649
  22024724.023 6   -396455.949 6   -299328.79348  22024721.86748
 20  5 16  0 30  6.0000000  0  7G04G08G14G16G26G27G31               -0.000071482
  22030499.383 6  -1205286.152 6   -925121.82448  22030498.69148
  22728994.313 5  -1817477.734 5  -1324935.89849  22728995.41849
  22768203.883 6    209962.883 6    159204.48447  22768201.84847
  20703436.883 6   -601928.000 6   -453188.42648  20703434.17248
  21515987.359 6   -266044.363 6   -198418.92649  21515988.94949
  20694170.633 7  -1405335.402 7  -1062012.47349  20694170.85249
  22024450.422 6   -397892.469 6   -300448.15648  22024448.19948
 20  5 16  0 30  7.0000000  0  7G04G08G14G16G26G27G31               -0.000073175
  22029605.875 6  -1209981.008 6   -928780.14848  22029605.03548
  22727838.133 5  -1823554.195 5  -1329670.80149  22727838.75849
  22768334.086 6    210648.379 6    159738.63747  22768331.89147
  20703031.781 6   -604056.164 6   -454846.73048  20703029.12948
  21515790.000 6   -267080.629 6   -199226.40249  21515791.44149
  20693263.320 7  -1410102.430 7  -1065727.04349  20693263.77749
  22024176.992 6   -399329.797 6   -301568.16048  22024174.69148
 20  5 16  0 30  8.0000000  0  7G04G08G14G16G26G27G31               -0.000074869
  22028712.383 6  -1214676.406 6   -932438.90248  22028711.70348
  22726681.109 5  -1829631.398 5  -1334406.28549  22726682.91049
  22768464.781 6    211333.086 6    160272.17247  22768462.36347
  20702626.813 6   -606185.078 6   -456505.62548  20702624.65248
  21515592.688 6   -268117.852 6   -200034.62949  21515594.16049
  20692356.492 7  -1414869.902 7  -1069441.95749  20692356.51649
  22023903.133 6   -400767.914 6   -302688.77048  22023901.13348
 20  5 16  0 30  9.0000000  0  7G04G08G14G16G26G27G31               -0.000076565
  22027818.844 6  -1219372.305 6   -936098.03948  22027818.05548
  22725524.781 5  -1835709.367 5  -1339142.36749  22725525.98449
  22768594.031 5    212017.016 5    160805.10947  22768592.77347
  20702221.563 6   -608314.777 6   -458165.13348  20702218.80148
  21515395.273 6   -269156.047 6   -200843.60949  21515396.85949
  20691448.953 7  -1419637.871 7  -1073157.25849  20691449.46949
  22023629.742 6   -402206.813 6   -303809.98848  22023627.42248
 20  5 16  0 30 10.0000000  0  7G04G08G14G16G26G27G31               -0.000078260
  22026925.234 6  -1224068.766 6   -939757.61748  22026924.34048
  22724367.914 5  -1841788.129 5  -1343879.05549  22724369.27049
  22768724.070 5    212700.086 5    161337.37547  22768722.82847
  20701816.086 6   -610445.273 6   -459825.25848  20701813.35948
  21515197.758 6   -270195.242 6   -201653.37549  21515198.84049
  20690541.500 7  -1424406.305 7  -1076872.92249  20690541.85249
  22023355.102 6   -403646.535 6   -304931.84848  22023353.44948
 20  5 16  0 30 11.0000000  0  7G04G08G14G16G26G27G31               -0.000079958
  22026031.445 6  -1228765.816 6   -943417.66048  22026030.68448
  22723211.125 5  -1847867.680 5  -1348616.37149  22723212.34849
  22768854.031 5    213382.367 5    161869.02747  22768852.70747
  20701410.367 6   -612576.551 6   -461486.00048  20701407.86348
  21514999.617 6   -271235.457 6   -202463.93449  21515000.88349
  20689633.758 7  -1429175.250 7  -1080588.98449  20689634.17249
  22023080.930 6   -405087.063 6   -306054.34048  22023079.44548
 20  5 16  0 30 12.0000000  0  7G04G08G14G16G26G27G31               -0.000081656
  22025137.742 6  -1233463.324 6   -947078.05548  22025136.65248
  22722054.055 5  -1853947.945 5  -1353354.23849  22722055.25049
  22768983.313 5    214063.887 5    162400.07847  22768982.56647
  20701004.836 6   -614708.566 6   -463147.31348  20701002.04348
  21514801.641 6   -272276.570 6   -203275.18849  21514803.01649
  20688726.227 7  -1433944.586 7  -1084305.34849  20688726.80149
  22022806.836 6   -406528.316 6   -307177.40248  22022804.99648
 20  5 16  0 30 13.0000000  0  7G04G08G14G16G26G27G31               -0.000083353
  22024243.648 6  -1238161.449 6   -950738.93048  22024242.82448
  22720897.055 5  -1860029.035 5  -1358092.75049  22720897.82049
  22769112.688 5    214744.574 5    162930.48447  22769111.56347
  20700598.750 6   -616841.391 6   -464809.25448  20700596.18048
  21514603.219 6   -273318.750 6   -204087.27749  21514604.56649
  20687818.844 7  -1438714.488 7  -1088022.15649  20687819.34849
  22022532.820 6   -407970.426 6   -308301.12948  22022530.54348
 20  5 16  0 30 14.0000000  0  7G04G08G14G16G26G27G31               -0.000085051
  22023349.531 6  -1242860.078 6   -954400.20348  22023348.64548
  22719739.398 5  -1866110.879 5  -1362831.84849  22719740.56349
  22769242.961 5    215424.453 5    163460.25447  22769241.15647
  20700193.031 6   -618974.988 6   -466471.79348  20700190.38748
  21514404.641 6   -274361.875 6   -204900.10549  21514405.85549
  20686911.086 7  -1443484.820 7  -1091739.29749  20686911.10549
  22022258.070 6   -409413.336 6   -309425.47348  22022256.18048
 20  5 16  0 30 15.0000000  0  7G04G08G14G16G26G27G31               -0.000086750
  22022454.883 6  -1247559.234 6   -958061.87948  22022454.11348
  22718581.930 5  -1872193.488 5  -1367571.54349  22718583.27049
  22769371.977 5    216103.531 5    163989.41047  22769370.29747
  20699786.844 6   -621109.363 6   -468134.94148  20699784.06348
  21514205.938 6   -275405.980 6   -205713.69549  21514207.19149
  20686003.281 7  -1448255.652 7  -1095456.82449  20686003.33249
  22021983.266 6   -410857.023 6   -310550.41848  22021981.28948
 20  5 16  0 30 16.0000000  0  7G04G08G14G16G26G27G31               -0.000088449
  22021560.727 6  -1252258.980 6   -961724.02048  22021560.21148
  22717424.531 5  -1878276.875 5  -1372311.84849  22717425.15649
  22769500.750 5    216781.809 5    164517.93847  22769499.63747
  20699380.672 6   -623244.500 6   -469798.68848  20699378.03948
  21514007.711 6   -276451.082 6   -206528.05549  21514008.15649
  20685095.414 7  -1453026.938 7  -1099174.71149  20685095.32449
  22021708.898 6   -412301.520 6   -311676.00048  22021706.50848
 20  5 16  0 30 17.0000000  0  7G04G08G14G16G26G27G31               -0.000090151
  22020666.164 6  -1256959.242 6   -965386.55948  22020665.69148
  22716266.523 5  -1884361.008 5  -1377052.73049  22716267.60249
  22769630.086 6    217459.305 6    165045.85547  22769627.91847
  20698974.039 6   -625380.434 6   -471463.05148  20698971.45348
  21513807.992 6   -277497.164 6   -207343.18849  21513809.64149
  20684187.023 7  -1457798.688 7  -1102892.95349  20684187.46949
  22021433.500 6   -413746.781 6   -312802.17648  22021431.69548
 20  5 16  0 30 18.0000000  0  7G04G08G14G16G26G27G31               -0.000091852
  22019771.695 6  -1261660.008 6   -969049.49648  22019771.00048
  22715109.109 5  -1890445.953 5  -1381794.24249  22715110.01649
  22769758.742 5    218135.996 5    165573.13747  22769757.10547
  20698567.172 6   -627517.113 6   -473127.99248  20698564.53548
  21513608.641 6   -278544.199 6   -208159.05549  21513610.29749
  20683279.117 7  -1462570.898 7  -1106611.56349  20683279.38749
  22021158.227 6   -415192.813 6   -313928.95748  22021156.37948
 20  5 16  0 30 19.0000000  0  7G04G08G14G16G26G27G31               -0.000093554
  22018877.047 6  -1266361.285 6   -972712.82448  22018876.73848
  22713950.367 5  -1896531.570 5  -1386536.28149  22713951.53149
  22769887.305 6    218811.922 6    166099.83247  22769885.98447
  20698161.117 6   -629654.539 6   -474793.51648  20698158.15248
  21513409.602 6   -279592.176 6   -208975.66049  21513410.69549
  20682371.008 7  -1467343.547 7  -1110330.50849  20682371.22349
  22020882.672 6   -416639.625 6   -315056.34048  22020881.14848
 20  5 16  0 30 20.0000000  0  7G04G08G14G16G26G27G31               -0.000095257
  22017982.523 6  -1271063.027 6   -976376.52348  22017981.80948
  22712792.625 5  -1902617.914 5  -1391278.88749  22712793.33249
  22770015.094 5    219487.125 5    166625.95747  22770014.13347
  20697753.750 6   -631792.641 6   -476459.57448  20697751.15248
  21513209.359 6   -280641.090 6   -209792.99649  21513211.14549
  20681462.648 7  -1472116.598 7  -1114049.77049  20681462.65249
  22020607.234 6   -418087.156 6   -316184.28948  22020605.35248
 20  5 16  0 30 21.0000000  0  7G04G08G14G16G26G27G31               -0.000096960
  22017087.477 6  -1275765.332 6   -980040.65648  22017086.96948
  22711633.703 5  -1908705.051 5  -1396022.11349  22711635.08649
  22770144.148 5    220161.496 5    167151.44947  22770142.30547
  20697347.125 6   -633931.570 6   -478126.27048  20697343.94948
  21513009.563 6   -281690.961 6   -210611.07849  21513011.32049
  20680554.289 7  -1476890.129 7  -1117769.39849  20680554.38349
  22020332.000 6   -419535.480 6   -317312.85548  22020330.07848
 20  5 16  0 30 22.0000000  0  7G04G08G14G16G26G27G31               -0.000098663
  22016192.789 6  -1280468.153 6   -983705.19448  22016192.19148
  22710475.922 5  -1914792.938 5  -1400765.91449  22710476.98849
  22770272.188 5    220835.105 5    167676.33247  22770270.82447
  20696939.453 6   -636071.215 6   -479793.53148  20696936.88348
  21512810.023 6   -282741.801 6   -211429.91849  21512811.17649
  20679645.789 7  -1481664.121 7  -1121489.39549  20679645.93849
  22020055.766 6   -420984.590 6   -318442.03548  22020054.29748
 20  5 16  0 30 23.0000000  0  7G04G08G14G16G26G27G31               -0.000100367
  22015297.609 6  -1285171.480 6   -987370.12148  22015296.86748
  22709316.922 5  -1920881.574 5  -1405510.30949  22709317.84849
  22770400.063 5    221507.895 5    168200.58247  22770398.90247
  20696532.336 6   -638211.664 6   -481461.41448  20696529.84848
  21512609.977 6   -283793.645 6   -212249.53949  21512611.33249
  20678737.078 7  -1486438.582 7  -1125209.75449  20678737.50049
  22019780.164 6   -422434.465 6   -319571.80948  22019778.23048
 20  5 16  0 30 24.0000000  0  7G04G08G14G16G26G27G31               -0.000102072
  22014402.336 6  -1289875.332 6   -991035.45748  22014401.57048
  22708158.516 5  -1926970.996 5  -1410255.31349  22708158.82849
  22770527.836 5    222179.941 5    168724.25447  22770527.35247
  20696124.953 6   -640352.844 6   -483129.85948  20696121.90648
  21512409.375 6   -284846.402 6   -213069.87149  21512410.94949
  20677828.398 7  -1491213.457 7  -1128930.44149  20677828.96549
  22019504.148 6   -423885.113 6   -320702.18448  22019502.44148
 20  5 16  0 30 25.0000000  0  7G04G08G14G16G26G27G31               -0.000103779
  22013507.125 6  -1294579.777 6   -994701.26248  22013506.19148
  22706998.945 5  -1933061.199 5  -1415000.92649  22707000.44149
  22770655.086 5    222851.125 5    169247.25047  22770654.71547
  20695717.219 6   -642494.844 6   -484798.94948  20695714.60248
  21512209.234 6   -285900.207 6   -213891.01249  21512210.32049
  20676919.828 7  -1495988.879 7  -1132651.54749  20676919.86349
  22019227.969 6   -425336.621 6   -321833.23448  22019225.82048
 20  5 16  0 30 26.0000000  0  7G04G08G14G16G26G27G31               -0.000105484
  22012612.016 6  -1299284.703 6   -998367.43448  22012611.09848
  22705840.195 5  -1939152.129 5  -1419747.10549  22705840.96549
  22770782.594 5    223521.574 5    169769.67647  22770782.22747
  20695309.430 6   -644637.570 6   -486468.60948  20695306.75448
  21512008.352 6   -286954.945 6   -214712.88749  21512009.59049
  20676011.133 7  -1500764.719 7  -1136372.96949  20676011.08649
  22018951.617 6   -426788.871 6   -322964.85948  22018949.74648
 20  5 16  0 30 27.0000000  0  7G04G08G14G16G26G27G31               -0.000107191
  22011716.547 6  -1303990.156 6  -1002034.02348  22011715.91048
  22704680.797 5  -1945243.832 5  -1424493.88749  22704682.10549
  22770910.234 5    224191.238 5    170291.48847  22770909.66847
  20694901.672 6   -646781.070 6   -488138.85948  20694899.14548
  21511807.172 6   -288010.668 6   -215535.53149  21511808.53149
  20675102.242 7  -1505541.027 7  -1140094.77349  20675102.35249
  22018675.305 6   -428241.891 6   -324097.08648  22018673.17248
 20  5 16  0 30 28.0000000  0  7G04G08G14G16G26G27G31               -0.000108900
  22010820.867 6  -1308696.133 6  -1005701.01648  22010820.19948
  22703521.828 5  -1951336.297 5  -1429241.26249  22703522.24249
  22771037.883 5    224860.098 5    170812.67247  22771037.08647
  20694493.867 6   -648925.324 6   -489809.71548  20694490.72748
  21511606.320 6   -289067.324 6   -216358.89849  21511607.57049
  20674192.984 7  -1510317.773 7  -1143816.91449  20674193.03549
  22018398.656 6   -429695.707 6   -325229.93048  22018396.20748
 20  5 16  0 30 29.0000000  0  7G04G08G14G16G26G27G31               -0.000110609
  22009925.477 6  -1313402.660 6  -1009368.44148  22009924.77748
  22702361.883 5  -1957429.504 5  -1433989.21549  22702363.19149
  22771164.930 5    225528.145 5    171333.21947  22771164.48047
  20694085.523 6   -651070.363 6   -491481.17248  20694082.79348
  21511405.164 6   -290124.977 6   -217183.05149  21511406.25449
  20673283.914 7  -1515094.992 7  -1147539.42249  20673284.07449
  22018121.648 6   -431150.289 6   -326363.37548  22018119.75448
 20  5 16  0 30 30.0000000  0  7G04G08G14G16G26G27G31               -0.000112318
  22009029.469 6  -1318109.668 6  -1013036.23848  22009028.78948
  22701202.258 5  -1963523.449 5  -1438737.74249  22701203.66449
  22771291.711 5    226195.438 5    171853.18047  22771291.19147
  20693677.188 6   -653216.141 6   -493153.21148  20693674.25048
  21511203.805 6   -291183.578 6   -218007.93449  21511205.25049
  20672375.133 7  -1519872.656 7  -1151262.28549  20672375.13749
  22017844.781 6   -432605.648 6   -327497.41848  22017842.64148
 20  5 16  0 30 31.0000000  0  7G04G08G14G16G26G27G31               -0.000114027
  22008133.891 6  -1322817.184 6  -1016704.43448  22008133.02348
  22700042.734 5  -1969618.125 5  -1443486.84049  22700043.68849
  22771418.875 5    226862.008 5    172372.59047  22771418.35247
  20693268.664 6   -655362.656 6   -494825.81348  20693265.69948
  21511002.094 6   -292243.125 6   -218833.55549  21511003.71149
  20671465.805 7  -1524650.754 7  -1154985.47349  20671465.76249
  22017567.898 6   -434061.750 6   -328632.04348  22017565.55948
 20  5 16  0 30 32.0000000  0  7G04G08G14G16G26G27G31               -0.000115738
  22007238.227 6  -1327525.215 6  -1020373.03148  22007237.22348
  22698882.898 5  -1975713.582 5  -1448236.54749  22698883.71549
  22771545.484 5    227527.738 5    172891.34047  22771545.14847
  20692859.922 6   -657509.914 6   -496499.00848  20692857.26248
  21510800.227 6   -293303.633 6   -219659.92649  21510801.67649
  20670556.539 7  -1529429.289 7  -1158709.00049  20670556.55949
  22017290.406 6   -435518.633 6   -329767.27748  22017288.72748
 20  5 16  0 30 33.0000000  0  7G04G08G14G16G26G27G31               -0.000117449
  22006342.031 6  -1332233.895 6  -1024042.13748  22006341.23048
  22697722.523 5  -1981809.879 5  -1452986.91049  22697723.84449
  22771672.047 5    228192.590 5    173409.40647  22771671.52747
  20692451.203 6   -659658.051 6   -498172.87948  20692448.16048
  21510598.141 6   -294365.219 6   -220487.14149  21510599.46149
  20669647.016 7  -1534208.406 7  -1162432.98849  20669646.96949
  22017013.281 6   -436976.398 6   -330903.19948  22017011.29348
 20  5 16  0 30 34.0000000  0  7G04G08G14G16G26G27G31               -0.000119160
  22005446.063 6  -1336943.020 6  -1027711.58248  22005445.07048
  22696562.391 5  -1987906.863 5  -1457737.80949  22696563.88349
  22771797.820 5    228856.711 5    173926.89547  22771798.02747
  20692042.258 6   -661806.914 6   -499847.31648  20692039.31348
  21510396.344 6   -295427.703 6   -221315.04749  21510397.79749
  20668737.531 7  -1538987.902 7  -1166157.27349  20668737.30149
  22016735.617 6   -438434.879 6   -332039.68048  22016733.29348
 20  5 16  0 30 35.0000000  0  7G04G08G14G16G26G27G31               -0.000120872
  22004549.891 6  -1341652.598 6  -1031381.38348  22004549.02048
  22695402.328 5  -1994004.566 5  -1462489.25849  22695403.20749
  22771924.477 5    229520.121 5    174443.83247  22771924.34447
  20691633.125 6   -663956.453 6   -501522.28148  20691630.43048
  21510193.875 6   -296491.109 6   -222143.67649  21510194.58249
  20667827.938 7  -1543767.816 7  -1169881.87949  20667827.87949
  22016457.781 6   -439894.078 6   -333176.71948  22016455.68848
 20  5 16  0 30 36.0000000  0  7G04G08G14G16G26G27G31               -0.000122585
  22003653.102 6  -1346362.832 6  -1035051.69148  22003652.57448
  22694241.328 5  -2000103.113 5  -1467241.37549  22694242.79749
  22772050.367 5    230182.602 5    174960.04747  22772050.18447
  20691223.766 6   -666106.879 6   -503197.94148  20691221.40248
  21509991.109 6   -297555.586 6   -222973.13749  21509992.35549
  20666918.078 7  -1548548.281 7  -1173606.91849  20666918.49249
  22016180.148 6   -441354.160 6   -334314.44548  22016178.07848
 20  5 16  0 30 37.0000000  0  7G04G08G14G16G26G27G31               -0.000124300
  22002756.984 6  -1351073.621 6  -1038722.44948  22002756.43048
  22693080.891 5  -2006202.488 5  -1471994.13749  22693081.92249
  22772176.625 5    230844.270 5    175475.62947  22772176.46947
  20690814.617 6   -668258.094 6   -504874.21148  20690811.75048
  21509788.281 6   -298621.078 6   -223803.38349  21509789.71949
  20666008.188 7  -1553329.234 7  -1177332.33649  20666008.45749
  22015901.688 6   -442815.090 6   -335452.83248  22015899.72748
 20  5 16  0 30 38.0000000  0  7G04G08G14G16G26G27G31               -0.000126015
  22001860.289 6  -1355784.965 6  -1042393.61748  22001859.39548
  22691920.234 5  -2012302.645 5  -1476747.50049  22691921.32049
  22772301.797 5    231505.113 5    175990.56347  22772301.66047
  20690404.922 6   -670410.098 6   -506551.10248  20690401.96948
  21509585.508 6   -299687.574 6   -224634.42249  21509586.74649
  20665098.656 7  -1558110.695 7  -1181058.15249  20665098.52349
  22015624.227 6   -444276.824 6   -336591.84448  22015621.87948
 20  5 16  0 30 39.0000000  0  7G04G08G14G16G26G27G31               -0.000127729
  22000963.547 6  -1360496.910 6  -1046065.26248  22000963.16448
  22690758.984 5  -2018403.590 5  -1481501.48849  22690760.28949
  22772428.078 5    232165.121 5    176504.85947  22772427.77347
  20689995.484 6   -672562.938 6   -508228.63748  20689992.87948
  21509382.203 6   -300755.070 6   -225466.24249  21509383.60249
  20664188.664 7  -1562892.684 7  -1184784.37549  20664188.60949
  22015345.953 6   -445739.359 6   -337731.48448  22015343.42648
 20  5 16  0 30 40.0000000  0  7G04G08G14G16G26G27G31               -0.000129444
  22000066.555 6  -1365209.258 6  -1049737.22348  22000066.37148
  22689597.930 5  -2024505.234 5  -1486256.01649  22689599.31349
  22772553.141 5    232824.398 5    177018.57447  22772552.81647
  20689585.727 6   -674716.434 6   -509906.68448  20689582.87548
  21509178.578 6   -301823.469 6   -226298.76249  21509180.08649
  20663278.336 7  -1567675.020 7  -1188510.87549  20663278.69149
  22015067.086 6   -447202.613 6   -338871.68448  22015064.88348
 20  5 16  0 30 41.0000000  0  7G04G08G14G16G26G27G31               -0.000131161
  21999170.281 6  -1369922.148 6  -1053409.61348  21999169.37948
  22688436.438 5  -2030607.609 5  -1491011.10549  22688437.95349
  22772678.461 5    233482.941 5    177531.72347  22772678.10947
  20689175.742 6   -676870.680 6   -511585.32048  20689173.17248
  21508975.219 6   -302892.797 6   -227132.00449  21508976.53949
  20662368.484 7  -1572457.793 7  -1192237.70749  20662368.44549
  22014788.742 6   -448666.633 6   -340012.47748  22014786.35248
 20  5 16  0 30 42.0000000  0  7G04G08G14G16G26G27G31               -0.000132879
  21998273.180 6  -1374635.500 6  -1057082.34848  21998272.46948
  22687275.438 5  -2036710.711 5  -1495766.77049  22687276.70349
  22772803.688 5    234140.691 5    178044.26247  22772803.35547
  20688765.828 6   -679025.672 6   -513264.53548  20688762.96548
  21508771.625 6   -303963.094 6   -227966.00849  21508773.04349
  20661457.992 7  -1577241.031 7  -1195964.90649  20661458.22349
  22014509.781 6   -450131.418 6   -341153.86748  22014507.69548
 20  5 16  0 30 43.0000000  0  7G04G08G14G16G26G27G31               -0.000134596
  21997376.125 6  -1379349.445 6  -1060755.55548  21997375.29348
  22686113.164 5  -2042814.590 5  -1500523.03549  22686115.20349
  22772928.703 5    234797.605 5    178556.13747  22772928.35547
  20688355.570 7   -681181.469 7   -514944.37548  20688352.90648
  21508567.305 6   -305034.391 6   -228800.77749  21508569.47749
  20660548.008 7  -1582024.730 7  -1199692.46549  20660547.97749
  22014230.977 6   -451596.992 6   -342295.87948  22014228.52348
 20  5 16  0 30 44.0000000  0  7G04G08G14G16G26G27G31               -0.000136314
  21996478.953 6  -1384063.836 6  -1064429.09848  21996478.46148
  22684951.953 5  -2048919.195 5  -1505279.86749  22684953.40249
  22773053.531 5    235453.797 5    179067.45747  22773053.34447
  20687945.031 6   -683337.969 6   -516624.76648  20687942.42248
  21508363.914 6   -306106.617 6   -229636.27749  21508365.15649
  20659637.188 7  -1586808.848 7  -1203420.34849  20659637.24649
  22013951.750 6   -453063.336 6   -343438.48048  22013949.52348
 20  5 16  0 30 45.0000000  0  7G04G08G14G16G26G27G31               -0.000138035
  21995582.195 6  -1388778.758 6  -1068103.06348  21995581.40248
  22683789.859 5  -2055024.488 5  -1510037.23849  22683791.80949
  22773178.773 5    236109.211 5    179578.16447  22773177.86747
  20687534.664 6   -685495.211 6   -518305.73048  20687531.80148
  21508159.984 6   -307179.770 6   -230472.50049  21508160.86349
  20658726.727 7  -1591593.402 7  -1207148.56649  20658727.15649
  22013672.570 6   -454530.391 6   -344581.64148  22013670.60548
 20  5 16  0 30 46.0000000  0  7G04G08G14G16G26G27G31               -0.000139753
  21994684.625 6  -1393494.102 6  -1071777.35548  21994683.21548
  22682628.188 5  -2061130.520 5  -1514795.18049  22682629.90649
  22773303.078 5    236763.891 5    180088.29347  22773302.21147
  20687123.898 7   -687653.199 7   -519987.27348  20687121.02348
  21507955.383 6   -308253.949 6   -231309.52749  21507956.64549
  20657816.383 7  -1596378.340 7  -1210877.09449  20657816.60549
  22013393.109 6   -455998.168 6   -345725.35548  22013391.39548
 20  5 16  0 30 47.0000000  0  7G04G08G14G16G26G27G31               -0.000141474
  21993787.641 6  -1398209.945 6  -1075452.02747  21993786.61347
  22681465.688 5  -2067237.199 5  -1519553.63749  22681467.44949
  22773427.375 5    237417.883 5    180597.90247  22773426.71547
  20686713.250 6   -689811.805 6   -521669.31348  20686710.43448
  21507750.883 6   -309328.945 6   -232147.18849  21507751.96949
  20656905.680 7  -1601163.668 7  -1214605.92649  20656906.04349
  22013113.656 6   -457466.672 6   -346869.64548  22013111.79348
 20  5 16  0 30 48.0000000  0  7G04G08G14G16G26G27G31               -0.000143194
  21992889.625 6  -1402926.262 6  -1079127.09048  21992888.92648
  22680303.898 5  -2073344.664 5  -1524312.69549  22680305.21549
  22773551.453 5    238071.098 5    181106.89547  22773551.12947
  20686302.188 6   -691971.195 6   -523351.95348  20686299.19548
  21507545.953 6   -310404.840 6   -232985.55149  21507547.10549
  20655994.898 7  -1605949.457 7  -1218335.10549  20655994.81349
  22012833.852 6   -458935.926 6   -348014.52348  22012832.58648
 20  5 16  0 30 49.0000000  0  7G04G08G14G16G26G27G31               -0.000144917
  21991992.523 6  -1407643.023 6  -1082802.50048  21991991.43048
  22679141.781 5  -2079452.797 5  -1529072.27749  22679143.00849
  22773676.242 5    238723.531 5    181615.27347  22773675.11347
  20685891.211 6   -694131.270 6   -525035.12948  20685888.16048
  21507340.734 6   -311481.664 6   -233824.63349  21507342.27749
  20655083.992 7  -1610735.605 7  -1222064.57049  20655084.37549
  22012554.758 6   -460405.887 6   -349159.94548  22012552.62948
 20  5 16  0 30 50.0000000  0  7G04G08G14G16G26G27G31               -0.000146639
  21991094.195 6  -1412360.324 6  -1086478.32448  21991093.62948
  22677979.203 5  -2085561.719 5  -1533832.48049  22677980.56349
  22773800.180 5    239375.195 5    182123.06347  22773798.96147
  20685480.109 6   -696292.109 6   -526718.90248  20685477.44948
  21507135.906 6   -312559.449 6   -234664.46949  21507137.34849
  20654173.289 7  -1615522.234 7  -1225794.41449  20654173.55549
  22012275.047 6   -461876.641 6   -350305.99648  22012273.10248
 20  5 16  0 30 51.0000000  0  7G04G08G14G16G26G27G31               -0.000148361
  21990196.516 6  -1417078.105 6  -1090154.52348  21990195.56348
  22676816.547 5  -2091671.340 5  -1538593.22349  22676817.67649
  22773924.109 5    240026.148 5    182630.29347  22773923.14547
  20685068.969 6   -698453.688 6   -528403.24248  20685066.02748
  21506930.641 6   -313638.160 6   -235505.02049  21506931.95349
  20653262.508 7  -1620309.277 7  -1229524.57849  20653262.73849
  22011994.914 6   -463348.125 6   -351452.60548  22011992.77348
 20  5 16  0 30 52.0000000  0  7G04G08G14G16G26G27G31               -0.000150085
  21989298.555 6  -1421796.383 6  -1093831.09848  21989297.98848
  22675654.023 5  -2097781.664 5  -1543354.52049  22675655.30149
  22774047.203 5    240676.336 5    183136.92647  22774046.65647
  20684657.109 6   -700615.984 6   -530088.14848  20684654.55948
  21506724.797 6   -314717.793 6   -236346.29749  21506726.55149
  20652351.398 7  -1625096.730 7  -1233255.06349  20652351.44149
  22011714.594 6   -464820.344 6   -352599.79348  22011712.69148
 20  5 16  0 30 53.0000000  0  7G04G08G14G16G26G27G31               -0.000151810
  21988400.953 6  -1426515.215 6  -1097508.10948  21988399.98448
  22674490.758 5  -2103892.762 5  -1548116.40249  22674492.08249
  22774170.977 5    241325.652 5    183642.88747  22774170.39847
  20684245.789 6   -702779.098 6   -531773.69148  20684242.69948
  21506519.367 6   -315798.461 6   -237188.37549  21506521.15249
  20651440.328 7  -1629884.684 7  -1236985.93449  20651440.64849
  22011434.594 6   -466293.402 6   -353747.62948  22011431.90648
 20  5 16  0 30 54.0000000  0  7G04G08G14G16G26G27G31               -0.000153534
  21987502.641 6  -1431234.527 6  -1101185.49648  21987501.90248
  22673327.078 5  -2110004.586 5  -1552878.86349  22673329.01249
  22774294.805 5    241974.234 5    184148.27747  22774293.98847
  20683833.867 6   -704942.926 6   -533459.78948  20683831.44948
  21506313.945 6   -316880.059 6   -238031.18449  21506315.23849
  20650529.070 7  -1634673.055 7  -1240717.13749  20650529.08649
  22011154.063 6   -467767.195 6   -354896.03948  22011151.93048
 20  5 16  0 30 55.0000000  0  7G04G08G14G16G26G27G31               -0.000155260
  21986604.484 6  -1435954.242 6  -1104863.19148  21986604.07048
  22672164.898 5  -2116117.020 5  -1557641.79749  22672165.73849
  22774418.148 5    242622.164 5    184653.15247  22774417.17247
  20683422.125 6   -707107.359 6   -535146.36748  20683419.19548
  21506107.602 6   -317962.488 6   -238874.63349  21506109.08249
  20649617.789 7  -1639461.754 7  -1244448.58249  20649618.27049
  22010873.227 6   -469241.633 6   -356044.94948  22010870.96948
 20  5 16  0 30 56.0000000  0  7G04G08G14G16G26G27G31               -0.000156986
  21985706.406 6  -1440674.477 6  -1108541.29348  21985705.58248
  22671001.305 5  -2122230.203 5  -1562405.32049  22671002.37549
  22774541.031 5    243269.293 5    185157.40647  22774540.15647
  20683010.109 6   -709272.598 6   -536833.55948  20683006.99648
  21505901.664 6   -319045.883 6   -239718.83649  21505903.03149
  20648706.344 7  -1644250.906 7  -1248180.39149  20648706.75049
  22010592.273 6   -470716.844 6   -357194.46948  22010590.47748
 20  5 16  0 30 57.0000000  0  7G04G08G14G16G26G27G31               -0.000158712
  21984808.039 6  -1445395.191 6  -1112219.77748  21984807.52348
  22669838.305 5  -2128344.094 5  -1567169.38749  22669839.19149
  22774664.422 5    243915.676 5    185661.08247  22774663.15647
  20682597.680 6   -711438.551 6   -538521.31648  20682594.86748
  21505695.211 6   -320130.203 6   -240563.76249  21505696.69949
  20647795.164 7  -1649040.477 7  -1251912.52349  20647795.19149
  22010311.664 6   -472192.805 6   -358344.56348  22010309.38348
 20  5 16  0 30 58.0000000  0  7G04G08G14G16G26G27G31               -0.000160439
  21983909.852 6  -1450116.441 6  -1115898.67248  21983909.14548
  22668674.547 5  -2134458.750 5  -1571934.05549  22668675.24249
  22774787.445 5    244561.246 5    186164.12947  22774785.89547
  20682185.352 6   -713605.293 6   -540209.68848  20682182.75048
  21505488.531 6   -321215.512 6   -241409.46149  21505490.19549
  20646883.648 7  -1653830.512 7  -1255645.01249  20646883.59849
  22010030.445 6   -473669.559 6   -359495.28948  22010028.62148
 20  5 16  0 30 59.0000000  0  7G04G08G14G16G26G27G31               -0.000162167
  21983011.430 6  -1454838.102 6  -1119577.89148  21983010.49248
  22667511.039 5  -2140574.047 5  -1576699.22749  22667511.93849
  22774909.398 5    245206.145 5    186666.64847  22774908.61347
  20681772.953 6   -715772.691 6   -541898.56348  20681770.19148
  21505281.844 6   -322301.695 6   -242255.83249  21505283.49649
  20645971.961 7  -1658620.898 7  -1259377.78549  20645972.14549
  22009749.367 6   -475146.961 6   -360646.50848  22009747.69948
 20  5 16  0 31  0.0000000  0  7G04G08G14G16G26G27G31               -0.000163895
  21982112.656 6  -1459560.262 6  -1123257.48848  21982111.70748
  22666347.125 5  -2146690.094 5  -1581464.97749  22666347.85949
  22775032.922 5    245850.277 5    187168.57047  22775031.21947
  20681360.172 6   -717940.797 6   -543588.00048  20681357.68048
  21505075.172 6   -323388.793 6   -243102.92649  21505076.35249
  20645060.172 7  -1663411.699 7  -1263110.87949  20645060.61749
  22009468.508 6   -476625.133 6   -361798.32848  22009466.39848
 20  5 16  0 31  1.0000000  0  7G04G08G14G16G26G27G31               -0.000165625
  21981214.063 6  -1464282.813 6  -1126937.39848  21981213.32048
  22665183.164 5  -2152806.762 5  -1586231.20349  22665184.07449
  22775154.930 5    246493.738 5    187669.95347  22775153.55547
  20680947.555 6   -720109.551 6   -545277.94148  20680944.78148
  21504867.672 6   -324476.727 6   -243950.66849  21504869.22749
  20644148.523 7  -1668202.836 7  -1266844.23049  20644148.74649
  22009186.617 6   -478103.938 6   -362950.64148  22009184.94948
 20  5 16  0 31  2.0000000  0  7G04G08G14G16G26G27G31               -0.000167355
  21980315.141 6  -1469005.844 6  -1130617.68448  21980314.09848
  22664019.258 5  -2158924.145 5  -1590997.99249  22664020.10249
  22775277.141 5    247136.441 5    188170.75847  22775275.92647
  20680534.680 6   -722279.035 6   -546968.44948  20680532.17648
  21504660.898 6   -325565.621 6   -244799.15249  21504662.38749
  20643236.852 7  -1672994.402 7  -1270577.91849  20643237.07449
  22008905.125 6   -479583.496 6   -364103.55148  22008903.39548
 20  5 16  0 31  3.0000000  0  7G04G08G14G16G26G27G31               -0.000169085
  21979416.414 6  -1473729.484 6  -1134298.43848  21979415.54348
  22662854.906 6  -2165042.352 6  -1595765.42649  22662855.41049
  22775399.320 5    247778.305 5    188670.91047  22775397.87947
  20680121.844 6   -724449.352 6   -548659.60548  20680119.39148
  21504453.516 6   -326655.527 6   -245648.43849  21504454.82049
  20642324.758 7  -1677786.453 7  -1274311.98849  20642325.05549
  22008623.320 6   -481063.883 6   -365257.10248  22008621.14848
 20  5 16  0 31  4.0000000  0  7G04G08G14G16G26G27G31               -0.000170816
  21978517.305 6  -1478453.477 6  -1137979.47348  21978516.73848
  22661690.602 5  -2171161.195 5  -1600533.35549  22661691.35949
  22775521.625 5    248419.465 5    189170.52047  22775519.99247
  20679708.742 7   -726620.328 7   -550351.27048  20679705.61748
  21504246.094 6   -327746.313 6   -246498.39849  21504247.13749
  20641413.063 7  -1682578.879 7  -1278046.34049  20641413.21549
  22008341.930 6   -482544.957 6   -366411.18848  22008339.78948
 20  5 16  0 31  5.0000000  0  7G04G08G14G16G26G27G31               -0.000172548
  21977618.156 6  -1483177.953 6  -1141660.88748  21977617.60248
  22660525.578 5  -2177280.707 5  -1605301.81349  22660526.57449
  22775643.758 5    249059.930 5    189669.58247  22775642.17647
  20679295.359 6   -728791.988 6   -552043.47748  20679292.54748
  21504038.250 6   -328837.965 6   -247349.03149  21504039.63749
  20640500.930 7  -1687371.652 7  -1281780.97749  20640501.17249
  22008059.641 6   -484026.727 6   -367565.81348  22008057.64848
 20  5 16  0 31  6.0000000  0  7G04G08G14G16G26G27G31               -0.000174280
  21976719.406 6  -1487903.035 6  -1145342.76648  21976718.77748
  22659360.711 6  -2183401.078 6  -1610070.93449  22659362.29349
  22775765.398 5    249699.520 5    190167.96547  22775763.91047
  20678881.875 6   -730964.449 6   -553736.30548  20678879.28548
  21503830.328 6   -329930.668 6   -248200.49249  21503831.90649
  20639588.836 7  -1692164.977 7  -1285516.02749  20639589.57449
  22007777.641 6   -485509.348 6   -368721.09848  22007775.70748
 20  5 16  0 31  7.0000000  0  7G04G08G14G16G26G27G31               -0.000176014
  21975819.484 6  -1492628.516 6  -1149024.95748  21975819.39848
  22658196.453 6  -2189522.102 6  -1614840.55549  22658197.00849
  22775886.797 5    250338.391 5    190665.78147  22775885.09447
  20678468.375 6   -733137.625 6   -555429.68848  20678465.69548
  21503622.414 6   -331024.262 6   -249052.64549  21503623.73849
  20638676.750 7  -1696958.660 7  -1289251.37149  20638677.08649
  22007494.945 6   -486992.629 6   -369876.90648  22007493.07448
 20  5 16  0 31  8.0000000  0  7G04G08G14G16G26G27G31               -0.000177748
  21974920.406 6  -1497354.461 6  -1152707.51648  21974920.01248
  22657031.758 6  -2195643.789 6  -1619610.69949  22657032.63349
  22776008.492 5    250976.598 5    191163.07847  22776006.90647
  20678054.742 6   -735311.473 6   -557123.59448  20678052.01248
  21503413.586 6   -332118.730 6   -249905.47349  21503415.12949
  20637764.266 7  -1701752.738 7  -1292987.01649  20637764.78149
  22007212.914 6   -488476.652 6   -371033.28548  22007211.03948
 20  5 16  0 31  9.0000000  0  7G04G08G14G16G26G27G31               -0.000179482
  21974021.266 6  -1502080.789 6  -1156390.36748  21974021.28948
  22655866.391 6  -2201766.082 6  -1624381.31649  22655867.25849
  22776129.539 5    251614.113 5    191659.84847  22776128.22747
  20677641.109 6   -737485.949 6   -558818.00048  20677638.60548
  21503204.930 6   -333214.031 6   -250758.95349  21503206.77749
  20636852.117 7  -1706547.129 7  -1296722.90249  20636852.36349
  22006930.250 6   -489961.281 6   -372190.14548  22006928.55948
 20  5 16  0 31 10.0000000  0  7G04G08G14G16G26G27G31               -0.000181215
  21973122.055 6  -1506807.594 6  -1160073.59048  21973121.19148
  22654701.453 6  -2207889.082 6  -1629152.49249  22654702.28949
  22776250.477 6    252250.875 6    192156.03147  22776249.20347
  20677227.125 6   -739661.141 6   -560512.95348  20677224.10948
  21502997.242 6   -334310.285 6   -251613.18049  21502998.64149
  20635939.633 7  -1711341.914 7  -1300459.09849  20635939.68449
  22006647.680 6   -491446.680 6   -373347.59848  22006645.46948
 20  5 16  0 31 11.0000000  0  7G04G08G14G16G26G27G31               -0.000182951
  21972222.594 6  -1511534.867 6  -1163757.17648  21972221.49648
  22653535.734 5  -2214012.809 5  -1633924.22749  22653536.68849
  22776371.352 6    252886.895 6    192651.62947  22776370.18447
  20676813.172 6   -741837.070 6   -562208.48448  20676810.35248
  21502788.625 6   -335407.441 6   -252468.10549  21502789.75849
  20635027.328 7  -1716137.125 7  -1304195.62549  20635027.01249
  22006364.734 6   -492932.793 6   -374505.60548  22006363.16048
 20  5 16  0 31 12.0000000  0  7G04G08G14G16G26G27G31               -0.000184687
  21971322.367 6  -1516262.621 6  -1167441.14148  21971321.57048
  22652370.539 6  -2220137.238 6  -1638696.50849  22652371.41449
  22776492.766 5    253522.164 5    193146.64147  22776491.55147
  20676398.922 6   -744013.715 6   -563904.56648  20676396.10248
  21502579.086 6   -336505.539 6   -253323.77049  21502580.43849
  20634114.219 7  -1720932.730 7  -1307932.45749  20634114.64549
  22006081.695 6   -494419.652 6   -375664.19548  22006079.74248
 20  5 16  0 31 13.0000000  0  7G04G08G14G16G26G27G31               -0.000186424
  21970422.883 6  -1520990.789 6  -1171125.42648  21970421.73448
  22651204.938 6  -2226262.328 6  -1643469.30549  22651205.77749
  22776612.930 5    254156.746 5    193641.12147  22776612.22347
  20675984.461 6   -746191.008 6   -565601.16448  20675981.72348
  21502370.164 6   -337604.477 6   -254180.08649  21502371.62549
  20633201.469 7  -1725728.699 7  -1311669.57849  20633202.11749
  22005798.922 6   -495907.168 6   -376823.29748  22005796.97348
 20  5 16  0 31 14.0000000  0  7G04G08G14G16G26G27G31               -0.000188162
  21969522.500 6  -1525719.480 6  -1174810.12148  21969522.53948
  22650039.766 6  -2232388.168 6  -1648242.69149  22650040.14149
  22776733.742 5    254790.570 5    194135.00447  22776732.29747
  20675569.914 6   -748369.066 6   -567298.35548  20675567.18848
  21502160.609 6   -338704.406 6   -255037.16849  21502162.19949
  20632288.750 7  -1730525.117 7  -1315407.04749  20632289.14149
  22005515.625 6   -497395.484 6   -377983.03148  22005513.73448
 20  5 16  0 31 15.0000000  0  7G04G08G14G16G26G27G31               -0.000189899
  21968623.242 6  -1530448.602 6  -1178495.15648  21968622.57048
  22648873.727 6  -2238514.625 6  -1653016.55549  22648874.43849
  22776854.383 5    255423.656 5    194628.31347  22776853.08647
  20675155.641 6   -750547.797 6   -568996.06648  20675152.40648
  21501951.141 6   -339805.184 6   -255894.91849  21501953.07449
  20631376.109 7  -1735321.879 7  -1319144.78149  20631376.82449
  22005232.430 6   -498884.445 6   -379143.26248  22005230.38348
 20  5 16  0 31 16.0000000  0  7G04G08G14G16G26G27G31               -0.000191639
  21967722.695 6  -1535178.152 6  -1182180.52348  21967722.33248
  22647707.563 6  -2244641.789 6  -1657790.96949  22647708.60549
  22776974.727 5    256056.027 5    195121.06647  22776973.60947
  20674740.727 6   -752727.227 6   -570694.32448  20674737.53548
  21501741.586 6   -340906.879 6   -256753.38349  21501743.20749
  20630463.039 7  -1740119.035 7  -1322882.82049  20630463.76249
  22004948.570 6   -500374.152 6   -380304.07048  22004946.77348
 20  5 16  0 31 17.0000000  0  7G04G08G14G16G26G27G31               -0.000193377
  21966822.648 6  -1539908.203 6  -1185866.27748  21966822.28148
  22646541.594 6  -2250769.656 6  -1662565.93449  22646542.46949
  22777094.258 5    256687.656 5    195613.24247  22777093.65647
  20674325.969 6   -754907.367 6   -572393.13348  20674322.97748
  21501531.578 6   -342009.504 6   -257612.57449  21501533.21549
  20629550.297 7  -1744916.613 7  -1326621.19549  20629550.46149
  22004664.867 6   -501864.563 6   -381465.43048  22004663.27748
 20  5 16  0 31 18.0000000  0  7G04G08G14G16G26G27G31               -0.000195116
  21965922.609 6  -1544638.625 6  -1189552.31648  21965921.98448
  22645375.180 6  -2256898.172 6  -1667341.40249  22645375.84049
  22777214.914 5    257318.629 5    196104.90647  22777213.48047
  20673910.656 6   -757088.168 6   -574092.46148  20673908.32848
  21501321.563 6   -343112.957 6   -258472.40649  21501322.99649
  20628637.234 7  -1749714.512 7  -1330359.81649  20628638.07049
  22004381.000 6   -503355.641 6   -382627.31348  22004379.41448
 20  5 16  0 31 19.0000000  0  7G04G08G14G16G26G27G31               -0.000196857
  21965021.766 6  -1549369.387 6  -1193238.62548  21965021.41048
  22644208.633 6  -2263027.250 6  -1672117.30549  22644209.95349
  22777334.695 5    257948.953 5    196596.06347  22777333.54347
  20673495.672 6   -759269.543 6   -575792.23048  20673492.90248
  21501111.336 6   -344217.215 6   -259332.86749  21501112.90249
  20627724.398 7  -1754512.660 7  -1334098.62949  20627724.71149
  22004097.750 6   -504847.316 6   -383789.66048  22004095.74648
 20  5 16  0 31 20.0000000  0  7G04G08G14G16G26G27G31               -0.000198599
  21964122.211 6  -1554100.762 6  -1196925.40648  21964121.37148
  22643042.953 6  -2269157.117 6  -1676893.82449  22643043.38349
  22777454.594 5    258578.473 5    197086.60247  22777453.04747
  20673080.445 6   -761451.730 6   -577492.63348  20673077.53548
  21500901.125 6   -345322.492 6   -260194.12549  21500902.66849
  20626811.211 7  -1759311.355 7  -1337837.87949  20626812.02349
  22003813.914 6   -506339.824 6   -384952.64848  22003811.58248
 20  5 16  0 31 21.0000000  0  7G04G08G14G16G26G27G31               -0.000200340
  21963221.813 6  -1558832.574 6  -1200612.53548  21963221.02048
  22641876.117 6  -2275287.688 6  -1681670.88749  22641876.92249
  22777574.578 5    259207.234 5    197576.54347  22777572.75847
  20672665.219 6   -763634.633 6   -579193.59848  20672662.43048
  21500690.859 6   -346428.672 6   -261056.08249  21500692.32049
  20625898.313 7  -1764110.426 7  -1341577.41449  20625898.52049
  22003529.891 6   -507833.047 6   -386116.20748  22003527.73448
 20  5 16  0 31 22.0000000  0  7G04G08G14G16G26G27G31               -0.000202082
  21962321.094 6  -1563564.875 6  -1204300.03948  21962320.35248
  22640709.336 6  -2281418.961 6  -1686448.50449  22640710.39149
  22777693.602 5    259835.234 5    198065.89847  22777692.55147
  20672249.422 6   -765818.266 6   -580895.13348  20672246.68448
  21500480.102 6   -347535.797 6   -261918.78149  21500481.48049
  20624984.500 7  -1768909.938 7  -1345317.29349  20624985.12549
  22003245.594 6   -509327.023 6   -387280.34448  22003243.32848
 20  5 16  0 31 23.0000000  0  7G04G08G14G16G26G27G31               -0.000203825
  21961420.500 6  -1568297.563 6  -1207987.84848  21961419.70748
  22639542.398 6  -2287550.875 6  -1691226.61749  22639542.94549
  22777812.617 5    260462.566 5    198554.73447  22777811.69547
  20671833.992 6   -768002.531 6   -582597.16048  20671831.18848
  21500269.250 6   -348643.766 6   -262782.13349  21500270.71149
  20624071.250 7  -1773709.742 7  -1349057.40649  20624071.81349
  22002961.063 6   -510821.633 6   -388444.98048  22002958.87548
 20  5 16  0 31 24.0000000  0  7G04G08G14G16G26G27G31               -0.000205568
  21960520.180 6  -1573030.813 6  -1211676.10548  21960519.35248
  22638375.531 6  -2293683.570 6  -1696005.33649  22638376.35249
  22777932.508 5    261089.063 5    199042.91447  22777930.47347
  20671418.070 6   -770187.602 6   -584299.81348  20671415.10248
  21500058.227 6   -349752.738 6   -263646.27349  21500059.87549
  20623157.734 7  -1778510.051 7  -1352797.89849  20623158.15249
  22002676.133 7   -512317.070 7   -389610.25848  22002674.35248
 20  5 16  0 31 25.0000000  0  7G04G08G14G16G26G27G31               -0.000207314
  21959618.969 6  -1577764.496 6  -1215364.68848  21959618.23848
  22637207.977 5  -2299816.934 5  -1700784.58649  22637209.43849
  22778051.383 5    261714.859 5    199530.54747  22778050.03147
  20671002.523 6   -772373.352 6   -586002.99248  20670999.40248
  21499847.547 6   -350862.605 6   -264511.09849  21499848.23849
  20622244.359 7  -1783310.766 7  -1356538.71549  20622244.85549
  22002391.414 6   -513813.219 6   -390776.08648  22002389.78148
 20  5 16  0 31 26.0000000  0  7G04G08G14G16G26G27G31               -0.000209057
  21958718.336 6  -1582498.578 6  -1219053.58248  21958717.37548
  22636041.086 6  -2305950.934 6  -1705564.32449  22636041.97749
  22778169.859 5    262339.984 5    200017.65247  22778168.68047
  20670585.984 6   -774559.758 6   -587706.68848  20670583.55948
  21499635.344 6   -351973.324 6   -265376.59449  21499637.25049
  20621330.656 7  -1788111.773 7  -1360279.75849  20621331.07849
  22002106.477 6   -515310.012 6   -391942.41848  22002104.77048
 20  5 16  0 31 27.0000000  0  7G04G08G14G16G26G27G31               -0.000210802
  21957817.477 6  -1587233.129 6  -1222742.84048  21957816.44548
  22634873.828 6  -2312085.617 6  -1710344.60549  22634874.90649
  22778289.367 5    262964.359 5    200504.18047  22778287.83647
  20670170.039 6   -776746.867 6   -589410.93048  20670167.15248
  21499424.344 6   -353084.957 6   -266242.80149  21499425.60249
  20620416.992 7  -1792913.203 7  -1364021.13749  20620417.03549
  22001821.266 6   -516807.523 6   -393109.30948  22001819.98448
 20  5 16  0 31 28.0000000  0  7G04G08G14G16G26G27G31               -0.000212549
  21956916.023 6  -1591968.199 6  -1226432.50448  21956915.32048
  22633706.023 6  -2318221.066 6  -1715125.47349  22633706.96549
  22778407.867 5    263587.922 5    200990.07447  22778406.18847
  20669753.359 6   -778934.762 6   -591115.78948  20669750.89148
  21499212.656 6   -354197.535 6   -267109.75049  21499213.72349
  20619503.164 7  -1797715.070 7  -1367762.84849  20619503.63749
  22001536.313 6   -518305.820 6   -394276.81348  22001534.65248
 20  5 16  0 31 29.0000000  0  7G04G08G14G16G26G27G31               -0.000214296
  21956015.336 6  -1596703.625 6  -1230122.45348  21956014.27048
  22632537.844 5  -2324357.090 5  -1719906.78949  22632539.35949
  22778526.102 5    264210.883 5    201475.50047  22778525.12947
  20669337.141 6   -781123.219 6   -592821.07848  20669334.00848
  21499000.531 6   -355310.922 6   -267977.32449  21499001.87549
  20618589.227 7  -1802517.223 7  -1371504.78549  20618589.58649
  22001250.922 6   -519804.727 6   -395444.79348  22001249.10948
 20  5 16  0 31 30.0000000  0  7G04G08G14G16G26G27G31               -0.000216043
  21955114.125 6  -1601439.555 6  -1233812.78548  21955113.27048
  22631369.875 5  -2330493.867 5  -1724688.69549  22631371.66049
  22778644.680 5    264833.066 5    201960.31347  22778643.23447
  20668920.383 6   -783312.469 6   -594526.98848  20668917.41048
  21498788.820 6   -356425.316 6   -268845.68849  21498789.96549
  20617675.477 7  -1807319.824 7  -1375247.07049  20617676.14149
  22000965.953 6   -521304.391 6   -396613.36348  22000963.96148
 20  5 16  0 31 31.0000000  0  7G04G08G14G16G26G27G31               -0.000217791
  21954212.883 6  -1606175.926 6  -1237503.46948  21954211.54748
  22630201.945 5  -2336631.301 5  -1729471.10949  22630203.73849
  22778762.930 5    265454.547 5    202444.58247  22778761.39847
  20668503.781 6   -785502.367 6   -596233.40248  20668500.82848
  21498576.219 6   -357540.551 6   -269714.69549  21498577.70349
  20616761.359 7  -1812122.805 7  -1378989.65649  20616762.18449
  22000680.375 6   -522804.746 6   -397782.47348  22000678.65648
 20  5 16  0 31 32.0000000  0  7G04G08G14G16G26G27G31               -0.000219540
  21953311.234 6  -1610912.711 6  -1241194.46548  21953310.19548
  22629034.141 5  -2342769.430 5  -1734254.06349  22629035.80549
  22778881.195 5    266075.301 5    202928.28547  22778879.47747
  20668087.109 6   -787692.949 6   -597940.34848  20668083.96148
  21498364.117 6   -358656.684 6   -270584.40649  21498365.46949
  20615847.648 7  -1816926.129 7  -1382732.50049  20615847.87149
  22000394.844 6   -524305.813 6   -398952.14148  22000393.01648
 20  5 16  0 31 33.0000000  0  7G04G08G14G16G26G27G31               -0.000221289
  21952409.703 6  -1615649.914 6  -1244885.78948  21952408.67248
  22627865.711 5  -2348908.148 5  -1739037.46949  22627867.62549
  22778998.789 5    266695.391 5    203411.47747  22778997.62547
  20667670.188 6   -789884.207 6   -599647.82048  20667667.09048
  21498150.977 6   -359773.660 6   -271454.78549  21498152.55949
  20614933.484 7  -1821729.789 7  -1386475.61749  20614933.93849
  22000109.078 6   -525807.535 6   -400122.30948  22000106.99648
 20  5 16  0 31 34.0000000  0  7G04G08G14G16G26G27G31               -0.000223038
  21951508.414 6  -1620387.574 6  -1248577.46948  21951507.48448
  22626697.914 5  -2355047.566 5  -1743821.42649  22626699.32449
  22779117.289 5    267314.730 5    203894.07447  22779115.60247
  20667252.813 6   -792076.137 6   -601355.81648  20667250.15248
  21497938.320 6   -360891.559 6   -272325.86749  21497940.20349
  20614019.211 7  -1826533.879 7  -1390219.05949  20614019.25849
  21999822.938 6   -527309.973 6   -401293.04348  21999821.07048
 20  5 16  0 31 35.0000000  0  7G04G08G14G16G26G27G31               -0.000224789
  21950606.539 6  -1625125.770 6  -1252269.57448  21950605.84048
  22625529.609 5  -2361187.730 5  -1748605.96949  22625530.81349
  22779234.508 5    267933.281 5    204376.05547  22779232.93447
  20666835.445 6   -794268.859 6   -603064.43048  20666832.81348
  21497725.531 6   -362010.434 6   -273197.71949  21497727.33249
  20613104.813 7  -1831338.398 7  -1393962.83249  20613105.23849
  21999536.938 6   -528813.191 6   -402464.38348  21999535.52048
 20  5 16  0 31 36.0000000  0  7G04G08G14G16G26G27G31               -0.000226540
  21949705.234 6  -1629864.340 6  -1255961.96548  21949703.89548
  22624360.789 5  -2367328.578 5  -1753391.04749  22624362.09849
  22779352.336 5    268551.176 5    204857.53147  22779350.58247
  20666418.180 6   -796462.211 6   -604773.53548  20666415.64848
  21497512.570 6   -363130.137 6   -274070.21949  21497513.71949
  20612190.719 7  -1836143.242 7  -1397706.87149  20612190.77749
  21999250.867 6   -530317.047 6   -403636.21148  21999249.03148
 20  5 16  0 31 37.0000000  0  7G04G08G14G16G26G27G31               -0.000228291
  21948803.188 6  -1634603.320 6  -1259654.68048  21948802.19948
  22623191.969 6  -2373470.000 6  -1758176.57049  22623193.38749
  22779469.586 5    269168.344 5    205338.44547  22779468.03947
  20666000.672 6   -798656.215 6   -606483.14548  20665997.84448
  21497299.211 6   -364250.711 6   -274943.39849  21497300.51249
  20611276.523 7  -1840948.430 7  -1401451.16849  20611276.62149
  21998964.688 6   -531821.594 6   -404808.58648  21998962.48048
 20  5 16  0 31 38.0000000  0  7G04G08G14G16G26G27G31               -0.000230043
  21947901.445 6  -1639342.758 6  -1263347.75448  21947900.40248
  22622023.266 5  -2379612.113 5  -1762962.63749  22622024.68049
  22779586.523 5    269784.820 5    205818.80947  22779585.50447
  20665582.820 6   -800850.934 6   -608193.32448  20665580.19148
  21497086.148 6   -365372.199 6   -275817.28149  21497087.66449
  20610361.750 7  -1845754.016 7  -1405195.78949  20610362.11749
  21998678.297 6   -533326.848 6   -405981.52048  21998676.18448
 20  5 16  0 31 39.0000000  0  7G04G08G14G16G26G27G31               -0.000231794
  21946999.469 6  -1644082.660 6  -1267041.18048  21946998.37948
  22620854.148 5  -2385754.930 5  -1767749.24649  22620855.80949
  22779704.422 5    270400.531 5    206298.57847  22779702.82847
  20665165.328 6   -803046.359 6   -609904.04748  20665162.66448
  21496872.531 6   -366494.602 6   -276691.88349  21496873.62949
  20609447.055 7  -1850559.992 7  -1408940.70349  20609447.44949
  21998391.398 6   -534832.832 6   -407155.02048  21998390.08648
 20  5 16  0 31 40.0000000  0  7G04G08G14G16G26G27G31               -0.000233549
  21946096.992 6  -1648823.078 6  -1270735.01248  21946096.27348
  22619685.094 5  -2391898.480 5  -1772536.43449  22619686.68849
  22779821.141 5    271015.484 5    206777.75447  22779819.77347
  20664747.094 6   -805242.531 6   -611615.34848  20664744.84848
  21496658.594 6   -367617.930 6   -277567.20749  21496659.79349
  20608532.547 7  -1855366.410 7  -1412685.96549  20608532.89849
  21998104.797 6   -536339.555 6   -408329.09048  21998103.44948
 20  5 16  0 31 41.0000000  0  7G04G08G14G16G26G27G31               -0.000235302
  21945194.891 6  -1653563.852 6  -1274429.12948  21945194.14548
  22618516.359 5  -2398042.617 5  -1777324.07049  22618517.66049
  22779937.602 5    271629.762 5    207256.41847  22779936.70347
  20664329.477 6   -807439.336 6   -613327.15248  20664326.59848
  21496444.508 6   -368742.105 6   -278443.18849  21496445.93849
  20607617.773 7  -1860173.117 7  -1416431.44549  20607618.02749
  21997817.664 6   -537846.926 6   -409503.66448  21997815.93448
 20  5 16  0 31 42.0000000  0  7G04G08G14G16G26G27G31               -0.000237057
  21944292.742 6  -1658305.125 6  -1278123.62548  21944291.76648
  22617347.148 5  -2404187.488 5  -1782112.27749  22617348.25849
  22780054.813 5    272243.277 5    207734.47747  22780053.50847
  20663911.141 6   -809636.902 6   -615039.54348  20663908.61748
  21496230.320 6   -369867.238 6   -279319.91049  21496232.17249
  20606703.250 7  -1864980.277 7  -1420177.28949  20606703.50449
  21997530.977 6   -539355.055 6   -410678.82848  21997529.12548
 20  5 16  0 31 43.0000000  0  7G04G08G14G16G26G27G31               -0.000238813
  21943389.828 6  -1663046.863 6  -1281818.48848  21943389.64848
  22616176.922 5  -2410333.121 5  -1786901.08249  22616178.60249
  22780171.383 5    272856.020 5    208211.93847  22780169.88747
  20663493.359 6   -811835.176 6   -616752.47748  20663490.25448
  21496016.008 6   -370993.305 6   -280197.36749  21496017.59849
  20605788.477 7  -1869787.871 7  -1423923.46549  20605788.99649
  21997244.070 6   -540863.938 6   -411854.58248  21997242.05148
 20  5 16  0 31 44.0000000  0  7G04G08G14G16G26G27G31               -0.000240568
  21942488.117 6  -1667789.113 6  -1285513.74648  21942486.93048
  22615007.680 5  -2416479.414 5  -1791690.39849  22615009.03949
  22780287.859 5    273468.035 5    208688.82847  22780286.84447
  20663074.531 6   -814034.188 6   -618465.99248  20663071.76648
  21495801.977 6   -372120.285 6   -281075.53549  21495803.28949
  20604873.297 7  -1874595.859 7  -1427669.94549  20604873.80549
  21996956.859 6   -542373.539 6   -413030.89548  21996954.83648
 20  5 16  0 31 45.0000000  0  7G04G08G14G16G26G27G31               -0.000242325
  21941585.398 6  -1672531.816 6  -1289209.35948  21941584.62948
  22613838.211 5  -2422626.418 5  -1796480.27049  22613839.30149
  22780404.305 5    274079.313 5    209165.14147  22780402.90247
  20662656.000 6   -816233.906 6   -620180.05948  20662652.93048
  21495587.289 6   -373248.203 6   -281954.43449  21495588.34049
  20603958.203 7  -1879404.219 7  -1431416.72349  20603958.67649
  21996669.773 6   -543883.855 6   -414207.77348  21996667.30548
 20  5 16  0 31 46.0000000  0  7G04G08G14G16G26G27G31               -0.000244081
  21940682.945 6  -1677274.879 6  -1292905.24648  21940681.92648
  22612668.047 5  -2428774.012 5  -1801270.60249  22612669.06349
  22780520.297 5    274689.898 5    209640.91847  22780518.89547
  20662237.180 6   -818434.227 6   -621894.59448  20662234.37948
  21495372.445 6   -374376.914 6   -282833.95349  21495373.82049
  20603043.406 7  -1884212.879 7  -1435163.72749  20603043.83249
  21996381.953 6   -545394.805 6   -415385.13748  21996379.86348
 20  5 16  0 31 47.0000000  0  7G04G08G14G16G26G27G31               -0.000245840
  21939780.242 6  -1682018.379 6  -1296601.47748  21939779.53148
  22611498.273 5  -2434922.223 5  -1806061.41849  22611498.98849
  22780636.492 5    275299.840 5    210116.18847  22780635.27747
  20661818.148 6   -820635.207 6   -623609.64548  20661815.20348
  21495157.211 6   -375506.512 6   -283714.15649  21495158.79349
  20602128.336 7  -1889021.926 7  -1438911.03549  20602128.28949
  21996093.805 7   -546906.449 7   -416563.03548  21996091.95348
 20  5 16  0 31 48.0000000  0  7G04G08G14G16G26G27G31               -0.000247599
  21938877.547 6  -1686762.309 6  -1300298.03948  21938876.58248
  22610328.086 5  -2441071.180 5  -1810852.81649  22610329.28949
  22780753.219 5    275909.016 5    210590.87947  22780751.14147
  20661399.648 6   -822836.922 6   -625325.27048  20661396.77048
  21494942.352 6   -376637.031 6   -284595.08649  21494943.88749
  20601212.906 7  -1893831.352 7  -1442658.64149  20601213.39149
  21995806.289 7   -548418.789 7   -417741.48048  21995804.37548
 20  5 16  0 31 49.0000000  0  7G04G08G14G16G26G27G31               -0.000249357
  21937974.641 6  -1691506.656 6  -1303994.94148  21937973.87948
  22609158.281 5  -2447220.770 5  -1815644.70349  22609158.78949
  22780867.828 5    276517.496 5    211065.02747  22780866.91847
  20660979.938 6   -825039.277 6   -627041.38748  20660977.41848
  21494726.945 6   -377768.379 6   -285476.65649  21494728.55949
  20600297.477 7  -1898641.129 7  -1446406.51649  20600297.93449
  21995518.320 6   -549931.809 6   -418920.45348  21995516.59848
 20  5 16  0 31 50.0000000  0  7G04G08G14G16G26G27G31               -0.000251116
  21937072.359 6  -1696251.418 6  -1307692.15648  21937071.19148
  22607987.414 5  -2453370.922 5  -1820437.02349  22607988.20349
  22780984.055 5    277125.309 5    211538.63747  22780982.16847
  20660560.844 6   -827242.289 6   -628758.02348  20660558.13348
  21494511.570 6   -378900.621 6   -286358.92649  21494513.06349
  20599382.234 7  -1903451.215 7  -1450154.63749  20599382.73849
  21995230.203 6   -551445.465 6   -420099.93048  21995228.71548
 20  5 16  0 31 51.0000000  0  7G04G08G14G16G26G27G31               -0.000252876
  21936168.828 6  -1700996.641 6  -1311389.73048  21936168.02348
  22606817.117 5  -2459521.816 5  -1825229.93449  22606817.75849
  22781099.469 5    277732.359 5    212011.66047  22781098.23847
  20660141.234 6   -829446.039 6   -630475.22748  20660138.76648
  21494296.023 6   -380033.781 6   -287241.91049  21494297.28149
  20598466.758 7  -1908261.738 7  -1453903.10249  20598467.07449
  21994941.930 6   -552959.863 6   -421279.97748  21994940.00848
 20  5 16  0 31 52.0000000  0  7G04G08G14G16G26G27G31               -0.000254637
  21935266.070 6  -1705742.234 6  -1315087.59448  21935265.20748
  22605646.336 5  -2465673.328 5  -1830023.31649  22605647.50049
  22781215.180 5    278338.773 5    212484.18847  22781213.44547
  20659722.000 6   -831650.379 6   -632192.90248  20659719.21148
  21494080.305 6   -381167.758 6   -288125.52349  21494081.77349
  20597551.453 7  -1913072.535 7  -1457651.77349  20597551.84449
  21994653.516 6   -554474.906 6   -422460.53548  21994651.82048
 20  5 16  0 31 53.0000000  0  7G04G08G14G16G26G27G31               -0.000256399
  21934362.813 6  -1710488.301 6  -1318785.82448  21934362.09448
  22604475.547 5  -2471825.543 5  -1834817.25049  22604476.83249
  22781330.141 5    278944.426 5    212956.12147  22781328.64147
  20659302.750 6   -833855.445 6   -633911.13348  20659299.91848
  21493864.125 6   -382302.668 6   -289009.87149  21493865.80549
  20596635.922 7  -1917883.785 7  -1461400.79349  20596636.21949
  21994365.453 6   -555990.684 6   -423641.66048  21994363.83248
 20  5 16  0 31 54.0000000  0  7G04G08G14G16G26G27G31               -0.000258160
  21933459.313 6  -1715234.781 6  -1322484.39148  21933458.64548
  22603305.195 5  -2477978.445 5  -1839611.71949  22603305.99249
  22781444.938 5    279549.387 5    213427.52347  22781443.65647
  20658882.789 6   -836061.199 6   -635629.90248  20658880.25848
  21493647.844 6   -383438.426 6   -289894.87949  21493649.14849
  20595720.477 7  -1922695.336 7  -1465150.05549  20595720.32449
  21994076.375 6   -557507.129 6   -424823.30948  21994074.87548
 20  5 16  0 31 55.0000000  0  7G04G08G14G16G26G27G31               -0.000259924
  21932555.781 6  -1719981.629 6  -1326183.23048  21932555.31348
  22602134.258 5  -2484131.926 5  -1844406.63749  22602134.46549
  22781560.258 5    280153.695 5    213898.41047  22781558.96947
  20658463.063 6   -838267.551 6   -637349.13348  20658460.25848
  21493431.773 6   -384575.012 6   -290780.53149  21493433.34849
  20594804.461 7  -1927507.199 7  -1468899.55949  20594804.62149
  21993787.977 6   -559024.191 6   -426005.43848  21993786.25848
 20  5 16  0 31 56.0000000  0  7G04G08G14G16G26G27G31               -0.000261686
  21931652.570 6  -1724728.848 6  -1329882.36348  21931651.94548
  22600962.961 5  -2490286.035 5  -1849202.05149  22600963.64549
  22781674.836 5    280757.340 5    214368.78947  22781673.81347
  20658042.805 6   -840474.547 6   -639068.87948  20658040.32848
  21493215.602 6   -385712.430 6   -291666.82849  21493217.06649
  20593888.984 7  -1932319.398 7  -1472649.32049  20593888.94549
  21993499.305 6   -560541.902 6   -427188.07448  21993497.31348
 20  5 16  0 31 57.0000000  0  7G04G08G14G16G26G27G31               -0.000263451
  21930749.086 6  -1729476.500 6  -1333581.82848  21930748.18048
  22599791.250 5  -2496440.730 5  -1853997.91449  22599792.50049
  22781790.000 5    281360.328 5    214838.64847  22781788.38747
  20657623.156 6   -842682.180 6   -640789.10548  20657620.40648
  21492998.578 6   -386850.715 6   -292553.80549  21492999.97349
  20592973.453 7  -1937131.898 7  -1476399.32449  20592973.37949
  21993210.414 6   -562060.266 6   -428371.21148  21993208.24648
 20  5 16  0 31 58.0000000  0  7G04G08G14G16G26G27G31               -0.000265215
  21929845.844 6  -1734224.547 6  -1337281.60948  21929845.40248
  22598619.992 6  -2502596.070 6  -1858794.28149  22598621.55549
  22781904.070 5    281962.613 5    215307.95747  22781902.82847
  20657202.680 6   -844890.496 6   -642509.87148  20657199.79748
  21492781.820 6   -387989.863 6   -293441.45349  21492783.07849
  20592057.289 7  -1941944.781 7  -1480149.62149  20592057.60949
  21992921.133 6   -563579.301 6   -429554.87548  21992919.24648
 20  5 16  0 31 59.0000000  0  7G04G08G14G16G26G27G31               -0.000266979
  21928941.977 6  -1738973.004 6  -1340981.70348  21928941.45348
  22597448.891 5  -2508752.094 5  -1863591.18849  22597449.81349
  22782018.648 5    282564.160 5    215776.69147  22782017.35247
  20656782.445 6   -847099.469 6   -644231.14548  20656779.76248
  21492565.047 6   -389129.902 6   -294329.79349  21492566.49649
  20591141.320 7  -1946758.000 7  -1483900.18849  20591141.82049
  21992632.188 6   -565099.027 6   -430739.07848  21992630.21148
 20  5 16  0 32  0.0000000  0  7G04G08G14G16G26G27G31               -0.000268744
  21928038.367 6  -1743721.816 6  -1344682.07848  21928037.92248
  22596277.164 5  -2514908.652 5  -1868388.50849  22596277.84849
  22782133.180 5    283165.145 5    216244.98047  22782131.74247
  20656361.711 6   -849309.027 6   -645952.88348  20656359.38748
  21492347.688 6   -390270.703 6   -295218.73049  21492349.41849
  20590225.477 7  -1951571.488 7  -1487650.95749  20590225.55949
  21992343.031 6   -566619.348 6   -431923.74248  21992340.88348
 20  5 16  0 32  1.0000000  0  7G04G08G14G16G26G27G31               -0.000270510
  21927134.320 6  -1748471.016 6  -1348382.75848  21927134.13348
  22595105.422 5  -2521065.879 5  -1873186.34449  22595106.71149
  22782247.031 5    283765.402 5    216712.71947  22782246.21947
  20655941.063 6   -851519.254 6   -647675.13348  20655938.71548
  21492130.328 6   -391412.363 6   -296108.33649  21492131.95749
  20589309.211 7  -1956385.324 7  -1491402.00049  20589309.63349
  21992053.180 6   -568140.320 6   -433108.91848  21992051.50448
 20  5 16  0 32  2.0000000  0  7G04G08G14G16G26G27G31               -0.000272278
  21926230.625 6  -1753220.703 6  -1352083.80948  21926230.27048
  22593933.680 5  -2527223.762 5  -1877984.69549  22593934.89849
  22782361.344 5    284364.980 5    217179.91047  22782360.34447
  20655520.648 6   -853730.184 6   -649397.93848  20655517.96948
  21491912.977 6   -392554.977 6   -296998.68849  21491914.60949
  20588392.891 7  -1961199.559 7  -1495153.34849  20588393.43849
  21991763.875 6   -569662.035 6   -434294.67248  21991761.73048
 20  5 16  0 32  3.0000000  0  7G04G08G14G16G26G27G31               -0.000274044
  21925326.719 6  -1757970.781 6  -1355785.17248  21925326.30148
  22592761.680 5  -2533382.285 5  -1882783.54349  22592762.44949
  22782475.195 5    284963.777 5    217646.50847  22782473.93047
  20655099.766 6   -855941.801 6   -651121.28148  20655097.33248
  21491695.516 6   -393698.453 6   -297889.69949  21491697.09849
  20587476.969 7  -1966014.148 7  -1498904.97749  20587477.38349
  21991474.219 6   -571184.422 6   -435480.94948  21991472.38348
 20  5 16  0 32  4.0000000  0  7G04G08G14G16G26G27G31               -0.000275812
  21924422.805 6  -1762721.387 6  -1359486.94148  21924422.36348
  22591589.805 5  -2539541.629 5  -1887583.03549  22591590.85949
  22782588.703 5    285561.805 5    218112.50047  22782587.77347
  20654678.852 6   -858154.199 6   -652845.23048  20654675.74648
  21491477.773 6   -394842.891 6   -298781.47749  21491479.27349
  20586560.430 7  -1970829.199 7  -1502656.96549  20586561.14149
  21991184.320 6   -572707.621 6   -436667.85948  21991182.44948
 20  5 16  0 32  5.0000000  0  7G04G08G14G16G26G27G31               -0.000277580
  21923518.773 6  -1767472.359 6  -1363189.00048  21923518.44548
  22590417.477 5  -2545701.508 5  -1892382.93449  22590418.69549
  22782703.055 5    286159.211 5    218578.00847  22782701.66447
  20654257.742 6   -860367.168 6   -654569.62148  20654255.02048
  21491260.172 6   -395988.141 6   -299673.88349  21491261.31349
  20585644.383 7  -1975644.516 7  -1506409.16049  20585644.55149
  21990893.930 6   -574231.383 6   -437855.20348  21990892.23448
 20  5 16  0 32  6.0000000  0  7G04G08G14G16G26G27G31               -0.000279350
  21922614.828 6  -1772223.789 6  -1366891.41048  21922613.85248
  22589245.586 5  -2551862.113 5  -1897183.41049  22589246.63749
  22782816.563 5    286755.852 5    219042.91847  22782814.98447
  20653836.641 6   -862580.863 6   -656294.58248  20653833.53148
  21491041.867 6   -397134.309 6   -300567.00049  21491043.22749
  20584727.836 7  -1980460.246 7  -1510161.67649  20584728.30549
  21990604.094 6   -575755.883 6   -439043.12548  21990602.16048
 20  5 16  0 32  7.0000000  0  7G04G08G14G16G26G27G31               -0.000281120
  21921710.781 6  -1776975.652 6  -1370594.15648  21921709.27048
  22588073.234 5  -2558023.367 5  -1901984.38749  22588073.89149
  22782930.227 5    287351.809 5    219507.30147  22782928.64847
  20653414.867 6   -864795.258 6   -658020.07848  20653412.23448
  21490823.672 6   -398281.379 6   -301460.82449  21490825.18049
  20583811.578 7  -1985276.332 7  -1513914.47749  20583811.53549
  21990314.031 6   -577281.082 6   -440231.59848  21990311.95348
 20  5 16  0 32  8.0000000  0  7G04G08G14G16G26G27G31               -0.000282890
  21920806.375 6  -1781727.934 6  -1374297.23448  21920805.62548
  22586900.117 5  -2564185.293 5  -1906785.88349  22586901.17249
  22783043.281 5    287947.027 5    219971.10947  22783042.01247
  20652993.172 6   -867010.324 6   -659746.11348  20652990.34848
  21490604.969 6   -399429.309 6   -302355.30949  21490606.27049
  20582895.047 7  -1990092.793 7  -1517667.55949  20582895.28149
  21990023.445 6   -578806.965 6   -441420.59848  21990021.63748
 20  5 16  0 32  9.0000000  0  7G04G08G14G16G26G27G31               -0.000284660
  21919901.625 6  -1786480.641 6  -1378000.64148  21919901.19148
  22585727.523 5  -2570347.828 5  -1911587.85549  22585729.17249
  22783156.156 5    288541.570 5    220434.39147  22783155.27347
  20652571.648 6   -869226.035 6   -661472.63748  20652568.93848
  21490386.734 6   -400578.105 6   -303250.48049  21490388.21549
  20581978.188 7  -1994909.574 7  -1521420.89549  20581978.44949
  21989733.125 6   -580333.508 6   -442610.10948  21989731.33648
 20  5 16  0 32 10.0000000  0  7G04G08G14G16G26G27G31               -0.000286432
  21918997.500 6  -1791233.762 6  -1381704.37548  21918996.50448
  22584555.008 5  -2576511.105 5  -1916390.41049  22584555.58249
  22783269.289 5    289135.352 5    220897.07847  22783268.19147
  20652150.297 6   -871442.480 6   -663199.73448  20652147.30148
  21490167.867 6   -401727.824 6   -304146.36749  21490169.21149
  20581061.641 7  -1999726.777 7  -1525174.55949  20581061.82049
  21989442.422 6   -581860.777 6   -443800.19148  21989440.65648
 20  5 16  0 32 11.0000000  0  7G04G08G14G16G26G27G31               -0.000288204
  21918093.195 6  -1795987.355 6  -1385408.47348  21918091.95748
  22583382.047 5  -2582674.961 5  -1921193.41049  22583382.91449
  22783382.000 5    289728.434 5    221359.21947  22783380.92247
  20651728.406 6   -873659.566 6   -664927.34048  20651725.52748
  21489948.977 6   -402878.414 6   -305042.92649  21489950.32849
  20580144.938 7  -2004544.305 7  -1528928.47349  20580145.08649
  21989151.992 6   -583388.719 6   -444990.80148  21989149.90648
 20  5 16  0 32 12.0000000  0  7G04G08G14G16G26G27G31               -0.000289978
  21917188.227 6  -1800741.297 6  -1389112.84448  21917187.41848
  22582209.180 6  -2588839.414 6  -1925996.88349  22582209.65649
  22783494.742 5    290320.910 5    221820.88747  22783493.87147
  20651305.820 6   -875877.285 6   -666655.43848  20651303.41848
  21489729.609 6   -404029.816 6   -305940.12549  21489731.12949
  20579228.047 7  -2009362.141 7  -1532682.63749  20579228.68449
  21988860.938 6   -584917.293 6   -446181.89548  21988858.73448
 20  5 16  0 32 13.0000000  0  7G04G08G14G16G26G27G31               -0.000291750
  21916283.664 6  -1805495.504 6  -1392817.41848  21916282.77048
  22581035.211 5  -2595004.406 5  -1930800.77349  22581036.54349
  22783607.547 5    290912.793 5    222282.09047  22783606.13347
  20650884.086 6   -878095.531 6   -668383.93448  20650881.00848
  21489510.453 6   -405181.977 6   -306837.91449  21489511.93849
  20578311.297 7  -2014180.195 7  -1536436.96549  20578312.05549
  21988570.109 6   -586446.414 6   -447373.41848  21988568.05148
 20  5 16  0 32 14.0000000  0  7G04G08G14G16G26G27G31               -0.000293524
  21915378.445 6  -1810250.051 6  -1396522.26248  21915377.69148
  22579862.250 5  -2601169.953 5  -1935605.10249  22579862.96949
  22783719.758 5    291504.055 5    222742.80547  22783719.13747
  20650461.445 6   -880314.371 6   -670112.90248  20650459.06348
  21489291.078 6   -406334.906 6   -307736.30149  21489292.48849
  20577394.125 7  -2018998.504 7  -1540191.48449  20577394.88349
  21988279.102 6   -587976.129 6   -448565.40648  21988276.89148
 20  5 16  0 32 15.0000000  0  7G04G08G14G16G26G27G31               -0.000295298
  21914474.180 6  -1815004.895 6  -1400227.33248  21914473.02748
  22578688.125 5  -2607336.020 5  -1940409.83249  22578690.27349
  22783832.297 5    292094.730 5    223203.06647  22783831.35247
  20650039.383 6   -882533.773 6   -671842.31348  20650036.73448
  21489071.320 6   -407488.594 6   -308635.27749  21489072.91449
  20576477.266 7  -2023817.063 7  -1543946.20749  20576477.89849
  21987987.703 6   -589506.395 6   -449757.82048  21987985.69948
 20  5 16  0 32 16.0000000  0  7G04G08G14G16G26G27G31               -0.000297073
  21913569.133 6  -1819760.152 6  -1403932.73448  21913567.95348
  22577515.523 5  -2613502.691 5  -1945215.03149  22577516.66849
  22783944.641 5    292684.750 5    223662.82047  22783943.78547
  20649616.875 6   -884753.801 6   -673572.20348  20649614.08648
  21488851.883 6   -408643.148 6   -309534.93449  21488853.16449
  20575560.234 7  -2028635.957 7  -1547701.18849  20575560.93049
  21987696.336 6   -591037.316 6   -450950.74648  21987694.32048
 20  5 16  0 32 17.0000000  0  7G04G08G14G16G26G27G31               -0.000298847
  21912664.055 6  -1824515.730 6  -1407638.37948  21912663.06348
  22576342.117 5  -2619669.949 5  -1950020.68049  22576342.86749
  22784056.523 5    293274.102 5    224122.05547  22784055.85947
  20649194.633 7   -886974.465 7   -675302.59048  20649191.80948
  21488632.109 6   -409798.496 6   -310435.20349  21488633.35249
  20574643.328 7  -2033455.137 7  -1551456.39549  20574643.83249
  21987404.977 6   -592568.859 6   -452144.16048  21987403.07848
 20  5 16  0 32 18.0000000  0  7G04G08G14G16G26G27G31               -0.000300623
  21911758.594 6  -1829271.777 6  -1411344.39148  21911757.91848
  22575167.953 5  -2625837.926 5  -1954826.89549  22575169.36349
  22784169.203 5    293862.738 5    224580.72347  22784168.05947
  20648771.445 7   -889195.813 7   -677033.50848  20648768.57848
  21488412.188 6   -410954.742 6   -311336.17649  21488412.98049
  20573726.195 7  -2038274.688 7  -1555211.89149  20573726.66449
  21987113.391 6   -594101.090 6   -453338.10548  21987111.27748
 20  5 16  0 32 19.0000000  0  7G04G08G14G16G26G27G31               -0.000302401
  21910853.336 6  -1834028.242 6  -1415050.73048  21910852.60948
  22573993.930 5  -2632006.520 5  -1959633.58649  22573995.18449
  22784281.141 5    294450.664 5    225038.84847  22784280.20747
  20648348.750 7   -891417.824 7   -678764.94148  20648346.18848
  21488191.961 6   -412111.906 6   -312237.85949  21488193.37949
  20572808.875 7  -2043094.598 7  -1558967.66449  20572809.51249
  21986821.594 6   -595634.000 6   -454532.58248  21986819.53148
 20  5 16  0 32 20.0000000  0  7G04G08G14G16G26G27G31               -0.000304178
  21909948.656 6  -1838785.098 6  -1418757.37148  21909948.05148
  22572820.219 5  -2638175.785 5  -1964440.80549  22572821.53949
  22784392.742 5    295037.895 5    225496.43447  22784391.77047
  20647925.891 7   -893640.496 7   -680496.89848  20647923.34448
  21487971.273 6   -413269.883 6   -313140.18449  21487973.00049
  20571891.547 7  -2047914.836 7  -1562723.68849  20571891.87949
  21986529.594 6   -597167.590 6   -455727.59448  21986527.85548
 20  5 16  0 32 21.0000000  0  7G04G08G14G16G26G27G31               -0.000305956
  21909043.234 6  -1843542.313 6  -1422464.28948  21909042.67248
  22571646.672 5  -2644345.570 5  -1969248.43449  22571647.34849
  22784504.391 5    295624.512 5    225953.52747  22784503.19147
  20647502.836 6   -895863.766 6   -682229.31648  20647500.08648
  21487750.805 6   -414428.676 6   -314043.14549  21487752.27049
  20570974.313 7  -2052735.355 7  -1566479.93849  20570974.67249
  21986237.836 6   -598701.773 6   -456923.05948  21986235.59448
 20  5 16  0 32 22.0000000  0  7G04G08G14G16G26G27G31               -0.000307734
  21908137.930 6  -1848299.984 6  -1426171.57048  21908137.12948
  22570472.289 5  -2650516.078 5  -1974056.62149  22570472.75849
  22784615.398 5    296210.402 5    226410.07047  22784614.66047
  20647079.719 6   -898087.754 6   -683962.29348  20647076.86348
  21487530.203 6   -415588.359 6   -314946.78949  21487531.56649
  20570057.063 7  -2057556.234 7  -1570236.46949  20570057.12949
  21985945.859 6   -600236.688 6   -458119.09848  21985943.80148
 20  5 16  0 32 23.0000000  0  7G04G08G14G16G26G27G31               -0.000309513
  21907232.523 6  -1853058.031 6  -1429879.13748  21907232.05948
  22569298.227 5  -2656687.195 5  -1978865.28149  22569298.82849
  22784727.648 5    296795.590 5    226866.05547  22784726.36747
  20646656.078 6   -900312.387 6   -685695.77048  20646653.23848
  21487309.297 6   -416748.922 6   -315851.12549  21487311.10549
  20569139.719 7  -2062377.504 7  -1573993.30949  20569140.03549
  21985653.492 6   -601772.266 6   -459315.65248  21985651.41448
 20  5 16  0 32 24.0000000  0  7G04G08G14G16G26G27G31               -0.000311293
  21906326.555 6  -1857816.480 6  -1433587.01648  21906325.97348
  22568123.906 5  -2662858.918 5  -1983674.41849  22568124.31649
  22784838.078 5    297380.098 5    227321.51647  22784837.50847
  20646232.727 6   -902537.645 6   -687429.73848  20646230.06648
  21487088.266 6   -417910.313 6   -316756.10249  21487089.60549
  20568222.313 7  -2067199.047 7  -1577750.34849  20568222.75849
  21985361.234 6   -603308.453 6   -460512.69148  21985359.32048
 20  5 16  0 32 25.0000000  0  7G04G08G14G16G26G27G31               -0.000313072
  21905421.750 6  -1862575.324 6  -1437295.20748  21905421.11348
  22566948.477 6  -2669031.266 6  -1988484.03549  22566949.67249
  22784949.820 5    297963.953 5    227776.45747  22784948.74647
  20645809.258 6   -904763.551 6   -689164.21148  20645806.46948
  21486867.594 6   -419072.543 6   -317661.74249  21486868.51249
  20567304.594 7  -2072020.938 7  -1581507.66849  20567304.77749
  21985068.828 6   -604845.332 6   -461710.25848  21985066.76648
 20  5 16  0 32 26.0000000  0  7G04G08G14G16G26G27G31               -0.000314854
  21904515.477 6  -1867334.633 6  -1441003.76248  21904515.03548
  22565774.508 5  -2675204.301 5  -1993294.19149  22565775.10949
  22785060.102 5    298547.035 5    228230.80147  22785059.96147
  20645385.781 6   -906990.211 6   -690899.26648  20645382.78148
  21486645.953 6   -420235.762 6   -318568.14849  21486647.09049
  20566386.750 7  -2076843.246 7  -1585265.30949  20566387.19949
  21984776.617 6   -606382.941 6   -462908.39148  21984774.46148
 20  5 16  0 32 27.0000000  0  7G04G08G14G16G26G27G31               -0.000316635
  21903610.273 6  -1872094.344 6  -1444712.62148  21903609.35248
  22564599.453 5  -2681377.996 5  -1998104.86349  22564600.26249
  22785171.695 5    299129.457 5    228684.63347  22785170.65647
  20644961.695 6   -909217.492 6   -692634.81648  20644959.07048
  21486424.383 6   -421399.781 6   -319475.17649  21486425.65649
  20565468.945 7  -2081665.852 7  -1589023.18449  20565469.06349
  21984483.422 6   -607921.172 6   -464107.01248  21984481.17248
 20  5 16  0 32 28.0000000  0  7G04G08G14G16G26G27G31               -0.000318417
  21902704.242 6  -1876854.535 6  -1448421.86348  21902703.52048
  22563424.438 5  -2687552.383 5  -2002916.07849  22563425.07049
  22785282.133 5    299711.082 5    229137.85247  22785281.37947
  20644537.781 6   -911445.531 6   -694370.94948  20644535.34448
  21486203.125 6   -422564.750 6   -320382.94549  21486204.30949
  20564551.445 7  -2086488.906 7  -1592781.40649  20564551.71149
  21984190.664 6   -609460.160 6   -465306.22748  21984188.49648
 20  5 16  0 32 29.0000000  0  7G04G08G14G16G26G27G31               -0.000320198
  21901798.773 6  -1881615.023 6  -1452131.33248  21901797.39148
  22562249.617 5  -2693727.320 5  -2007727.71949  22562250.10549
  22785393.000 5    300292.117 5    229590.60947  22785392.09047
  20644113.297 6   -913674.125 6   -696107.52048  20644110.64848
  21485980.750 6   -423730.484 6   -321291.31349  21485982.36749
  20563633.570 7  -2091312.184 7  -1596539.80149  20563633.72349
  21983897.820 6   -610999.734 6   -466505.89548  21983895.47748
 20  5 16  0 32 30.0000000  0  7G04G08G14G16G26G27G31               -0.000321981
  21900892.398 6  -1886375.965 6  -1455841.15648  21900891.53948
  22561074.211 6  -2699902.914 6  -2012539.86749  22561075.05149
  22785503.289 5    300872.477 5    230042.84047  22785502.33647
  20643689.398 6   -915903.402 6   -697844.61748  20643686.72748
  21485758.992 6   -424897.117 6   -322200.37949  21485760.33249
  20562715.789 7  -2096135.816 7  -1600298.48049  20562715.91449
  21983604.352 6   -612539.984 6   -467706.08648  21983602.52048
 20  5 16  0 32 31.0000000  0  7G04G08G14G16G26G27G31               -0.000323765
  21899986.680 6  -1891137.254 6  -1459551.25048  21899985.58648
  22559899.133 6  -2706079.117 6  -2017352.49649  22559899.78149
  22785613.164 5    301452.133 5    230494.51247  22785613.05147
  20643265.063 6   -918133.324 6   -699582.21948  20643262.16448
  21485536.797 6   -426064.590 6   -323110.09449  21485538.34849
  20561797.586 7  -2100959.793 7  -1604057.42649  20561797.64549
  21983311.180 6   -614080.895 6   -468906.80148  21983309.13348
 20  5 16  0 32 32.0000000  0  7G04G08G14G16G26G27G31               -0.000325550
  21899080.453 6  -1895898.883 6  -1463261.61748  21899079.33248
  22558723.297 5  -2712255.863 5  -2022165.53949  22558724.03549
  22785723.500 5    302031.176 5    230945.71547  22785722.94547
  20642840.578 6   -920363.809 6   -701320.25448  20642837.97748
  21485314.461 6   -427232.816 6   -324020.39849  21485315.69949
  20560879.711 7  -2105783.996 7  -1607816.54349  20560879.76649
  21983018.008 6   -615622.359 6   -470107.94548  21983015.84448
 20  5 16  0 32 33.0000000  0  7G04G08G14G16G26G27G31               -0.000327335
  21898174.180 6  -1900660.957 6  -1466972.32448  21898172.89148
  22557548.047 6  -2718433.309 6  -2026979.13349  22557548.95349
  22785833.375 5    302609.500 5    231396.35947  22785832.94147
  20642416.086 6   -922594.996 6   -703058.84448  20642413.18848
  21485092.094 6   -428401.965 6   -324931.42649  21485093.67249
  20559961.672 7  -2110608.582 7  -1611575.96149  20559962.09849
  21982724.313 6   -617164.559 6   -471309.65248  21982722.50048
 20  5 16  0 32 34.0000000  0  7G04G08G14G16G26G27G31               -0.000329121
  21897267.375 6  -1905423.383 6  -1470683.30948  21897267.15248
  22556372.258 6  -2724611.320 6  -2031793.17249  22556373.19949
  22785942.758 5    303187.184 5    231846.50047  22785942.81647
  20641991.453 6   -924826.805 6   -704797.91448  20641988.89848
  21484869.563 6   -429571.930 6   -325843.08649  21484870.73049
  20559043.367 7  -2115433.484 7  -1615335.62149  20559043.89549
  21982431.055 6   -618707.367 6   -472511.84448  21982429.28548
 20  5 16  0 32 35.0000000  0  7G04G08G14G16G26G27G31               -0.000330906
  21896360.984 6  -1910186.211 6  -1474394.60248  21896361.06348
  22555196.398 5  -2730789.930 5  -2036607.67249  22555197.23449
  22786053.094 5    303764.188 5    232296.10947  22786052.35947
  20641566.430 6   -927059.254 6   -706537.48448  20641563.64548
  21484646.320 6   -430742.762 6   -326755.41849  21484648.17649
  20558124.891 7  -2120258.691 7  -1619095.52049  20558125.48449
  21982137.227 6   -620250.844 6   -473714.55148  21982135.43448
 20  5 16  0 32 36.0000000  0  7G04G08G14G16G26G27G31               -0.000332693
  21895454.750 6  -1914949.418 6  -1478106.18448  21895454.18048
  22554020.172 5  -2736969.199 5  -2041422.69149  22554021.37549
  22786163.141 5    304340.527 5    232745.19147  22786162.43447
  20641141.820 6   -929292.359 6   -708277.57048  20641138.67248
  21484423.383 6   -431914.422 6   -327668.40249  21484424.90249
  20557206.672 7  -2125084.246 7  -1622855.69549  20557206.89849
  21981843.266 6   -621794.953 6   -474917.75448  21981841.33648
 20  5 16  0 32 37.0000000  0  7G04G08G14G16G26G27G31               -0.000334480
  21894548.164 6  -1919713.066 6  -1481818.11748  21894547.80948
  22552844.375 5  -2743149.105 5  -2046238.20749  22552845.42249
  22786272.383 5    304916.164 5    233193.73847  22786271.96547
  20640716.633 6   -931526.121 6   -710018.16848  20640713.93848
  21484200.219 6   -433086.930 6   -328582.04749  21484201.69949
  20556288.492 7  -2129910.125 7  -1626616.11749  20556288.95349
  21981549.484 6   -623339.734 6   -476121.48048  21981547.48048
 20  5 16  0 32 38.0000000  0  7G04G08G14G16G26G27G31               -0.000336267
  21893641.867 6  -1924476.992 6  -1485530.27048  21893641.24248
  22551668.336 5  -2749329.531 5  -2051054.11349  22551669.38349
  22786381.719 5    305491.188 5    233641.80947  22786381.13747
  20640291.102 6   -933760.461 6   -711759.21548  20640287.91448
  21483976.906 6   -434260.254 6   -329496.32049  21483978.59449
  20555370.297 7  -2134736.270 7  -1630376.74649  20555370.62549
  21981255.031 6   -624885.094 6   -477325.66848  21981253.41848
 20  5 16  0 32 39.0000000  0  7G04G08G14G16G26G27G31               -0.000338057
  21892735.195 6  -1929241.383 6  -1489242.78148  21892734.64148
  22550492.133 6  -2755510.633 6  -2055870.56349  22550493.48849
  22786491.531 5    306065.492 5    234089.31347  22786490.64147
  20639865.805 6   -935995.488 6   -713500.78948  20639863.15248
  21483753.750 6   -435434.449 6   -330411.28149  21483754.96149
  20554452.000 7  -2139562.773 7  -1634137.66049  20554451.94949
  21980961.438 6   -626431.156 6   -478530.38748  21980959.05548
 20  5 16  0 32 40.0000000  0  7G04G08G14G16G26G27G31               -0.000339846
  21891828.625 6  -1934006.137 6  -1492955.57048  21891827.69148
  22549315.680 5  -2761692.391 5  -2060687.51649  22549316.87949
  22786601.023 5    306639.102 5    234536.28147  22786599.49647
  20639440.508 6   -938231.172 6   -715242.88348  20639438.17648
  21483529.805 6   -436609.523 6   -331326.92649  21483531.66849
  20553533.367 7  -2144389.633 7  -1637898.84849  20553533.45749
  21980666.922 6   -627977.883 6   -479735.62948  21980664.75048
 20  5 16  0 32 41.0000000  0  7G04G08G14G16G26G27G31               -0.000341635
  21890922.016 6  -1938771.258 6  -1496668.65648  21890920.83648
  22548139.445 5  -2767874.695 5  -2065504.89549  22548140.31349
  22786709.430 5    307212.102 5    234982.77747  22786708.53947
  20639015.305 6   -940467.465 6   -716985.44948  20639012.32848
  21483306.477 6   -437785.383 6   -332243.18049  21483307.81349
  20552615.063 7  -2149216.746 7  -1641660.23849  20552615.38749
  21980372.328 6   -629525.211 6   -480941.33648  21980370.65648
 20  5 16  0 32 42.0000000  0  7G04G08G14G16G26G27G31               -0.000343424
  21890014.750 6  -1943536.711 6  -1500381.99648  21890013.93448
  22546962.508 5  -2774057.531 5  -2070322.69149  22546964.18849
  22786818.711 5    307784.492 5    235428.80547  22786817.48847
  20638589.141 6   -942704.316 6   -718728.44948  20638586.45348
  21483082.016 6   -438962.027 6   -333160.04349  21483083.96149
  20551696.422 7  -2154044.137 7  -1645421.83649  20551696.36349
  21980077.875 6   -631073.141 6   -482147.51648  21980075.53148
 20  5 16  0 32 43.0000000  0  7G04G08G14G16G26G27G31               -0.000345215
  21889107.766 6  -1948302.340 6  -1504095.47748  21889107.31348
  22545786.242 5  -2780240.876 5  -2075140.87649  22545787.21149
  22786926.656 5    308356.395 5    235874.43847  22786925.74247
  20638163.461 6   -944941.660 6   -720471.83248  20638160.81348
  21482858.188 6   -440139.332 6   -334077.43049  21482859.49249
  20550777.789 7  -2158871.617 7  -1649183.51249  20550777.53149
  21979782.945 6   -632621.500 6   -483354.02748  21979781.12548
 20  5 16  0 32 44.0000000  0  7G04G08G14G16G26G27G31               -0.000347006
  21888200.805 6  -1953068.406 6  -1507809.29748  21888200.39148
  22544609.508 5  -2786424.801 5  -2079959.51649  22544610.91049
  22787036.016 5    308927.551 5    236319.49247  22787034.49247
  20637737.734 6   -947179.652 6   -722215.72748  20637735.02748
  21482633.852 6   -441317.527 6   -334995.50449  21482635.56649
  20549858.953 7  -2163699.520 7  -1652945.51249  20549858.73049
  21979488.500 6   -634170.586 6   -484561.10948  21979486.34848
 20  5 16  0 32 45.0000000  0  7G04G08G14G16G26G27G31               -0.000348797
  21887294.016 6  -1957834.875 6  -1511523.42648  21887293.24648
  22543432.828 5  -2792609.363 5  -2084778.64849  22543433.70349
  22787144.695 5    309498.027 5    236764.01647  22787143.24247
  20637311.664 6   -949418.309 6   -723960.13348  20637308.66448
  21482409.688 6   -442496.578 6   -335914.24249  21482410.94549
  20548939.875 7  -2168527.707 7  -1656707.73449  20548940.09849
  21979193.602 6   -635720.281 6   -485768.66848  21979191.60248
 20  5 16  0 32 46.0000000  0  7G04G08G14G16G26G27G31               -0.000350590
  21886387.117 6  -1962601.781 6  -1515237.89848  21886386.11748
  22542255.664 5  -2798794.621 5  -2089598.33249  22542256.48049
  22787252.633 5    310067.797 5    237207.99647  22787251.44547
  20636885.547 6   -951657.688 6   -725705.09848  20636882.84848
  21482185.000 6   -443676.539 6   -336833.69549  21482186.44949
  20548021.078 7  -2173356.293 7  -1660470.27349  20548021.39149
  21978898.555 6   -637270.719 6   -486976.80148  21978896.26248
 20  5 16  0 32 47.0000000  0  7G04G08G14G16G26G27G31               -0.000352383
  21885479.789 6  -1967369.070 6  -1518952.66448  21885479.22748
  22541078.672 5  -2804980.469 5  -2094418.47749  22541079.46949
  22787360.906 5    310636.918 5    237651.45747  22787359.53547
  20636459.305 6   -953897.656 6   -727450.53148  20636456.21948
  21481960.164 6   -444857.285 6   -337753.75849  21481962.28949
  20547101.906 7  -2178185.168 7  -1664233.02749  20547102.06649
  21978603.313 6   -638821.750 6   -488185.39848  21978601.44548
 20  5 16  0 32 48.0000000  0  7G04G08G14G16G26G27G31               -0.000354176
  21884572.781 6  -1972136.816 6  -1522667.78948  21884571.77348
  22539901.273 5  -2811167.047 5  -2099239.18849  22539902.32449
  22787469.219 5    311205.246 5    238094.31647  22787468.05547
  20636032.820 6   -956138.375 6   -729196.54748  20636030.35948
  21481735.523 6   -446039.012 6   -338674.58649  21481737.10949
  20546183.336 7  -2183014.473 7  -1667996.12549  20546183.58649
  21978308.086 6   -640373.566 6   -489394.60948  21978305.94948
 20  5 16  0 32 49.0000000  0  7G04G08G14G16G26G27G31               -0.000355970
  21883665.547 6  -1976904.805 6  -1526383.10248  21883664.80148
  22538723.938 5  -2817354.074 5  -2104060.25049  22538725.23049
  22787577.789 5    311773.063 5    238536.76247  22787575.84447
  20635606.469 6   -958379.578 6   -730942.93448  20635603.78148
  21481510.609 6   -447221.434 6   -339595.96149  21481511.87949
  20545264.063 7  -2187843.941 7  -1671759.34849  20545264.82849
  21978012.742 6   -641925.848 6   -490604.18448  21978010.67248
 20  5 16  0 32 50.0000000  0  7G04G08G14G16G26G27G31               -0.000357765
  21882758.156 6  -1981673.168 6  -1530098.71548  21882757.25448
  22537546.789 5  -2823541.680 5  -2108881.75849  22537547.62549
  22787685.289 5    312340.223 5    238978.69947  22787683.96147
  20635179.586 6   -960621.422 6   -732689.82848  20635176.96948
  21481285.453 6   -448404.684 6   -340517.96949  21481287.08649
  20544345.313 7  -2192673.707 7  -1675522.80149  20544345.40249
  21977717.242 6   -643478.762 6   -491814.24648  21977715.10948
 20  5 16  0 32 51.0000000  0  7G04G08G14G16G26G27G31               -0.000359560
  21881850.266 6  -1986441.828 6  -1533814.55948  21881849.29748
  22536368.773 6  -2829729.810 6  -2113703.67949  22536369.71149
  22787792.984 5    312906.758 5    239420.15247  22787791.59047
  20634753.047 6   -962863.848 6   -734437.16848  20634750.35548
  21481060.617 6   -449588.707 6   -341440.59049  21481061.97349
  20543426.148 7  -2197503.719 7  -1679286.44549  20543426.47349
  21977421.820 6   -645032.289 6   -493024.78548  21977419.47348
 20  5 16  0 32 52.0000000  0  7G04G08G14G16G26G27G31               -0.000361355
  21880943.094 6  -1991210.945 6  -1537530.75448  21880941.85248
  22535190.922 5  -2835918.688 5  -2118526.18449  22535192.37549
  22787900.328 5    313472.574 5    239861.04747  22787899.23447
  20634325.820 6   -965106.938 6   -736185.02348  20634323.34848
  21480835.055 6   -450773.609 6   -342363.88749  21480836.33249
  20542506.719 7  -2202334.117 7  -1683050.39549  20542506.70349
  21977125.734 6   -646586.484 6   -494235.84848  21977123.88348
 20  5 16  0 32 53.0000000  0  7G04G08G14G16G26G27G31               -0.000363152
  21880035.211 6  -1995980.395 6  -1541247.21148  21880034.20748
  22534012.375 5  -2842108.098 5  -2123349.09849  22534014.36749
  22788008.406 5    314037.777 5    240301.46547  22788007.02747
  20633899.164 6   -967350.656 6   -737933.37948  20633896.31648
  21480609.086 6   -451959.324 6   -343287.82049  21480610.48449
  20541587.797 7  -2207164.777 7  -1686814.54749  20541587.81649
  21976829.563 6   -648141.301 6   -495447.39148  21976827.77348
 20  5 16  0 32 54.0000000  0  7G04G08G14G16G26G27G31               -0.000364948
  21879127.742 6  -2000750.281 6  -1544964.00048  21879127.00848
  22532834.695 5  -2848298.156 5  -2128172.52049  22532836.50849
  22788115.734 5    314602.242 5    240741.30547  22788113.99247
  20633472.023 6   -969595.051 6   -739682.26248  20633469.46548
  21480383.453 6   -453145.953 6   -344212.46549  21480385.07449
  20540668.172 7  -2211995.824 7  -1690579.00049  20540668.06649
  21976533.727 6   -649696.813 6   -496659.48048  21976532.02048
 20  5 16  0 32 55.0000000  0  7G04G08G14G16G26G27G31               -0.000366745
  21878219.688 6  -2005520.543 6  -1548681.09048  21878218.92248
  22531656.875 5  -2854488.852 5  -2132996.43449  22531658.41849
  22788223.047 5    315166.008 5    241180.60247  22788220.68447
  20633044.961 6   -971840.105 6   -741431.65248  20633041.93048
  21480157.336 6   -454333.418 6   -345137.75849  21480158.66449
  20539748.773 7  -2216827.180 7  -1694343.69149  20539749.14549
  21976237.625 6   -651252.988 6   -497872.09048  21976235.83248
 20  5 16  0 32 56.0000000  0  7G04G08G14G16G26G27G31               -0.000368544
  21877311.930 6  -2010291.168 6  -1552398.46148  21877311.43848
  22530478.563 5  -2860680.137 5  -2137820.80949  22530480.35549
  22788329.719 5    315729.164 5    241619.42647  22788328.28947
  20632617.484 6   -974085.750 6   -743181.50848  20632614.74648
  21479931.484 6   -455521.684 6   -346063.68049  21479932.25849
  20538829.195 7  -2221658.824 7  -1698108.60549  20538829.34049
  21975941.438 6   -652809.754 6   -499085.15648  21975939.64848
 20  5 16  0 32 57.0000000  0  7G04G08G14G16G26G27G31               -0.000370342
  21876403.867 6  -2015062.164 6  -1556116.11748  21876403.40648
  22529300.195 5  -2866871.953 5  -2142645.60249  22529302.23449
  22788437.195 5    316291.684 5    242057.75447  22788435.26247
  20632190.094 6   -976332.020 6   -744931.85248  20632187.28148
  21479704.891 6   -456710.773 6   -346990.25049  21479706.68449
  20537909.922 7  -2226490.781 7  -1701873.76649  20537910.52349
  21975644.930 6   -654367.145 6   -500298.70748  21975643.04348
 20  5 16  0 32 58.0000000  0  7G04G08G14G16G26G27G31               -0.000372141
  21875496.141 6  -2019833.480 6  -1559834.02348  21875495.45348
  22528122.664 5  -2873064.367 5  -2147470.85549  22528123.86349
  22788544.320 5    316853.535 5    242495.55147  22788542.10247
  20631762.688 6   -978578.887 6   -746682.65648  20631760.05548
  21479478.523 6   -457900.660 6   -347917.43849  21479479.63749
  20536990.375 7  -2231322.980 7  -1705639.11749  20536990.62949
  21975348.641 6   -655925.164 6   -501512.75048  21975346.50448
 20  5 16  0 32 59.0000000  0  7G04G08G14G16G26G27G31               -0.000373941
  21874588.344 6  -2024605.172 6  -1563552.22748  21874587.48048
  22526943.867 5  -2879257.363 5  -2152296.56649  22526945.31649
  22788651.094 5    317414.766 5    242932.87547  22788648.98047
  20631334.938 6   -980826.355 6   -748433.93448  20631332.30148
  21479251.977 6   -459091.359 6   -348845.25049  21479253.14549
  20536070.852 7  -2236155.477 7  -1709404.70349  20536071.07849
  21975052.109 6   -657483.754 6   -502727.23448  21975049.85548
 20  5 16  0 33  0.0000000  0  7G04G08G14G16G26G27G31               -0.000375740
  21873680.227 6  -2029377.074 6  -1567270.59848  21873679.32848
  22525765.375 5  -2885450.867 5  -2157122.67249  22525766.49649
  22788758.070 5    317975.477 5    243369.79347  22788756.09847
  20630907.156 6   -983074.332 6   -750185.60248  20630904.52748
  21479025.508 6   -460282.746 6   -349773.60949  21479026.56649
  20535150.961 7  -2240988.133 7  -1713170.40649  20535151.49649
  21974755.063 6   -659042.859 6   -503942.12548  21974753.23848
 20  5 16  0 33  1.0000000  0  7G04G08G14G16G26G27G31               -0.000377542
  21872772.266 6  -2034149.402 6  -1570989.29348  21872770.89548
  22524586.781 5  -2891644.922 5  -2161949.20749  22524588.27749
  22788864.461 5    318535.473 5    243806.14847  22788862.25447
  20630479.273 6   -985322.973 6   -751937.78548  20630476.39848
  21478798.938 6   -461475.039 6   -350702.66449  21478799.43049
  20534231.297 7  -2245821.133 7  -1716936.37949  20534231.91449
  21974458.211 6   -660602.645 6   -505157.54348  21974456.62148
 20  5 16  0 33  2.0000000  0  7G04G08G14G16G26G27G31               -0.000379343
  21871863.883 6  -2038922.121 6  -1574708.29748  21871863.00848
  22523408.234 5  -2897839.680 5  -2166776.29349  22523409.22349
  22788970.648 5    319094.766 5    244241.95347  22788968.63747
  20630051.313 6   -987572.289 6   -753690.50048  20630048.69548
  21478571.305 6   -462668.203 6   -351632.40649  21478572.56349
  20533311.945 7  -2250654.504 7  -1720702.64149  20533312.08649
  21974161.219 6   -662163.117 6   -506373.49248  21974159.57048
 20  5 16  0 33  3.0000000  0  7G04G08G14G16G26G27G31               -0.000381145
  21870955.148 6  -2043695.223 6  -1578427.59848  21870954.68848
  22522228.891 5  -2904035.027 5  -2171603.83249  22522230.30149
  22789077.125 5    319653.406 5    244677.26647  22789075.14847
  20629623.711 6   -989822.223 6   -755443.69948  20629620.57048
  21478344.156 6   -463862.160 6   -352562.76249  21478345.18049
  20532391.734 7  -2255488.152 7  -1724469.12549  20532392.08649
  21973864.570 6   -663724.191 6   -507589.91848  21973862.42248
 20  5 16  0 33  4.0000000  0  7G04G08G14G16G26G27G31               -0.000382946
  21870046.953 6  -2048468.613 6  -1582147.12548  21870046.20748
  22521050.250 5  -2910230.898 5  -2176431.78549  22521051.18849
  22789183.344 5    320211.445 5    245112.10947  22789181.23047
  20629194.977 6   -992072.688 6   -757197.30548  20629191.95748
  21478116.969 6   -465056.891 6   -353493.71949  21478118.32049
  20531471.875 7  -2260322.031 7  -1728235.78549  20531472.21949
  21973567.219 6   -665285.832 6   -508806.78548  21973565.27348
 20  5 16  0 33  5.0000000  0  7G04G08G14G16G26G27G31               -0.000384750
  21869138.625 6  -2053242.293 6  -1585866.87548  21869137.65648
  22519870.859 5  -2916427.273 5  -2181260.12949  22519872.06649
  22789288.813 5    320768.930 5    245546.51247  22789287.03147
  20628766.250 6   -994323.727 6   -758951.35948  20628763.88748
  21477889.281 6   -466252.355 6   -354425.25049  21477890.70749
  20530552.023 7  -2265156.133 7  -1732002.61349  20530552.60949
  21973270.477 6   -666848.027 6   -510024.08648  21973268.49248
 20  5 16  0 33  6.0000000  0  7G04G08G14G16G26G27G31               -0.000386553
  21868230.383 6  -2058016.344 6  -1589586.91448  21868229.28548
  22518691.688 5  -2922624.293 5  -2186088.96949  22518692.95349
  22789395.102 5    321325.730 5    245980.38347  22789393.00447
  20628338.086 6   -996575.414 6   -760705.93048  20628334.99648
  21477661.414 6   -467448.668 6   -355357.43849  21477663.00849
  20529632.039 7  -2269990.551 7  -1735769.69549  20529632.57049
  21972973.016 6   -668410.852 6   -511241.86748  21972970.53148
 20  5 16  0 33  7.0000000  0  7G04G08G14G16G26G27G31               -0.000388357
  21867321.773 6  -2062790.715 6  -1593307.19948  21867321.09048
  22517512.797 6  -2928821.809 6  -2190918.19949  22517513.23449
  22789500.500 5    321881.926 5    246413.77347  22789498.76647
  20627909.273 6   -998827.672 6   -762460.93848  20627906.84048
  21477433.406 6   -468645.758 6   -356290.24249  21477435.37949
  20528711.664 7  -2274825.219 7  -1739536.96549  20528712.39149
  21972675.414 6   -669974.277 6   -512460.12548  21972672.93848
 20  5 16  0 33  8.0000000  0  7G04G08G14G16G26G27G31               -0.000390162
  21866412.969 6  -2067565.398 6  -1597027.73848  21866412.21948
  22516332.633 5  -2935019.863 5  -2195747.85949  22516333.57449
  22789606.266 5    322437.535 5    246846.71147  22789604.77747
  20627480.578 6  -1001080.484 6   -764216.37148  20627477.69148
  21477205.594 6   -469843.633 6   -357223.65249  21477207.56349
  20527791.781 7  -2279660.125 7  -1743304.42649  20527792.32849
  21972377.688 7   -671538.266 7   -513678.82048  21972375.63348
 20  5 16  0 33  9.0000000  0  7G04G08G14G16G26G27G31               -0.000391968
  21865504.727 6  -2072340.398 6  -1600748.51248  21865503.59448
  22515153.180 5  -2941218.496 5  -2200577.95749  22515154.20749
  22789711.984 5    322992.477 5    247279.12547  22789710.45347
  20627051.930 6  -1003333.902 6   -765972.27748  20627048.99648
  21476977.914 6   -471042.309 6   -358157.68449  21476979.16449
  20526872.141 7  -2284495.301 7  -1747072.09849  20526872.23449
  21972079.969 6   -673102.820 6   -514897.95348  21972077.86348
 20  5 16  0 33 10.0000000  0  7G04G08G14G16G26G27G31               -0.000393774
  21864596.031 6  -2077115.805 6  -1604469.60548  21864594.84048
  22513973.477 5  -2947417.734 5  -2205408.53149  22513975.16049
  22789817.313 5    323546.793 5    247711.06347  22789815.99247
  20626622.938 6  -1005587.941 6   -767728.67248  20626620.39848
  21476749.469 6   -472241.781 6   -359092.34049  21476750.81649
  20525952.180 7  -2289330.781 7  -1750840.00449  20525952.33649
  21971782.258 6   -674668.043 6   -516117.60248  21971779.95348
 20  5 16  0 33 11.0000000  0  7G04G08G14G16G26G27G31               -0.000395580
  21863687.094 6  -2081891.559 6  -1608190.97748  21863686.20748
  22512793.844 6  -2953617.578 6  -2210239.57449  22512794.46549
  22789922.555 5    324100.449 5    248142.48047  22789921.53947
  20626193.758 6  -1007842.617 6   -769485.55948  20626191.15648
  21476521.461 6   -473442.137 6   -360027.68449  21476522.07849
  20525031.734 7  -2294166.590 7  -1754608.16849  20525031.86749
  21971483.852 6   -676233.902 6   -517337.75448  21971482.12548
 20  5 16  0 33 12.0000000  0  7G04G08G14G16G26G27G31               -0.000397387
  21862778.156 6  -2086667.645 6  -1611912.59848  21862777.06348
  22511613.844 6  -2959817.969 6  -2215071.05149  22511615.01649
  22790027.852 5    324653.441 5    248573.37947  22790026.99647
  20625764.828 6  -1010097.902 6   -771242.93048  20625761.88348
  21476292.211 6   -474643.250 6   -360963.61749  21476293.85249
  20524111.453 7  -2299002.637 7  -1758376.51649  20524111.70349
  21971185.914 6   -677800.332 6   -518558.34448  21971183.69948
 20  5 16  0 33 13.0000000  0  7G04G08G14G16G26G27G31               -0.000399193
  21861869.227 6  -2091444.074 6  -1615634.48848  21861868.24648
  22510434.234 6  -2966018.945 6  -2219902.98049  22510435.34449
  22790133.484 5    325205.840 5    249003.82047  22790131.60547
  20625335.695 6  -1012353.766 6   -773000.74648  20625332.75848
  21476063.867 6   -475845.180 6   -361900.18049  21476064.87549
  20523191.461 7  -2303838.969 7  -1762145.08249  20523191.50049
  21970887.430 6   -679367.398 6   -519779.44148  21970885.68048
 20  5 16  0 33 14.0000000  0  7G04G08G14G16G26G27G31               -0.000401001
  21860960.016 6  -2096220.742 6  -1619356.57048  21860959.21148
  22509253.781 6  -2972220.359 6  -2224735.25049  22509255.04349
  22790238.344 5    325757.645 5    249433.79347  22790236.80147
  20624906.117 6  -1014610.141 6   -774758.95748  20624903.41048
  21475834.531 6   -477047.805 6   -362837.28949  21475836.38349
  20522270.891 7  -2308675.492 7  -1765913.80549  20522270.91849
  21970589.234 6   -680934.941 6   -521000.89848  21970587.60548
 20  5 16  0 33 15.0000000  0  7G04G08G14G16G26G27G31               -0.000402809
  21860051.195 6  -2100997.770 6  -1623078.93448  21860050.59848
  22508073.508 6  -2978422.383 6  -2229567.99649  22508074.84849
  22790343.094 5    326308.871 5    249863.32047  22790341.59447
  20624476.602 6  -1016867.117 6   -776517.64148  20624473.75448
  21475605.914 6   -478251.273 6   -363775.06349  21475607.64149
  20521350.305 7  -2313512.285 7  -1769682.73449  20521350.65249
  21970290.891 6   -682503.105 6   -522222.85248  21970289.24648
 20  5 16  0 33 16.0000000  0  7G04G08G14G16G26G27G31               -0.000404619
  21859142.391 6  -2105775.133 6  -1626801.55548  21859141.13348
  22506892.813 5  -2984624.965 5  -2234401.17649  22506894.18049
  22790448.406 5    326859.418 5    250292.31647  22790446.43047
  20624046.727 6  -1019124.695 6   -778276.78948  20624044.28548
  21475377.055 6   -479455.504 6   -364713.42249  21475378.44149
  20520429.688 7  -2318349.352 7  -1773451.87949  20520429.82049
  21969992.336 6   -684071.863 6   -523445.26248  21969990.64148
 20  5 16  0 33 17.0000000  0  7G04G08G14G16G26G27G31               -0.000406427
  21858233.016 6  -2110552.813 6  -1630524.41848  21858231.88748
  22505712.742 6  -2990828.129 6  -2239234.81349  22505713.94149
  22790552.516 5    327409.410 5    250720.88747  22790551.15247
  20623617.344 6  -1021382.859 6   -780036.40248  20623614.59048
  21475147.063 6   -480660.531 6   -365652.40649  21475148.55949
  20519509.219 7  -2323186.672 7  -1777221.21149  20519509.71949
  21969693.672 6   -685641.230 6   -524668.14848  21969691.93448
 20  5 16  0 33 18.0000000  0  7G04G08G14G16G26G27G31               -0.000408237
  21857323.688 6  -2115330.863 6  -1634247.57448  21857323.00848
  22504531.797 6  -2997031.840 6  -2244068.86749  22504533.34049
  22790656.641 5    327958.664 5    251148.87547  22790655.78547
  20623187.297 6  -1023641.684 6   -781796.52348  20623184.55948
  21474917.805 6   -481866.410 6   -366592.05549  21474919.63349
  20518588.719 7  -2328024.309 7  -1780990.79749  20518589.02349
  21969395.117 6   -687211.211 6   -525891.50848  21969392.89848
 20  5 16  0 33 19.0000000  0  7G04G08G14G16G26G27G31               -0.000410049
  21856414.281 6  -2120109.211 6  -1637970.96148  21856413.17248
  22503351.320 6  -3003236.098 6  -2248903.35549  22503352.78549
  22790761.281 5    328507.371 5    251576.43447  22790760.37547
  20622757.297 6  -1025901.043 6   -783557.06648  20622754.90648
  21474688.328 6   -483073.012 6   -367532.25849  21474689.45749
  20517667.680 7  -2332862.172 7  -1784760.57049  20517668.68449
  21969096.516 6   -688781.770 6   -527115.32048  21969094.45348
 20  5 16  0 33 20.0000000  0  7G04G08G14G16G26G27G31               -0.000411860
  21855505.133 6  -2124887.926 6  -1641694.64148  21855504.21148
  22502171.008 6  -3009440.926 6  -2253738.28949  22502171.78149
  22790865.203 5    329055.398 5    252003.46147  22790864.41447
  20622327.172 6  -1028161.023 6   -785318.08648  20622324.87148
  21474458.141 6   -484280.516 6   -368473.16849  21474459.73449
  20516747.492 7  -2337700.336 7  -1788530.56649  20516748.12149
  21968797.539 6   -690352.945 6   -528339.61348  21968795.01648
 20  5 16  0 33 21.0000000  0  7G04G08G14G16G26G27G31               -0.000413671
  21854595.086 6  -2129666.965 6  -1645418.56648  21854594.86748
  22500989.969 5  -3015646.344 5  -2258573.67649  22500991.04349
  22790969.867 5    329602.836 5    252430.03147  22790968.96147
  20621897.203 6  -1030421.574 6   -787079.56348  20621894.70748
  21474228.320 6   -485488.738 6   -369414.63749  21474230.09049
  20515826.773 7  -2342538.738 7  -1792300.74649  20515827.12949
  21968498.492 6   -691924.691 6   -529564.34848  21968496.25048
 20  5 16  0 33 22.0000000  0  7G04G08G14G16G26G27G31               -0.000415485
  21853685.602 6  -2134446.293 6  -1649142.71948  21853685.37548
  22499809.148 6  -3021852.254 6  -2263409.44949  22499810.10549
  22791073.602 5    330149.680 5    252856.13347  22791072.85547
  20621467.328 6  -1032682.688 6   -788841.46948  20621464.48048
  21473998.734 6   -486697.707 6   -370356.69549  21474000.18849
  20514905.922 7  -2347377.379 7  -1796071.12149  20514906.08249
  21968199.055 6   -693497.008 6   -530789.53548  21968197.09848
 20  5 16  0 33 23.0000000  0  7G04G08G14G16G26G27G31               -0.000417297
  21852776.297 6  -2139225.938 6  -1652867.11748  21852775.89848
  22498628.063 6  -3028058.719 6  -2268245.65249  22498629.05149
  22791177.961 5    330695.895 5    253281.75447  22791176.74247
  20621036.195 6  -1034944.402 6   -790603.84048  20621033.53548
  21473768.227 6   -487907.508 6   -371299.39849  21473769.82849
  20513985.117 7  -2352216.285 7  -1799841.69949  20513985.10949
  21967899.844 6   -695069.906 6   -532015.16848  21967897.87148
 20  5 16  0 33 24.0000000  0  7G04G08G14G16G26G27G31               -0.000419111
  21851866.867 6  -2144005.910 6  -1656591.76648  21851866.18448
  22497447.133 5  -3034265.734 5  -2273082.28949  22497448.13749
  22791282.430 5    331241.516 5    253706.91047  22791280.70747
  20620605.859 6  -1037206.676 6   -792366.65648  20620603.33248
  21473537.969 6   -489118.070 6   -372242.69949  21473539.26649
  20513064.063 7  -2357055.453 7  -1803612.47749  20513064.46149
  21967600.219 6   -696643.395 6   -533241.26648  21967598.19548
 20  5 16  0 33 25.0000000  0  7G04G08G14G16G26G27G31               -0.000420923
  21850957.367 6  -2148786.082 6  -1660316.57448  21850956.91848
  22496265.727 5  -3040473.203 5  -2277919.28149  22496266.84849
  22791385.789 5    331786.602 5    254131.64847  22791384.19147
  20620175.547 6  -1039469.449 6   -794129.85248  20620173.06648
  21473307.367 6   -490329.320 6   -373186.53149  21473308.86349
  20512143.422 7  -2361894.727 7  -1807383.33649  20512143.66049
  21967300.406 6   -698217.375 6   -534467.74248  21967298.85248
 20  5 16  0 33 26.0000000  0  7G04G08G14G16G26G27G31               -0.000422739
  21850047.195 6  -2153566.684 6  -1664041.71548  21850046.76648
  22495084.250 5  -3046681.297 5  -2282756.75849  22495085.35949
  22791489.398 5    332331.020 5    254555.87147  22791487.82447
  20619744.984 6  -1041732.871 6   -795893.55548  20619741.73848
  21473077.352 6   -491541.426 6   -374131.02749  21473078.59049
  20511222.430 7  -2366734.383 7  -1811154.50049  20511222.77349
  21967000.773 6   -699791.988 6   -535694.71948  21966999.28948
 20  5 16  0 33 27.0000000  0  7G04G08G14G16G26G27G31               -0.000424553
  21849138.023 6  -2158347.691 6  -1667767.17648  21849136.78548
  22493902.867 6  -3052890.004 6  -2287594.71149  22493904.35549
  22791592.680 5    332874.660 5    254979.48447  22791591.37147
  20619314.047 6  -1043997.000 6   -797657.80948  20619311.03148
  21472846.063 6   -492754.434 6   -375076.23049  21472847.13349
  20510301.344 7  -2371574.414 7  -1814925.94949  20510301.79349
  21966701.000 6   -701367.328 6   -536922.25448  21966699.42648
 20  5 16  0 33 28.0000000  0  7G04G08G14G16G26G27G31               -0.000426369
  21848228.109 6  -2163129.047 6  -1671492.90648  21848227.55548
  22492721.406 6  -3059099.348 6  -2292433.15649  22492722.19949
  22791696.156 5    333417.664 5    255402.60247  22791694.46947
  20618882.852 6  -1046261.707 6   -799422.52048  20618880.32448
  21472614.969 6   -493968.250 6   -376022.06649  21472616.75849
  20509380.266 7  -2376414.688 7  -1818697.59049  20509380.79749
  21966401.422 6   -702943.273 6   -538150.26648  21966399.05148
 20  5 16  0 33 29.0000000  0  7G04G08G14G16G26G27G31               -0.000428185
  21847318.117 6  -2167910.738 6  -1675218.90248  21847317.19548
  22491539.633 6  -3065309.246 6  -2297272.03949  22491540.62149
  22791799.266 5    333960.102 5    255825.27747  22791797.93447
  20618451.750 6  -1048527.039 6   -801187.71148  20618448.98848
  21472384.227 6   -495182.879 6   -376968.52749  21472385.04749
  20508458.875 7  -2381255.242 7  -1822469.44949  20508459.22749
  21966101.328 6   -704519.809 6   -539378.73848  21966099.46148
 20  5 16  0 33 30.0000000  0  7G04G08G14G16G26G27G31               -0.000430002
  21846408.344 6  -2172692.711 6  -1678945.12148  21846407.87948
  22490357.945 5  -3071519.641 5  -2302111.30949  22490358.55949
  22791902.680 5    334501.898 5    256247.44947  22791901.04347
  20618020.836 6  -1050792.910 6   -802953.32048  20618018.04748
  21472152.641 6   -496398.234 6   -377915.55549  21472153.94549
  20507537.719 7  -2386096.027 7  -1826241.48449  20507538.22749
  21965801.328 6   -706096.895 6   -540607.63748  21965799.07448
 20  5 16  0 33 31.0000000  0  7G04G08G14G16G26G27G31               -0.000431818
  21845498.039 6  -2177475.023 6  -1682671.59448  21845497.30948
  22489175.727 6  -3077730.613 6  -2306951.02349  22489176.44149
  22792005.625 5    335043.094 5    256669.16047  22792004.22347
  20617589.219 6  -1053059.363 6   -804719.39548  20617586.55148
  21471921.109 6   -497614.398 6   -378863.21949  21471922.72749
  20506616.422 7  -2390937.082 7  -1830013.73849  20506616.90649
  21965500.906 6   -707674.578 6   -541837.00448  21965499.02348
 20  5 16  0 33 32.0000000  0  7G04G08G14G16G26G27G31               -0.000433636
  21844587.820 6  -2182257.773 6  -1686398.41448  21844587.46548
  22487994.008 6  -3083942.215 6  -2311791.23449  22487994.70349
  22792108.336 5    335583.563 5    257090.29747  22792107.06647
  20617158.117 6  -1055326.516 6   -806486.00448  20617155.21148
  21471689.656 6   -498831.457 6   -379811.57049  21471690.92249
  20505695.500 7  -2395778.484 7  -1833786.26249  20505695.79749
  21965200.820 6   -709252.949 6   -543066.90648  21965198.89148
 20  5 16  0 33 33.0000000  0  7G04G08G14G16G26G27G31               -0.000435455
  21843677.414 6  -2187040.855 6  -1690125.49248  21843676.78948
  22486811.648 6  -3090154.395 6  -2316631.89849  22486812.57049
  22792211.391 5    336123.379 5    257510.93047  22792209.75847
  20616726.422 6  -1057594.305 6   -808253.10948  20616723.61748
  21471457.914 6   -500049.320 6   -380760.55949  21471459.26249
  20504774.500 7  -2400620.156 7  -1837558.98849  20504774.46549
  21964900.352 6   -710831.930 6   -544297.28148  21964898.06348
 20  5 16  0 33 34.0000000  0  7G04G08G14G16G26G27G31               -0.000437273
  21842767.375 6  -2191824.180 6  -1693852.75848  21842766.37148
  22485629.414 6  -3096367.051 6  -2321472.92249  22485630.59849
  22792313.844 5    336662.656 5    257931.14547  22792312.66847
  20616294.742 6  -1059862.598 6   -810020.61348  20616292.27048
  21471225.758 6   -501267.887 6   -381710.09049  21471227.12949
  20503853.070 7  -2405462.023 7  -1841331.87549  20503853.07849
  21964599.813 6   -712411.438 6   -545528.06348  21964597.86348
 20  5 16  0 33 35.0000000  0  7G04G08G14G16G26G27G31               -0.000439093
  21841856.984 6  -2196607.824 6  -1697580.27748  21841856.50048
  22484446.711 6  -3102580.270 6  -2326314.39549  22484447.96149
  22792416.680 5    337201.336 5    258350.89547  22792415.05547
  20615863.164 6  -1062131.465 6   -811788.56348  20615860.38748
  21470993.898 6   -502487.254 6   -382660.25049  21470995.21149
  20502931.484 7  -2410304.141 7  -1845104.95749  20502931.70749
  21964298.688 6   -713991.492 6   -546759.27748  21964297.00848
 20  5 16  0 33 36.0000000  0  7G04G08G14G16G26G27G31               -0.000440912
  21840946.430 6  -2201391.746 6  -1701308.00448  21840946.05148
  22483264.594 6  -3108793.941 6  -2331156.22349  22483265.95749
  22792518.563 5    337739.453 5    258770.20347  22792517.11747
  20615431.313 6  -1064400.832 6   -813556.90248  20615428.63748
  21470762.125 6   -503707.320 6   -383610.95349  21470763.16449
  20502009.859 7  -2415146.449 7  -1848878.17649  20502010.66849
  21963998.289 6   -715572.094 6   -547990.91448  21963996.04348
 20  5 16  0 33 37.0000000  0  7G04G08G14G16G26G27G31               -0.000442734
  21840036.078 6  -2206175.996 6  -1705035.99248  21840035.51648
  22482082.289 5  -3115008.207 5  -2335998.50449  22482083.28149
  22792621.102 5    338276.910 5    259189.00047  22792619.56647
  20614999.258 6  -1066670.832 6   -815325.73848  20614996.76648
  21470529.711 6   -504928.207 6   -384562.29349  21470530.98049
  20501088.742 7  -2419989.066 7  -1852651.64549  20501089.00849
  21963697.055 6   -717153.289 6   -549223.01648  21963695.08648
 20  5 16  0 33 38.0000000  0  7G04G08G14G16G26G27G31               -0.000444553
  21839125.539 6  -2210960.641 6  -1708764.28548  21839125.08648
  22480899.430 6  -3121223.094 6  -2340841.27349  22480900.21549
  22792723.148 5    338813.691 5    259607.27047  22792721.53547
  20614567.383 6  -1068941.488 6   -817095.07848  20614564.63348
  21470297.156 6   -506149.988 6   -385514.32849  21470298.60949
  20500167.000 7  -2424831.977 7  -1856425.34449  20500167.07449
  21963396.250 6   -718735.168 6   -550455.64848  21963394.33648
 20  5 16  0 33 39.0000000  0  7G04G08G14G16G26G27G31               -0.000446375
  21838215.664 6  -2215745.648 6  -1712492.85948  21838214.30148
  22479716.648 6  -3127438.563 6  -2345684.50049  22479717.82849
  22792825.188 5    339349.816 5    260025.02747  22792823.62147
  20614134.773 6  -1071212.750 6   -818864.89548  20614131.94948
  21470064.602 6   -507372.535 6   -386466.96149  21470065.65249
  20499245.422 7  -2429675.191 7  -1860199.27349  20499245.52349
  21963095.289 6   -720317.633 6   -551688.73848  21963092.99648
 20  5 16  0 33 40.0000000  0  7G04G08G14G16G26G27G31               -0.000448198
  21837304.375 6  -2220530.941 6  -1716221.66048  21837303.75848
  22478533.445 5  -3133654.547 5  -2350528.11749  22478534.96949
  22792927.141 5    339885.371 5    260442.33647  22792925.66447
  20613702.578 6  -1073484.566 6   -820635.13748  20613699.69148
  21469831.313 6   -508595.859 6   -387420.20349  21469832.97349
  20498323.453 7  -2434518.598 7  -1863973.35949  20498324.13749
  21962793.922 7   -721900.656 7   -552922.26648  21962791.80548
 20  5 16  0 33 41.0000000  0  7G04G08G14G16G26G27G31               -0.000450020
  21836393.953 6  -2225316.426 6  -1719950.60948  21836393.56648
  22477350.891 6  -3139871.000 6  -2355372.10949  22477351.69149
  22793029.711 5    340420.391 5    260859.22747  22793027.30147
  20613270.242 6  -1075756.867 6   -822405.76248  20613267.50048
  21469598.516 6   -509819.871 6   -388373.97349  21469600.39549
  20497401.836 7  -2439362.191 7  -1867747.59449  20497402.52049
  21962492.836 6   -723484.160 6   -554156.16048  21962490.85548
 20  5 16  0 33 42.0000000  0  7G04G08G14G16G26G27G31               -0.000451843
  21835483.500 6  -2230102.238 6  -1723679.80948  21835482.46148
  22476167.781 6  -3146087.988 6  -2360216.51649  22476168.77349
  22793131.203 5    340954.816 5    261275.66847  22793129.37147
  20612837.719 6  -1078029.730 6   -824176.82448  20612835.06348
  21469365.383 6   -511044.672 6   -389328.35949  21469366.96949
  20496480.266 7  -2444206.004 7  -1871521.99249  20496480.61749
  21962191.281 6   -725068.242 6   -555390.50848  21962189.10548
 20  5 16  0 33 43.0000000  0  7G04G08G14G16G26G27G31               -0.000453667
  21834572.672 6  -2234888.449 6  -1727409.32848  21834571.71948
  22474984.852 6  -3152305.559 6  -2365061.37549  22474985.57849
  22793232.680 5    341488.539 5    261691.56347  22793230.75047
  20612405.055 6  -1080303.270 6   -825948.41048  20612402.44548
  21469132.094 6   -512270.281 6   -390283.39149  21469133.48049
  20495558.508 7  -2449050.164 7  -1875296.66049  20495558.65649
  21961889.656 6   -726652.961 6   -556625.35948  21961887.60948
 20  5 16  0 33 44.0000000  0  7G04G08G14G16G26G27G31               -0.000455492
  21833661.859 6  -2239674.938 6  -1731139.05948  21833661.12948
  22473800.781 5  -3158523.688 5  -2369906.67249  22473802.73849
  22793333.781 5    342021.695 5    262107.00847  22793332.20747
  20611972.164 6  -1082577.352 6   -827720.42248  20611969.73448
  21468898.719 6   -513496.672 6   -391239.02049  21468899.83249
  20494636.484 7  -2453894.527 7  -1879071.48049  20494636.87149
  21961587.484 6   -728238.266 6   -557860.66448  21961585.97348
 20  5 16  0 33 45.0000000  0  7G04G08G14G16G26G27G31               -0.000457315
  21832751.008 6  -2244461.770 6  -1734869.05948  21832750.35248
  22472617.500 5  -3164742.383 5  -2374752.41049  22472619.01649
  22793434.938 5    342554.172 5    262521.92247  22793433.56347
  20611539.352 6  -1084852.063 6   -829492.92648  20611536.82448
  21468665.117 6   -514723.895 6   -392195.30149  21468666.85249
  20493714.766 7  -2458739.188 7  -1882846.54349  20493714.85249
  21961286.188 6   -729824.160 6   -559096.42648  21961284.02748
 20  5 16  0 33 46.0000000  0  7G04G08G14G16G26G27G31               -0.000459141
  21831839.414 6  -2249248.887 6  -1738599.28148  21831839.41448
  22471434.492 5  -3170961.539 5  -2379598.50449  22471435.80549
  22793536.172 5    343086.105 5    262936.41447  22793535.09047
  20611106.414 6  -1087127.285 6   -831265.82848  20611103.61348
  21468431.477 6   -515951.844 6   -393152.14849  21468433.20749
  20492792.734 7  -2463584.055 7  -1886621.77049  20492793.01249
  21960984.539 6   -731410.609 6   -560332.62548  21960982.32048
 20  5 16  0 33 47.0000000  0  7G04G08G14G16G26G27G31               -0.000460968
  21830928.922 6  -2254036.422 6  -1742329.82448  21830928.17648
  22470250.945 5  -3177181.402 5  -2384445.14149  22470251.86749
  22793637.320 5    343617.309 5    263350.34047  22793636.14147
  20610673.508 6  -1089403.199 6   -833039.27048  20610670.53148
  21468197.359 6   -517180.668 6   -394109.67249  21468199.30949
  20491870.484 7  -2468429.281 7  -1890397.27049  20491870.65649
  21960682.102 6   -732997.727 6   -561569.34048  21960679.87948
 20  5 16  0 33 48.0000000  0  7G04G08G14G16G26G27G31               -0.000462793
  21830017.633 6  -2258824.227 6  -1746060.58648  21830016.97748
  22469067.055 5  -3183401.746 5  -2389292.16049  22469067.98849
  22793738.320 5    344147.938 5    263763.81647  22793737.06647
  20610240.125 6  -1091679.684 6   -834813.15648  20610237.41448
  21467963.672 6   -518410.238 6   -395067.78149  21467965.27349
  20490948.305 7  -2473274.723 7  -1894172.94549  20490949.08649
  21960379.859 6   -734585.414 6   -562806.50048  21960377.88748
 20  5 16  0 33 49.0000000  0  7G04G08G14G16G26G27G31               -0.000464621
  21829106.781 6  -2263612.359 6  -1749791.59848  21829105.92248
  22467883.320 5  -3189622.648 5  -2394139.61349  22467884.72749
  22793839.000 5    344677.949 5    264176.80947  22793837.81647
  20609806.883 6  -1093956.746 6   -836587.48448  20609804.38348
  21467729.828 6   -519640.613 6   -396026.51649  21467731.10549
  20490026.383 7  -2478120.391 7  -1897948.78149  20490027.02349
  21960077.930 6   -736173.676 6   -564044.10948  21960076.16048
 20  5 16  0 33 50.0000000  0  8G04G08G14G16G21G26G27G31            -0.000466448
  21828195.477 6  -2268400.809 6  -1753522.85948  21828194.63348
  22466699.570 5  -3195844.078 5  -2398987.47749  22466700.76649
  22793939.914 5    345207.328 5    264589.30947  22793938.48847
  20609373.406 6  -1096234.352 6   -838362.24648  20609370.67648
  24219859.99214    -87701.01614    -52214.28956  24219859.34456
  21467495.289 6   -520871.789 6   -396985.87149  21467496.92649
  20489104.219 7  -2482966.332 7  -1901724.84049  20489104.50049
  21959775.352 6   -737762.512 6   -565282.16448  21959773.48848
 20  5 16  0 33 51.0000000  0  8G04G08G14G16G21G26G27G31            -0.000468273
  21827283.992 6  -2273189.715 6  -1757254.46548  21827283.37148
  22465515.766 6  -3202066.195 6  -2403835.89149  22465516.75849
  22794041.039 5    345736.000 5    265001.25847  22794039.35547
  20608940.219 6  -1098512.727 6   -840137.60248  20608937.27748
  24219353.633 4    -90365.625 4    -54290.62546  24219352.64146
  21467260.750 6   -522103.848 6   -397945.91849  21467262.10249
  20488182.070 7  -2487812.660 7  -1905501.19949  20488182.52349
  21959473.008 6   -739352.063 6   -566520.77048  21959471.02048
 20  5 16  0 33 52.0000000  0  8G04G08G14G16G21G26G27G31            -0.000470100
  21826372.648 6  -2277978.934 6  -1760986.32848  21826371.84448
  22464331.008 5  -3208288.898 5  -2408684.75049  22464332.09849
  22794141.281 5    346263.996 5    265412.68447  22794139.24647
  20608506.336 6  -1100791.676 6   -841913.40248  20608503.39848
  24218845.766 4    -93030.652 4    -56367.28146  24218845.82846
  21467026.297 6   -523336.711 6   -398906.59049  21467027.45349
  20487259.805 7  -2492659.281 7  -1909277.78949  20487259.82049
  21959170.148 6   -740942.230 6   -567759.86748  21959168.50048
 20  5 16  0 33 53.0000000  0  8G04G08G14G16G21G26G27G31            -0.000471930
  21825461.461 6  -2282768.512 6  -1764718.46948  21825460.54348
  22463146.766 5  -3214512.156 5  -2413534.03949  22463148.14149
  22794241.773 5    346791.359 5    265823.62147  22794239.85947
  20608072.469 6  -1103071.234 6   -843689.68448  20608069.71548
  24218338.953 4    -95696.098 4    -58444.25446  24218338.22346
  21466791.984 6   -524570.398 6   -399867.90649  21466792.84049
  20486337.484 7  -2497506.152 7  -1913054.57049  20486338.07849
  21958867.422 6   -742532.984 6   -568999.41448  21958865.56348
 20  5 16  0 33 54.0000000  0  8G04G08G14G16G21G26G27G31            -0.000473761
  21824549.836 6  -2287558.383 6  -1768450.83648  21824548.96548
  22461962.727 5  -3220735.926 5  -2418383.73049  22461963.99249
  22794341.594 5    347318.137 5    266234.09847  22794340.11747
  20607638.602 6  -1105351.359 6   -845466.41048  20607635.62148
  24217831.773 4    -98361.965 4    -60521.54746  24217830.82446
  21466556.977 6   -525804.828 6   -400829.80149  21466558.37949
  20485415.047 7  -2502353.250 7  -1916831.53149  20485415.28949
  21958564.727 6   -744124.313 6   -570239.41048  21958563.05948
 20  5 16  0 33 55.0000000  0  8G04G08G14G16G21G26G27G31            -0.000475590
  21823638.125 6  -2292348.664 6  -1772183.52348  21823637.62148
  22460778.289 5  -3226960.371 5  -2423233.94549  22460779.20349
  22794441.641 5    347844.191 5    266644.00047  22794440.43047
  20607204.242 6  -1107632.141 6   -847243.64548  20607201.98848
  24217324.461 4   -101028.348 4    -62599.23446  24217323.45346
  21466321.547 6   -527040.152 6   -401792.39149  21466323.36349
  20484492.453 7  -2507200.680 7  -1920608.74649  20484492.98449
  21958261.945 6   -745716.293 6   -571479.91448  21958259.84848
 20  5 16  0 33 56.0000000  0  8G04G08G14G16G21G26G27G31            -0.000477421
  21822726.914 6  -2297139.227 6  -1775916.43048  21822725.83648
  22459593.594 5  -3233185.324 5  -2428084.55549  22459594.94549
  22794541.492 5    348369.648 5    267053.44547  22794540.68447
  20606770.383 6  -1109913.512 6   -849021.33248  20606767.69548
  24216817.680 5   -103695.129 5    -64677.25446  24216815.88346
  21466086.430 6   -528276.250 6   -402755.58649  21466087.97349
  20483569.961 7  -2512048.367 7  -1924386.16449  20483570.65649
  21957958.922 6   -747308.863 6   -572720.87948  21957956.50048
 20  5 16  0 33 57.0000000  0  8G04G08G14G16G21G26G27G31            -0.000479252
  21821815.086 6  -2301930.188 6  -1779649.64548  21821813.98848
  22458408.547 5  -3239410.895 5  -2432935.64849  22458409.96549
  22794641.313 5    348894.426 5    267462.36747  22794640.41447
  20606336.258 6  -1112195.492 6   -850799.50448  20606333.64148
  24216310.094 5   -106362.375 5    -66755.62946  24216308.50846
  21465851.070 6   -529513.172 6   -403719.42649  21465852.21949
  20482647.836 7  -2516896.348 7  -1928163.81349  20482648.00049
  21957655.547 6   -748902.078 6   -573962.34448  21957653.82848
 20  5 16  0 33 58.0000000  0  8G04G08G14G16G21G26G27G31            -0.000481085
  21820903.352 6  -2306721.547 6  -1783383.17248  21820902.51648
  22457224.094 5  -3245637.063 5  -2437787.21149  22457225.30149
  22794741.125 5    349418.523 5    267870.75447  22794740.16847
  20605901.781 7  -1114478.188 7   -852578.21948  20605899.18048
  24215802.102 4   -109030.121 4    -68834.39146  24215800.31646
  21465615.859 6   -530750.980 6   -404683.94549  21465616.78949
  20481724.805 7  -2521744.695 7  -1931941.74249  20481725.29749
  21957352.609 6   -750495.949 6   -575204.32848  21957350.80548
 20  5 16  0 33 59.0000000  0  8G04G08G14G16G21G26G27G31            -0.000482918
  21819991.234 6  -2311513.188 6  -1787116.91848  21819990.67248
  22456039.031 5  -3251863.777 5  -2442639.19149  22456040.54349
  22794840.164 5    349942.012 5    268278.66447  22794839.71947
  20605467.352 7  -1116761.406 7   -854357.35248  20605464.43448
  24215294.344 4   -111698.277 4    -70913.47746  24215293.06346
  21465380.125 6   -531989.535 6   -405649.05149  21465381.49649
  20480802.141 7  -2526593.230 7  -1935719.82049  20480802.53549
  21957049.141 6   -752090.387 6   -576446.74648  21957047.07848
 20  5 16  0 34  0.0000000  0  8G04G08G14G16G21G26G27G31            -0.000484751
  21819079.180 6  -2316305.074 6  -1790850.85948  21819078.63348
  22454854.203 5  -3258090.938 5  -2447491.52349  22454855.73049
  22794940.719 5    350464.945 5    268686.13347  22794939.47347
  20605033.000 7  -1119045.152 7   -856136.89548  20605030.31648
  24214786.977 4   -114366.801 4    -72992.83646  24214785.22346
  21465144.406 6   -533228.789 6   -406614.70349  21465145.56349
  20479879.617 7  -2531441.973 7  -1939498.06349  20479879.95349
  21956745.586 6   -753685.316 6   -577689.55148  21956743.82448
 20  5 16  0 34  1.0000000  0  8G04G08G14G16G21G26G27G31            -0.000486584
  21818167.602 6  -2321097.305 6  -1794585.06348  21818166.83648
  22453669.398 6  -3264318.637 6  -2452344.27749  22453670.18849
  22795039.797 5    350987.266 5    269093.13347  22795038.61747
  20604598.539 7  -1121329.480 7   -857916.88748  20604595.13348
  24214278.836 4   -117035.711 4    -75072.51646  24214277.28546
  21464908.203 6   -534468.883 6   -407581.00849  21464909.37949
  20478957.109 7  -2536290.949 7  -1943276.48449  20478956.98449
  21956441.805 6   -755280.852 6   -578932.82048  21956439.96548
 20  5 16  0 34  2.0000000  0  8G04G08G14G16G21G26G27G31            -0.000488419
  21817255.445 6  -2325889.891 6  -1798319.53948  21817254.76248
  22452484.469 6  -3270546.973 6  -2457197.52749  22452484.98449
  22795139.344 5    351508.902 5    269499.60547  22795138.12947
  20604163.352 7  -1123614.445 7   -859697.38348  20604160.51248
  24213771.023 4   -119705.102 4    -77152.56346  24213769.54746
  21464672.336 6   -535709.766 6   -408547.93849  21464673.28949
  20478033.930 7  -2541140.258 7  -1947055.16849  20478034.74249
  21956138.055 6   -756877.004 6   -580176.57448  21956135.84448
 20  5 16  0 34  3.0000000  0  8G04G08G14G16G21G26G27G31            -0.000490253
  21816343.344 6  -2330682.774 6  -1802054.25348  21816342.50848
  22451298.336 6  -3276775.816 6  -2462051.17249  22451299.68049
  22795238.266 5    352029.930 5    269905.59447  22795237.05147
  20603728.602 6  -1125900.012 6   -861478.34848  20603725.50848
  24213263.477 4   -122374.945 4    -79232.94946  24213261.36346
  21464435.898 6   -536951.480 6   -409515.50449  21464437.11349
  20477111.008 7  -2545989.805 7  -1950834.03949  20477111.67249
  21955834.086 6   -758473.766 6   -581420.80948  21955832.24248
 20  5 16  0 34  4.0000000  0  8G04G08G14G16G21G26G27G31            -0.000492088
  21815431.313 6  -2335475.969 6  -1805789.21548  21815430.29748
  22450113.445 6  -3283005.207 6  -2466905.24249  22450114.76249
  22795337.258 5    352550.363 5    270311.12547  22795336.18847
  20603293.508 6  -1128186.137 6   -863259.73848  20603290.45748
  24212755.273 4   -125045.145 4    -81313.62546  24212753.21946
  21464199.555 6   -538193.918 6   -410483.63349  21464200.63749
  20476188.758 7  -2550839.582 7  -1954613.08649  20476188.94949
  21955530.172 6   -760071.066 6   -582665.45348  21955528.44148
 20  5 16  0 34  5.0000000  0  8G04G08G14G16G21G26G27G31            -0.000493923
  21814518.922 6  -2340269.605 6  -1809524.51648  21814518.84848
  22448928.180 5  -3289235.262 5  -2471759.83249  22448929.20749
  22795436.234 5    353070.047 5    270716.07847  22795434.91847
  20602858.250 6  -1130472.938 6   -865041.66048  20602855.19548
  24212247.008 4   -127715.922 4    -83394.75446  24212245.09446
  21463963.117 6   -539437.281 6   -411452.49249  21463964.03149
  20475265.461 7  -2555689.750 7  -1958392.43049  20475265.84049
  21955226.094 6   -761669.098 6   -583910.67648  21955224.14548
 20  5 16  0 34  6.0000000  0  8G04G08G14G16G21G26G27G31            -0.000495760
  21813606.586 6  -2345063.598 6  -1813260.08648  21813605.97748
  22447741.906 6  -3295465.852 6  -2476614.84049  22447743.50049
  22795534.680 5    353589.063 5    271120.50447  22795533.59047
  20602422.992 6  -1132760.379 6   -866824.07848  20602419.92648
  24211739.328 4   -130387.129 4    -85476.21546  24211736.75846
  21463725.797 6   -540681.461 6   -412421.98449  21463726.94949
  20474342.391 7  -2560540.160 7  -1962171.97749  20474342.72349
  21954921.844 6   -763267.734 6   -585156.37148  21954920.07848
 20  5 16  0 34  7.0000000  0  8G04G08G14G16G21G26G27G31            -0.000497597
  21812694.313 6  -2349857.895 6  -1816995.90648  21812693.60948
  22446557.008 6  -3301697.016 6  -2481470.28549  22446557.57049
  22795633.188 5    354107.461 5    271524.44547  22795632.34847
  20601987.289 6  -1135048.402 6   -868606.95748  20601984.64848
  24211230.344 4   -133058.803 4    -87558.03346  24211228.12146
  21463488.867 6   -541926.418 6   -413392.07849  21463490.60549
  20473419.266 7  -2565390.848 7  -1965951.73449  20473419.68449
  21954617.773 6   -764866.941 6   -586402.50848  21954615.59848
 20  5 16  0 34  8.0000000  0  8G04G08G14G16G21G26G27G31            -0.000499435
  21811781.984 6  -2354652.570 6  -1820732.02048  21811781.46548
  22445370.484 6  -3307928.793 6  -2486326.21549  22445371.48849
  22795731.438 5    354625.195 5    271927.87547  22795731.07447
  20601552.016 6  -1137337.094 6   -870390.35248  20601549.30148
  24210721.602 4   -135730.852 4    -89640.14847  24210720.07447
  21463251.820 6   -543172.250 6   -414362.85949  21463253.05549
  20472496.055 7  -2570241.879 7  -1969731.75849  20472496.51649
  21954313.102 6   -766466.813 6   -587649.15648  21954311.60548
 20  5 16  0 34  9.0000000  0  8G04G08G14G16G21G26G27G31            -0.000501272
  21810869.633 6  -2359447.621 6  -1824468.42648  21810868.95348
  22444184.281 6  -3314161.121 6  -2491182.57849  22444185.67649
  22795829.641 5    355142.262 5    272330.78147  22795829.11347
  20601116.117 6  -1139626.371 6   -872174.20348  20601113.39148
  24210213.031 4   -138403.441 4    -91722.69146  24210211.62546
  21463014.453 6   -544418.852 6   -415334.23849  21463015.96549
  20471572.984 7  -2575093.125 7  -1973511.95349  20471573.19549
  21954008.727 6   -768067.293 6   -588896.28548  21954006.67648
 20  5 16  0 34  9.9990000  0  8G04G08G14G16G21G26G27G31             0.000496889
  21809957.862 6  -2364238.207 6  -1828201.35248  21809957.37848
  22442999.605 6  -3320387.828 6  -2496034.55549  22443000.92149
  22795928.315 5    355658.137 5    272732.75847  22795927.58947
  20600680.636 6  -1141914.016 6   -873956.78948  20600678.04248
  24209704.925 4   -141073.777 4    -93803.47346  24209703.35546
  21462777.394 6   -545665.070 6   -416305.31349  21462778.76549
  20470650.573 7  -2579939.887 7  -1977288.64549  20470651.00749
  21953704.237 6   -769666.801 6   -590142.65648  21953702.27248
 20  5 16  0 34 10.9990000  0  8G04G08G14G16G21G26G27G31             0.000495050
  21809045.011 6  -2369034.051 6  -1831938.37148  21809044.64748
  22441813.612 6  -3326621.438 6  -2500891.91449  22441814.43349
  22796025.940 5    356173.824 5    273134.59047  22796025.40147
  20600244.956 6  -1144204.633 6   -875741.68048  20600242.45648
  24209195.308 4   -143747.332 4    -95886.75046  24209194.57746
  21462539.909 6   -546913.422 6   -417278.06349  21462541.32749
  20469727.534 7  -2584791.824 7  -1981069.37549  20469727.70649
  21953399.237 6   -771268.605 6   -591390.81648  21953397.56548
 20  5 16  0 34 11.9990000  0  8G04G08G14G16G21G26G27G31             0.000493212
  21808132.667 6  -2373830.074 6  -1835675.52748  21808131.83548
  22440627.198 6  -3332855.488 6  -2505749.62149  22440628.14449
  22796124.300 5    356688.953 5    273535.98447  22796123.37447
  20599808.714 6  -1146495.738 6   -877526.96148  20599806.48348
  24208686.605 4   -146421.199 4    -97970.27746  24208685.71046
  21462302.183 6   -548162.484 6   -418251.35549  21462303.41749
  20468804.112 7  -2589643.934 7  -1984850.24249  20468804.60149
  21953094.808 6   -772870.887 6   -592639.35248  21953092.52648
 20  5 16  0 34 12.9990000  0  8G04G08G14G16G21G26G27G31             0.000491371
  21807220.456 6  -2378626.469 6  -1839412.97748  21807219.29248
  22439440.815 6  -3339090.133 6  -2510607.78549  22439441.89449
  22796222.034 5    357203.469 5    273936.91047  22796221.56247
  20599372.862 6  -1148787.488 6   -879312.73848  20599369.96048
  24208177.706 4   -149095.535 4   -100054.17246  24208176.96046
  21462064.300 6   -549412.367 6   -419225.28949  21462065.75349
  20467880.698 7  -2594496.344 7  -1988631.33649  20467881.38249
  21952789.784 6   -774473.813 6   -593888.38348  21952787.56548
 20  5 16  0 34 13.9990000  0  8G04G08G14G16G21G26G27G31             0.000489531
  21806307.112 6  -2383423.258 6  -1843150.73448  21806306.29648
  22438254.144 6  -3345325.379 6  -2515466.41849  22438255.54649
  22796320.042 5    357717.266 5    274337.26647  22796319.14447
  20598936.730 6  -1151079.867 6   -881099.01248  20598933.84348
  24207668.675 4   -151770.340 4   -102138.43046  24207668.02646
  21461826.253 6   -550663.074 6   -420199.87149  21461827.90549
  20466957.214 7  -2599349.051 7  -1992412.67249  20466957.56549
  21952484.511 6   -776077.371 6   -595137.91048  21952482.36648
 20  5 16  0 34 14.9990000  0  8G04G08G14G16G21G26G27G31             0.000487688
  21805394.331 6  -2388220.410 6  -1846888.78148  21805393.93748
  22437067.503 5  -3351561.254 5  -2520325.54349  22437069.11249
  22796417.565 5    358230.418 5    274737.12147  22796416.98347
  20598500.370 6  -1153372.883 6   -882885.77348  20598497.50748
  24207159.659 4   -154445.660 4   -104223.10246  24207159.09746
  21461587.839 6   -551914.664 6   -421175.13349  21461589.51549
  20466033.862 7  -2604202.070 7  -1996194.23849  20466034.35149
  21952179.347 6   -777681.578 6   -596387.94148  21952177.14448
 20  5 16  0 34 15.9990000  0  8G04G08G14G16G21G26G27G31             0.000485846
  21804481.347 6  -2393017.953 6  -1850627.12148  21804480.51148
  22435880.925 5  -3357797.723 5  -2525185.12549  22435881.96449
  22796515.144 5    358742.836 5    275136.40647  22796514.47647
  20598064.011 6  -1155666.566 6   -884673.06348  20598061.03048
  24206650.636 4   -157121.441 4   -106308.12146  24206650.06246
  21461349.894 6   -553167.098 6   -422151.05549  21461351.24149
  20465110.120 7  -2609055.418 7  -1999976.07049  20465110.58149
  21951874.019 6   -779286.426 6   -597638.47748  21951871.90948
 20  5 16  0 34 16.9990000  0  8G04G08G14G16G21G26G27G31             0.000484003
  21803568.605 6  -2397815.879 6  -1854365.76648  21803567.98748
  22434693.565 5  -3364034.797 5  -2530045.18449  22434695.22249
  22796612.183 5    359254.582 5    275535.16847  22796611.99547
  20597627.448 6  -1157960.902 6   -886460.85548  20597624.66748
  24206141.589 4   -159797.742 4   -108393.55546  24206140.58146
  21461111.323 6   -554420.383 6   -423127.64549  21461112.60149
  20464186.667 7  -2613909.098 7  -2003758.16049  20464186.82349
  21951568.339 6   -780891.953 6   -598889.53548  21951566.35548
 20  5 16  0 34 17.9990000  0  8G04G08G14G16G21G26G27G31             0.000482161
  21802655.409 6  -2402614.172 6  -1858104.69548  21802654.32348
  22433507.464 6  -3370272.488 6  -2534905.71949  22433508.17949
  22796710.073 5    359765.660 5    275933.41047  22796708.97247
  20597190.753 6  -1160255.906 6   -888249.16448  20597187.98048
  24205632.292 4   -162474.469 4   -110479.31647  24205631.02647
  21460872.183 6   -555674.504 6   -424104.88749  21460874.07349
  20463262.878 7  -2618763.070 7  -2007540.47749  20463263.33549
  21951262.190 6   -782498.094 6   -600141.07448  21951260.28848
 20  5 16  0 34 18.9990000  0  8G04G08G14G16G21G26G27G31             0.000480316
  21801742.815 6  -2407412.863 6  -1861843.93848  21801741.47248
  22432319.933 5  -3376510.750 5  -2539766.70349  22432321.19849
  22796806.839 5    360276.051 5    276331.10947  22796806.25347
  20596753.589 6  -1162551.496 6   -890037.93848  20596750.94048
  24205122.659 4   -165151.676 4   -112565.46147  24205121.56947
  21460633.722 6   -556929.469 6   -425082.77749  21460635.37049
  20462339.464 7  -2623617.344 7  -2011323.02749  20462339.62449
  21950956.855 6   -784104.891 6   -601393.12948  21950955.06948
 20  5 16  0 34 19.9990000  0  8G04G08G14G16G21G26G27G31             0.000478472
  21800829.276 6  -2412211.801 6  -1865583.36748  21800828.18748
  22431132.425 5  -3382749.508 5  -2544628.07049  22431134.10549
  22796903.831 5    360785.902 5    276728.39147  22796903.17547
  20596316.862 6  -1164847.664 6   -891827.16048  20596314.05048
  24204613.425 4   -167829.246 4   -114651.87546  24204612.18746
  21460394.651 6   -558185.184 6   -426061.25849  21460396.38249
  20461415.401 7  -2628471.836 7  -2015105.75049  20461415.72649
  21950650.956 6   -785712.211 6   -602645.58648  21950648.73048
 20  5 16  0 34 20.9990000  0  8G04G08G14G16G21G26G27G31             0.000476627
  21799915.948 6  -2417011.051 6  -1869323.04348  21799915.02248
  22429945.355 6  -3388988.855 6  -2549489.90249  22429946.58549
  22797000.464 5    361295.121 5    277125.18847  22796999.87047
  20595879.987 6  -1167144.410 6   -893616.83648  20595876.95248
  24204103.675 4   -170507.289 4   -116738.66046  24204102.69446
  21460155.683 6   -559441.688 6   -427040.35249  21460157.29249
  20460491.792 7  -2633326.563 7  -2018888.65649  20460492.17149
  21950344.886 6   -787320.137 6   -603898.51248  21950343.40548
 20  5 16  0 34 21.9990000  0  8G04G08G14G16G21G26G27G31             0.000474783
  21799002.605 6  -2421810.750 6  -1873063.07048  21799001.74948
  22428758.050 6  -3395228.855 6  -2554352.24249  22428759.03849
  22797097.292 5    361803.551 5    277521.36747  22797096.68747
  20595442.815 6  -1169441.859 6   -895407.05548  20595440.08148
  24203594.081 4   -173185.816 4   -118825.82846  24203592.62446
  21459916.542 6   -560699.082 6   -428020.14149  21459918.13249
  20459567.894 7  -2638181.684 7  -2022671.86749  20459567.98349
  21950038.800 6   -788928.734 6   -605151.96548  21950036.67148
 20  5 16  0 34 22.9990000  0  8G04G08G14G16G21G26G27G31             0.000472937
  21798089.089 6  -2426610.891 6  -1876803.44148  21798087.96848
  22427570.011 6  -3401469.492 6  -2559215.07849  22427571.56249
  22797194.276 5    362311.270 5    277916.97747  22797193.39047
  20595005.269 6  -1171740.027 6   -897197.83248  20595002.23748
  24203084.175 4   -175864.914 4   -120913.43446  24203082.93346
  21459677.230 6   -561957.426 6   -429000.66849  21459678.35849
  20458643.737 7  -2643037.184 7  -2026455.37949  20458644.21849
  21949732.550 6   -790538.066 6   -606405.99248  21949730.49948
 20  5 16  0 34 23.9990000  0  8G04G08G14G16G21G26G27G31             0.000471088
  21797175.511 6  -2431411.313 6  -1880544.02748  21797174.54248
  22426382.995 6  -3407710.715 6  -2564078.37149  22426384.29249
  22797290.487 5    362818.387 5    278312.13747  22797289.92547
  20594567.659 6  -1174038.781 6   -898989.06648  20594565.17148
  24202574.355 4   -178544.430 4   -123001.35546  24202573.57346
  21459437.409 6   -563216.496 6   -429981.76249  21459438.73049
  20457719.573 7  -2647892.898 7  -2030239.05549  20457720.08149
  21949426.167 6   -792147.949 6   -607660.44548  21949424.23348
 20  5 16  0 34 24.9990000  0  8G04G08G14G16G21G26G27G31             0.000469242
  21796262.050 6  -2436212.098 6  -1884284.89848  21796261.05048
  22425194.964 5  -3413952.500 5  -2568942.09849  22425196.31249
  22797387.706 5    363324.828 5    278706.76247  22797386.51147
  20594130.261 6  -1176338.133 6   -900780.77348  20594127.44848
  24202064.440 4   -181224.371 4   -125089.61346  24202063.07746
  21459197.737 6   -564476.398 6   -430963.50449  21459198.94449
  20456795.839 7  -2652748.898 7  -2034022.94549  20456795.75349
  21949119.597 6   -793758.445 6   -608915.37548  21949118.13248
 20  5 16  0 34 25.9990000  0  8G04G08G14G16G21G26G27G31             0.000467394
  21795348.284 6  -2441013.320 6  -1888026.11348  21795347.73348
  22424006.612 5  -3420194.918 5  -2573806.32049  22424008.30449
  22797483.495 5    363830.535 5    279100.82047  22797482.34347
  20593692.565 6  -1178638.203 6   -902573.03548  20593689.75348
  24201554.448 4   -183904.871 4   -127178.32846  24201552.82746
  21458957.644 6   -565737.219 6   -431945.96149  21458959.35149
  20455871.690 7  -2657605.266 7  -2037807.11749  20455871.65549
  21948813.401 6   -795369.660 6   -610170.86748  21948811.18348
 20  5 16  0 34 26.9990000  0  8G04G08G14G16G21G26G27G31             0.000465546
  21794434.347 6  -2445814.863 6  -1891767.57048  21794433.84348
  22422818.706 5  -3426437.918 5  -2578670.99249  22422820.24949
  22797579.636 5    364335.637 5    279494.40647  22797578.42147
  20593254.651 7  -1180938.879 7   -904365.76648  20593252.03448
  24201044.097 4   -186585.758 4   -129267.33646  24201042.93346
  21458717.870 6   -566998.824 6   -432929.03149  21458719.09349
  20454947.480 7  -2662461.898 7  -2041591.50849  20454947.58549
  21948506.565 6   -796981.449 6   -611426.80948  21948504.93348
 20  5 16  0 34 27.9990000  0  8G04G08G14G16G21G26G27G31             0.000463697
  21793520.714 6  -2450616.824 6  -1895509.35948  21793519.91348
  22421630.308 5  -3432681.539 5  -2583536.14849  22421631.86649
  22797675.081 5    364839.996 5    279887.41047  22797674.58547
  20592816.800 6  -1183240.223 6   -906159.02348  20592814.27648
  24200533.667 4   -189267.191 4   -131356.75846  24200532.85146
  21458477.800 6   -568261.305 6   -433912.78549  21458479.21849
  20454023.386 7  -2667318.887 7  -2045376.18049  20454023.39749
  21948200.011 6   -798593.902 6   -612683.26648  21948197.38648
 20  5 16  0 34 28.9990000  0  8G04G08G14G16G21G26G27G31             0.000461847
  21792606.667 6  -2455419.055 6  -1899251.35948  21792606.26548
  22420442.378 5  -3438925.676 5  -2588401.71149  22420443.90949
  22797771.526 5    365343.762 5    280279.95747  22797770.39447
  20592378.737 6  -1185542.117 6   -907952.70748  20592375.63248
  24200023.776 4   -191948.996 4   -133446.47346  24200022.45246
  21458237.112 6   -569524.570 6   -434897.14549  21458238.61249
  20453099.089 7  -2672176.078 7  -2049161.00049  20453099.39449
  21947892.839 6   -800206.934 6   -613940.17648  21947890.98048
 20  5 16  0 34 29.9990000  0  8G04G08G14G16G21G26G27G31             0.000459997
  21791692.784 6  -2460221.684 6  -1902993.66448  21791692.29648
  22419253.995 5  -3445170.426 5  -2593267.73849  22419255.46049
  22797866.831 5    365846.844 5    280671.96147  22797865.94047
  20591940.675 6  -1187844.676 6   -909746.90648  20591937.76148
  24199513.714 5   -194631.305 5   -135536.59446  24199511.96446
  21457996.917 6   -570788.645 6   -435882.14549  21457998.19449
  20452174.480 7  -2677033.613 7  -2052946.09449  20452174.87449
  21947585.855 6   -801820.602 6   -615197.57848  21947583.51948
 20  5 16  0 34 30.9990000  0  8G04G08G14G16G21G26G27G31             0.000458147
  21790778.815 6  -2465024.691 6  -1906736.27048  21790778.25348
  22418065.855 5  -3451415.801 5  -2598134.27049  22418066.86649
  22797962.792 5    366349.219 5    281063.42247  22797961.65547
  20591502.589 6  -1190147.891 6   -911541.62548  20591499.63248
  24199002.464 5   -197314.082 5   -137627.07046  24199001.57746
  21457755.808 6   -572053.629 6   -436867.84449  21457757.14749
  20451250.222 7  -2681891.461 7  -2056731.43049  20451250.41749
  21947278.417 6   -803434.938 6   -616455.50048  21947276.15548
 20  5 16  0 34 31.9990000  0  8G04G08G14G16G21G26G27G31             0.000456295
  21789865.464 6  -2469828.094 6  -1910479.18048  21789864.08948
  22416877.550 5  -3457661.750 5  -2603001.24249  22416878.60849
  22798057.573 5    366850.938 5    281454.36347  22798056.94847
  20591064.253 6  -1192451.762 6   -913336.84448  20591061.24948
  24198491.722 5   -199997.340 5   -139717.91746  24198490.69046
  21457515.261 6   -573319.430 6   -437854.18449  21457516.33149
  20450325.573 7  -2686749.605 7  -2060516.99649  20450325.91349
  21946970.901 6   -805049.914 6   -617713.92248  21946968.83148
 20  5 16  0 34 32.9990000  0  8G04G08G14G16G21G26G27G31             0.000454443
  21788950.987 6  -2474631.855 6  -1914222.37548  21788949.96048
  22415688.597 6  -3463908.316 6  -2607868.69949  22415689.86249
  22798153.464 5    367351.961 5    281844.77047  22798152.49547
  20590625.245 6  -1194756.277 6   -915132.57448  20590622.99948
  24197981.206 4   -202681.133 4   -141809.19146  24197979.95646
  21457273.925 6   -574586.090 6   -438841.19149  21457275.30049
  20449400.878 7  -2691608.086 7  -2064302.82849  20449401.24549
  21946663.753 6   -806665.535 6   -618972.84848  21946661.79248
 20  5 16  0 34 33.9990000  0  8G04G08G14G16G21G26G27G31             0.000452591
  21788036.456 6  -2479436.016 6  -1917965.87548  21788035.98348
  22414499.948 6  -3470155.480 6  -2612736.62149  22414500.87049
  22798248.870 5    367852.285 5    282234.62547  22798247.22247
  20590186.769 6  -1197061.445 6   -916928.81648  20590184.10848
  24197470.315 4   -205365.371 4   -143900.80946  24197469.23046
  21457033.058 6   -575853.613 6   -439828.87549  21457033.87849
  20448476.636 7  -2696466.879 7  -2068088.89549  20448476.34749
  21946355.651 6   -808281.809 6   -620232.28548  21946353.78448
 20  5 16  0 34 34.9990000  0  8G04G08G14G16G21G26G27G31             0.000450739
  21787122.526 6  -2484240.551 6  -1921709.67248  21787121.52248
  22413311.089 6  -3476403.289 6  -2617605.04349  22413311.92549
  22798344.050 5    368351.910 5    282623.94147  22798342.61247
  20589747.769 6  -1199367.273 6   -918725.56348  20589745.06248
  24196959.151 4   -208050.113 4   -145992.81346  24196958.33546
  21456791.698 6   -577122.004 6   -440817.23049  21456792.75749
  20447552.026 7  -2701325.996 7  -2071875.22349  20447552.27649
  21946048.167 6   -809898.719 6   -621492.22348  21946046.38648
 20  5 16  0 34 35.9990000  0  8G04G08G14G16G21G26G27G31             0.000448885
  21786208.362 6  -2489045.457 6  -1925453.75448  21786207.25348
  22412121.675 6  -3482651.672 6  -2622473.90649  22412123.00349
  22798439.284 5    368850.855 5    283012.73047  22798437.41347
  20589308.815 6  -1201673.742 6   -920522.81348  20589306.08148
  24196448.722 4   -210735.301 4   -148085.17646  24196447.89446
  21456549.995 6   -578391.199 6   -441806.21149  21456551.64049
  20446627.276 7  -2706185.391 7  -2075661.76649  20446627.33949
  21945740.565 6   -811516.281 6   -622752.65648  21945738.55048
 20  5 16  0 34 36.9990000  0  8G04G08G14G16G21G26G27G31             0.000447031
  21785293.769 6  -2493850.750 6  -1929198.14148  21785293.05048
  22410932.440 6  -3488900.680 6  -2627343.27049  22410933.91349
  22798534.065 5    369349.109 5    283400.97347  22798532.19447
  20588870.073 6  -1203980.875 6   -922320.57848  20588867.37048
  24195936.948 4   -213421.008 4   -150177.93846  24195936.51546
  21456308.323 6   -579661.313 6   -442795.91049  21456309.39449
  20445702.245 7  -2711045.152 7  -2079448.59449  20445702.51949
  21945432.472 6   -813134.508 6   -624013.61748  21945430.52248
 20  5 16  0 34 37.9990000  0  8G04G08G14G16G21G26G27G31             0.000445175
  21784379.558 6  -2498656.391 6  -1932942.79348  21784378.35148
  22409743.370 6  -3495150.230 6  -2632213.05149  22409744.45249
  22798628.784 5    369846.730 5    283788.73047  22798627.05047
  20588430.831 6  -1206288.629 6   -924118.82448  20588427.63248
  24195426.378 4   -216107.160 4   -152271.02746  24195425.26546
  21456066.331 6   -580932.180 6   -443786.19549  21456067.81549
  20444777.573 7  -2715905.160 7  -2083235.61349  20444777.81249
  21945124.745 6   -814753.348 6   -625275.05148  21945122.60848
