     2.10           OBSERVATION DATA    Mixed(MIXED)        RINEX VERSION / TYPE
cnvtToRINEX 3.07.0  convertToRINEX OPR  19-May-20 12:30 UTC PGM / RUN BY / DATE 
----------------------------------------------------------- COMMENT             
98N0                                                        MARKER NAME         
98N0                                                        MARKER NUMBER       
GNSS Observer       Trimble                                 OBSERVER / AGENCY   
0220379195          TRIMBLE 5700        2.32                REC # / TYPE / VERS 
                    TRM39105.00                             ANT # / TYPE        
 -3050829.1388  4927927.9154  2653577.1648                  APPROX POSITION XYZ 
       -0.0460        0.0000        0.0000                  ANTENNA: DELTA H/E/N
     1     1     0                                          WAVELENGTH FACT L1/2
     4    C1    L1    L2    P2                              # / TYPES OF OBSERV 
  2020     5    16     0    18   49.0000000     GPS         TIME OF FIRST OBS   
  2020     5    16     1    34   37.0000000     GPS         TIME OF LAST OBS    
     0                                                      RCV CLOCK OFFS APPL 
    18                                                      LEAP SECONDS        
    11                                                      # OF SATELLITES     
   G03   582   582   582   582                              PRN / # OF OBS      
   G04  4549  4549  4549  4549                              PRN / # OF OBS      
   G08  4549  4549  4549  4549                              PRN / # OF OBS      
   G09  3498  3498  3498  3498                              PRN / # OF OBS      
   G11  2358  2358  2358  2358                              PRN / # OF OBS      
   G14  3068  3068  3068  3068                              PRN / # OF OBS      
   G16  4549  4549  4549  4549                              PRN / # OF OBS      
   G21  4488  4488  4488  4488                              PRN / # OF OBS      
   G26  4549  4549  4549  4549                              PRN / # OF OBS      
   G27  4549  4549  4549  4549                              PRN / # OF OBS      
   G31  4549  4549  4549  4549                              PRN / # OF OBS      
CARRIER PHASE MEASUREMENTS: PHASE SHIFTS REMOVED            COMMENT             
                                                            END OF HEADER       
 20  5 16  0 18 49.0000000  0  7G04G08G14G16G26G27G31                0.000182940
  22390074.83616   -210744.69116   -126469.14157  22390074.30957
  23256041.79715   -251786.22315   -106816.91058  23256042.57058
  22424278.94515     32851.71515     17118.24657  22424277.85257
  20723302.26616    -86074.63716    -45320.36758  20723299.62558
  21385544.68816    -32725.88316    -18027.69959  21385545.39159
  21065578.46916   -191819.32816   -107707.51259  21065579.50459
  21952756.95316    -54975.57016    -29393.14858  21952755.32058
 20  5 16  0 18 50.0000000  0  7G04G08G14G16G26G27G31                0.000181425
  22389172.188 6   -215486.410 6   -130163.98447  22389171.64847
  23254907.086 5   -257748.426 5   -111462.78148  23254908.08248
  22424426.445 5     33625.664 5     17721.32447  22424425.03947
  20722911.828 6    -88124.105 6    -46917.36348  20722909.40648
  21385389.414 6    -33539.754 6    -18661.87949  21385390.43049
  21064653.648 6   -196679.195 6   -111494.42249  21064654.66449
  21952505.141 6    -56300.414 6    -30425.49648  21952503.11748
 20  5 16  0 18 51.0000000  0  7G04G08G14G16G26G27G31                0.000179913
  22388270.063 6   -220227.285 6   -133858.18048  22388269.82848
  23253772.555 5   -263710.063 5   -116108.21549  23253773.66049
  22424573.781 6     34400.281 6     18324.91447  22424572.25047
  20722522.227 6    -90172.891 6    -48513.81648  20722519.68448
  21385234.125 6    -34353.180 6    -19295.71949  21385235.75049
  21063729.086 6   -201538.141 6   -115280.61749  21063729.89149
  21952253.063 6    -57624.652 6    -31457.37548  21952251.39548
 20  5 16  0 18 52.0000000  0  7G04G08G14G16G26G27G31                0.000178398
  22387368.055 6   -224967.430 6   -137551.80148  22387367.57048
  23252638.461 5   -269671.238 5   -120753.28949  23252639.74649
  22424721.031 5     35175.523 5     18928.99647  22424719.79747
  20722132.516 6    -92221.070 6    -50109.80148  20722129.57848
  21385079.805 6    -35166.211 6    -19929.25049  21385081.11749
  21062804.680 6   -206396.309 6   -119066.19949  21062805.49249
  21952001.555 6    -58948.379 6    -32488.85248  21951999.54348
 20  5 16  0 18 53.0000000  0  7G04G08G14G16G26G27G31                0.000176886
  22386466.492 6   -229706.715 6   -141244.74648  22386465.79748
  23251503.570 5   -275631.746 5   -125397.84049  23251505.33249
  22424868.922 5     35951.477 5     19533.63347  22424867.75447
  20721742.758 6    -94268.523 6    -51705.22348  20721740.09048
  21384925.094 6    -35978.758 6    -20562.41049  21384926.26649
  21061880.609 6   -211253.531 6   -122851.05149  21061880.77049
  21951749.852 6    -60271.461 6    -33519.82448  21951747.91448
 20  5 16  0 18 54.0000000  0  7G04G08G14G16G26G27G31                0.000175373
  22385564.602 6   -234445.074 6   -144936.97748  22385563.90248
  23250369.836 5   -281591.625 5   -130041.90649  23250371.29349
  22425016.563 5     36728.188 5     20138.86347  22425015.66047
  20721353.211 6    -96315.215 6    -53300.04348  20721350.94148
  21384770.781 6    -36790.715 6    -21195.10249  21384771.68449
  21060956.414 7   -216109.777 7   -126635.14549  21060956.86749
  21951498.281 6    -61593.832 6    -34550.25048  21951496.19548
 20  5 16  0 18 55.0000000  0  7G04G08G14G16G26G27G31                0.000173861
  22384663.258 6   -239182.520 6   -148628.49248  22384662.65648
  23249236.023 5   -287550.762 5   -134685.38349  23249237.35249
  22425164.617 5     37505.711 5     20744.72747  22425163.25847
  20720964.203 6    -98361.086 6    -54894.23048  20720961.33248
  21384616.344 6    -37602.137 6    -21827.38349  21384617.70749
  21060032.570 7   -220965.012 7   -130418.44149  21060033.13349
  21951246.328 6    -62915.500 6    -35580.12548  21951244.43448
 20  5 16  0 18 56.0000000  0  7G04G08G14G16G26G27G31                0.000172348
  22383761.711 6   -243919.012 6   -152319.27048  22383761.44948
  23248102.063 5   -293509.195 5   -139328.32049  23248103.29349
  22425313.266 5     38284.035 5     21351.21147  22425311.57047
  20720574.844 6   -100406.168 6    -56487.80148  20720572.12948
  21384462.313 6    -38412.934 6    -22459.17249  21384463.35249
  21059108.813 7   -225819.246 7   -134200.96149  21059109.26249
  21950995.031 6    -64236.434 6    -36609.42248  21950992.93048
 20  5 16  0 18 57.0000000  0  7G04G08G14G16G26G27G31                0.000170835
  22382860.539 6   -248654.496 6   -156009.25048  22382860.37148
  23246968.125 5   -299466.891 5   -143970.67649  23246969.31349
  22425461.219 5     39063.230 5     21958.36747  22425459.95347
  20720185.695 6   -102450.363 6    -58080.68448  20720183.37148
  21384307.844 6    -39223.090 6    -23090.46149  21384309.04749
  21058185.164 7   -230672.379 7   -137982.62549  21058185.80549
  21950743.914 6    -65556.605 6    -37638.12548  21950741.94548
 20  5 16  0 18 58.0000000  0  7G04G08G14G16G26G27G31                0.000169325
  22381959.695 6   -253388.996 6   -159698.46948  22381959.00048
  23245834.719 5   -305423.781 5   -148612.41049  23245835.75849
  22425609.656 5     39843.262 5     22566.18047  22425608.49247
  20719797.094 6   -104493.695 6    -59672.89148  20719794.58648
  21384154.133 6    -40032.602 6    -23721.25449  21384155.05549
  21057261.695 6   -235524.469 6   -141763.47749  21057262.32849
  21950493.273 6    -66875.969 6    -38666.20348  21950491.22748
 20  5 16  0 18 59.0000000  0  7G04G08G14G16G26G27G31                0.000167814
  22381059.289 6   -258122.461 6   -163386.88348  22381058.41048
  23244701.148 5   -311379.941 5   -153253.56649  23244702.61349
  22425758.328 5     40624.188 5     23174.68847  22425756.99647
  20719408.086 6   -106536.184 6    -61264.43848  20719405.44148
  21383999.828 6    -40841.453 6    -24351.52349  21384001.39149
  21056338.586 6   -240375.480 6   -145543.48849  21056339.29749
  21950241.867 6    -68194.535 6    -39693.66048  21950240.10948
 20  5 16  0 19  0.0000000  0  7G04G08G14G16G26G27G31                0.000166304
  22380158.828 6   -262854.910 6   -167074.50448  22380157.60248
  23243568.414 5   -317335.305 5   -157894.11349  23243569.21549
  22425906.727 5     41405.969 5     23783.86747  22425905.82047
  20719019.906 6   -108577.758 6    -62855.28148  20719017.08248
  21383846.602 6    -41649.637 6    -24981.27749  21383847.46549
  21055415.461 6   -245225.395 6   -149322.64149  21055415.99249
  21949991.156 6    -69512.305 6    -40720.50048  21949989.03948
 20  5 16  0 19  1.0000000  0  7G04G08G14G16G26G27G31                0.000164793
  22379257.938 6   -267586.266 6   -170761.27348  22379257.40248
  23242435.148 5   -323289.809 5   -162533.98049  23242435.96149
  22426056.133 5     42188.730 5     24393.81347  22426054.71147
  20718631.336 6   -110618.406 6    -64445.39548  20718628.76648
  21383692.344 6    -42457.086 6    -25610.46949  21383693.77349
  21054492.898 6   -250074.137 6   -153100.88349  21054493.70349
  21949740.758 6    -70829.180 6    -41746.63748  21949738.64548
 20  5 16  0 19  2.0000000  0  7G04G08G14G16G26G27G31                0.000163282
  22378357.992 6   -272316.570 6   -174447.22347  22378357.09847
  23241301.906 5   -329243.516 5   -167173.23449  23241303.36749
  22426204.758 5     42972.410 5     25004.47747  22426203.86347
  20718243.094 6   -112658.137 6    -66034.79748  20718240.71148
  21383539.148 6    -43263.840 6    -26239.10549  21383540.47749
  21053570.430 6   -254921.766 6   -156878.25849  21053571.03149
  21949490.055 6    -72145.242 6    -42772.14148  21949488.03948
 20  5 16  0 19  3.0000000  0  7G04G08G14G16G26G27G31                0.000161774
  22377458.047 6   -277045.813 6   -178132.35247  22377456.82047
  23240169.352 5   -335196.422 5   -171811.85949  23240170.51249
  22426354.102 5     43756.996 5     25615.84047  22426352.97347
  20717855.273 6   -114696.918 6    -67623.45748  20717852.44948
  21383385.422 6    -44069.879 6    -26867.19149  21383386.93849
  21052648.266 6   -259768.266 6   -160654.75049  21052648.91849
  21949239.836 6    -73460.457 6    -43796.98048  21949237.89848
 20  5 16  0 19  4.0000000  0  7G04G08G14G16G26G27G31                0.000160265
  22376558.563 6   -281773.930 6   -181816.60548  22376557.42248
  23239036.531 5   -341148.449 5   -176449.80549  23239037.45349
  22426503.602 5     44542.539 5     26227.94947  22426502.83247
  20717467.789 6   -116734.750 6    -69211.37948  20717464.95348
  21383232.266 6    -44875.156 6    -27494.67649  21383233.43849
  21051726.320 7   -264613.590 7   -164430.33249  21051726.63349
  21948989.719 6    -74774.770 6    -44821.12548  21948987.77748
 20  5 16  0 19  5.0000000  0  7G04G08G14G16G26G27G31                0.000158756
  22375659.031 6   -286500.930 6   -185499.97748  22375657.91048
  23237904.234 5   -347099.598 5   -181087.06649  23237905.04749
  22426653.094 5     45329.094 5     26840.84447  22426652.11747
  20717080.000 6   -118771.570 6    -70798.50848  20717077.41048
  21383079.234 6    -45679.660 6    -28121.56349  21383080.88349
  21050804.500 6   -269457.691 6   -168204.95749  21050805.10249
  21948740.039 6    -76088.172 6    -45844.55548  21948738.05948
 20  5 16  0 19  6.0000000  0  7G04G08G14G16G26G27G31                0.000157248
  22374759.617 6   -291226.832 6   -189182.50048  22374758.42248
  23236771.555 5   -353049.867 5   -185723.64148  23236772.73448
  22426803.180 5     46116.609 5     27454.48447  22426801.66047
  20716692.609 6   -120807.418 6    -72384.89148  20716690.07048
  21382926.211 6    -46483.414 6    -28747.87149  21382927.80149
  21049882.914 6   -274300.633 6   -171978.68049  21049883.07449
  21948490.125 6    -77400.680 6    -46867.28548  21948488.50848
 20  5 16  0 19  7.0000000  0  7G04G08G14G16G26G27G31                0.000155739
  22373860.281 6   -295951.660 6   -192864.18847  22373859.46947
  23235639.539 5   -358999.316 5   -190359.57849  23235640.46549
  22426953.727 5     46905.027 5     28068.83647  22426951.87147
  20716305.242 6   -122842.367 6    -73970.56648  20716302.40648
  21382773.625 6    -47286.500 6    -29373.64549  21382774.94549
  21048961.641 6   -279142.461 6   -175751.53549  21048962.07449
  21948240.539 6    -78712.352 6    -47889.37948  21948238.55548
 20  5 16  0 19  8.0000000  0  7G04G08G14G16G26G27G31                0.000154232
  22372961.719 6   -300675.398 6   -196545.02748  22372960.88348
  23234507.945 5   -364947.852 5   -194994.79749  23234508.93049
  22427103.313 5     47694.418 5     28683.94547  22427101.86347
  20715918.570 6   -124876.332 6    -75555.48048  20715915.48448
  21382620.930 6    -48088.781 6    -29998.80549  21382622.01649
  21048040.484 6   -283983.109 6   -179523.46949  21048040.97349
  21947991.039 6    -80023.145 6    -48910.77348  21947988.84448
 20  5 16  0 19  9.0000000  0  7G04G08G14G16G26G27G31                0.000152725
  22372062.898 6   -305397.988 6   -200224.96548  22372062.43048
  23233375.930 5   -370895.586 5   -199629.39849  23233377.04349
  22427253.789 5     48484.820 5     29299.84447  22427252.30547
  20715531.313 6   -126909.316 6    -77139.61748  20715528.66048
  21382468.398 6    -48890.328 6    -30623.39149  21382469.65649
  21047119.727 6   -288822.539 6   -183294.45749  21047120.24649
  21947741.977 6    -81333.008 6    -49931.44548  21947740.18048
 20  5 16  0 19 10.0000000  0  7G04G08G14G16G26G27G31                0.000151218
  22371164.352 6   -310119.465 6   -203904.03147  22371163.76247
  23232243.859 5   -376842.367 5   -204263.25048  23232245.20748
  22427404.758 5     49276.164 5     29916.46947  22427403.17247
  20715144.461 6   -128941.324 6    -78723.00848  20715142.02748
  21382315.570 6    -49691.105 6    -31247.37149  21382317.02349
  21046198.813 6   -293660.816 6   -187064.54349  21046199.03949
  21947492.516 6    -82642.000 6    -50951.43848  21947490.67248
 20  5 16  0 19 11.0000000  0  7G04G08G14G16G26G27G31                0.000149712
  22370266.242 6   -314839.832 6   -207582.24248  22370265.50048
  23231113.219 5   -382788.289 5   -208896.43449  23231113.82049
  22427555.445 5     50068.508 5     30533.88347  22427553.48847
  20714758.141 6   -130972.336 6    -80305.61748  20714755.60948
  21382163.773 6    -50491.105 6    -31870.75049  21382165.16449
  21045278.273 6   -298497.855 6   -190833.66849  21045278.68049
  21947243.633 6    -83950.066 6    -51970.71148  21947242.03148
 20  5 16  0 19 12.0000000  0  7G04G08G14G16G26G27G31                0.000148207
  22369368.109 6   -319559.082 6   -211259.58248  22369367.46148
  23229981.227 5   -388733.383 5   -213528.97349  23229982.56349
  22427706.406 5     50861.801 5     31152.03947  22427704.57047
  20714372.117 6   -133002.398 6    -81887.48048  20714369.19948
  21382011.945 6    -51290.363 6    -32493.54749  21382012.92649
  21044357.906 6   -303333.754 6   -194601.89849  21044358.30949
  21946994.953 6    -85257.238 6    -52989.28548  21946992.62548
 20  5 16  0 19 13.0000000  0  7G04G08G14G16G26G27G31                0.000146702
  22368470.227 6   -324277.250 6   -214936.07847  22368469.46547
  23228850.172 5   -394677.660 5   -218160.87549  23228851.64149
  22427857.383 5     51656.039 5     31770.91847  22427855.71947
  20713985.617 6   -135031.516 6    -83468.61348  20713982.93448
  21381859.500 6    -52088.906 6    -33115.79349  21381861.28149
  21043437.984 6   -308168.500 6   -198369.23449  21043438.28949
  21946746.336 6    -86563.555 6    -54007.19548  21946744.40248
 20  5 16  0 19 14.0000000  0  7G04G08G14G16G26G27G31                0.000145197
  22367572.828 6   -328994.230 6   -218611.65247  22367572.04347
  23227719.117 5   -400620.965 5   -222792.02049  23227720.54749
  22428009.125 5     52451.320 5     32390.62147  22428007.04747
  20713599.930 6   -137059.586 6    -85048.93048  20713597.35548
  21381707.930 6    -52886.613 6    -33737.38349  21381709.40249
  21042518.688 6   -313001.984 6   -202135.58649  21042518.55549
  21946498.211 6    -87868.922 6    -55024.37548  21946495.81348
 20  5 16  0 19 15.0000000  0  7G04G08G14G16G26G27G31                0.000143692
  22366675.492 6   -333710.285 6   -222286.50047  22366674.52747
  23226588.586 5   -406563.520 5   -227422.57849  23226589.64849
  22428160.102 5     53247.395 5     33010.94547  22428158.57047
  20713214.258 6   -139086.824 6    -86628.59448  20713211.42648
  21381555.969 6    -53683.715 6    -34358.50049  21381557.30949
  21041598.492 6   -317834.465 6   -205901.15249  21041598.97749
  21946249.781 6    -89173.531 6    -56040.94948  21946247.56348
 20  5 16  0 19 16.0000000  0  7G04G08G14G16G26G27G31                0.000142187
  22365777.914 6   -338425.242 6   -225960.48847  22365777.22747
  23225457.750 5   -412505.254 5   -232052.49649  23225458.84449
  22428312.008 5     54044.418 5     33632.00047  22428310.33647
  20712828.453 6   -141113.168 6    -88207.56348  20712825.96948
  21381404.586 6    -54480.098 6    -34979.05549  21381405.92649
  21040679.375 7   -322665.797 7   -209665.82849  21040679.76649
  21946001.727 6    -90477.301 6    -57056.87948  21945999.68048
 20  5 16  0 19 17.0000000  0  7G04G08G14G16G26G27G31                0.000140684
  22364881.102 6   -343139.125 6   -229633.64547  22364880.13347
  23224327.578 5   -418446.172 5   -236681.78549  23224328.75849
  22428463.617 5     54842.363 5     34253.78147  22428462.00447
  20712443.383 6   -143138.551 6    -89785.78148  20712440.66448
  21381253.289 6    -55275.793 6    -35599.08249  21381254.78949
  21039760.305 7   -327495.973 7   -213429.60249  21039760.35249
  21945753.914 6    -91780.219 6    -58072.14148  21945751.76248
 20  5 16  0 19 18.0000000  0  7G04G08G14G16G26G27G31                0.000139179
  22363983.977 6   -347851.906 6   -233305.94147  22363983.35547
  23223197.109 5   -424386.230 5   -241310.40449  23223198.62949
  22428615.469 6     55641.281 6     34876.31647  22428613.73847
  20712057.938 6   -145162.957 6    -91363.24248  20712055.27048
  21381101.922 6    -56070.715 6    -36218.50449  21381103.18449
  21038841.250 6   -332324.980 6   -217192.46949  21038841.88749
  21945506.133 6    -93082.215 6    -59086.68448  21945503.73848
 20  5 16  0 19 19.0000000  0  7G04G08G14G16G26G27G31                0.000137676
  22363087.820 6   -352563.602 6   -236977.38748  22363086.78548
  23222067.141 5   -430325.441 5   -245938.36349  23222068.00849
  22428767.852 5     56441.141 5     35499.58247  22428766.13747
  20711672.977 6   -147186.434 6    -92939.98048  20711670.52048
  21380950.758 6    -56864.922 6    -36837.36749  21380952.37949
  21037922.328 6   -337152.813 6   -220954.41049  21037923.27749
  21945258.672 6    -94383.363 6    -60100.57048  21945256.23848
 20  5 16  0 19 20.0000000  0  8G03G04G08G14G16G26G27G31             0.000136183
  24666648.16414    -23005.66014    -12979.21958  24666650.04758
  22362191.109 6   -357274.164 6   -240647.95748  22362190.45748
  23220937.117 5   -436263.754 5   -250565.62149  23220937.52749
  22428920.133 5     57241.957 5     36123.59847  22428918.48047
  20711288.039 6   -149208.941 6    -94515.95748  20711285.21548
  21380799.805 6    -57658.359 6    -37455.63349  21380801.39849
  21037003.625 6   -341979.484 6   -224715.46149  21037004.61749
  21945011.180 6    -95683.617 6    -61113.75448  21945008.94548
 20  5 16  0 19 21.0000000  0  8G03G04G08G14G16G26G27G31             0.000134680
  24666521.406 4    -23674.496 4    -13500.39148  24666523.35948
  22361294.648 6   -361983.707 6   -244317.73848  22361294.17648
  23219806.820 5   -442201.273 5   -255192.25449  23219808.10949
  22429072.680 5     58043.695 5     36748.33247  22429071.04347
  20710903.547 6   -151230.523 6    -96091.22348  20710900.60548
  21380649.063 6    -58451.090 6    -38073.34449  21380650.46949
  21036085.594 6   -346805.043 6   -228475.63749  21036086.32449
  21944763.719 6    -96983.047 6    -62126.29748  21944761.59448
 20  5 16  0 19 22.0000000  0  8G03G04G08G14G16G26G27G31             0.000133179
  24666393.664 4    -24342.637 4    -14021.02348  24666396.09448
  22360398.484 6   -366692.234 6   -247986.71948  22360397.94148
  23218677.172 5   -448138.047 5   -259818.31349  23218677.98449
  22429225.453 5     58846.293 5     37373.72747  22429223.74247
  20710518.703 6   -153251.250 6    -97665.81348  20710516.06648
  21380498.289 6    -59243.207 6    -38690.57049  21380499.74649
  21035167.656 6   -351629.527 6   -232234.96949  21035168.07049
  21944516.258 6    -98281.680 6    -63138.22348  21944514.21548
 20  5 16  0 19 23.0000000  0  8G03G04G08G14G16G26G27G31             0.000131678
  24666266.867 4    -25010.047 4    -14541.08248  24666269.03948
  22359502.719 6   -371399.699 6   -251654.87548  22359502.31648
  23217547.398 5   -454074.016 5   -264443.74249  23217548.39849
  22429377.984 5     59649.766 5     37999.81347  22429376.68447
  20710134.617 6   -155271.059 6    -99239.69948  20710131.69548
  21380347.984 6    -60034.617 6    -39307.25849  21380349.36349
  21034249.633 6   -356452.887 6   -235993.43449  21034250.39549
  21944269.844 6    -99579.465 6    -64149.48048  21944267.77048
 20  5 16  0 19 24.0000000  0  8G03G04G08G14G16G26G27G31             0.000130177
  24666140.258 4    -25676.730 4    -15060.57448  24666141.96548
  22358607.227 6   -376106.094 6   -255322.19548  22358606.80948
  23216418.117 5   -460009.168 5   -269068.53549  23216419.25049
  22429531.359 5     60454.234 5     38626.66847  22429529.76647
  20709750.172 6   -157289.949 6   -100812.85948  20709747.32848
  21380197.266 6    -60825.309 6    -39923.37949  21380198.70349
  21033332.172 6   -361275.109 6   -239751.00849  21033332.77349
  21944023.070 6   -100876.418 6    -65160.09848  21944020.82048
 20  5 16  0 19 25.0000000  0  8G03G04G08G14G16G26G27G31             0.000128675
  24666013.445 4    -26342.629 4    -15579.45748  24666015.59448
  22357711.938 6   -380811.418 6   -258988.68447  22357711.19547
  23215289.055 5   -465943.480 5   -273692.67249  23215289.60249
  22429684.344 5     61259.613 5     39254.22347  22429683.10547
  20709366.086 6   -159307.883 6   -102385.27748  20709363.60548
  21380046.555 6    -61615.289 6    -40538.95749  21380048.32849
  21032414.555 6   -366096.180 6   -243507.69149  21032414.96949
  21943776.016 6   -102172.496 6    -66170.02748  21943774.24648
 20  5 16  0 19 26.0000000  0  8G03G04G08G14G16G26G27G31             0.000127174
  24665886.430 4    -27007.805 4    -16097.77748  24665888.83648
  22356816.656 6   -385515.711 6   -262654.36748  22356816.22348
  23214159.672 5   -471876.984 5   -278316.18049  23214160.61749
  22429837.875 5     62065.848 5     39882.45747  22429836.43447
  20708982.320 6   -161324.941 6   -103957.00848  20708979.79348
  21379896.359 6    -62404.570 6    -41153.98449  21379898.00049
  21031497.406 6   -370916.145 6   -247263.50849  21031497.90249
  21943529.891 6   -103467.777 6    -67179.33248  21943527.57048
 20  5 16  0 19 27.0000000  0  8G03G04G08G14G16G26G27G31             0.000125675
  24665760.281 4    -27672.241 4    -16615.52448  24665762.43448
  22355921.773 6   -390218.984 6   -266319.25048  22355921.02048
  23213030.711 5   -477809.723 5   -282939.09849  23213031.76649
  22429991.727 5     62872.977 5     40511.39547  22429990.07447
  20708598.875 6   -163341.109 6   -105528.04748  20708596.21948
  21379746.453 6    -63193.203 6    -41768.50449  21379748.07049
  21030580.523 6   -375735.027 6   -251018.47749  21030581.11349
  21943283.508 6   -104762.238 6    -68188.01248  21943281.24648
 20  5 16  0 19 28.0000000  0  8G03G04G08G14G16G26G27G31             0.000124176
  24665633.914 4    -28336.051 4    -17132.77748  24665636.35548
  22355026.828 6   -394921.195 6   -269983.31347  22355026.34447
  23211901.492 5   -483741.660 5   -287561.38748  23211902.41048
  22430145.773 5     63681.012 5     41141.03547  22430143.87547
  20708215.086 6   -165356.391 6   -107098.39848  20708212.52348
  21379596.500 6    -63981.180 6    -42382.51649  21379598.06649
  21029663.758 6   -380552.785 6   -254772.58249  21029664.25449
  21943037.219 6   -106055.875 6    -69196.03548  21943035.39848
 20  5 16  0 19 29.0000000  0  8G03G04G08G14G16G26G27G31             0.000122675
  24665508.086 4    -28999.098 4    -17649.44548  24665510.10548
  22354132.680 6   -399622.371 6   -273646.56648  22354131.94948
  23210772.711 5   -489672.781 5   -292183.03949  23210773.90649
  22430299.570 5     64489.930 5     41771.36747  22430297.80147
  20707831.969 6   -167370.766 6   -108668.04748  20707829.22748
  21379446.813 6    -64768.426 6    -42995.94949  21379448.30149
  21028747.016 6   -385369.445 6   -258525.82049  21028748.07049
  21942791.227 6   -107348.684 6    -70203.42248  21942789.24648
 20  5 16  0 19 30.0000000  0  8G03G04G08G14G16G26G27G31             0.000121178
  24665381.727 4    -29661.418 4    -18165.53948  24665384.04348
  22353238.219 6   -404322.551 6   -277309.03948  22353237.27748
  23209644.375 5   -495603.160 5   -296804.11349  23209645.25049
  22430453.398 5     65299.707 5     42402.36347  22430451.69147
  20707448.609 6   -169384.258 6   -110236.99648  20707446.03148
  21379297.359 6    -65555.055 6    -43608.91049  21379298.69949
  21027830.375 6   -390185.012 6   -262278.21149  21027831.35949
  21942545.547 6   -108640.703 6    -71210.19548  21942543.35548
 20  5 16  0 19 31.0000000  0  8G03G04G08G14G16G26G27G31             0.000119678
  24665255.508 4    -30323.094 4    -18681.12548  24665257.95348
  22352343.586 6   -409021.734 6   -280970.75447  22352342.98847
  23208516.602 5   -501532.816 5   -301424.62549  23208517.10249
  22430607.508 5     66110.367 5     43034.03947  22430605.81347
  20707066.031 6   -171396.953 6   -111805.34048  20707063.49248
  21379147.578 6    -66341.035 6    -44221.37149  21379149.09849
  21026914.586 6   -394999.543 6   -266029.79749  21026914.96149
  21942299.578 6   -109931.949 6    -72216.35548  21942297.30548
 20  5 16  0 19 32.0000000  0  8G03G04G08G14G16G26G27G31             0.000118179
  24665129.781 4    -30984.043 4    -19196.15248  24665132.26648
  22351449.742 6   -413719.871 6   -284631.64147  22351449.34447
  23207388.750 5   -507461.617 5   -306044.46949  23207389.16049
  22430761.781 5     66921.879 5     43666.38347  22430760.53947
  20706683.391 6   -173408.699 6   -113372.92648  20706680.23848
  21378998.469 6    -67126.328 6    -44833.29749  21378999.72349
  21025998.570 6   -399812.949 6   -269780.50449  21025998.98049
  21942054.039 6   -111222.395 6    -73221.90648  21942051.90648
 20  5 16  0 19 33.0000000  0  8G03G04G08G14G16G26G27G31             0.000116682
  24665004.617 4    -31644.320 4    -19710.65248  24665006.64848
  22350555.844 6   -418417.027 6   -288291.75447  22350555.21547
  23206260.047 5   -513389.691 5   -310663.73849  23206260.91449
  22430916.578 5     67734.258 5     44299.39847  22430915.17647
  20706300.438 6   -175419.594 6   -114939.85248  20706297.72748
  21378848.898 6    -67911.012 6    -45444.73849  21378850.34849
  21025082.547 6   -404625.297 6   -273530.38349  21025083.23849
  21941808.383 6   -112512.035 6    -74226.82048  21941806.00848
 20  5 16  0 19 34.0000000  0  8G03G04G08G14G16G26G27G31             0.000115185
  24664879.203 4    -32303.973 4    -20224.67248  24664881.32048
  22349661.922 6   -423113.195 6   -291951.10547  22349661.70347
  23205132.180 5   -519317.043 5   -315282.45749  23205133.30949
  22431071.945 5     68547.430 5     44933.03947  22431070.10247
  20705917.695 6   -177429.699 6   -116506.17648  20705915.02048
  21378699.453 6    -68695.090 6    -46055.71149  21378700.93849
  21024167.117 6   -409436.633 6   -277279.48049  21024167.63749
  21941563.742 6   -113800.969 6    -75231.18848  21941561.58248
 20  5 16  0 19 35.0000000  0  8G03G04G08G14G16G26G27G31             0.000113688
  24664752.797 4    -32962.980 4    -20738.17648  24664755.55148
  22348768.914 6   -427808.438 6   -295609.74248  22348768.20348
  23204004.414 5   -525243.629 5   -319900.57449  23204005.46149
  22431226.250 5     69361.480 5     45567.36747  22431224.71547
  20705535.367 6   -179438.984 6   -118071.84848  20705532.59448
  21378550.156 6    -69478.566 6    -46666.21549  21378551.82849
  21023252.000 7   -414246.906 7   -281027.75049  21023252.28949
  21941318.305 6   -115089.109 6    -76234.93048  21941316.21948
 20  5 16  0 19 36.0000000  0  8G03G04G08G14G16G26G27G31             0.000112190
  24664628.047 4    -33621.305 4    -21251.15648  24664630.42648
  22347875.508 6   -432502.738 6   -299267.64148  22347874.65648
  23202877.281 5   -531169.578 5   -324518.19949  23202877.84049
  22431381.234 5     70176.234 5     46202.24247  22431379.82847
  20705153.367 6   -181447.461 6   -119636.90648  20705150.67648
  21378401.375 6    -70261.465 6    -47276.25849  21378403.05549
  21022336.789 7   -419056.199 7   -284775.24649  21022337.19949
  21941073.063 6   -116376.598 6    -77238.16848  21941070.41048
 20  5 16  0 19 37.0000000  0  8G03G04G08G14G16G26G27G31             0.000110693
  24664503.164 4    -34279.094 4    -21763.72348  24664505.36748
  22346982.547 6   -437196.102 6   -302924.80548  22346982.16848
  23201749.320 5   -537094.813 5   -329135.26649  23201750.14849
  22431536.469 5     70991.805 5     46837.74647  22431535.11347
  20704771.172 7   -183455.168 7   -121201.35548  20704768.36748
  21378252.555 6    -71043.777 6    -47885.85249  21378254.15649
  21021421.906 7   -423864.480 7   -288521.96149  21021422.24649
  21940828.266 6   -117663.332 6    -78240.82448  21940826.02348
 20  5 16  0 19 38.0000000  0  8G03G04G08G14G16G26G27G31             0.000109198
  24664378.250 5    -34936.242 5    -22275.77348  24664380.40648
  22346089.328 6   -441888.473 6   -306581.20348  22346089.07048
  23200622.047 6   -543019.363 6   -333751.80149  23200623.02349
  22431692.164 5     71808.248 5     47473.93747  22431690.48847
  20704389.367 7   -185462.051 7   -122765.16048  20704386.39848
  21378104.031 6    -71825.496 6    -48494.98049  21378105.47749
  21020506.859 7   -428671.746 7   -292267.88349  21020507.44149
  21940583.805 6   -118949.340 6    -79242.91448  21940581.72748
 20  5 16  0 19 39.0000000  0  8G03G04G08G14G16G26G27G31             0.000107700
  24664252.859 5    -35592.648 5    -22787.24648  24664255.57848
  22345196.586 6   -446579.863 6   -310236.84048  22345195.98048
  23199494.727 6   -548943.074 6   -338367.68049  23199495.53549
  22431848.070 5     72625.492 5     48110.73847  22431845.98847
  20704007.469 7   -187468.035 7   -124328.26648  20704004.79748
  21377955.523 6    -72606.527 6    -49103.58649  21377957.03549
  21019592.453 7   -433477.883 7   -296012.92249  21019593.08249
  21940339.094 6   -120234.504 6    -80244.34448  21940336.78548
 20  5 16  0 19 40.0000000  0  8G03G04G08G14G16G26G27G31             0.000106205
  24664127.781 5    -36248.449 5    -23298.25448  24664130.63748
  22344303.758 6   -451270.309 6   -313891.73848  22344303.27048
  23198367.492 6   -554866.141 6   -342983.05549  23198368.30949
  22432003.148 5     73443.559 5     48748.18047  22432001.81647
  20703626.016 6   -189473.246 6   -125890.76648  20703623.36748
  21377806.922 6    -73387.047 6    -49711.78149  21377808.56349
  21018678.195 6   -438283.047 6   -299757.20349  21018678.12549
  21940095.008 6   -121518.992 6    -81245.25048  21940092.33648
 20  5 16  0 19 41.0000000  0  8G03G04G08G14G16G26G27G31             0.000104710
  24664003.266 5    -36903.672 5    -23808.81348  24664005.94948
  22343411.602 6   -455959.813 6   -317545.89548  22343411.21148
  23197240.930 6   -560788.527 6   -347597.89549  23197241.04349
  22432159.086 5     74262.387 5     49386.23047  22432157.43047
  20703244.508 6   -191477.656 6   -127452.64148  20703242.00848
  21377658.672 6    -74166.941 6    -50319.48849  21377660.23049
  21017764.078 6   -443087.207 6   -303500.69949  21017764.39549
  21939850.398 6   -122802.777 6    -82245.59848  21939848.07848
 20  5 16  0 19 42.0000000  0  8G03G04G08G14G16G26G27G31             0.000103214
  24663878.961 5    -37558.238 5    -24318.86348  24663881.54748
  22342519.555 6   -460648.383 6   -321199.32048  22342518.75048
  23196114.031 6   -566710.160 6   -352212.14149  23196113.96949
  22432314.891 5     75082.016 5     50024.90247  22432313.49647
  20702863.438 6   -193481.285 6   -129013.90248  20702860.64548
  21377509.992 6    -74946.281 6    -50926.77349  21377511.97749
  21016849.500 6   -447890.344 6   -307243.40249  21016849.90649
  21939606.305 7   -124085.824 7    -83245.37148  21939604.18048
 20  5 16  0 19 43.0000000  0  8G03G04G08G14G16G26G27G31             0.000101719
  24663753.336 3    -38212.234 3    -24828.46948  24663756.93048
  22341627.102 6   -465336.125 6   -324852.10547  22341627.17647
  23194987.469 5   -572631.188 5   -356825.92248  23194986.88348
  22432471.258 5     75902.367 5     50664.12947  22432469.82847
  20702481.844 6   -195484.195 6   -130574.61348  20702479.37148
  21377361.906 6    -75725.078 6    -51533.63349  21377363.52749
  21015936.047 7   -452692.590 7   -310985.42249  21015936.16449
  21939362.258 6   -125368.254 6    -84244.66448  21939360.13348
 20  5 16  0 19 44.0000000  0  8G03G04G08G14G16G26G27G31             0.000100225
  24663629.281 5    -38865.676 5    -25337.69948  24663632.32848
  22340735.977 5   -470022.887 5   -328504.12547  22340735.38347
  23193860.508 6   -578551.551 6   -361439.21949  23193860.92249
  22432627.344 5     76723.480 5     51303.98047  22432625.77047
  20702101.133 6   -197486.289 6   -132134.67648  20702098.20348
  21377213.672 6    -76503.324 6    -52140.05549  21377215.48049
  21015022.391 7   -457493.828 7   -314726.66049  21015022.60549
  21939118.727 6   -126649.957 6    -85243.39548  21939116.48848
 20  5 16  0 19 45.0000000  0  8G03G04G08G14G16G26G27G31             0.000098730
  24663506.195 5    -39518.461 5    -25846.39548  24663508.13748
  22339844.008 5   -474708.695 5   -332155.40247  22339843.32047
  23192733.734 6   -584471.195 6   -366051.94549  23192734.18449
  22432783.516 5     77545.438 5     51944.47347  22432782.38747
  20701720.578 6   -199487.598 6   -133694.12948  20701717.36348
  21377065.734 6    -77280.980 6    -52746.02049  21377067.43849
  21014109.242 7   -462294.016 7   -318467.07049  21014109.05149
  21938874.789 6   -127930.918 6    -86241.54748  21938872.50848
 20  5 16  0 19 46.0000000  0  8G03G04G08G14G16G26G27G31             0.000097237
  24663381.586 5    -40170.711 5    -26354.64848  24663384.05948
  22338951.984 5   -479393.645 5   -335806.01247  22338951.98447
  23191607.438 6   -590390.180 6   -370664.14549  23191607.88349
  22432940.664 5     78368.098 5     52585.51247  22432938.61747
  20701340.055 6   -201488.160 6   -135253.00048  20701336.70748
  21376918.234 6    -78058.133 6    -53351.59049  21376919.64849
  21013195.969 7   -467093.266 7   -322206.73449  21013196.01249
  21938631.078 6   -129211.211 6    -87239.17648  21938629.20748
 20  5 16  0 19 47.0000000  0  8G03G04G08G14G16G26G27G31             0.000095743
  24663257.516 5    -40822.344 5    -26862.40248  24663259.92648
  22338060.828 5   -484077.680 5   -339455.91447  22338060.65247
  23190481.445 6   -596308.527 6   -375275.85549  23190481.13349
  22433096.891 5     79191.508 5     53227.12547  22433095.55547
  20700959.297 6   -203487.988 6   -136811.30948  20700956.21548
  21376770.195 6    -78834.773 6    -53956.77349  21376771.84449
  21012282.609 7   -471891.563 7   -325945.66849  21012282.61749
  21938387.484 6   -130490.836 6    -88236.28948  21938385.23848
 20  5 16  0 19 48.0000000  0  8G03G04G08G14G16G26G27G31             0.000094250
  24663134.336 5    -41473.387 5    -27369.69948  24663135.82848
  22337169.688 5   -488760.813 5   -343105.10947  22337169.35947
  23189355.648 6   -602226.207 6   -379887.03149  23189355.25449
  22433253.891 6     80015.691 6     53869.34047  22433252.32047
  20700578.617 6   -205487.035 6   -138369.00848  20700575.93848
  21376622.500 6    -79610.832 6    -54561.49249  21376623.91449
  21011369.977 7   -476688.852 7   -329683.81349  21011369.93449
  21938144.016 6   -131769.777 6    -89232.86748  21938141.82448
 20  5 16  0 19 49.0000000  0  8G03G04G08G14G16G26G27G31             0.000092756
  24663010.555 4    -42123.879 4    -27876.56348  24663012.18848
  22336278.586 5   -493443.027 5   -346753.58247  22336278.64847
  23188229.492 6   -608143.211 6   -384497.68449  23188229.18049
  22433410.602 5     80840.629 5     54512.13347  22433409.40647
  20700198.484 6   -207485.320 6   -139926.12148  20700195.39848
  21376475.234 6    -80386.352 6    -55165.79349  21376476.55949
  21010457.117 7   -481485.176 7   -333421.21549  21010457.21149
  21937900.945 7   -133048.000 7    -90228.89148  21937898.63748
 20  5 16  0 19 50.0000000  0  9G03G04G08G14G16G21G26G27G31          0.000091263
  24662886.633 5    -42773.820 5    -28383.00448  24662888.33248
  22335387.781 5   -498124.375 5   -350401.38347  22335387.74647
  23187103.664 6   -614059.582 6   -389107.84049  23187103.32849
  22433567.930 5     81666.309 5     55155.51647  22433566.03547
  20699818.266 6   -209482.875 6   -141482.66048  20699815.59448
  24380147.64816    -64220.32416    -33012.38758  24380145.97358
  21376327.492 6    -81161.332 6    -55769.68049  21376328.70349
  21009544.352 7   -486280.551 7   -337157.86749  21009544.76649
  21937657.922 7   -134325.590 7    -91224.42248  21937655.57048
 20  5 16  0 19 51.0000000  0  9G03G04G08G14G16G21G26G27G31          0.000089773
  24662762.953 5    -43423.168 5    -28888.99248  24662764.89848
  22334497.328 5   -502804.832 5   -354048.48847  22334497.02347
  23185977.672 5   -619975.289 5   -393717.48449  23185977.47349
  22433724.953 5     82492.719 5     55799.46947  22433723.32447
  20699438.250 6   -211479.691 6   -143038.62948  20699435.53548
  24379675.156 6    -66704.824 6    -34948.35248  24379673.35948
  21376180.297 6    -81935.824 6    -56373.17649  21376181.60249
  21008632.234 7   -491074.965 7   -340893.77749  21008632.16449
  21937414.656 7   -135602.504 7    -92219.42248  21937412.82848
 20  5 16  0 19 52.0000000  0  9G03G04G08G14G16G21G26G27G31          0.000088282
  24662639.297 5    -44071.961 5    -29394.55148  24662641.35248
  22333606.914 5   -507484.391 5   -357694.89146  22333606.54346
  23184852.305 6   -625890.383 6   -398326.64549  23184851.96149
  22433883.094 6     83319.848 6     56443.98847  22433881.21147
  20699058.383 6   -213475.754 6   -144593.99648  20699055.41848
  24379202.148 6    -69188.520 6    -36883.70348  24379200.86748
  21376032.695 6    -82709.758 6    -56976.23849  21376034.19549
  21007720.117 7   -495868.453 7   -344628.96549  21007719.93449
  21937172.039 7   -136878.758 7    -93213.90648  21937169.57448
 20  5 16  0 19 53.0000000  0  9G03G04G08G14G16G21G26G27G31          0.000086788
  24662516.414 5    -44720.215 5    -29899.68448  24662518.24248
  22332716.992 5   -512163.094 5   -361340.63346  22332716.16446
  23183726.414 5   -631804.859 5   -402935.33249  23183726.59449
  22434040.461 5     84147.707 5     57089.07447  22434038.35247
  20698678.766 6   -215471.105 6   -146148.80948  20698676.31348
  24378729.867 6    -71671.418 6    -38818.43048  24378728.55148
  21375885.531 6    -83483.227 6    -57578.94149  21375887.28549
  21006807.664 7   -500660.992 7   -348363.41449  21006808.01649
  21936929.000 7   -138154.391 7    -94207.90648  21936926.83648
 20  5 16  0 19 54.0000000  0  9G03G04G08G14G16G21G26G27G31          0.000085297
  24662393.031 5    -45367.891 5    -30404.37148  24662395.01248
  22331826.516 5   -516840.891 5   -364985.66847  22331825.87947
  23182601.375 5   -637718.672 5   -407543.49649  23182601.19149
  22434197.852 5     84976.316 5     57734.74647  22434196.15647
  20698299.500 6   -217465.688 6   -147703.03148  20698296.21548
  24378257.680 6    -74153.465 6    -40752.48848  24378255.86748
  21375738.336 6    -84256.117 6    -58181.19549  21375740.03949
  21005896.141 7   -505452.543 7   -352097.09049  21005896.07849
  21936686.781 6   -139429.309 6    -95201.34848  21936684.49248
 20  5 16  0 19 55.0000000  0  9G03G04G08G14G16G21G26G27G31          0.000083805
  24662269.430 5    -46015.000 5    -30908.60948  24662271.47748
  22330936.555 5   -521517.805 5   -368630.02047  22330935.27747
  23181476.258 6   -643631.840 6   -412151.16449  23181476.16049
  22434355.711 5     85805.676 5     58381.00047  22434354.10247
  20697919.914 6   -219459.543 6   -149256.68848  20697916.92248
  24377785.391 6    -76634.676 6    -42685.90648  24377784.34448
  21375591.602 6    -85028.496 6    -58783.05549  21375592.93049
  21004984.438 7   -510243.152 7   -355830.03149  21004984.53549
  21936444.148 7   -140703.563 7    -96194.27748  21936441.68848
 20  5 16  0 19 56.0000000  0  9G03G04G08G14G16G21G26G27G31          0.000082314
  24662146.508 5    -46661.555 5    -31412.41848  24662148.87548
  22330046.742 5   -526193.832 5   -372273.68047  22330045.88347
  23180350.813 6   -649544.383 6   -416758.34049  23180351.29349
  22434513.703 5     86635.734 5     59027.78947  22434512.12147
  20697540.375 6   -221452.668 6   -150809.77748  20697537.77748
  24377313.406 6    -79115.152 6    -44618.74248  24377312.19148
  21375445.031 6    -85800.359 6    -59384.50849  21375446.39549
  21004073.297 7   -515032.820 7   -359562.23849  21004073.07849
  21936201.813 6   -141977.188 6    -97186.71148  21936199.65248
 20  5 16  0 19 57.0000000  0  9G03G04G08G14G16G21G26G27G31          0.000080822
  24662023.586 5    -47307.582 5    -31915.81648  24662025.91848
  22329156.711 5   -530868.988 5   -375916.66047  22329156.08247
  23179225.578 6   -655456.273 6   -421365.00849  23179226.23449
  22434671.633 5     87466.535 5     59675.15647  22434670.23447
  20697161.336 6   -223445.051 6   -152362.27748  20697158.00048
  24376841.773 6    -81594.773 6    -46550.91448  24376840.32848
  21375297.648 6    -86571.727 6    -59985.57849  21375299.60549
  21003161.938 7   -519821.527 7   -363293.70349  21003161.97349
  21935959.578 6   -143250.129 6    -98178.61348  21935957.35248
 20  5 16  0 19 58.0000000  0  9G03G04G08G14G16G21G26G27G31          0.000079332
  24661901.305 5    -47953.000 5    -32418.73848  24661903.32448
  22328267.445 5   -535543.309 5   -379558.98847  22328266.75847
  23178101.258 6   -661367.539 6   -425971.19149  23178101.54749
  22434829.766 5     88298.051 5     60323.09047  22434828.13747
  20696782.469 6   -225436.719 6   -153914.23048  20696779.49648
  24376369.914 6    -84073.602 6    -48482.46548  24376368.58248
  21375151.203 6    -87342.574 6    -60586.23849  21375152.64549
  21002250.758 7   -524609.340 7   -367024.46149  21002250.79349
  21935717.383 7   -144522.453 7    -99170.03548  21935715.34448
 20  5 16  0 19 59.0000000  0  9G03G04G08G14G16G21G26G27G31          0.000077841
  24661777.547 4    -48597.972 4    -32921.31048  24661780.14548
  22327377.836 5   -540216.809 5   -383200.66847  22327377.45347
  23176976.563 6   -667278.230 6   -430576.91849  23176976.73849
  22434988.359 5     89130.191 5     60971.50847  22434987.18447
  20696403.602 6   -227427.770 6   -155465.70348  20696400.71548
  24375898.695 6    -86551.723 6    -50413.46148  24375896.84048
  21375004.500 6    -88113.020 6    -61186.58649  21375006.16049
  21001339.930 7   -529396.258 7   -370754.53149  21001339.58249
  21935475.695 6   -145794.176 6   -100160.98448  21935473.05948
 20  5 16  0 20  0.0000000  0  9G03G04G08G14G16G21G26G27G31          0.000076351
  24661655.719 5    -49242.445 5    -33423.50448  24661657.60548
  22326488.914 5   -544889.398 5   -386841.64846  22326488.01646
  23175851.750 6   -673188.281 6   -435182.16449  23175852.07849
  22435146.555 5     89963.121 5     61620.53947  22435145.44147
  20696025.000 6   -229418.008 6   -157016.54348  20696021.82448
  24375427.227 6    -89029.012 6    -52343.82048  24375425.76248
  21374858.008 6    -88882.883 6    -61786.47749  21374859.84449
  21000429.258 6   -534182.191 6   -374483.83249  21000429.22349
  21935233.422 7   -147065.238 7   -101151.42648  21935231.35948
 20  5 16  0 20  1.0000000  0  9G03G04G08G14G16G21G26G27G31          0.000074862
  24661533.234 5    -49886.480 5    -33925.35248  24661535.05548
  22325600.094 5   -549561.289 5   -390482.08246  22325599.04746
  23174727.102 6   -679097.896 6   -439787.06649  23174727.84449
  22435305.383 5     90796.594 5     62269.99647  22435304.48447
  20695646.359 6   -231407.703 6   -158566.96548  20695643.18848
  24374955.891 6    -91505.621 6    -54273.64848  24374954.23048
  21374711.445 6    -89652.406 6    -62386.09449  21374713.23449
  20999518.875 7   -538967.355 7   -378212.53149  20999518.58249
  21934991.453 6   -148335.777 6   -102141.45748  21934989.42248
 20  5 16  0 20  2.0000000  0  9G03G04G08G14G16G21G26G27G31          0.000073370
  24661410.852 5    -50529.852 5    -34426.68848  24661412.44148
  22324711.188 5   -554232.246 5   -394121.78946  22324710.52046
  23173603.102 6   -685006.742 6   -444391.35949  23173603.36349
  22435464.172 5     91630.859 5     62920.06647  22435463.03147
  20695267.422 6   -233396.629 6   -160116.77748  20695264.65648
  24374484.484 6    -93981.395 6    -56202.81648  24374483.20748
  21374565.555 6    -90421.344 6    -62985.26649  21374566.74649
  20998608.477 7   -543751.531 7   -381940.46949  20998607.93049
  21934750.195 6   -149605.613 6   -103130.93448  21934747.83248
 20  5 16  0 20  3.0000000  0  9G03G04G08G14G16G21G26G27G31          0.000071880
  24661288.305 5    -51172.816 5    -34927.70348  24661290.16448
  22323822.578 5   -558902.434 5   -397760.89846  22323821.91046
  23172479.000 6   -690915.086 6   -448995.25849  23172479.20349
  22435623.031 5     92465.719 5     63570.60547  22435621.89147
  20694889.000 6   -235384.891 6   -161666.06648  20694886.34848
  24374013.406 6    -96456.465 6    -58131.44948  24374012.10248
  21374419.180 6    -91189.891 6    -63584.13349  21374420.57449
  20997698.008 6   -548534.852 6   -385667.73449  20997697.98049
  21934508.266 6   -150874.906 6   -104119.98448  21934506.32848
 20  5 16  0 20  4.0000000  0  9G03G04G08G14G16G21G26G27G31          0.000070393
  24661165.820 5    -51815.258 5    -35428.29348  24661168.11348
  22322934.023 5   -563571.758 5   -401399.32046  22322933.20346
  23171354.250 6   -696822.836 6   -453598.69949  23171354.85549
  22435781.953 5     93301.273 5     64221.69147  22435780.66047
  20694510.992 6   -237372.469 6   -163214.82848  20694508.23848
  24373542.359 6    -98930.754 6    -60059.46548  24373541.03948
  21374272.914 6    -91957.973 6    -64182.63749  21374274.18049
  20996788.211 6   -553317.262 6   -389394.28549  20996787.32449
  21934266.938 6   -152143.574 6   -105108.55548  21934264.80548
 20  5 16  0 20  5.0000000  0  9G03G04G08G14G16G21G26G27G31          0.000068903
  24661043.602 5    -52457.168 5    -35928.46548  24661045.66048
  22322045.844 5   -568240.180 5   -405037.02746  22322045.03946
  23170230.219 6   -702729.934 6   -458201.64149  23170230.95349
  22435941.008 5     94137.602 5     64873.37547  22435939.60947
  20694133.172 6   -239359.297 6   -164763.00848  20694130.22348
  24373072.008 6   -101404.215 6    -61986.84048  24373070.44148
  21374127.063 6    -92725.527 6    -64780.74249  21374128.39849
  20995878.102 7   -558098.711 7   -393120.08649  20995877.77749
  21934025.883 6   -153411.578 6   -106096.61748  21934023.48448
 20  5 16  0 20  6.0000000  0  9G03G04G08G14G16G21G26G27G31          0.000067413
  24660921.281 5    -53098.613 5    -36428.28948  24660923.49248
  22321156.953 5   -572907.867 5   -408674.16446  22321156.57046
  23169106.344 6   -708636.512 6   -462804.16049  23169106.45749
  22436100.469 6     94974.469 6     65525.48047  22436098.96547
  20693755.578 6   -241345.555 6   -166310.73848  20693752.17248
  24372601.648 6   -103877.000 6    -63913.68848  24372599.77748
  21373980.852 6    -93492.703 6    -65378.54349  21373982.65249
  20994968.148 7   -562879.352 7   -396845.25849  20994968.33249
  21933785.102 6   -154679.074 6   -107084.28548  21933782.38748
 20  5 16  0 20  7.0000000  0  9G03G04G08G14G16G21G26G27G31          0.000065924
  24660799.203 4    -53739.566 4    -36927.75848  24660801.91448
  22320269.359 6   -577574.781 6   -412310.73847  22320268.38747
  23167982.531 6   -714542.535 6   -467406.24649  23167982.52049
  22436259.906 5     95812.051 5     66178.16447  22436258.55147
  20693377.156 6   -243331.176 6   -167857.97348  20693374.48048
  24372131.117 6   -106349.070 6    -65839.97348  24372129.53548
  21373835.336 6    -94259.406 6    -65975.97749  21373836.41849
  20994058.977 7   -567659.063 7   -400569.70749  20994058.58649
  21933543.680 6   -155945.969 6   -108071.48848  21933541.41448
 20  5 16  0 20  8.0000000  0  9G03G04G08G14G16G21G26G27G31          0.000064436
  24660678.125 3    -54380.035 3    -37426.82448  24660679.91048
  22319381.320 6   -582240.770 6   -415946.60547  22319380.53147
  23166858.656 5   -720447.953 5   -472007.84449  23166858.41049
  22436419.289 5     96650.316 5     66831.34847  22436417.99247
  20692999.742 6   -245316.039 6   -169404.64148  20692996.43048
  24371660.852 6   -108820.336 6    -67765.62947  24371659.06647
  21373688.938 6    -95025.672 6    -66573.07049  21373690.58249
  20993149.430 7   -572437.922 7   -404293.48849  20993149.41049
  21933302.695 7   -157212.199 7   -109058.16848  21933300.27048
 20  5 16  0 20  9.0000000  0  9G03G04G08G14G16G21G26G27G31          0.000062948
  24660556.500 4    -55019.945 4    -37925.44548  24660558.24648
  22318493.352 6   -586905.949 6   -419581.84047  22318492.52047
  23165734.344 5   -726352.762 5   -476609.00049  23165734.94549
  22436579.039 5     97489.234 5     67485.04747  22436577.71547
  20692622.164 7   -247300.207 7   -170950.75848  20692619.32848
  24371190.563 6   -111290.828 6    -69690.68447  24371188.82847
  21373543.219 6    -95791.445 6    -67169.78149  21373544.76249
  20992239.945 7   -577215.848 7   -408016.54749  20992239.67249
  21933061.469 7   -158477.844 7   -110044.38348  21933059.70748
 20  5 16  0 20 10.0000000  0  9G03G04G08G14G16G21G26G27G31          0.000061460
  24660434.672 4    -55659.402 4    -38423.72748  24660436.31348
  22317605.719 6   -591570.332 6   -423216.43048  22317605.46548
  23164611.578 5   -732256.988 5   -481209.70349  23164611.32849
  22436738.969 5     98328.855 5     68139.29347  22436737.26647
  20692244.953 7   -249283.719 7   -172496.35948  20692241.93848
  24370721.109 6   -113760.598 6    -71615.17247  24370719.12947
  21373397.641 6    -96556.734 6    -67766.11349  21373399.07449
  20991330.758 7   -581992.887 7   -411738.91849  20991330.68049
  21932820.875 7   -159742.910 7   -111030.14848  21932818.75048
 20  5 16  0 20 11.0000000  0  9G03G04G08G14G16G21G26G27G31          0.000059973
  24660313.391 4    -56298.324 4    -38921.59848  24660315.40248
  22316718.492 6   -596233.883 6   -426850.36748  22316718.19148
  23163487.906 5   -738160.648 5   -485809.96949  23163487.82049
  22436898.844 5     99169.133 5     68794.05147  22436897.64147
  20691867.063 6   -251266.563 6   -174041.43448  20691863.96148
  24370250.953 6   -116229.609 6    -73539.07447  24370249.25847
  21373252.289 6    -97321.563 6    -68362.08249  21373253.77749
  20990422.172 7   -586769.055 7   -415460.60549  20990421.75049
  21932580.578 6   -161007.359 6   -112015.43048  21932578.32848
 20  5 16  0 20 12.0000000  0  9G03G04G08G14G16G21G26G27G31          0.000058485
  24660191.336 4    -56936.832 4    -39419.15248  24660193.61748
  22315831.438 6   -600896.637 6   -430483.68448  22315830.67248
  23162364.484 5   -744063.777 5   -490409.80549  23162365.09049
  22437058.727 5    100010.063 5     69449.32047  22437057.28947
  20691490.297 7   -253248.754 7   -175586.00048  20691487.35948
  24369781.148 6   -118697.863 6    -75462.39147  24369779.77047
  21373106.977 6    -98085.980 6    -68957.73449  21373108.23049
  20989513.016 6   -591544.344 6   -419181.60549  20989513.25449
  21932339.656 6   -162271.219 6   -113000.25448  21932337.36748
 20  5 16  0 20 13.0000000  0  9G03G04G08G14G16G21G26G27G31          0.000056997
  24660069.563 4    -57574.832 4    -39916.29348  24660072.00448
  22314943.852 6   -605558.625 6   -434116.39548  22314943.13348
  23161241.477 6   -749966.297 6   -495009.17649  23161241.54749
  22437219.000 6    100851.590 6     70105.05547  22437217.26647
  20691113.195 6   -255230.305 6   -177130.06648  20691110.00848
  24369311.656 6   -121165.406 6    -77385.15247  24369310.12147
  21372961.063 6    -98849.957 6    -69553.03549  21372962.95749
  20988605.125 6   -596318.742 6   -422901.92249  20988604.52049
  21932099.133 7   -163534.531 7   -113984.64848  21932096.97748
 20  5 16  0 20 14.0000000  0  9G03G04G08G14G16G21G26G27G31          0.000055510
  24659948.172 4    -58212.371 4    -40413.04348  24659951.00048
  22314057.281 6   -610219.734 6   -437748.41848  22314056.35548
  23160118.430 5   -755868.297 5   -499608.14549  23160117.96149
  22437379.258 6    101693.840 6     70761.36347  22437377.43047
  20690736.078 7   -257211.148 7   -178673.58248  20690733.15248
  24368842.102 6   -123632.191 6    -79307.32047  24368840.62547
  21372816.375 6    -99613.449 6    -70147.96949  21372817.63749
  20987696.453 6   -601092.289 6   -426621.56649  20987696.18449
  21931859.211 6   -164797.215 6   -114968.56348  21931856.75848
 20  5 16  0 20 15.0000000  0  9G03G04G08G14G16G21G26G27G31          0.000054022
  24659826.938 4    -58849.359 4    -40909.37548  24659829.75048
  22313170.281 6   -614880.020 6   -441379.80948  22313169.87948
  23158995.523 5   -761769.645 5   -504206.58249  23158994.85549
  22437539.930 6    102536.770 6     71418.18847  22437537.98047
  20690359.242 7   -259191.320 7   -180216.57048  20690356.07048
  24368372.891 6   -126098.211 6    -81228.89847  24368371.48847
  21372670.922 6   -100376.488 6    -70742.55149  21372672.15649
  20986788.195 6   -605864.895 6   -430340.48049  20986788.16049
  21931618.773 6   -166059.289 6   -115952.00048  21931616.56348
 20  5 16  0 20 16.0000000  0  9G03G04G08G14G16G21G26G27G31          0.000052536
  24659706.391 4    -59485.887 4    -41405.36348  24659708.91448
  22312284.039 6   -619539.559 6   -445010.61748  22312282.75048
  23157872.648 5   -767670.512 5   -508804.64549  23157872.23049
  22437700.828 6    103380.262 6     72075.44947  22437698.32047
  20689982.414 7   -261170.898 7   -181759.09448  20689979.77048
  24367903.563 5   -128563.566 5    -83149.95347  24367902.57047
  21372525.703 6   -101139.172 6    -71336.84849  21372526.94949
  20985880.180 7   -610636.695 7   -434058.77049  20985880.10249
  21931378.773 6   -167320.832 6   -116935.02348  21931376.85948
 20  5 16  0 20 17.0000000  0  9G03G04G08G14G16G21G26G27G31          0.000051048
  24659585.219 4    -60121.977 4    -41901.02748  24659587.58648
  22311397.336 6   -624198.270 6   -448640.78148  22311396.48048
  23156750.094 5   -773570.750 5   -513402.23449  23156749.39549
  22437861.922 6    104224.480 6     72733.27347  22437859.10947
  20689605.977 7   -263149.773 7   -183301.07448  20689603.35248
  24367434.711 5   -131028.113 5    -85070.37547  24367433.56347
  21372380.750 6   -101901.324 6    -71930.74249  21372382.29749
  20984972.625 7   -615407.582 7   -437776.33649  20984972.26649
  21931138.758 6   -168581.746 6   -117917.55548  21931136.59848
 20  5 16  0 20 18.0000000  0  9G03G04G08G14G16G21G26G27G31          0.000049562
  24659464.414 4    -60757.559 4    -42396.30148  24659466.18848
  22310510.391 6   -628856.141 6   -452270.29348  22310509.85948
  23155627.484 5   -779470.430 5   -517999.39849  23155627.01249
  22438022.430 6    105069.363 6     73391.61347  22438020.30547
  20689229.578 7   -265127.980 7   -184842.54348  20689226.44148
  24366965.508 5   -133491.938 5    -86990.23447  24366964.36347
  21372235.508 6   -102663.051 6    -72524.30549  21372237.19549
  20984064.836 7   -620177.574 7   -441493.20749  20984064.62549
  21930898.789 6   -169842.063 6   -118899.62148  21930896.68048
 20  5 16  0 20 19.0000000  0  9G03G04G08G14G16G21G26G27G31          0.000048077
  24659343.180 3    -61392.508 3    -42891.07448  24659345.61348
  22309624.633 6   -633513.125 6   -455899.11748  22309623.21548
  23154504.625 6   -785369.465 6   -522596.04749  23154504.50849
  22438182.836 6    105914.938 6     74050.50447  22438180.66047
  20688853.227 7   -267105.461 7   -186383.43848  20688850.12148
  24366497.047 6   -135954.949 6    -88909.47347  24366495.96147
  21372091.133 6   -103424.258 6    -73117.44549  21372091.98449
  20983157.422 7   -624946.641 7   -445209.36749  20983156.99249
  21930659.141 7   -171101.730 7   -119881.18048  21930657.30548
 20  5 16  0 20 20.0000000  0  9G03G04G08G14G16G21G26G27G31          0.000046591
  24659223.047 4    -62027.160 4    -43385.59448  24659224.98448
  22308738.094 6   -638169.410 6   -459527.39848  22308737.70348
  23153382.133 6   -791268.023 6   -527192.31649  23153382.14549
  22438344.000 6    106761.078 6     74709.83247  22438341.88747
  20688476.922 6   -269082.363 6   -187923.87548  20688474.23448
  24366029.188 5   -138417.324 5    -90828.20347  24366027.19147
  21371946.273 6   -104185.129 6    -73710.32849  21371947.59849
  20982250.047 7   -629714.910 7   -448924.90649  20982249.52349
  21930419.672 6   -172360.918 6   -120862.36348  21930417.62148
 20  5 16  0 20 21.0000000  0  9G03G04G08G14G16G21G26G27G31          0.000045105
  24659102.281 4    -62661.383 4    -43879.78148  24659104.14148
  22307852.672 6   -642824.918 6   -463155.06348  22307851.87148
  23152259.867 5   -797166.066 5   -531788.19549  23152259.82449
  22438505.445 5    107607.844 5     75369.66047  22438503.10947
  20688101.211 6   -271058.664 6   -189463.85248  20688098.42248
  24365559.891 5   -140878.973 5    -92746.36347  24365558.73047
  21371801.641 6   -104945.582 6    -74302.88349  21371802.30949
  20981342.508 7   -634482.340 7   -452639.78149  20981342.30149
  21930180.461 6   -173619.520 6   -121843.09448  21930178.08648
 20  5 16  0 20 22.0000000  0  9G03G04G08G14G16G21G26G27G31          0.000043619
  24658981.867 4    -63294.992 4    -44373.50848  24658983.55948
  22306966.586 6   -647479.574 6   -466782.06347  22306965.91447
  23151137.320 5   -803063.473 5   -536383.58649  23151137.84449
  22438666.539 6    108455.340 6     76030.05947  22438664.42247
  20687725.273 6   -273034.238 6   -191003.26248  20687722.17648
  24365091.906 6   -143339.844 6    -94663.92647  24365090.71547
  21371656.711 6   -105705.492 6    -74895.02049  21371658.41049
  20980435.641 7   -639248.828 7   -456353.92249  20980435.23849
  21929941.078 7   -174877.504 7   -122823.34848  21929938.86348
 20  5 16  0 20 23.0000000  0  9G03G04G08G14G16G21G26G27G31          0.000042135
  24658860.500 4    -63928.203 4    -44866.93048  24658862.77348
  22306081.125 6   -652133.453 6   -470408.44947  22306080.85947
  23150015.469 5   -808960.348 5   -540978.55149  23150015.68449
  22438827.898 6    109303.422 6     76690.91047  22438825.54747
  20687348.891 6   -275009.211 6   -192542.18848  20687346.23048
  24364623.711 6   -145800.012 6    -96580.94547  24364622.48847
  21371512.469 6   -106465.059 6    -75486.89849  21371513.68449
  20979528.773 7   -644014.469 7   -460067.40649  20979528.37549
  21929701.445 7   -176134.922 7   -123803.15648  21929699.33648
 20  5 16  0 20 24.0000000  0  9G03G04G08G14G16G21G26G27G31          0.000040649
  24658741.180 4    -64560.949 4    -45359.98848  24658742.86748
  22305195.406 6   -656786.566 6   -474034.23847  22305195.17647
  23148893.383 5   -814856.711 5   -545573.11349  23148893.84449
  22438989.359 6    110152.129 6     77352.23447  22438987.30147
  20686973.586 6   -276983.527 6   -194080.60948  20686970.90248
  24364155.609 6   -148259.480 6    -98497.42247  24364154.26247
  21371368.039 6   -107224.215 6    -76078.45349  21371368.89149
  20978621.867 7   -648779.281 7   -463780.24649  20978621.60949
  21929462.359 6   -177391.805 6   -124782.55148  21929460.45748
 20  5 16  0 20 25.0000000  0  9G03G04G08G14G16G21G26G27G31          0.000039164
  24658619.422 3    -65193.254 3    -45852.68848  24658622.69148
  22304310.266 5   -661438.918 5   -477659.44547  22304309.44147
  23147771.383 5   -820752.512 5   -550167.24249  23147772.12949
  22439150.984 6    111001.453 6     78014.04347  22439148.62947
  20686598.180 6   -278957.215 6   -195618.55148  20686594.60948
  24363687.563 6   -150718.223 6   -100413.32047  24363686.43047
  21371223.633 6   -107982.922 6    -76669.65249  21371224.75049
  20977715.641 7   -653543.266 7   -467492.44149  20977715.40649
  21929223.039 7   -178648.113 7   -125761.48849  21929221.17649
 20  5 16  0 20 26.0000000  0  9G03G04G08G14G16G21G26G27G31          0.000037680
  24658499.383 4    -65825.070 4    -46345.05148  24658502.41848
  22303425.305 5   -666090.430 5   -481283.98847  22303424.56647
  23146649.750 6   -826647.727 6   -554760.96149  23146650.00049
  22439312.305 6    111851.469 6     78676.37547  22439310.54347
  20686222.609 6   -280930.258 6   -197155.98848  20686219.47748
  24363219.844 6   -153176.266 6   -102328.69547  24363218.94547
  21371079.281 6   -108741.211 6    -77260.52749  21371080.47749
  20976809.250 7   -658306.344 7   -471203.94549  20976808.63349
  21928984.391 6   -179903.852 6   -126739.98048  21928982.18448
 20  5 16  0 20 27.0000000  0  9G03G04G08G14G16G21G26G27G31          0.000036196
  24658379.391 4    -66456.418 4    -46837.03548  24658382.07848
  22302540.789 5   -670741.082 5   -484907.84447  22302539.87947
  23145528.031 6   -832542.371 6   -559354.20349  23145528.03149
  22439474.633 6    112702.168 6     79339.24247  22439472.22347
  20685846.844 6   -282902.609 6   -198692.88748  20685843.91048
  24362752.773 6   -155633.512 6   -104243.43847  24362751.05147
  21370935.273 6   -109499.043 6    -77851.03549  21370935.86749
  20975903.125 7   -663068.531 7   -474914.75049  20975902.68449
  21928745.656 6   -181158.961 6   -127717.99648  21928743.64848
 20  5 16  0 20 28.0000000  0  9G03G04G08G14G16G21G26G27G31          0.000034712
  24658259.531 4    -67087.266 4    -47328.61748  24658262.05948
  22301655.672 5   -675390.949 5   -488531.11747  22301655.09847
  23144406.211 6   -838436.445 6   -563946.98449  23144406.60949
  22439636.563 6    113553.477 6     80002.59047  22439634.35547
  20685471.875 6   -284874.324 6   -200229.28948  20685468.66048
  24362285.273 6   -158090.035 6   -106157.61347  24362283.97347
  21370791.039 6   -110256.410 6    -78441.18449  21370791.86749
  20974997.188 7   -667829.852 7   -478624.87549  20974996.70749
  21928507.063 6   -182413.484 6   -128695.55948  21928504.55148
 20  5 16  0 20 29.0000000  0  9G03G04G08G14G16G21G26G27G31          0.000033226
  24658139.641 4    -67717.656 4    -47819.84448  24658142.05148
  22300771.211 5   -680040.051 5   -492153.80147  22300770.39847
  23143285.023 6   -844329.984 6   -568539.34849  23143285.08649
  22439798.789 6    114405.438 6     80666.45347  22439796.89847
  20685096.500 6   -286845.406 6   -201765.19548  20685093.69148
  24361818.219 6   -160545.813 6   -108071.19947  24361816.75847
  21370647.016 6   -111013.410 6    -79031.04749  21370647.79749
  20974091.141 7   -672590.293 7   -482334.30549  20974090.66849
  21928268.297 6   -183667.473 6   -129672.69148  21928266.44148
 20  5 16  0 20 30.0000000  0  9G03G04G08G14G16G21G26G27G31          0.000031744
  24658020.156 3    -68347.621 3    -48310.70348  24658022.16848
  22299886.383 6   -684688.363 6   -495775.88347  22299885.87947
  23142163.336 5   -850222.996 5   -573131.30949  23142163.53149
  22439960.742 6    115257.977 6     81330.78147  22439958.87547
  20684721.727 6   -288815.871 6   -203300.62948  20684718.46548
  24361350.742 6   -163000.918 6   -109984.26647  24361349.40647
  21370502.930 6   -111769.961 6    -79620.57849  21370503.84449
  20973185.195 7   -677349.902 7   -486043.09449  20973184.79749
  21928029.820 7   -184920.883 7   -130649.37548  21928027.67248
 20  5 16  0 20 31.0000000  0  9G03G04G08G14G16G21G26G27G31          0.000030260
  24657899.547 3    -68977.117 3    -48801.19148  24657902.44948
  22299001.867 5   -689335.918 5   -499397.37547  22299001.12547
  23141042.227 5   -856115.441 5   -577722.80949  23141042.73049
  22440123.031 6    116111.141 6     81995.60247  22440121.13747
  20684347.039 6   -290785.695 6   -204835.57048  20684343.96148
  24360883.672 6   -165455.297 6   -111896.76647  24360882.25847
  21370359.289 6   -112526.121 6    -80209.80949  21370359.75049
  20972279.570 7   -682108.680 7   -489751.22749  20972279.23849
  21927791.641 7   -186173.754 7   -131625.63748  21927789.28948
 20  5 16  0 20 32.0000000  0  9G03G04G08G14G16G21G26G27G31          0.000028776
  24657780.250 4    -69606.195 4    -49291.37548  24657782.77048
  22298117.391 5   -693982.684 5   -503018.23847  22298117.24647
  23139921.086 6   -862007.387 6   -582313.93049  23139921.39149
  22440285.453 6    116964.969 6     82660.92247  22440283.59847
  20683972.461 6   -292754.906 6   -206370.02048  20683969.43848
  24360416.703 6   -167909.012 6   -113808.74647  24360415.41047
  21370214.992 6   -113281.852 6    -80798.69149  21370215.87549
  20971374.117 7   -686866.625 7   -493458.70749  20971374.05549
  21927553.203 6   -187426.102 6   -132601.49248  21927550.80548
 20  5 16  0 20 33.0000000  0  9G03G04G08G14G16G21G26G27G31          0.000027292
  24657661.039 5    -70234.852 5    -49781.23848  24657663.15248
  22297233.719 5   -698628.621 5   -506638.44947  22297232.84847
  23138799.602 6   -867898.813 6   -586904.63349  23138799.92649
  22440448.305 6    117819.410 6     83326.70747  22440446.14847
  20683597.953 6   -294723.434 6   -207903.93048  20683594.68848
  24359949.867 6   -170362.012 6   -115720.18447  24359948.25447
  21370072.102 6   -114037.180 6    -81387.25849  21370072.79749
  20970469.063 7   -691623.703 7   -497165.52049  20970468.58649
  21927314.570 6   -188677.855 6   -133576.88748  21927312.62148
 20  5 16  0 20 34.0000000  0  9G03G04G08G14G16G21G26G27G31          0.000025810
  24657540.641 5    -70862.965 5    -50270.68448  24657543.80148
  22296350.055 5   -703273.789 5   -510258.05147  22296348.96147
  23137678.922 6   -873789.625 6   -591494.86349  23137678.90649
  22440611.141 6    118674.473 6     83992.98047  22440608.63747
  20683223.445 6   -296691.336 6   -209437.35948  20683220.16048
  24359483.141 6   -172814.250 6   -117631.03947  24359481.66447
  21369928.383 6   -114792.066 6    -81975.47749  21369929.00449
  20969564.016 7   -696379.926 7   -500871.66449  20969563.77749
  21927076.633 6   -189929.023 6   -134551.83248  21927074.60948
 20  5 16  0 20 35.0000000  0  9G03G04G08G14G16G21G26G27G31          0.000024326
  24657421.414 5    -71490.672 5    -50759.81648  24657424.09848
  22295466.398 5   -707918.191 5   -513877.05147  22295464.84047
  23136557.430 6   -879679.949 6   -596084.73049  23136558.09849
  22440773.781 6    119530.168 6     84659.75447  22440771.77347
  20682849.234 6   -298658.648 6   -210970.33248  20682846.12948
  24359016.555 6   -175265.816 6   -119541.35947  24359015.21147
  21369784.508 6   -115546.566 6    -82563.39549  21369785.29749
  20968659.086 7   -701135.285 7   -504577.13349  20968658.90649
  21926838.727 6   -191179.656 6   -135526.36348  21926836.92648
 20  5 16  0 20 36.0000000  0  9G03G04G08G14G16G21G26G27G31          0.000022844
  24657302.133 5    -72118.000 5    -51248.65248  24657304.66048
  22294582.367 5   -712561.902 5   -517495.52347  22294581.51647
  23135436.945 6   -885569.785 6   -600674.22749  23135437.09849
  22440936.938 6    120386.422 6     85326.96547  22440935.02347
  20682474.984 6   -300625.395 6   -212502.85548  20682471.41448
  24358550.367 6   -177716.727 6   -121451.16047  24358548.96547
  21369640.422 6   -116300.719 6    -83151.04749  21369642.06349
  20967754.156 7   -705889.891 7   -508282.02349  20967754.15249
  21926600.969 6   -192429.809 6   -136500.50848  21926598.97748
 20  5 16  0 20 37.0000000  0  9G03G04G08G14G16G21G26G27G31          0.000021362
  24657182.641 5    -72744.816 5    -51737.08248  24657185.35248
  22293699.414 5   -717204.863 5   -521113.41047  22293698.30947
  23134316.430 6   -891459.063 6   -605263.28549  23134316.69149
  22441100.148 6    121243.289 6     85994.64547  22441097.73847
  20682100.523 6   -302591.508 6   -214034.89148  20682097.54348
  24358083.797 6   -180166.906 6   -123360.38747  24358082.48847
  21369497.750 6   -117054.461 6    -83738.38749  21369498.21149
  20966849.602 7   -710643.602 7   -511986.22749  20966849.64149
  21926363.117 6   -193679.395 6   -137474.20748  21926361.44948
 20  5 16  0 20 38.0000000  0  9G03G04G08G14G16G21G26G27G31          0.000019880
  24657063.477 5    -73371.148 5    -52225.14848  24657066.31648
  22292815.758 5   -721846.906 5   -524730.59447  22292814.60547
  23133195.844 6   -897347.734 6   -609851.87549  23133196.29749
  22441263.117 6    122100.855 6     86662.87547  22441261.12547
  20681726.898 6   -304556.898 6   -215566.36748  20681723.35948
  24357618.047 6   -182616.301 6   -125268.99647  24357616.51647
  21369354.375 6   -117807.695 6    -84325.32449  21369355.01249
  20965945.313 7   -715396.418 7   -515689.72349  20965944.93849
  21926125.227 6   -194928.348 6   -138447.41048  21926123.67648
 20  5 16  0 20 39.0000000  0  9G03G04G08G14G16G21G26G27G31          0.000018398
  24656944.383 5    -73997.094 5    -52712.88748  24656947.07048
  22291932.133 5   -726488.160 5   -528347.16047  22291931.32847
  23132074.930 6   -903235.906 6   -614440.05949  23132075.46149
  22441426.844 6    122959.047 6     87331.59847  22441424.59447
  20681352.547 6   -306521.668 6   -217097.35948  20681349.81648
  24357152.148 6   -185065.066 6   -127177.12147  24357150.39147
  21369210.695 6   -118560.496 6    -84911.91849  21369211.89849
  20965041.148 7   -720148.387 7   -519392.55549  20965040.65649
  21925888.094 6   -196176.719 6   -139420.16848  21925885.73048
 20  5 16  0 20 40.0000000  0  9G03G04G08G14G16G21G26G27G31          0.000016916
  24656824.977 4    -74622.484 4    -53200.20348  24656828.07448
  22291049.266 5   -731128.703 5   -531963.17247  22291048.10247
  23130954.930 6   -909123.523 6   -619027.80149  23130955.56649
  22441589.844 6    123817.828 6     88000.77747  22441587.97747
  20680978.992 6   -308485.832 6   -218627.86748  20680975.76248
  24356686.172 6   -187513.023 6   -129084.61348  24356684.64548
  21369067.734 6   -119312.953 6    -85498.25049  21369068.62149
  20964137.094 7   -724899.488 7   -523094.71149  20964136.81649
  21925650.602 6   -197424.586 6   -140392.53948  21925648.38348
 20  5 16  0 20 41.0000000  0  9G03G04G08G14G16G21G26G27G31          0.000015434
  24656706.406 4    -75247.523 4    -53687.24648  24656709.01648
  22290166.141 5   -735768.422 5   -535578.54747  22290165.15247
  23129834.766 6   -915010.559 6   -623615.09849  23129835.49249
  22441753.242 6    124677.234 6     88670.45347  22441751.08647
  20680605.305 6   -310449.367 6   -220157.90248  20680601.96548
  24356220.109 6   -189960.301 6   -130991.57847  24356218.94547
  21368924.258 6   -120064.988 6    -86084.25849  21368924.71549
  20963232.859 7   -729649.758 7   -526796.22349  20963232.78949
  21925413.375 7   -198671.852 7   -141364.43448  21925411.04348
 20  5 16  0 20 42.0000000  0  9G03G04G08G14G16G21G26G27G31          0.000013952
  24656588.523 4    -75872.094 4    -54173.92648  24656590.24648
  22289283.563 5   -740407.406 5   -539193.34447  22289282.79347
  23128714.469 6   -920897.145 6   -628202.05149  23128715.02349
  22441916.945 6    125537.266 6     89340.60547  22441914.75047
  20680231.930 6   -312412.289 6   -221687.45748  20680228.58248
  24355754.820 6   -192406.953 6   -132898.06347  24355753.45347
  21368781.531 6   -120816.652 6    -86669.96949  21368782.52349
  20962329.234 7   -734399.230 7   -530497.11349  20962328.97749
  21925175.641 7   -199918.605 7   -142335.93449  21925173.66849
 20  5 16  0 20 43.0000000  0  9G03G04G08G14G16G21G26G27G31          0.000012470
  24656468.859 4    -76496.297 4    -54660.32048  24656471.60248
  22288400.797 5   -745045.613 5   -542807.53147  22288399.78547
  23127594.508 6   -926783.223 6   -632788.60949  23127595.03549
  22442080.633 6    126397.852 6     90011.19547  22442078.57047
  20679858.523 6   -314374.625 6   -223216.55148  20679855.13748
  24355289.570 6   -194852.887 6   -134803.98447  24355288.23847
  21368638.469 6   -121567.875 6    -87255.33649  21368639.07849
  20961425.602 7   -739147.875 7   -534197.35549  20961425.31649
  21924938.711 7   -201164.855 7   -143307.03148  21924936.34848
 20  5 16  0 20 44.0000000  0  9G03G04G08G14G16G21G26G27G31          0.000010990
  24656350.266 5    -77120.063 5    -55146.36348  24656352.73448
  22287518.359 5   -749683.078 5   -546421.13747  22287517.50447
  23126474.313 6   -932668.754 6   -637374.72349  23126475.05149
  22442244.664 6    127259.066 6     90682.26247  22442242.68847
  20679485.516 6   -316336.352 6   -224745.16448  20679481.78548
  24354824.039 6   -197298.160 6   -136709.39548  24354822.64548
  21368495.875 6   -122318.746 6    -87840.42649  21368496.90649
  20960522.508 7   -743895.703 7   -537896.96149  20960522.07049
  21924701.664 7   -202410.535 7   -144277.70348  21924699.59448
 20  5 16  0 20 45.0000000  0  9G03G04G08G14G16G21G26G27G31          0.000009510
  24656231.938 5    -77743.352 5    -55632.04348  24656234.25848
  22286635.984 5   -754319.813 5   -550034.16847  22286635.85247
  23125354.078 6   -938553.805 6   -641960.46149  23125354.69949
  22442408.742 6    128120.863 6     91353.78147  22442406.71147
  20679111.742 6   -318297.504 6   -226273.34048  20679108.55548
  24354358.922 6   -199742.715 6   -138614.25048  24354357.50848
  21368352.781 6   -123069.223 6    -88425.20749  21368354.32449
  20959618.773 7   -748642.684 7   -541595.89849  20959618.62549
  21924464.719 7   -203655.703 7   -145247.96548  21924462.67248
 20  5 16  0 20 46.0000000  0  9G03G04G08G14G16G21G26G27G31          0.000008028
  24656113.461 5    -78366.246 5    -56117.41848  24656115.30148
  22285753.563 5   -758955.738 5   -553646.57847  22285753.03147
  23124234.664 6   -944438.285 6   -646545.76649  23124234.99649
  22442573.094 6    128983.266 6     92025.78547  22442570.94147
  20678738.859 6   -320257.996 6   -227800.99248  20678735.69948
  24353893.984 6   -202186.590 6   -140518.57047  24353892.75047
  21368210.211 6   -123819.313 6    -89009.69949  21368210.98849
  20958715.703 7   -753388.828 7   -545294.19149  20958715.43849
  21924228.094 7   -204900.297 7   -146217.78948  21924225.86748
 20  5 16  0 20 47.0000000  0  9G03G04G08G14G16G21G26G27G31          0.000006548
  24655994.750 5    -78988.695 5    -56602.45748  24655996.58248
  22284871.391 5   -763590.918 5   -557258.41047  22284871.35247
  23123114.680 6   -950322.242 6   -651130.66849  23123115.84449
  22442736.703 6    129846.285 6     92698.26647  22442735.39147
  20678365.766 6   -322217.883 6   -229328.17648  20678362.71948
  24353429.063 6   -204629.750 6   -142422.33247  24353427.71547
  21368067.422 6   -124568.977 6    -89593.85549  21368068.16049
  20957812.734 7   -758134.117 7   -548991.82049  20957812.29349
  21923991.320 7   -206144.367 7   -147187.19148  21923988.89548
 20  5 16  0 20 48.0000000  0  9G03G04G08G14G16G21G26G27G31          0.000005068
  24655876.258 5    -79610.652 5    -57087.09848  24655878.41448
  22283990.258 5   -768225.277 5   -560869.60246  22283989.28946
  23121995.094 6   -956205.672 6   -655715.15249  23121995.64149
  22442901.398 6    130709.965 6     93371.27047  22442899.66447
  20677993.156 6   -324177.109 6   -230854.85548  20677990.00848
  24352964.117 6   -207072.195 6   -144325.53547  24352963.18447
  21367925.164 6   -125318.203 6    -90177.67249  21367925.60549
  20956909.969 7   -762878.555 7   -552688.78549  20956909.55149
  21923754.781 6   -207387.832 6   -148156.12148  21923752.50848
 20  5 16  0 20 49.0000000  0  9G03G04G08G14G16G21G26G27G31          0.000003588
  24655758.273 5    -80232.191 5    -57571.42648  24655760.17248
  22283108.047 5   -772858.875 5   -564480.19946  22283107.66046
  23120875.453 6   -962088.520 6   -660299.17649  23120876.42649
  22443065.547 6    131574.246 6     94044.74247  22443064.39147
  20677620.758 6   -326135.758 6   -232381.07848  20677617.34448
  24352499.352 6   -209513.934 6   -146228.18847  24352498.28547
  21367782.641 6   -126067.055 6    -90761.20349  21367783.27049
  20956007.141 7   -767622.156 7   -556385.09449  20956006.77349
  21923518.523 6   -208630.770 6   -149124.64848  21923515.80948
 20  5 16  0 20 50.0000000  0  9G03G04G08G14G16G21G26G27G31          0.000002108
  24655639.797 5    -80853.320 5    -58055.42648  24655642.25848
  22282226.609 5   -777491.785 5   -568090.25046  22282226.09446
  23119756.258 6   -967970.918 6   -664882.86349  23119756.84849
  22443230.250 6    132439.074 6     94718.64147  22443228.88347
  20677248.078 6   -328093.816 6   -233906.84048  20677244.73848
  24352034.828 6   -211955.000 6   -148130.31347  24352034.00447
  21367640.391 6   -126815.551 6    -91344.44549  21367640.83649
  20955104.719 7   -772364.945 7   -560080.77049  20955104.43449
  21923282.000 6   -209873.203 6   -150092.78148  21923279.51248
 20  5 16  0 20 51.0000000  0  9G03G04G08G14G16G21G26G27G31          0.000000628
  24655521.680 5    -81474.016 5    -58539.08248  24655523.79748
  22281345.258 5   -782123.832 5   -571699.62947  22281344.66847
  23118637.055 6   -973852.758 6   -669466.11349  23118637.82449
  22443395.234 6    133304.559 6     95393.03947  22443393.58647
  20676875.438 6   -330051.223 6   -235432.07848  20676872.23448
  24351570.500 6   -214395.336 6   -150031.86747  24351569.28547
  21367497.727 6   -127563.578 6    -91927.32049  21367498.64149
  20954202.180 7   -777106.891 7   -563775.79749  20954202.14849
  21923045.750 7   -211115.086 7   -151060.48048  21923043.19148
 20  5 16  0 20 52.0000000  0  9G03G04G08G14G16G21G26G27G31         -0.000000853
  24655404.094 5    -82094.285 5    -59022.40248  24655405.60948
  22280463.938 5   -786755.121 5   -575308.41846  22280463.25046
  23117518.555 6   -979734.039 6   -674048.93849  23117518.87149
  22443559.750 6    134170.656 6     96067.91447  22443558.16847
  20676503.055 6   -332008.000 6   -236956.84048  20676499.88348
  24351106.016 6   -216834.965 6   -151932.88347  24351105.22347
  21367355.828 6   -128311.246 6    -92509.91449  21367356.16449
  20953300.180 7   -781847.957 7   -567470.14149  20953299.63749
  21922809.180 7   -212356.383 7   -152027.72748  21922807.02348
 20  5 16  0 20 53.0000000  0  9G03G04G08G14G16G21G26G27G31         -0.000002331
  24655286.156 5    -82714.098 5    -59505.37148  24655287.73448
  22279582.484 5   -791385.646 5   -578916.63247  22279582.26647
  23116399.031 6   -985614.828 6   -678631.38349  23116399.27349
  22443724.352 6    135037.328 6     96743.23047  22443723.19547
  20676130.500 6   -333964.195 6   -238481.14848  20676127.47748
  24350642.086 6   -219273.934 6   -153833.38347  24350641.41047
  21367213.047 6   -129058.535 6    -93092.21549  21367214.12949
  20952397.891 7   -786588.246 7   -571163.86749  20952398.00849
  21922573.211 7   -213597.172 7   -152994.57048  21922570.56348
 20  5 16  0 20 54.0000000  0  9G03G04G08G14G16G21G26G27G31         -0.000003811
  24655167.945 5    -83333.449 5    -59987.97348  24655169.83248
  22278702.031 5   -796015.391 5   -582524.23047  22278701.04347
  23115279.758 6   -991495.059 6   -683213.38749  23115280.65249
  22443890.305 6    135904.668 6     97419.06647  22443888.02047
  20675758.414 6   -335919.734 6   -240004.95348  20675755.34848
  24350178.070 6   -221712.168 6   -155733.30947  24350177.20347
  21367071.352 6   -129805.375 6    -93674.16849  21367071.68049
  20951496.023 7   -791327.629 7   -574856.89849  20951495.90249
  21922337.039 7   -214837.355 7   -153960.94148  21922334.57448
 20  5 16  0 20 55.0000000  0  9G03G04G08G14G16G21G26G27G31         -0.000005289
  24655050.242 5    -83952.313 5    -60470.20748  24655052.34848
  22277820.766 5   -800644.309 5   -586131.18047  22277820.29747
  23114160.711 6   -997374.691 6   -687794.91049  23114161.89849
  22444055.047 6    136772.660 6     98095.42647  22444053.43847
  20675386.648 6   -337874.605 6   -241528.23048  20675383.55548
  24349714.289 6   -224149.656 6   -157632.64847  24349713.54347
  21366929.211 6   -130551.742 6    -94255.75449  21366929.98049
  20950594.359 7   -796066.148 7   -578549.25049  20950593.97349
  21922101.125 7   -216076.957 7   -154926.86748  21922098.97748
 20  5 16  0 20 56.0000000  0  9G03G04G08G14G16G21G26G27G31         -0.000006769
  24654932.781 5    -84570.820 5    -60952.16848  24654934.57048
  22276940.078 4   -805272.566 4   -589737.61347  22276939.45747
  23113042.398 6  -1003253.879 6   -692376.08649  23113043.22749
  22444220.266 6    137641.164 6     98772.18847  22444218.84447
  20675014.547 6   -339828.945 6   -243051.09448  20675011.69148
  24349250.922 6   -226586.539 6   -159531.51647  24349249.39147
  21366787.570 6   -131297.809 6    -94837.10249  21366787.62549
  20949692.898 7   -800803.891 7   -582240.99249  20949693.03549
  21921865.438 7   -217316.082 7   -155892.42248  21921863.25048
 20  5 16  0 20 57.0000000  0  9G03G04G08G14G16G21G26G27G31         -0.000008247
  24654814.719 5    -85188.949 5    -61433.83648  24654816.71948
  22276059.344 4   -809900.035 4   -593343.42247  22276058.45747
  23111923.719 5  -1009132.594 5   -696956.89549  23111924.76649
  22444385.813 6    138510.234 6     99449.38747  22444384.35247
  20674643.023 6   -341782.715 6   -244573.51248  20674639.68448
  24348786.984 6   -229022.738 6   -161429.84847  24348785.91047
  21366645.469 6   -132043.523 6    -95418.18449  21366646.18049
  20948791.758 7   -805540.832 7   -585932.10949  20948791.30549
  21921629.617 7   -218554.715 7   -156857.59448  21921627.21148
 20  5 16  0 20 58.0000000  0  9G03G04G08G14G16G21G26G27G31         -0.000009726
  24654697.477 5    -85806.602 5    -61915.11748  24654699.30948
  22275178.961 5   -814526.754 5   -596948.64847  22275178.49247
  23110804.766 6  -1015010.723 6   -701537.24249  23110805.79749
  22444551.406 6    139379.965 6    100127.09447  22444549.38347
  20674271.344 6   -343735.828 6   -246095.41048  20674268.13348
  24348323.922 6   -231458.219 6   -163327.62947  24348322.31647
  21366503.469 6   -132788.801 6    -95998.92249  21366504.36749
  20947890.555 7   -810276.914 7   -589622.57049  20947889.93849
  21921394.164 7   -219792.770 7   -157822.31648  21921391.74248
 20  5 16  0 20 59.0000000  0  9G03G04G08G14G16G21G26G27G31         -0.000011204
  24654579.992 4    -86423.723 4    -62395.99248  24654582.19548
  22274298.898 5   -819152.574 5   -600553.18847  22274298.12947
  23109686.391 6  -1020888.238 6   -706117.12549  23109687.51649
  22444716.578 6    140250.375 6    100805.32847  22444714.56647
  20673899.641 6   -345688.238 6   -247616.77048  20673896.69548
  24347860.500 6   -233892.891 6   -165224.76647  24347858.78947
  21366361.445 6   -133533.578 6    -96579.27049  21366362.43449
  20946989.078 7   -815012.074 7   -593312.30949  20946989.12549
  21921158.898 7   -221030.180 7   -158786.53548  21921156.43448
 20  5 16  0 21  0.0000000  0  9G03G04G08G14G16G21G26G27G31         -0.000012682
  24654462.359 5    -87040.426 5    -62876.54348  24654464.97748
  22273419.336 5   -823777.645 5   -604157.14546  22273417.87546
  23108567.813 6  -1026765.242 6   -710696.60949  23108569.24249
  22444882.727 6    141121.395 6    101484.04347  22444880.66447
  20673528.398 6   -347640.031 6   -249137.65248  20673525.43448
  24347397.297 6   -236326.891 6   -167121.38747  24347396.11347
  21366219.945 6   -134277.953 6    -97159.30149  21366221.01249
  20946088.344 7   -819746.379 7   -597001.37549  20946088.07049
  21920923.500 7   -222267.047 7   -159750.32448  21920920.90648
 20  5 16  0 21  1.0000000  0  9G03G04G08G14G16G21G26G27G31         -0.000014160
  24654344.930 4    -87656.684 4    -63356.73448  24654347.25848
  22272538.758 4   -828401.930 4   -607760.48446  22272537.94546
  23107449.398 5  -1032641.664 5   -715275.62148  23107450.89148
  22445048.227 6    141993.043 6    102163.25447  22445046.87547
  20673156.875 6   -349591.191 6   -250658.03948  20673154.26248
  24346934.555 6   -238760.172 6   -169017.45747  24346932.67647
  21366078.266 6   -135021.926 6    -97739.02049  21366079.14549
  20945187.422 7   -824479.848 7   -600689.78949  20945187.26649
  21920687.570 7   -223503.355 7   -160713.68848  21920685.90248
 20  5 16  0 21  2.0000000  0  9G03G04G08G14G16G21G26G27G31         -0.000015636
  24654228.406 4    -88272.457 4    -63836.57048  24654230.19148
  22271658.898 4   -833025.461 4   -611363.23446  22271657.96546
  23106331.508 6  -1038517.551 6   -719854.23048  23106332.59848
  22445214.633 6    142865.316 6    102842.95347  22445212.80547
  20672785.688 6   -351541.746 6   -252177.95348  20672782.95748
  24346471.336 6   -241192.738 6   -170912.96547  24346469.69147
  21365936.953 6   -135765.480 6    -98318.41449  21365937.94949
  20944286.836 7   -829212.449 7   -604377.52349  20944286.50449
  21920453.102 7   -224739.105 7   -161676.60248  21920450.62548
 20  5 16  0 21  3.0000000  0  9G03G04G08G14G16G21G26G27G31         -0.000017115
  24654111.320 4    -88887.840 4    -64316.09048  24654112.98048
  22270779.188 4   -837648.172 4   -614965.34846  22270778.29746
  23105213.586 6  -1044392.945 6   -724432.46148  23105214.77348
  22445380.336 6    143738.176 6    103523.09847  22445378.85247
  20672414.547 6   -353491.676 6   -253697.37948  20672411.83248
  24346008.602 6   -243624.625 6   -172807.94547  24346006.71947
  21365795.594 6   -136508.660 6    -98897.52049  21365796.49649
  20943386.344 7   -833944.219 7   -608064.61749  20943385.99649
  21920217.938 7   -225974.324 7   -162639.10948  21920215.65248
 20  5 16  0 21  4.0000000  0  9G03G04G08G14G16G21G26G27G31         -0.000018591
  24653994.281 4    -89502.766 4    -64795.25448  24653996.03948
  22269900.008 4   -842270.102 4   -618566.84446  22269898.71546
  23104095.469 5  -1050267.734 5   -729010.21148  23104096.77348
  22445547.086 6    144611.676 6    104203.74647  22445545.22347
  20672043.828 6   -355440.977 6   -255216.30948  20672040.96148
  24345545.797 6   -246055.754 6   -174702.33647  24345544.21947
  21365654.305 6   -137251.430 6    -99476.30149  21365655.20749
  20942486.281 7   -838675.148 7   -611751.04749  20942486.07049
  21919982.586 6   -227208.973 6   -163601.17648  21919980.37148
 20  5 16  0 21  5.0000000  0  9G03G04G08G14G16G21G26G27G31         -0.000020069
  24653876.938 4    -90117.207 4    -65274.03548  24653879.24248
  22269020.367 4   -846891.273 4   -622167.75446  22269019.17646
  23102978.188 6  -1056142.023 6   -733587.57848  23102978.51248
  22445713.211 6    145485.789 6    104884.85947  22445711.81347
  20671673.414 6   -357389.660 6   -256734.77048  20671670.03148
  24345083.563 6   -248486.188 6   -176596.18447  24345081.67647
  21365512.828 6   -137993.773 6   -100054.75049  21365513.64549
  20941586.281 7   -843405.203 7   -615436.80549  20941585.93049
  21919747.805 6   -228443.070 6   -164562.81348  21919745.44148
 20  5 16  0 21  6.0000000  0  9G03G04G08G14G16G21G26G27G31         -0.000021545
  24653760.352 4    -90731.207 4    -65752.48048  24653762.08648
  22268141.430 5   -851511.664 5   -625768.06346  22268140.07046
  23101859.992 6  -1062015.750 6   -738164.51648  23101861.21148
  22445879.391 6    146360.520 6    105566.45747  22445878.39147
  20671302.328 6   -359337.730 6   -258252.74648  20671299.36748
  24344621.188 6   -250915.941 6   -178489.50447  24344618.94147
  21365371.836 6   -138735.711 6   -100632.88749  21365372.36749
  20940685.875 7   -848134.418 7   -619121.91449  20940685.71949
  21919513.188 6   -229676.598 6   -165524.00848  21919510.71948
 20  5 16  0 21  7.0000000  0  9G03G04G08G14G16G21G26G27G31         -0.000023022
  24653643.500 4    -91344.789 4    -66230.60548  24653645.47348
  22267262.133 5   -856131.254 5   -629367.74646  22267261.36346
  23100742.695 6  -1067888.949 6   -742741.05149  23100743.41849
  22446046.492 6    147235.891 6    106248.56347  22446044.77347
  20670931.359 6   -361285.148 6   -259770.21548  20670928.86348
  24344158.461 6   -253344.953 6   -180382.23447  24344156.80547
  21365230.570 6   -139477.211 6   -101210.67649  21365231.55949
  20939786.891 7   -852862.758 7   -622806.34449  20939786.17649
  21919278.586 6   -230909.543 6   -166484.74248  21919276.44148
 20  5 16  0 21  8.0000000  0  9G03G04G08G14G16G21G26G27G31         -0.000024498
  24653527.172 4    -91957.898 4    -66708.35948  24653528.81648
  22266383.023 4   -860750.074 4   -632966.83246  22266381.76246
  23099625.234 6  -1073761.609 6   -747317.15649  23099625.93849
  22446213.258 6    148111.855 6    106931.12147  22446211.50447
  20670561.336 6   -363231.918 6   -261287.17648  20670558.51648
  24343696.547 6   -255773.258 6   -182274.41047  24343695.12547
  21365089.766 6   -140218.324 6   -101788.17249  21365090.56349
  20938886.820 7   -857590.266 7   -626490.12149  20938886.31649
  21919044.055 6   -232141.965 6   -167445.07848  21919041.93848
 20  5 16  0 21  9.0000000  0  9G03G04G08G14G16G21G26G27G31         -0.000025976
  24653410.594 4    -92570.695 4    -67185.86748  24653412.09448
  22265503.836 4   -865368.156 4   -636565.33646  22265502.67646
  23098507.297 6  -1079633.781 6   -751892.87148  23098508.24648
  22446379.656 6    148988.371 6    107614.11747  22446378.32447
  20670190.609 6   -365178.168 6   -262803.73448  20670188.02348
  24343234.625 6   -258200.930 6   -184166.10247  24343233.04747
  21364948.906 6   -140959.102 6   -102365.39849  21364949.56649
  20937987.336 7   -862317.016 7   -630173.29349  20937987.47349
  21918810.016 6   -233373.902 6   -168405.02748  21918807.24648
 20  5 16  0 21 10.0000000  0  9G03G04G08G14G16G21G26G27G31         -0.000027451
  24653293.578 4    -93182.965 4    -67662.95348  24653295.15248
  22264625.719 4   -869985.496 4   -640163.25846  22264624.67246
  23097389.898 6  -1085505.426 6   -756468.16848  23097390.99248
  22446547.070 6    149865.535 6    108297.62547  22446544.97347
  20669820.273 6   -367123.785 6   -264319.79748  20669817.78548
  24342772.797 6   -260627.883 6   -186057.24247  24342770.92247
  21364807.477 6   -141699.469 6   -102942.30949  21364808.30149
  20937088.211 7   -867042.883 7   -633855.78949  20937087.85949
  21918575.172 6   -234605.246 6   -169364.52048  21918572.99648
 20  5 16  0 21 11.0000000  0  9G03G04G08G14G16G21G26G27G31         -0.000028927
  24653177.664 4    -93794.734 4    -68139.65648  24653179.50048
  22263747.070 4   -874601.902 4   -643760.45346  22263746.03546
  23096272.805 6  -1091376.449 6   -761042.97348  23096273.68048
  22446713.852 6    150743.402 6    108981.67247  22446712.31647
  20669450.508 6   -369068.664 6   -265835.28948  20669447.61348
  24342311.438 6   -263054.012 6   -187947.73447  24342309.83247
  21364666.914 6   -142439.293 6   -103518.79349  21364667.54749
  20936188.922 7   -871767.820 7   -637537.55149  20936188.93849
  21918341.258 7   -235835.961 7   -170323.51248  21918338.68448
 20  5 16  0 21 12.0000000  0  9G03G04G08G14G16G21G26G27G31         -0.000030403
  24653061.047 4    -94406.082 4    -68616.03148  24653062.98048
  22262868.805 4   -879217.531 4   -647357.04346  22262867.73846
  23095155.531 5  -1097246.922 5   -765617.36748  23095157.02048
  22446881.141 6    151621.871 6    109666.19547  22446879.40647
  20669080.430 6   -371012.934 6   -267350.30948  20669077.96548
  24341849.781 6   -265479.473 6   -189837.70747  24341848.09447
  21364525.914 6   -143178.734 6   -104094.98449  21364527.34449
  20935289.758 7   -876491.879 7   -641218.63749  20935290.00849
  21918107.063 6   -237066.102 6   -171282.05948  21918104.80948
 20  5 16  0 21 13.0000000  0  9G03G04G08G14G16G21G26G27G31         -0.000031878
  24652944.539 4    -95016.969 4    -69092.04348  24652946.49248
  22261990.992 4   -883832.457 4   -650953.07846  22261989.75446
  23094038.750 5  -1103116.895 5   -770191.37148  23094039.53948
  22447048.359 6    152500.930 6    110351.18447  22447046.81647
  20668710.734 6   -372956.590 6   -268864.84048  20668707.98048
  24341388.594 6   -267904.211 6   -191727.10547  24341386.55147
  21364385.227 6   -143917.805 6   -104670.88749  21364386.00049
  20934391.328 7   -881215.160 7   -644899.10549  20934391.09849
  21917872.852 6   -238295.742 6   -172240.22348  21917870.37548
 20  5 16  0 21 14.0000000  0  9G03G04G08G14G16G21G26G27G31         -0.000033354
  24652828.664 4    -95627.426 4    -69567.73048  24652830.11348
  22261111.961 4   -888446.574 4   -654548.49246  22261111.35546
  23092921.508 6  -1108986.285 6   -774764.92648  23092923.17648
  22447216.109 6    153380.621 6    111036.66447  22447214.15247
  20668340.664 6   -374899.629 6   -270378.89848  20668338.07848
  24340927.266 6   -270328.270 6   -193615.98047  24340925.25847
  21364244.914 6   -144656.457 6   -105246.46149  21364245.75049
  20933492.742 7   -885937.543 7   -648578.88349  20933492.41449
  21917638.977 6   -239524.793 6   -173197.92648  21917636.79348
 20  5 16  0 21 15.0000000  0  9G03G04G08G14G16G21G26G27G31         -0.000034828
  24652712.195 5    -96237.547 5    -70043.14848  24652714.11748
  22260234.953 4   -893060.004 4   -658143.36346  22260233.71146
  23091804.477 5  -1114855.258 5   -779338.15648  23091805.86348
  22447383.078 6    154260.820 6    111722.52747  22447381.62147
  20667971.328 6   -376842.137 6   -271892.53548  20667968.39148
  24340466.258 6   -272751.703 6   -195504.37147  24340464.09847
  21364104.688 6   -145394.797 6   -105821.78949  21364105.03149
  20932593.914 7   -890659.195 7   -652258.09449  20932593.98449
  21917405.430 6   -240753.398 6   -174155.27748  21917403.27748
 20  5 16  0 21 16.0000000  0  9G03G04G08G14G16G21G26G27G31         -0.000036303
  24652596.664 5    -96847.136 5    -70518.15848  24652598.21148
  22259356.961 4   -897672.637 4   -661737.62546  22259355.81346
  23090688.148 6  -1120723.629 6   -783910.91448  23090689.53948
  22447550.930 6    155141.672 6    112408.89847  22447549.36347
  20667601.445 6   -378784.023 6   -273405.69148  20667598.85548
  24340004.945 6   -275174.398 6   -197392.18447  24340003.40247
  21363964.008 6   -146132.699 6   -106396.78149  21363964.71949
  20931695.813 7   -895379.957 7   -655936.61349  20931695.44549
  21917171.664 6   -241981.422 6   -175112.19148  21917169.09048
 20  5 16  0 21 17.0000000  0  9G03G04G08G14G16G21G26G27G31         -0.000037779
  24652480.594 4    -97456.383 4    -70992.90248  24652482.16448
  22258479.094 4   -902284.449 4   -665331.25446  22258478.41446
  23089571.742 5  -1126591.500 5   -788483.28948  23089573.26648
  22447718.891 6    156023.137 6    113095.74647  22447717.10947
  20667232.320 6   -380725.266 6   -274918.34848  20667229.50448
  24339544.070 6   -277596.383 6   -199279.44147  24339542.41447
  21363823.727 6   -146870.188 6   -106971.45749  21363824.54349
  20930797.492 7   -900099.895 7   -659614.48849  20930797.09049
  21916938.047 6   -243208.895 6   -176068.66448  21916935.70348
 20  5 16  0 21 18.0000000  0  9G03G04G08G14G16G21G26G27G31         -0.000039253
  24652364.648 5    -98065.129 5    -71467.25848  24652366.72748
  22257601.258 4   -906895.492 4   -668924.28146  22257600.77746
  23088455.250 6  -1132458.758 6   -793055.18048  23088456.25848
  22447886.352 6    156905.254 6    113783.11347  22447884.89547
  20666863.047 6   -382665.852 6   -276430.49648  20666859.83648
  24339083.352 6   -280017.641 6   -201166.13347  24339081.64547
  21363683.523 6   -147607.250 6   -107545.78549  21363684.16049
  20929899.453 7   -904818.934 7   -663291.66449  20929899.40649
  21916704.578 6   -244435.762 6   -177024.66448  21916702.30548
 20  5 16  0 21 19.0000000  0  9G03G04G08G14G16G21G26G27G31         -0.000040728
  24652248.508 5    -98673.434 5    -71941.27048  24652250.94548
  22256724.063 4   -911505.785 4   -672516.72746  22256723.50846
  23087338.727 6  -1138325.527 6   -797626.68449  23087340.20349
  22448054.422 6    157787.926 6    114470.91047  22448052.98447
  20666493.555 6   -384605.867 6   -277942.19548  20666490.87948
  24338622.883 6   -282438.223 6   -203052.30947  24338621.21547
  21363543.492 6   -148343.965 6   -108119.84849  21363544.18049
  20929001.461 7   -909537.203 7   -666968.23849  20929001.35949
  21916471.500 6   -245662.168 6   -177980.30948  21916468.85248
 20  5 16  0 21 20.0000000  0  9G03G04G08G14G16G21G26G27G31         -0.000042200
  24652132.898 4    -99281.301 4    -72414.93048  24652134.89148
  22255846.320 4   -916115.297 4   -676108.55146  22255846.19546
  23086222.359 6  -1144191.738 6   -802197.75449  23086224.05949
  22448222.156 6    158671.258 6    115159.22347  22448221.13347
  20666124.445 6   -386545.246 6   -279453.40648  20666121.93048
  24338162.125 6   -284858.070 6   -204937.89547  24338160.87547
  21363403.188 6   -149080.227 6   -108693.55949  21363404.19149
  20928103.984 7   -914254.547 7   -670644.09049  20928103.95749
  21916237.813 6   -246887.938 6   -178935.44948  21916235.83248
 20  5 16  0 21 21.0000000  0  9G03G04G08G14G16G21G26G27G31         -0.000043674
  24652017.258 5    -99888.727 5    -72888.25048  24652019.50448
  22254970.070 4   -920724.004 4   -679699.74246  22254969.36346
  23085105.945 6  -1150057.379 6   -806768.39849  23085108.21549
  22448390.516 6    159555.215 6    115848.01647  22448389.07047
  20665755.914 6   -388483.973 6   -280964.10248  20665753.10548
  24337701.688 6   -287277.203 6   -206822.93847  24337699.98047
  21363263.266 6   -149816.070 6   -109266.94549  21363263.70749
  20927206.328 7   -918971.066 7   -674319.29749  20927206.43849
  21916004.914 6   -248113.160 6   -179890.16848  21916002.70348
 20  5 16  0 21 22.0000000  0  9G03G04G08G14G16G21G26G27G31         -0.000045149
  24651901.867 5   -100495.668 5    -73361.19548  24651904.60548
  22254092.641 4   -925331.926 4   -683290.32846  22254092.16846
  23083989.859 6  -1155922.527 6   -811338.64849  23083991.78149
  22448559.086 6    160439.781 6    116537.27747  22448557.46947
  20665386.867 6   -390422.078 6   -282474.31648  20665384.45748
  24337241.367 6   -289695.621 6   -208707.41047  24337239.91447
  21363123.109 6   -150551.512 6   -109840.01649  21363123.93449
  20926308.938 7   -923686.711 7   -677993.82849  20926308.93049
  21915771.586 6   -249337.836 6   -180844.46148  21915769.20348
 20  5 16  0 21 23.0000000  0 10G03G04G08G14G16G21G26G27G31S22      -0.000046621
  24651786.914 4   -101102.211 4    -73833.82048  24651788.76248
  22253215.906 4   -929939.020 4   -686880.28146  22253215.47746
  23082873.484 5  -1161787.086 5   -815908.43849  23082875.25449
  22448726.945 6    161325.000 6    117227.05547  22448725.77347
  20665018.109 6   -392359.527 6   -283984.02048  20665015.52048
  24336781.375 6   -292113.305 6   -210591.32847  24336779.78547
  21362983.359 6   -151286.477 6   -110412.72349  21362984.00449
  20925411.625 7   -928401.465 7   -681667.66049  20925411.86349
  21915538.477 6   -250561.898 6   -181798.27748  21915536.34048
  36915875.89116    -17680.74216                
 20  5 16  0 21 24.0000000  0 10G03G04G08G14G16G21G26G27G31S22      -0.000048096
  24651670.906 4   -101708.273 4    -74306.08248  24651673.36748
  22252340.023 4   -934545.313 4   -690469.58646  22252339.07446
  23081758.063 5  -1167651.125 5   -820477.80148  23081759.69148
  22448896.156 6    162210.828 6    117917.30947  22448894.42247
  20664649.898 6   -394296.355 6   -285493.23448  20664646.90248
  24336321.477 6   -294530.301 6   -212474.69947  24336320.20747
  21362843.805 6   -152021.094 6   -110985.14549  21362844.19949
  20924514.531 7   -933115.395 7   -685340.85249  20924514.86749
  21915305.945 6   -251785.438 6   -182751.68848  21915304.03548
  36915422.563 5    -20070.641 5                
 20  5 16  0 21 25.0000000  0 10G03G04G08G14G16G21G26G27G31S22      -0.000049568
  24651556.344 5   -102313.883 5    -74777.98848  24651557.76648
  22251463.047 4   -939150.855 4   -694058.32046  22251462.61746
  23080642.102 6  -1173514.613 6   -825046.75049  23080643.93049
  22449064.422 6    163097.258 6    118608.03547  22449063.03547
  20664281.063 6   -396232.613 6   -287002.00048  20664278.19148
  24335861.703 6   -296946.547 6   -214357.48447  24335859.91847
  21362704.313 6   -152755.313 6   -111557.27049  21362704.97749
  20923618.203 7   -937828.480 7   -689013.38749  20923617.84049
  21915073.414 6   -253008.422 6   -183704.66448  21915070.98448
  36914964.313 6    -22460.297 6                
 20  5 16  0 21 26.0000000  0 10G03G04G08G14G16G21G26G27G31S22      -0.000051043
  24651441.453 4   -102919.117 4    -75249.60548  24651443.20348
  22250587.328 4   -943755.691 4   -697646.50046  22250586.05546
  23079526.789 5  -1179377.590 5   -829615.30949  23079528.40649
  22449233.141 6    163984.262 6    119299.20347  22449232.09447
  20663913.195 6   -398168.246 6   -288510.28948  20663910.43848
  24335402.211 6   -299362.164 6   -216239.78947  24335400.28947
  21362564.469 6   -153489.137 6   -112129.07449  21362564.91049
  20922721.367 7   -942540.742 7   -692685.27749  20922721.49649
  21914840.641 6   -254230.887 6   -184657.23448  21914838.45348
  36914516.000 5    -24849.813 5                
 20  5 16  0 21 27.0000000  0 10G03G04G08G14G16G21G26G27G31S22      -0.000052515
  24651325.953 4   -103523.852 4    -75720.83248  24651327.69148
  22249711.594 4   -948359.656 4   -701234.01246  22249709.90246
  23078410.781 5  -1185240.012 5   -834183.42649  23078412.96949
  22449402.563 6    164871.922 6    119990.88347  22449400.73447
  20663544.875 6   -400103.215 6   -290018.05948  20663541.80148
  24334942.250 6   -301777.020 6   -218121.49647  24334940.83247
  21362424.633 6   -154222.512 6   -112700.53549  21362425.51249
  20921824.891 7   -947252.129 7   -696356.48849  20921824.73849
  21914607.930 6   -255452.750 6   -185609.33648  21914605.61748
  36914059.953 6    -27238.688 6                
 20  5 16  0 21 28.0000000  0 10G03G04G08G14G16G21G26G27G31S22      -0.000053988
  24651211.281 4   -104128.191 4    -76191.75048  24651213.11348
  22248835.742 4   -952962.918 4   -704820.97746  22248834.33246
  23077295.625 5  -1191101.910 5   -838751.13348  23077297.32448
  22449571.766 6    165760.160 6    120683.02347  22449569.97347
  20663176.656 6   -402037.641 6   -291525.40248  20663174.16448
  24334483.180 6   -304191.215 6   -220002.68847  24334481.54747
  21362285.266 6   -154955.527 6   -113271.71549  21362285.84849
  20920928.211 7   -951962.715 7   -700027.07049  20920928.35249
  21914375.539 6   -256674.098 6   -186561.03948  21914373.00448
  36913605.688 6    -29627.531 6                
 20  5 16  0 21 29.0000000  0 10G03G04G08G14G16G21G26G27G31S22      -0.000055460
  24651095.711 4   -104732.051 4    -76662.28548  24651098.14848
  22247959.273 4   -957565.301 4   -708407.23846  22247957.84446
  23076180.203 5  -1196963.246 5   -843318.40248  23076181.81648
  22449740.383 6    166649.063 6    121375.67647  22449739.07847
  20662808.563 6   -403971.367 6   -293032.19948  20662806.00448
  24334023.516 6   -306604.648 6   -221883.28547  24334021.92647
  21362145.844 6   -155688.090 6   -113842.54349  21362146.39549
  20920032.117 7   -956672.379 7   -703696.93849  20920031.82449
  21914143.313 6   -257894.852 6   -187512.27348  21914140.91848
  36913153.156 6    -32015.906 6                
 20  5 16  0 21 30.0000000  0 10G03G04G08G14G16G21G26G27G31S22      -0.000056931
  24650981.875 4   -105335.422 4    -77132.44948  24650983.23848
  22247083.047 5   -962166.941 5   -711992.94946  22247082.51246
  23075064.961 5  -1202823.988 5   -847885.23849  23075066.41849
  22449909.680 6    167538.563 6    122068.78147  22449908.21547
  20662440.602 6   -405904.504 6   -294538.53948  20662438.20348
  24333564.922 6   -309017.336 6   -223763.29347  24333563.30547
  21362006.609 6   -156420.289 6   -114413.08649  21362007.16849
  20919136.000 7   -961381.172 7   -707366.13749  20919136.12149
  21913911.305 6   -259115.047 6   -188463.07448  21913909.07448
  36912693.328 6    -34404.141 6                
 20  5 16  0 21 31.0000000  0 10G03G04G08G14G16G21G26G27G31S22      -0.000058403
  24650867.570 4   -105938.496 4    -77602.35948  24650868.69148
  22246208.281 6   -966767.844 6   -715578.11747  22246206.86347
  23073949.852 5  -1208684.297 5   -852451.74249  23073950.86749
  22450079.703 6    168428.625 6    122762.32847  22450077.53547
  20662072.508 6   -407837.020 6   -296044.41448  20662070.60248
  24333105.680 5   -311429.379 5   -225642.80147  24333104.33647
  21361867.305 6   -157152.109 6   -114983.34849  21361867.67649
  20918239.836 7   -966089.211 7   -711034.74249  20918240.00449
  21913678.906 6   -260334.734 6   -189413.48048  21913676.49648
  36912246.813 6    -36791.773 6                
 20  5 16  0 21 32.0000000  0 10G03G04G08G14G16G21G26G27G31S22      -0.000059875
  24650752.438 4   -106541.008 4    -78071.83648  24650753.93048
  22245332.906 6   -971367.891 6   -719162.61348  22245331.39148
  23072834.766 5  -1214543.977 5   -857017.75049  23072835.98049
  22450248.727 6    169319.402 6    123456.42647  22450247.22747
  20661705.266 6   -409768.867 6   -297549.77348  20661702.68048
  24332646.836 5   -313840.691 5   -227521.74647  24332645.15647
  21361728.055 6   -157883.441 6   -115553.22349  21361728.55549
  20917344.234 7   -970796.301 7   -714702.62149  20917344.60949
  21913447.117 6   -261553.797 6   -190363.40249  21913444.66849
  36911787.672 6    -39179.238 6                
 20  5 16  0 21 33.0000000  0 10G03G04G08G14G16G21G26G27G31S22      -0.000061346
  24650637.602 4   -107143.074 4    -78540.97348  24650639.66048
  22244457.727 6   -975967.164 6   -722746.46948  22244456.29748
  23071719.555 5  -1220403.125 5   -861583.32049  23071721.00449
  22450418.641 6    170210.762 6    124150.98847  22450416.64547
  20661337.602 6   -411700.105 6   -299054.65248  20661335.32848
  24332188.016 5   -316251.270 5   -229400.10946  24332186.48446
  21361589.109 6   -158614.359 6   -116122.77749  21361590.02049
  20916448.664 7   -975502.566 7   -718369.84449  20916448.61749
  21913215.086 7   -262772.301 7   -191312.88749  21913212.83249
  36911332.359 6    -41566.121 6                
 20  5 16  0 21 34.0000000  0 10G03G04G08G14G16G21G26G27G31S22      -0.000062819
  24650523.320 4   -107744.727 4    -79009.80148  24650525.21948
  22243582.727 6   -980565.648 6   -726329.69148  22243581.58248
  23070605.172 5  -1226261.715 5   -866148.44949  23070606.49249
  22450588.188 6    171102.746 6    124846.04347  22450586.05547
  20660970.180 6   -413630.688 6   -300558.99248  20660968.01248
  24331729.094 5   -318661.145 5   -231277.94547  24331727.78947
  21361450.102 6   -159344.875 6   -116692.01249  21361451.03549
  20915553.188 7   -980207.992 7   -722036.40249  20915553.49649
  21912983.328 6   -263990.258 6   -192261.94549  21912981.41449
  36910880.938 5    -43952.578 5                
 20  5 16  0 21 35.0000000  0 10G03G04G08G14G16G21G26G27G31S22      -0.000064289
  24650408.656 4   -108345.996 4    -79478.33048  24650410.68848
  22242707.531 6   -985163.395 6   -729912.34448  22242706.77748
  23069490.141 5  -1232119.793 5   -870713.17249  23069491.52349
  22450757.969 6    171995.336 6    125541.57047  22450755.90247
  20660602.797 6   -415560.672 6   -302062.87148  20660600.48448
  24331271.016 6   -321070.313 6   -233155.21947  24331269.51647
  21361311.281 6   -160075.000 6   -117260.93449  21361311.86749
  20914657.953 7   -984912.543 7   -725702.28549  20914657.92649
  21912751.625 7   -265207.664 7   -193210.57849  21912749.18849
  36910427.266 5    -46338.969 5                
 20  5 16  0 21 36.0000000  0 10G03G04G08G14G16G21G26G27G31S22      -0.000065760
  24650293.945 4   -108946.707 4    -79946.41048  24650296.06648
  22241833.555 6   -989760.340 6   -733494.36347  22241831.97347
  23068375.398 5  -1237977.297 5   -875277.43849  23068377.07849
  22450927.445 6    172888.531 6    126237.56347  22450925.90247
  20660235.711 6   -417490.063 6   -303566.27348  20660233.86748
  24330812.219 6   -323478.781 6   -235031.95747  24330810.84447
  21361172.047 6   -160804.695 6   -117829.53549  21361172.34449
  20913763.055 7   -989616.270 7   -729367.51649  20913763.20749
  21912520.086 7   -266424.535 7   -194158.79749  21912517.79349
  36909972.078 6    -48724.871 6                
 20  5 16  0 21 37.0000000  0 10G03G04G08G14G16G21G26G27G31S22      -0.000067230
  24650180.133 4   -109546.977 4    -80414.14548  24650182.21548
  22240958.219 6   -994356.426 6   -737075.71547  22240957.09847
  23067260.930 5  -1243834.215 5   -879841.24649  23067262.57049
  22451097.852 6    173782.398 6    126934.09047  22451096.22347
  20659868.836 6   -419418.742 6   -305069.13348  20659866.63748
  24330354.156 6   -325886.453 6   -236908.08247  24330352.98447
  21361033.250 6   -161533.941 6   -118397.77049  21361033.87949
  20912868.102 7   -994319.063 7   -733032.02049  20912867.91449
  21912288.672 7   -267640.758 7   -195106.50449  21912286.10549
  36909518.047 6    -51110.652 6                
 20  5 16  0 21 38.0000000  0 10G03G04G08G14G16G21G26G27G31S22      -0.000068701
  24650065.828 4   -110146.914 4    -80881.62548  24650068.22748
  22240083.828 6   -998951.805 6   -740656.52747  22240082.82047
  23066146.547 5  -1249690.652 5   -884404.69549  23066148.57849
  22451267.781 6    174676.809 6    127631.03547  22451266.26647
  20659501.766 6   -421346.875 6   -306571.57048  20659499.97348
  24329896.234 6   -328293.484 6   -238783.69147  24329894.96147
  21360894.633 6   -162262.863 6   -118965.76649  21360895.25849
  20911973.203 7   -999021.090 7   -736695.93449  20911973.50849
  21912057.328 7   -268856.523 7   -196053.85249  21912054.93049
  36909060.219 6    -53495.848 6                
 20  5 16  0 21 39.0000000  0 10G03G04G08G14G16G21G26G27G31S22      -0.000070171
  24649951.734 5   -110746.316 5    -81348.69548  24649954.11748
  22239209.641 6  -1003546.328 6   -744236.68848  22239207.88348
  23065032.555 5  -1255546.457 5   -888967.67249  23065033.46149
  22451438.320 6    175571.891 6    128328.50447  22451436.37547
  20659135.250 6   -423274.332 6   -308073.50048  20659132.89148
  24329438.336 5   -330699.797 5   -240658.73447  24329436.68847
  21360756.102 6   -162991.316 6   -119533.39149  21360756.81349
  20911078.688 7  -1003722.223 7   -740359.16449  20911079.11349
  21911826.430 7   -270071.664 7   -197000.71549  21911823.85249
  36908612.734 6    -55880.820 6                
 20  5 16  0 21 40.0000000  0 10G03G04G08G14G16G21G26G27G31S22      -0.000071642
  24649837.430 4   -111345.328 4    -81815.48848  24649840.04748
  22238335.281 6  -1008140.121 6   -747816.28548  22238334.02348
  23063918.133 5  -1261401.805 5   -893530.32049  23063919.66449
  22451608.945 6    176467.559 6    129026.41847  22451607.02047
  20658768.734 6   -425201.219 6   -309574.99248  20658766.21548
  24328980.914 5   -333105.371 5   -242533.19147  24328979.37947
  21360617.484 6   -163719.406 6   -120100.73449  21360618.03549
  20910183.883 7  -1008422.527 7   -744021.75449  20910184.27049
  21911594.922 6   -271286.277 6   -197947.17649  21911592.44549
  36908154.516 6    -58265.379 6                
 20  5 16  0 21 41.0000000  0 10G03G04G08G14G16G21G26G27G31S22      -0.000073112
  24649724.461 4   -111943.891 4    -82281.91048  24649725.78948
  22237461.016 6  -1012733.133 6   -751395.25848  22237460.25448
  23062803.938 5  -1267256.598 5   -898092.51649  23062805.48849
  22451779.344 6    177363.836 6    129724.80947  22451777.26647
  20658401.688 6   -427127.465 6   -311075.97348  20658399.28148
  24328523.172 5   -335510.266 5   -244407.11746  24328521.60946
  21360479.141 6   -164447.074 6   -120667.75449  21360479.81649
  20909290.055 7  -1013121.984 7   -747683.66849  20909290.36749
  21911364.289 6   -272500.332 6   -198893.18849  21911361.64149
  36907703.391 6    -60649.754 6                
 20  5 16  0 21 42.0000000  0 10G03G04G08G14G16G21G26G27G31S22      -0.000074581
  24649610.305 4   -112542.004 4    -82747.96948  24649612.23848
  22236587.586 6  -1017325.367 6   -754973.61348  22236586.34448
  23061689.820 5  -1273110.840 5   -902654.26249  23061691.73049
  22451950.086 6    178260.766 6    130423.71947  22451948.14847
  20658035.469 6   -429053.098 6   -312576.46948  20658033.21548
  24328065.258 5   -337914.445 5   -246280.49646  24328064.13346
  21360340.820 6   -165174.328 6   -121234.44949  21360341.35249
  20908395.859 7  -1017820.563 7   -751344.89549  20908396.21149
  21911133.070 6   -273713.832 6   -199838.76248  21911130.67648
  36907246.938 5    -63033.641 5                
 20  5 16  0 21 43.0000000  0 10G03G04G08G14G16G21G26G27G31S22      -0.000076052
  24649496.703 5   -113139.660 5    -83213.67248  24649498.75848
  22235713.719 6  -1021916.777 6   -758551.33648  22235712.37948
  23060576.055 5  -1278964.535 5   -907215.57449  23060578.28949
  22452120.984 6    179158.273 6    131123.07047  22452119.07447
  20657669.180 6   -430978.074 6   -314076.43848  20657666.93848
  24327608.180 5   -340317.871 5   -248153.29747  24327606.95747
  21360202.172 6   -165901.164 6   -121800.81349  21360202.96949
  20907501.773 7  -1022518.297 7   -755005.46549  20907501.88349
  21910902.273 6   -274926.770 6   -200783.90248  21910899.78948
  36906795.844 6    -65417.563 6                
 20  5 16  0 21 44.0000000  0 10G03G04G08G14G16G21G26G27G31S22      -0.000077520
  24649383.008 4   -113736.898 4    -83679.04348  24649385.55948
  22234840.266 6  -1026507.414 6   -762128.45748  22234838.85248
  23059462.313 5  -1284817.660 5   -911776.44149  23059464.25449
  22452292.031 6    180056.406 6    131822.91447  22452290.00047
  20657303.023 6   -432902.449 6   -315575.94948  20657300.58648
  24327150.641 5   -342720.637 5   -250025.59046  24327149.37946
  21360064.102 6   -166627.609 6   -122366.86749  21360065.21149
  20906608.250 7  -1027215.191 7   -758665.38349  20906608.59049
  21910671.563 6   -276139.141 6   -201728.60248  21910669.29748
  36906338.125 6    -67801.160 6                
 20  5 16  0 21 45.0000000  0 10G03G04G08G14G16G21G26G27G31S22      -0.000078989
  24649269.211 4   -114333.617 4    -84144.02048  24649271.33648
  22233966.578 6  -1031097.242 6   -765704.94148  22233965.62948
  23058347.859 5  -1290670.195 5   -916336.85249  23058350.15249
  22452462.492 6    180955.215 6    132523.28547  22452460.97347
  20656936.813 6   -434826.156 6   -317074.93448  20656934.45348
  24326693.867 5   -345122.605 5   -251897.25047  24326692.56347
  21359926.055 6   -167353.594 6   -122932.57049  21359926.64849
  20905714.664 7  -1031911.168 7   -762324.58249  20905714.73849
  21910441.391 6   -277350.898 6   -202672.83248  21910438.54748
  36905890.250 6    -70184.340 6                
 20  5 16  0 21 46.0000000  0 10G03G04G08G14G16G21G26G27G31S22      -0.000080460
  24649155.625 4   -114929.957 4    -84608.69948  24649158.23048
  22233093.570 6  -1035686.266 6   -769280.79748  22233092.29348
  23057234.766 5  -1296522.227 5   -920896.87549  23057236.97749
  22452633.742 6    181854.609 6    133224.11347  22452631.77047
  20656570.914 6   -436749.234 6   -318573.44148  20656568.64148
  24326236.914 5   -347523.895 5   -253768.38347  24326235.61347
  21359788.031 6   -168079.180 6   -123497.95749  21359788.93449
  20904821.000 7  -1036606.301 7   -765983.12549  20904821.28149
  21910210.414 6   -278562.129 6   -203616.65248  21910208.05948
  36905434.734 6    -72567.219 6                
 20  5 16  0 21 47.0000000  0 10G03G04G08G14G16G21G26G27G31S22      -0.000081928
  24649042.695 4   -115525.699 4    -85072.92248  24649044.81348
  22232220.398 6  -1040274.398 6   -772855.96148  22232219.24648
  23056120.734 5  -1302373.590 5   -925456.37549  23056123.79349
  22452805.508 6    182754.777 6    133925.54347  22452803.22747
  20656205.219 6   -438671.559 6   -320071.35948  20656202.91848
  24325780.297 5   -349924.344 5   -255638.85947  24325778.68847
  21359649.953 6   -168804.223 6   -124062.92649  21359650.68049
  20903927.945 7  -1041300.453 7   -769640.90649  20903928.31649
  21909980.055 6   -279772.660 6   -204559.92648  21909977.69148
  36904978.969 5    -74949.648 5                
 20  5 16  0 21 48.0000000  0 10G03G04G08G14G16G21G26G27G31S22      -0.000083395
  24648928.984 4   -116120.918 4    -85536.72748  24648931.66848
  22231347.680 6  -1044861.688 6   -776430.48048  22231346.32048
  23055007.469 5  -1308224.336 5   -930015.39549  23055010.04349
  22452976.242 6    183655.598 6    134627.47747  22452974.59847
  20655839.195 6   -440593.230 6   -321568.76248  20655837.07848
  24325323.391 5   -352324.000 5   -257508.72347  24325321.78547
  21359512.414 6   -169528.816 6   -124627.55549  21359512.99649
  20903034.578 7  -1045993.711 7   -773297.98849  20903034.91849
  21909749.906 6   -280982.578 6   -205502.72348  21909747.55148
  36904523.500 6    -77332.160 6                
 20  5 16  0 21 49.0000000  0 10G03G04G08G14G16G21G26G27G31S22      -0.000084864
  24648815.578 4   -116715.730 4    -86000.22348  24648818.29348
  22230475.094 6  -1049448.180 6   -780004.37148  22230473.30948
  23053894.930 5  -1314074.578 5   -934574.02749  23053896.72349
  22453148.133 6    184557.016 6    135329.87547  22453146.14547
  20655473.797 6   -442514.273 6   -323065.68448  20655471.43048
  24324866.961 5   -354722.996 5   -259378.07047  24324865.61347
  21359374.273 6   -170253.008 6   -125191.85549  21359375.17649
  20902141.555 7  -1050686.125 7   -776954.41849  20902141.86749
  21909519.914 6   -282191.953 6   -206445.09848  21909517.25448
  36904069.688 6    -79713.973 6                
 20  5 16  0 21 50.0000000  0 10G03G04G08G14G16G21G26G27G31S22      -0.000086332
  24648703.031 4   -117310.070 4    -86463.35248  24648704.62548
  22229601.984 6  -1054033.863 6   -783577.63748  22229600.91848
  23052781.922 5  -1319924.211 5   -939132.17649  23052783.78149
  22453319.672 6    185459.070 6    136032.77747  22453318.08247
  20655108.422 6   -444434.648 6   -324562.08248  20655105.91448
  24324410.828 5   -357121.223 5   -261246.81647  24324409.21547
  21359236.484 6   -170976.766 6   -125755.82849  21359237.44149
  20901248.953 7  -1055377.641 7   -780610.14549  20901249.02349
  21909289.750 6   -283400.727 6   -207386.98848  21909287.45348
  36903619.484 5    -82095.984 5                
 20  5 16  0 21 51.0000000  0 10G03G04G08G14G16G21G26G27G31S22      -0.000087801
  24648590.234 5   -117903.977 5    -86926.13348  24648592.20748
  22228729.250 6  -1058618.793 6   -787150.31348  22228728.40648
  23051668.078 5  -1325773.324 5   -943689.92649  23051670.38749
  22453491.227 6    186361.754 6    136736.16847  22453490.10947
  20654743.180 6   -446354.418 6   -326058.00448  20654741.00048
  24323954.195 5   -359518.754 5   -263115.03147  24323952.64847
  21359099.008 6   -171700.102 6   -126319.46949  21359099.70349
  20900356.367 7  -1060068.281 7   -784265.18449  20900356.78549
  21909059.898 6   -284608.945 6   -208328.47348  21909057.58648
  36903166.031 5    -84477.313 5                
 20  5 16  0 21 52.0000000  0 10G03G04G08G14G16G21G26G27G31S22      -0.000089268
  24648477.586 5   -118497.355 5    -87388.50848  24648479.43848
  22227857.992 6  -1063202.785 6   -790722.25048  22227856.21148
  23050555.500 5  -1331621.773 5   -948247.15649  23050557.67649
  22453663.797 6    187265.148 6    137440.10547  22453662.08247
  20654378.195 6   -448273.469 6   -327553.36748  20654375.63748
  24323498.406 5   -361915.473 5   -264982.60947  24323496.89847
  21358961.203 6   -172422.953 6   -126882.72749  21358962.16449
  20899463.820 7  -1064758.008 7   -787919.51649  20899464.29749
  21908830.313 6   -285816.508 6   -209269.43048  21908827.98848
  36902714.375 6    -86858.395 6                
 20  5 16  0 21 53.0000000  0 10G03G04G08G14G16G21G26G27G31S22      -0.000090734
  24648364.141 5   -119090.234 5    -87850.48448  24648366.51248
  22226985.727 6  -1067785.941 6   -794293.53948  22226983.94548
  23049443.156 5  -1337469.660 5   -952803.95149  23049444.80949
  22453835.305 6    188169.211 6    138144.56647  22453833.80947
  20654013.102 6   -450191.844 6   -329048.20748  20654010.94948
  24323042.359 5   -364311.410 5   -266849.58647  24323040.53947
  21358823.461 6   -173145.324 6   -127445.62149  21358824.61349
  20898571.750 7  -1069446.816 7   -791573.14149  20898572.08649
  21908600.609 6   -287023.449 6   -210209.90648  21908598.34448
  36902258.734 6    -89238.879 6                
 20  5 16  0 21 54.0000000  0 10G03G04G08G14G16G21G26G27G31S22      -0.000092201
  24648251.578 5   -119682.617 5    -88312.08648  24648253.98848
  22226113.523 6  -1072368.301 6   -797864.21548  22226111.93848
  23048329.711 5  -1343316.867 5   -957360.21549  23048331.89849
  22454007.750 6    189073.953 6    138849.55147  22454005.91047
  20653647.898 6   -452109.535 6   -330542.52048  20653645.94948
  24322586.445 5   -366706.594 5   -268715.95747  24322584.80147
  21358686.578 6   -173867.238 6   -128008.14849  21358687.32449
  20897679.734 7  -1074134.695 7   -795226.03149  20897680.12549
  21908370.805 6   -288229.801 6   -211149.91848  21908368.89548
  36901808.313 6    -91618.809 6                
 20  5 16  0 21 55.0000000  0 10G03G04G08G14G16G21G26G27G31S22      -0.000093670
  24648138.586 5   -120274.457 5    -88773.25848  24648141.25848
  22225241.578 6  -1076949.789 6   -801434.20748  22225239.93048
  23047217.391 5  -1349163.559 5   -961916.07849  23047219.02749
  22454180.008 6    189979.332 6    139555.03947  22454178.32047
  20653283.414 6   -454026.559 6   -332036.30548  20653280.99248
  24322131.117 5   -369101.023 5   -270581.73847  24322129.14147
  21358548.953 6   -174588.676 6   -128570.30549  21358550.30149
  20896787.859 7  -1078821.680 7   -798878.22349  20896788.42249
  21908141.367 6   -289435.516 6   -212089.43448  21908139.23848
  36901352.688 6    -93998.609 6                
 20  5 16  0 21 56.0000000  0 10G03G04G08G14G16G21G26G27G31S22      -0.000095135
  24648026.641 5   -120865.848 5    -89234.08248  24648028.51248
  22224369.867 6  -1081530.410 6   -805003.52748  22224368.34848
  23046104.711 5  -1355009.555 5   -966471.40249  23046106.85249
  22454351.891 6    190885.445 6    140261.10547  22454351.06647
  20652918.578 6   -455942.848 6   -333529.52048  20652916.09848
  24321675.531 5   -371494.617 5   -272446.86747  24321673.75847
  21358411.906 6   -175309.645 6   -129132.10249  21358412.87949
  20895896.031 7  -1083507.699 7   -802529.67249  20895896.41449
  21907911.938 6   -290640.586 6   -213028.44948  21907909.96948
  36900903.234 6    -96377.723 6                
 20  5 16  0 21 57.0000000  0 10G03G04G08G14G16G21G26G27G31S22      -0.000096601
  24647914.273 5   -121456.695 5    -89694.48048  24647916.32848
  22223498.031 6  -1086110.184 6   -808572.18848  22223497.01648
  23044992.297 5  -1360854.984 5   -971026.28149  23044994.60949
  22454524.797 6    191792.227 6    140967.69147  22454523.12947
  20652554.219 6   -457858.453 6   -335022.19148  20652551.68448
  24321220.273 5   -373887.445 5   -274311.40247  24321218.35247
  21358274.711 6   -176030.113 6   -129693.50849  21358275.89149
  20895004.508 7  -1088192.828 7   -806180.42249  20895004.76249
  21907682.844 6   -291845.035 6   -213966.98448  21907680.80148
  36900449.781 6    -98756.793 6                
 20  5 16  0 21 58.0000000  0 10G03G04G08G14G16G21G26G27G31S22      -0.000098068
  24647801.766 5   -122047.039 5    -90154.49248  24647803.81648
  22222627.102 6  -1090689.094 6   -812140.16048  22222625.62548
  23043880.305 5  -1366699.754 5   -975580.64849  23043882.09849
  22454697.836 6    192699.707 6    141674.81347  22454696.14547
  20652189.430 6   -459773.383 6   -336514.34448  20652187.19948
  24320765.297 5   -376279.500 5   -276175.34047  24320763.04747
  21358137.945 6   -176750.125 6   -130254.55149  21358138.71149
  20894112.992 7  -1092877.004 7   -809830.42649  20894113.62549
  21907453.992 6   -293048.852 6   -214905.02748  21907451.62548
  36899999.703 6   -101135.219 6                
 20  5 16  0 21 59.0000000  0 10G03G04G08G14G16G21G26G27G31S22      -0.000099535
  24647689.219 5   -122636.926 5    -90614.14848  24647691.74248
  22221755.633 6  -1095267.223 6   -815707.52748  22221754.39148
  23042768.109 5  -1372544.051 5   -980134.65249  23042770.05149
  22454870.477 6    193607.766 6    142382.39547  22454868.54747
  20651825.320 6   -461687.707 6   -338006.02748  20651823.16848
  24320309.750 5   -378670.875 5   -278038.75047  24320308.24647
  21358000.852 6   -177469.742 6   -130815.28549  21358001.59049
  20893221.961 7  -1097560.375 7   -813479.80549  20893222.39149
  21907225.008 7   -294252.133 7   -215842.65648  21907222.52748
  36899543.766 6   -103513.410 6                
 20  5 16  0 22  0.0000000  0 10G03G04G08G14G16G21G26G27G31S22      -0.000101000
  24647576.641 5   -123226.316 5    -91073.41448  24647579.81648
  22220884.703 6  -1099844.523 6   -819274.25448  22220883.71948
  23041656.109 5  -1378387.633 5   -984688.09049  23041658.18849
  22455043.398 6    194516.543 6    143090.52747  22455041.73447
  20651461.180 6   -463601.328 6   -339497.16448  20651458.80148
  24319854.820 5   -381061.414 5   -279901.50846  24319853.10946
  21357863.867 6   -178188.855 6   -131375.64149  21357865.24249
  20892330.781 7  -1102242.801 7   -817128.44549  20892331.10249
  21906995.930 7   -295454.773 7   -216779.77048  21906993.84448
  36899095.453 6   -105891.090 6                
 20  5 16  0 22  1.0000000  0 10G03G04G08G14G16G21G26G27G31S22      -0.000102465
  24647464.406 5   -123815.191 5    -91532.27748  24647467.74648
  22220014.102 6  -1104420.902 6   -822840.26248  22220012.69148
  23040544.289 5  -1384230.621 5   -989241.05949  23040546.09449
  22455216.359 6    195426.008 6    143799.19947  22455214.75447
  20651096.828 6   -465514.223 6   -340987.73048  20651094.52348
  24319400.125 5   -383451.188 5   -281763.65647  24319398.39547
  21357727.383 6   -178907.473 6   -131935.59849  21357728.27349
  20891439.953 7  -1106924.262 7   -820776.33649  20891440.17649
  21906767.320 7   -296656.762 7   -217716.38748  21906765.24648
  36898634.609 6   -108268.488 6                
 20  5 16  0 22  2.0000000  0 10G03G04G08G14G16G21G26G27G31S22      -0.000103931
  24647353.398 5   -124403.602 5    -91990.78148  24647355.43848
  22219143.125 6  -1108996.457 6   -826405.63748  22219141.67648
  23039432.586 5  -1390073.060 5   -993793.61249  23039434.76249
  22455389.109 6    196336.145 6    144508.39547  22455387.69547
  20650733.125 6   -467426.453 6   -342477.78148  20650730.90248
  24318945.797 5   -385840.180 5   -283625.21547  24318943.99647
  21357590.578 6   -179625.648 6   -132495.21149  21357591.30949
  20890549.289 7  -1111604.840 7   -824423.53549  20890549.66449
  21906538.813 7   -297858.137 7   -218652.52348  21906536.45348
  36898187.203 6   -110645.402 6                
 20  5 16  0 22  3.0000000  0 10G03G04G08G14G16G21G26G27G31S22      -0.000105396
  24647241.547 5   -124991.398 5    -92448.81348  24647243.42248
  22218272.422 6  -1113571.172 6   -829970.35248  22218271.38348
  23038320.539 5  -1395914.781 5   -998345.60549  23038322.86749
  22455562.594 6    197247.000 6    145218.15247  22455561.12147
  20650369.422 6   -469337.961 6   -343967.26648  20650366.85948
  24318491.000 5   -388228.375 5   -285486.14147  24318489.34047
  21357453.992 6   -180343.324 6   -133054.44149  21357455.00449
  20889659.250 7  -1116284.461 7   -828070.00449  20889659.03949
  21906310.016 7   -299058.879 7   -219588.16448  21906308.13348
  36897731.594 6   -113022.133 6                
 20  5 16  0 22  4.0000000  0 10G03G04G08G14G16G21G26G27G31S22      -0.000106861
  24647129.359 4   -125578.711 4    -92906.46148  24647131.94948
  22217402.039 6  -1118144.941 6   -833534.32848  22217400.62148
  23037209.453 5  -1401755.906 5  -1002897.12549  23037211.53949
  22455736.586 5    198158.555 5    145928.44947  22455734.70747
  20650005.594 6   -471248.754 6   -345456.19548  20650003.66848
  24318036.977 5   -390615.746 5   -287346.44547  24318035.48847
  21357317.547 6   -181060.488 6   -133613.27349  21357318.43449
  20888768.875 7  -1120963.129 7   -831715.71549  20888769.19549
  21906082.078 7   -300258.945 7   -220523.28148  21906079.94548
  36897283.984 6   -115398.406 6                
 20  5 16  0 22  5.0000000  0 10G03G04G08G14G16G21G26G27G31S22      -0.000108324
  24647017.633 4   -126165.457 4    -93363.66848  24647020.27348
  22216531.875 6  -1122717.871 6   -837097.65248  22216530.22348
  23036097.516 5  -1407596.398 5  -1007448.16049  23036100.36349
  22455909.727 5    199070.816 5    146639.29747  22455907.96947
  20649642.273 6   -473158.859 6   -346944.58648  20649639.80548
  24317582.969 5   -393002.324 5   -289206.11747  24317580.94147
  21357180.914 6   -181777.156 6   -134171.71949  21357182.23049
  20887878.359 7  -1125640.852 7   -835360.69949  20887878.62949
  21905853.344 7   -301458.359 7   -221457.89548  21905851.37148
  36896830.078 6   -117774.398 6                
 20  5 16  0 22  6.0000000  0 10G03G04G08G14G16G21G26G27G31S22      -0.000109789
  24646905.844 5   -126751.844 5    -93820.59448  24646909.10948
  22215662.258 6  -1127289.992 6   -840660.34848  22215660.61748
  23034986.797 5  -1413436.258 5  -1011998.69149  23034988.54349
  22456083.617 5    199983.691 5    147350.62947  22456082.07047
  20649278.820 6   -475068.305 6   -348432.46948  20649276.77348
  24317128.844 5   -395388.180 5   -291065.23047  24317127.24647
  21357044.664 6   -182493.406 6   -134729.83649  21357046.03149
  20886988.203 7  -1130317.695 7   -839004.98849  20886988.63749
  21905625.594 6   -302657.215 6   -222392.06648  21905623.50048
  36896372.141 5   -120149.895 5                
 20  5 16  0 22  7.0000000  0 10G03G04G08G14G16G21G26G27G31S22      -0.000111254
  24646794.703 4   -127337.625 4    -94277.04748  24646797.25848
  22214791.898 6  -1131861.211 6   -844222.33648  22214790.89148
  23033875.523 5  -1419275.559 5  -1016548.79349  23033877.62149
  22456257.586 5    200897.270 5    148062.50847  22456255.77347
  20648916.117 6   -476977.039 6   -349919.79348  20648913.86348
  24316675.086 5   -397773.230 5   -292923.71547  24316673.13347
  21356908.531 6   -183209.148 6   -135287.55949  21356909.53949
  20886098.594 7  -1134993.602 7   -842648.55549  20886098.90649
  21905397.422 6   -303855.406 6   -223325.72348  21905395.09848
  36895925.594 6   -122525.195 6                
 20  5 16  0 22  8.0000000  0 10G03G04G08G14G16G21G26G27G31S22      -0.000112717
  24646683.297 4   -127922.840 4    -94733.06348  24646685.78548
  22213922.680 6  -1136431.574 6   -847783.65648  22213920.62948
  23032764.031 5  -1425114.133 5  -1021098.33249  23032766.30549
  22456431.586 5    201811.594 5    148774.96547  22456429.31347
  20648552.852 6   -478885.039 6   -351406.55148  20648550.55948
  24316221.680 5   -400157.438 5   -294781.53147  24316219.58647
  21356772.547 6   -183924.371 6   -135844.87549  21356773.31649
  20885209.289 7  -1139668.539 7   -846291.35949  20885209.36749
  21905169.648 6   -305052.926 6   -224258.85948  21905167.57848
  36895471.359 6   -124900.047 6                
 20  5 16  0 22  9.0000000  0 10G03G04G08G14G16G21G26G27G31S22      -0.000114180
  24646571.852 4   -128507.578 4    -95188.70348  24646574.62948
  22213053.055 6  -1141000.992 6   -851344.24248  22213051.44548
  23031653.578 5  -1430952.102 5  -1025647.39549  23031655.56649
  22456605.250 5    202726.609 5    149487.96947  22456603.50047
  20648189.875 6   -480792.293 6   -352892.71948  20648187.38348
  24315767.563 5   -402540.848 5   -296638.73847  24315766.03947
  21356636.648 6   -184639.078 6   -136401.79349  21356637.69149
  20884319.523 7  -1144342.504 7   -849933.41449  20884319.77749
  21904942.031 6   -306249.770 6   -225191.46948  21904939.87548
  36895019.813 6   -127274.590 6                
 20  5 16  0 22 10.0000000  0 10G03G04G08G14G16G21G26G27G31S22      -0.000115643
  24646460.664 5   -129091.723 5    -95643.87948  24646463.54748
  22212183.773 6  -1145569.578 6   -854904.17648  22212182.13748
  23030542.969 5  -1436789.418 5  -1030195.96149  23030544.78949
  22456779.570 5    203642.359 5    150201.53947  22456778.20747
  20647827.047 6   -482698.875 6   -354378.37148  20647824.32848
  24315314.414 5   -404923.461 5   -298495.32047  24315312.52747
  21356501.000 6   -185353.301 6   -136958.33649  21356501.63749
  20883430.156 7  -1149015.520 7   -853574.72349  20883430.37549
  21904714.203 7   -307445.965 7   -226123.57049  21904711.74649
  36894569.813 6   -129648.688 6                
 20  5 16  0 22 11.0000000  0 10G03G04G08G14G16G21G26G27G31S22      -0.000117105
  24646349.656 4   -129675.401 4    -96098.69548  24646352.30948
  22211314.523 6  -1150137.262 6   -858463.41448  22211312.69148
  23029432.102 5  -1442626.109 5  -1034744.03149  23029434.15649
  22456954.180 5    204558.793 5    150915.63747  22456952.40247
  20647464.469 6   -484604.723 6   -355863.44548  20647461.88748
  24314860.633 5   -407305.223 5   -300351.22746  24314859.43446
  21356364.906 6   -186067.016 6   -137514.47349  21356365.58649
  20882541.555 7  -1153687.602 7   -857215.31349  20882541.50049
  21904486.813 7   -308641.527 7   -227055.18049  21904484.82849
  36894120.125 6   -132022.293 6                
 20  5 16  0 22 12.0000000  0 10G03G04G08G14G16G21G26G27G31S22      -0.000118567
  24646238.414 4   -130258.449 4    -96553.01248  24646241.69148
  22210444.984 6  -1154704.070 6   -862021.96548  22210443.45748
  23028321.672 5  -1448462.121 5  -1039291.57049  23028323.34449
  22457128.625 5    205475.926 5    151630.28147  22457126.71547
  20647101.789 6   -486509.867 6   -357347.96948  20647099.75048
  24314407.633 5   -409686.207 5   -302206.54746  24314406.16046
  21356229.289 6   -186780.234 6   -138070.23049  21356230.22349
  20881652.484 7  -1158358.738 7   -860855.15249  20881652.63749
  21904259.164 6   -309836.441 6   -227986.28149  21904257.48849
  36893665.641 6   -134395.711 6                
 20  5 16  0 22 13.0000000  0 10G03G04G08G14G16G21G26G27G31S22      -0.000120029
  24646128.148 4   -130840.993 4    -97006.94748  24646130.63748
  22209576.180 6  -1159269.988 6   -865579.82048  22209574.96548
  23027211.523 5  -1454297.543 5  -1043838.65249  23027212.83649
  22457303.469 6    206393.777 6    152345.49247  22457301.18847
  20646739.305 6   -488414.281 6   -358831.93448  20646736.98448
  24313954.984 5   -412066.395 5   -304061.23846  24313953.09446
  21356093.719 6   -187492.953 6   -138625.59849  21356094.14849
  20880763.813 7  -1163028.922 7   -864494.25849  20880764.14549
  21904032.242 6   -311030.688 6   -228916.86349  21904029.79349
  36893214.219 6   -136768.148 6                
 20  5 16  0 22 14.0000000  0 10G03G04G08G14G16G21G26G27G31S22      -0.000121492
  24646017.195 4   -131423.016 4    -97460.47748  24646020.19148
  22208708.219 6  -1163834.980 6   -869136.96148  22208706.10248
  23026101.055 5  -1460132.242 5  -1048385.17649  23026102.59449
  22457478.117 5    207312.387 5    153061.28947  22457476.18447
  20646377.219 6   -490317.934 6   -360315.30148  20646374.95748
  24313502.000 5   -414445.703 5   -305915.24646  24313500.37546
  21355958.289 6   -188205.105 6   -139180.52049  21355959.03149
  20879875.227 7  -1167698.098 7   -868132.57849  20879875.46149
  21903805.016 6   -312224.223 6   -229846.88749  21903802.73849
  36892761.047 6   -139140.219 6                
 20  5 16  0 22 15.0000000  0 10G03G04G08G14G16G21G26G27G31S22      -0.000122953
  24645906.898 5   -132004.445 5    -97913.54348  24645909.11748
  22207839.367 6  -1168399.055 6   -872693.37948  22207837.83248
  23024990.688 5  -1465966.281 5  -1052931.18049  23024992.44549
  22457653.008 5    208231.727 5    153777.66447  22457651.09047
  20646014.805 6   -492220.824 6   -361798.07048  20646012.77048
  24313049.711 5   -416824.199 5   -307768.61746  24313047.48846
  21355822.578 6   -188916.742 6   -139735.04749  21355823.20349
  20878987.031 7  -1172366.293 7   -871770.13349  20878986.96549
  21903577.836 6   -313417.078 6   -230776.38749  21903575.79349
  36892312.547 6   -141511.605 6                
 20  5 16  0 22 16.0000000  0 10G03G04G08G14G16G21G26G27G31S22      -0.000124416
  24645796.297 4   -132585.242 4    -98366.11748  24645799.05948
  22206970.883 6  -1172962.121 6   -876249.02048  22206969.83248
  23023880.156 5  -1471799.559 5  -1057476.59049  23023882.14549
  22457827.750 6    209151.902 6    154494.68847  22457826.17247
  20645652.969 6   -494122.883 6   -363280.19548  20645650.59448
  24312597.859 5   -419201.734 5   -309621.24646  24312595.38346
  21355687.492 6   -189627.754 6   -140289.08249  21355687.94949
  20878098.875 7  -1177033.418 7   -875406.85949  20878099.25049
  21903351.164 6   -314609.152 6   -231705.27748  21903348.87148
  36891857.656 6   -143882.719 6                
 20  5 16  0 22 17.0000000  0 10G03G04G08G14G16G21G26G27G31S22      -0.000125877
  24645685.484 4   -133165.469 4    -98818.24648  24645688.34048
  22206102.633 6  -1177524.301 6   -879803.97348  22206101.25048
  23022770.336 5  -1477632.195 5  -1062021.50049  23022772.00449
  22458003.484 5    210072.773 5    155212.23847  22458001.57047
  20645290.945 6   -496024.215 6   -364761.75048  20645288.86748
  24312144.422 5   -421578.488 5   -311473.26246  24312142.57046
  21355552.141 6   -190338.254 6   -140842.71549  21355552.77749
  20877210.883 7  -1181699.570 7   -879042.82049  20877210.71149
  21903124.453 6   -315800.582 6   -232633.66048  21903122.62148
  36891409.000 6   -146253.328 6                
 20  5 16  0 22 18.0000000  0 10G03G04G08G14G16G21G26G27G31S22      -0.000127338
  24645575.758 4   -133745.082 4    -99269.88748  24645578.40248
  22205234.859 6  -1182085.504 6   -883358.16048  22205233.44548
  23021660.680 5  -1483464.082 5  -1066565.82849  23021662.61349
  22458178.852 5    210994.453 5    155930.43447  22458177.07847
  20644929.516 6   -497924.770 6   -366242.70348  20644927.47348
  24311692.609 5   -423954.309 5   -313324.53947  24311690.53947
  21355416.922 6   -191048.145 6   -141395.88349  21355417.98049
  20876323.375 7  -1186364.719 7   -882677.99649  20876323.32049
  21902897.813 6   -316991.242 6   -233561.45348  21902895.73448
  36890960.922 6   -148623.426 6                
 20  5 16  0 22 19.0000000  0 10G03G04G08G14G16G21G26G27G31S22      -0.000128799
  24645464.992 4   -134324.164 4    -99721.11748  24645468.30148
  22204366.711 6  -1186645.844 6   -886911.67248  22204365.77348
  23020551.180 5  -1489295.309 5  -1071109.64849  23020552.84049
  22458354.516 5    211916.828 5    156649.16047  22458352.63347
  20644567.984 6   -499824.566 6   -367723.06648  20644565.72748
  24311241.250 5   -426329.363 5   -315175.23846  24311238.91446
  21355282.000 6   -191757.578 6   -141948.69149  21355282.76249
  20875435.195 7  -1191028.879 7   -886312.40649  20875435.71549
  21902671.195 6   -318181.281 6   -234488.76648  21902668.92648
  36890508.016 6   -150993.605 6                
 20  5 16  0 22 20.0000000  0 10G03G04G08G14G16G21G26G27G31S22      -0.000130260
  24645355.195 4   -134902.734 4   -100171.95748  24645358.30548
  22203499.102 6  -1191205.297 6   -890464.49248  22203498.08648
  23019441.727 5  -1495125.922 5  -1075652.97749  23019443.52349
  22458529.984 5    212839.875 5    157368.41047  22458528.08247
  20644206.688 6   -501723.703 6   -369202.91848  20644204.36348
  24310789.078 5   -428703.605 5   -317025.30546  24310786.87546
  21355147.477 6   -192466.504 6   -142501.10249  21355147.89549
  20874548.164 7  -1195692.129 7   -889946.10249  20874548.19149
  21902445.000 6   -319370.688 6   -235415.57448  21902442.83248
  36890059.047 6   -153362.895 6                
 20  5 16  0 22 21.0000000  0 10G03G04G08G14G16G21G26G27G31S22      -0.000131721
  24645244.922 5   -135480.707 5   -100622.32448  24645248.23848
  22202631.789 6  -1195763.816 6   -894016.58248  22202630.48048
  23018332.227 5  -1500955.852 5  -1080195.77749  23018333.78149
  22458706.063 5    213763.719 5    158088.28947  22458703.86347
  20643845.305 6   -503622.031 6   -370682.13748  20643843.18448
  24310337.180 5   -431076.945 5   -318874.66046  24310335.09046
  21355012.227 6   -193174.879 6   -143053.08249  21355013.02749
  20873660.953 7  -1200354.336 7   -893578.99249  20873661.03549
  21902218.719 6   -320559.344 6   -236341.80148  21902216.85248
  36889605.906 6   -155732.215 6                
 20  5 16  0 22 22.0000000  0 10G03G04G08G14G16G21G26G27G31S22      -0.000133184
  24645135.375 4   -136057.989 4   -101072.15948  24645138.49648
  22201764.828 6  -1200321.336 6   -897567.89548  22201763.23048
  23017222.391 5  -1506784.984 5  -1084737.96149  23017224.74649
  22458881.945 5    214688.363 5    158808.78947  22458879.55947
  20643484.539 6   -505519.547 6   -372160.71948  20643481.67648
  24309885.930 5   -433449.445 5   -320723.36346  24309884.17246
  21354877.727 6   -193882.598 6   -143604.55549  21354878.00449
  20872773.828 7  -1205015.527 7   -897211.09449  20872774.41449
  21901992.664 6   -321747.262 6   -237267.45748  21901990.50048
  36889155.344 6   -158100.480 6                
 20  5 16  0 22 23.0000000  0 10G03G04G08G14G16G21G26G27G31S22      -0.000134645
  24645025.523 5   -136634.770 5   -101521.59848  24645028.12948
  22200897.695 6  -1204877.887 6   -901118.45348  22200896.47748
  23016112.898 5  -1512613.418 5  -1089279.59049  23016115.50449
  22459058.070 5    215613.809 5    159529.91847  22459055.48847
  20643123.273 6   -507416.273 6   -373638.68848  20643121.04748
  24309434.750 5   -435821.012 5   -322571.34046  24309432.64546
  21354743.031 6   -194589.789 6   -144155.60949  21354743.69149
  20871886.992 7  -1209675.652 7   -900842.35949  20871887.28949
  21901767.016 6   -322934.441 6   -238192.53148  21901764.64548
  36888703.719 6   -160468.758 6                
 20  5 16  0 22 24.0000000  0 10G03G04G08G14G16G21G26G27G31S22      -0.000136103
  24644915.945 5   -137210.824 5   -101970.47748  24644918.83248
  22200030.664 6  -1209433.469 6   -904668.26248  22200029.77748
  23015005.234 5  -1518441.102 5  -1093820.64149  23015006.49649
  22459234.453 5    216540.051 5    160251.66047  22459232.21147
  20642762.633 6   -509312.180 6   -375116.02048  20642760.15648
  24308983.055 5   -438191.660 5   -324418.59447  24308981.68047
  21354608.375 6   -195296.344 6   -144706.17249  21354609.46949
  20871000.969 7  -1214334.734 7   -904472.81349  20871000.89549
  21901541.227 6   -324120.855 6   -239117.01248  21901539.19948
  36888254.563 6   -162836.465 6                
 20  5 16  0 22 25.0000000  0 10G03G04G08G14G16G21G26G27G31S22      -0.000137562
  24644806.953 5   -137786.242 5   -102418.85248  24644809.49648
  22199163.805 6  -1213988.047 6   -908217.28148  22199162.59848
  23013895.438 5  -1524268.035 5  -1098361.10949  23013897.28149
  22459410.688 5    217467.105 5    160974.03947  22459408.56347
  20642401.906 6   -511207.273 6   -376592.71948  20642399.63348
  24308532.523 5   -440561.359 5   -326265.11747  24308530.82047
  21354474.258 6   -196002.313 6   -145256.28149  21354474.83649
  20870113.984 7  -1218992.727 7   -908102.41849  20870114.28549
  21901315.594 6   -325306.496 6   -240040.87948  21901313.44548
  36887803.703 6   -165203.414 6                
 20  5 16  0 22 26.0000000  0 10G03G04G08G14G16G21G26G27G31S22      -0.000139019
  24644697.125 5   -138361.059 5   -102866.77348  24644700.26248
  22198297.492 6  -1218541.641 6   -911765.53548  22198296.05548
  23012787.289 5  -1530094.254 5  -1102901.02349  23012788.76649
  22459587.234 5    218394.992 5    161697.07447  22459585.57047
  20642041.664 6   -513101.512 6   -378068.73848  20642039.34048
  24308081.656 5   -442930.215 5   -328110.98047  24308080.01647
  21354340.055 6   -196707.652 6   -145805.89549  21354340.57449
  20869227.664 7  -1223649.688 7   -911731.21149  20869227.91449
  21901090.180 7   -326491.387 7   -240964.17648  21901087.96548
  36887353.953 6   -167570.355 6                
 20  5 16  0 22 27.0000000  0 10G03G04G08G14G16G21G26G27G31S22      -0.000140478
  24644587.656 5   -138935.199 5   -103314.15648  24644590.53548
  22197431.078 6  -1223094.219 6   -915312.99648  22197429.96948
  23011678.680 5  -1535919.660 5  -1107440.30949  23011680.60949
  22459764.094 5    219323.711 5    162420.74647  22459762.12547
  20641680.977 6   -514994.922 6   -379544.12548  20641679.00448
  24307631.133 5   -445298.098 5   -329956.07446  24307629.73846
  21354205.898 6   -197412.371 6   -146355.03149  21354206.74249
  20868342.039 7  -1228305.570 7   -915359.17649  20868342.04349
  21900864.313 6   -327675.477 6   -241886.85248  21900862.90648
  36886905.297 6   -169936.121 6                
 20  5 16  0 22 28.0000000  0 10G03G04G08G14G16G21G26G27G31S22      -0.000141937
  24644478.453 5   -139508.723 5   -103761.06348  24644481.67248
  22196564.656 6  -1227645.816 6   -918859.69148  22196563.70348
  23010570.367 5  -1541744.383 5  -1111979.04749  23010572.08649
  22459940.711 5    220253.211 5    163145.02747  22459938.82047
  20641320.867 6   -516887.543 6   -381018.89548  20641319.01648
  24307180.641 5   -447665.098 5   -331800.50046  24307179.02346
  21354071.852 6   -198116.492 6   -146903.69949  21354072.66049
  20867456.156 7  -1232960.391 7   -918986.30549  20867456.63749
  21900639.422 6   -328858.836 6   -242808.94548  21900637.69148
  36886451.594 6   -172302.484 6                
 20  5 16  0 22 29.0000000  0 10G03G04G08G14G16G21G26G27G31S22      -0.000143394
  24644369.563 5   -140081.688 5   -104207.52748  24644372.35248
  22195698.359 6  -1232196.504 6   -922405.68448  22195697.82048
  23009462.047 5  -1547568.391 5  -1116517.24249  23009463.84849
  22460117.563 5    221183.480 5    163869.91847  22460116.32847
  20640961.109 6   -518779.371 6   -382493.04748  20640958.76248
  24306729.734 5   -450031.211 5   -333644.21547  24306728.43447
  21353937.961 6   -198820.074 6   -147451.94549  21353938.54349
  20866570.648 7  -1237614.227 7   -922612.67649  20866570.62549
  21900414.602 6   -330041.508 6   -243730.51248  21900412.22348
  36886003.188 6   -174667.930 6                
 20  5 16  0 22 30.0000000  0 10G03G04G08G14G16G21G26G27G31S22      -0.000144852
  24644260.445 5   -140653.941 5   -104653.43848  24644263.61748
  22194832.781 6  -1236746.141 6   -925950.85248  22194832.04348
  23008354.188 5  -1553391.613 5  -1121054.81649  23008355.63749
  22460294.789 5    222114.598 5    164595.46147  22460293.32047
  20640601.383 6   -520670.359 6   -383966.54348  20640599.20348
  24306280.234 5   -452396.395 5   -335487.21947  24306278.30947
  21353804.211 6   -199523.008 6   -147999.68449  21353805.02049
  20865685.320 7  -1242266.961 7   -926238.18449  20865684.94149
  21900189.578 6   -331223.344 6   -244651.42248  21900187.23848
  36885553.641 6   -177033.141 6                
 20  5 16  0 22 31.0000000  0 10G03G04G08G14G16G21G26G27G31S22      -0.000146309
  24644152.305 5   -141225.574 5   -105098.86748  24644154.91048
  22193967.359 6  -1241294.785 6   -929495.25448  22193966.41448
  23007246.219 5  -1559213.984 5  -1125591.72749  23007247.63349
  22460471.938 5    223046.492 5    165321.60947  22460470.58247
  20640241.258 6   -522560.508 6   -385439.38748  20640239.25048
  24305830.469 5   -454760.648 5   -337329.50047  24305828.39147
  21353670.547 6   -200225.328 6   -148546.94949  21353671.30549
  20864800.078 7  -1246918.629 7   -929862.86349  20864800.00449
  21899964.766 6   -332404.426 6   -245571.74648  21899962.52748
  36885106.563 6   -179397.840 6                
 20  5 16  0 22 32.0000000  0 10G03G04G08G14G16G21G26G27G31S22      -0.000147766
  24644042.836 5   -141796.477 5   -105543.72748  24644046.22748
  22193102.086 6  -1245842.359 6   -933038.81648  22193101.19948
  23006137.805 5  -1565035.625 5  -1130128.07449  23006139.47349
  22460649.617 5    223979.313 5    166048.48447  22460648.05947
  20639881.734 6   -524449.781 6   -386911.55148  20639879.59448
  24305380.695 6   -457123.926 6   -339171.02047  24305378.83647
  21353536.953 6   -200926.980 6   -149093.69149  21353537.70349
  20863915.070 7  -1251569.195 7   -933486.68049  20863915.24249
  21899740.305 6   -333584.691 6   -246491.43448  21899738.12948
  36884653.813 6   -181761.711 6                
 20  5 16  0 22 33.0000000  0 10G03G04G08G14G16G21G26G27G31S22      -0.000149221
  24643934.711 5   -142366.703 5   -105988.06348  24643937.64548
  22192237.133 6  -1250388.930 6   -936581.59848  22192235.81648
  23005029.852 5  -1570856.449 5  -1134663.78149  23005032.68849
  22460827.492 5    224912.957 5    166775.99247  22460825.87147
  20639522.477 6   -526338.195 6   -388383.04348  20639520.33648
  24304930.555 5   -459486.223 5   -341011.77047  24304929.39547
  21353403.539 6   -201627.957 6   -149639.91049  21353404.35949
  20863030.492 7  -1256218.641 7   -937109.62149  20863030.45349
  21899515.453 7   -334764.145 7   -247410.48848  21899513.44548
  36884207.875 6   -184125.234 6                
 20  5 16  0 22 34.0000000  0 10G03G04G08G14G16G21G26G27G31S22      -0.000150679
  24643826.391 5   -142936.238 5   -106431.86348  24643829.30948
  22191372.203 6  -1254934.453 6   -940123.56348  22191370.89148
  23003922.828 5  -1576676.445 5  -1139198.84449  23003924.60949
  22461005.266 5    225847.473 5    167504.18447  22461003.62147
  20639163.648 6   -528225.719 6   -389853.84048  20639161.16848
  24304481.781 5   -461847.559 5   -342851.76647  24304479.97347
  21353270.422 6   -202328.309 6   -150185.63749  21353271.20349
  20862145.727 7  -1260866.965 7   -940731.69549  20862146.02049
  21899291.266 7   -335942.793 7   -248328.91848  21899289.18048
  36883751.703 6   -186487.781 6                
 20  5 16  0 22 35.0000000  0 10G03G04G08G14G16G21G26G27G31S22      -0.000152134
  24643717.961 5   -143505.074 5   -106875.11348  24643721.39548
  22190507.234 6  -1259478.855 6   -943664.65648  22190506.48048
  23002815.484 5  -1582495.590 5  -1143733.23449  23002817.64149
  22461182.906 5    226782.906 5    168233.09847  22461181.55547
  20638804.344 6   -530112.340 6   -391323.93848  20638801.81348
  24304032.680 5   -464207.902 5   -344690.98846  24304031.23446
  21353137.219 6   -203027.957 6   -150730.82049  21353138.03949
  20861261.609 7  -1265514.160 7   -944352.88749  20861261.73849
  21899067.102 6   -337120.594 6   -249246.68448  21899065.10248
  36883307.984 6   -188850.078 6                
 20  5 16  0 22 36.0000000  0 10G03G04G08G14G16G21G26G27G31S22      -0.000153589
  24643610.539 4   -144073.223 4   -107317.82848  24643613.20348
  22189642.672 6  -1264022.273 6   -947204.98448  22189641.56648
  23001707.539 5  -1588313.964 5  -1148267.03449  23001710.61749
  22461361.109 5    227719.160 5    168962.64547  22461359.55547
  20638445.695 6   -531998.094 6   -392793.35548  20638443.15648
  24303583.406 5   -466567.301 5   -346529.48447  24303582.13347
  21353004.242 6   -203726.953 6   -151275.50049  21353005.05149
  20860377.273 7  -1270160.234 7   -947973.19949  20860377.35949
  21898843.164 6   -338297.590 6   -250163.82448  21898841.27348
  36882855.531 6   -191211.383 6                
 20  5 16  0 22 37.0000000  0 10G03G04G08G14G16G21G26G27G31S22      -0.000155043
  24643501.688 5   -144640.641 5   -107759.97348  24643504.97348
  22188778.445 6  -1268564.578 6   -950744.44548  22188777.39848
  23000601.219 5  -1594131.551 5  -1152800.21549  23000603.55549
  22461539.867 5    228656.352 5    169692.92647  22461537.97747
  20638086.680 6   -533882.926 6   -394262.06348  20638084.41848
  24303135.047 5   -468925.672 5   -348367.18047  24303133.29747
  21352871.375 6   -204425.230 6   -151819.60949  21352872.68049
  20859493.328 7  -1274805.152 7   -951592.62149  20859493.71949
  21898619.109 6   -339473.707 6   -251080.28148  21898617.22748
  36882407.500 6   -193572.445 6                
 20  5 16  0 22 38.0000000  0 10G03G04G08G14G16G21G26G27G31S22      -0.000156498
  24643394.156 5   -145207.336 5   -108201.55148  24643397.53948
  22187913.852 6  -1273105.770 6   -954283.04348  22187913.22748
  22999494.492 5  -1599948.227 5  -1157332.68049  22999496.11349
  22461718.344 5    229594.441 5    170423.89847  22461716.85947
  20637728.578 6   -535766.852 6   -395730.05948  20637725.77748
  24302686.234 5   -471283.027 5   -350204.07446  24302684.53946
  21352738.625 6   -205122.824 6   -152363.18449  21352739.74649
  20858609.766 7  -1279448.930 7   -955211.14549  20858610.18049
  21898395.625 6   -340648.980 6   -251996.08248  21898393.80148
  36881956.391 6   -195932.379 6                
 20  5 16  0 22 39.0000000  0 10G03G04G08G14G16G21G26G27G31S22      -0.000157951
  24643286.375 5   -145773.352 5   -108642.60548  24643289.48048
  22187050.156 6  -1277646.016 6   -957820.89148  22187049.08648
  22998387.570 5  -1605764.195 5  -1161864.60549  22998390.01249
  22461896.852 5    230533.336 5    171155.50047  22461895.47747
  20637370.250 6   -537649.945 6   -397197.39848  20637367.93048
  24302237.648 5   -473639.457 5   -352040.25847  24302236.18847
  21352605.594 6   -205819.820 6   -152906.30549  21352606.93449
  20857726.531 7  -1284091.656 7   -958828.85949  20857726.56649
  21898172.219 6   -341823.504 6   -252911.29348  21898170.16448
  36881511.484 6   -198291.766 6                
 20  5 16  0 22 40.0000000  0 10G03G04G08G14G16G21G26G27G31S22      -0.000159405
  24643178.813 4   -146338.742 4   -109083.17248  24643182.34048
  22186186.422 6  -1282185.230 6   -961357.94148  22186185.19948
  22997281.289 5  -1611579.324 5  -1166395.87149  22997282.96549
  22462076.078 5    231473.094 5    171887.77747  22462074.39547
  20637012.109 6   -539532.184 6   -398664.07848  20637009.58648
  24301789.531 5   -475994.953 5   -353875.70346  24301788.12546
  21352473.211 6   -206516.141 6   -153448.89549  21352474.38749
  20856843.148 7  -1288733.254 7   -962445.68449  20856843.39149
  21897948.688 6   -342997.215 6   -253825.87548  21897946.74648
  36881062.422 6   -200650.684 6                
 20  5 16  0 22 41.0000000  0 10G03G04G08G14G16G21G26G27G31S22      -0.000160858
  24643072.102 5   -146903.324 5   -109523.10248  24643074.64848
  22185322.570 6  -1286723.289 6   -964894.09448  22185321.93048
  22996174.805 5  -1617393.563 5  -1170926.44549  22996176.64149
  22462254.477 5    232413.805 5    172620.78947  22462253.33247
  20636653.961 6   -541413.438 6   -400129.98848  20636651.45748
  24301342.047 5   -478349.391 5   -355710.32447  24301340.50847
  21352341.375 6   -207211.738 6   -153990.92249  21352342.27049
  20855960.000 7  -1293373.664 7   -966061.59049  20855960.18449
  21897725.664 6   -344170.031 6   -254739.76249  21897723.65249
  36880614.453 6   -203008.770 6                
 20  5 16  0 22 42.0000000  0 10G03G04G08G14G16G21G26G27G31S22      -0.000162312
  24642963.859 4   -147467.215 4   -109962.50048  24642967.21148
  22184459.547 6  -1291260.297 6   -968429.42248  22184458.81348
  22995068.422 5  -1623206.945 5  -1175456.35549  22995070.43449
  22462434.445 5    233355.418 5    173354.50847  22462432.49247
  20636295.828 6   -543293.801 6   -401595.21548  20636293.64848
  24300893.938 5   -480702.820 5   -357544.16046  24300892.43046
  21352209.109 6   -207906.621 6   -154532.38749  21352209.78949
  20855077.188 7  -1298012.941 7   -969676.61349  20855077.38349
  21897502.375 6   -345341.988 6   -255652.97748  21897500.38348
  36880162.406 6   -205366.426 6                
 20  5 16  0 22 43.0000000  0 10G03G04G08G14G16G21G26G27G31S22      -0.000163765
  24642857.117 5   -148030.258 5   -110401.23448  24642859.87548
  22183596.508 6  -1295796.113 6   -971963.82848  22183595.14848
  22993962.969 5  -1629019.461 5  -1179985.59849  22993964.37549
  22462613.414 5    234297.969 5    174088.96947  22462611.90647
  20635938.523 6   -545173.168 6   -403059.65648  20635936.41848
  24300446.313 5   -483055.180 5   -359377.17247  24300445.08647
  21352076.828 6   -208600.734 6   -155073.25049  21352077.74249
  20854194.750 7  -1302650.969 7   -973290.66049  20854194.60549
  21897279.633 6   -346513.016 6   -256565.46948  21897278.02748
  36879714.953 6   -207723.129 6                
 20  5 16  0 22 44.0000000  0 10G03G04G08G14G16G21G26G27G31S22      -0.000165216
  24642749.992 5   -148592.535 5   -110839.37548  24642753.05148
  22182733.344 6  -1300330.805 6   -975497.35248  22182732.30948
  22992856.102 5  -1634831.016 5  -1184514.08649  22992858.73849
  22462792.742 6    235241.492 6    174824.18847  22462791.54347
  20635580.898 6   -547051.594 6   -404523.35948  20635578.66048
  24299998.344 5   -485406.473 5   -361209.34847  24299997.17247
  21351944.797 6   -209294.113 6   -155613.54749  21351945.86349
  20853312.383 7  -1307287.824 7   -976903.78949  20853312.56649
  21897056.977 6   -347683.148 6   -257477.26248  21897055.09848
  36879270.797 6   -210079.270 6                
 20  5 16  0 22 45.0000000  0 10G03G04G08G14G16G21G26G27G31S22      -0.000166668
  24642643.688 5   -149154.012 5   -111276.89148  24642646.33248
  22181870.773 6  -1304864.359 6   -979029.99248  22181869.76248
  22991750.289 5  -1640641.730 5  -1189041.91849  22991752.94549
  22462972.555 5    236186.000 5    175560.16047  22462971.18447
  20635223.914 6   -548929.031 6   -405986.29748  20635221.43448
  24299551.680 5   -487756.691 5   -363040.68847  24299550.43447
  21351812.836 6   -209986.746 6   -156153.26249  21351814.39549
  20852430.117 7  -1311923.449 7   -980515.96949  20852430.09849
  21896834.727 6   -348852.375 6   -258388.34448  21896832.63348
  36878817.359 6   -212434.676 6                
 20  5 16  0 22 46.0000000  0 10G03G04G08G14G16G21G26G27G31S22      -0.000168119
  24642537.102 4   -149714.762 4   -111713.84048  24642539.85248
  22181007.977 6  -1309396.793 6   -982561.75848  22181007.51248
  22990644.859 5  -1646451.520 5  -1193569.02749  22990647.21549
  22463152.563 5    237131.457 5    176296.87947  22463151.04747
  20634866.578 6   -550805.512 6   -407448.49248  20634864.35248
  24299104.250 5   -490105.840 5   -364871.19146  24299103.37546
  21351681.383 6   -210678.594 6   -156692.36749  21351682.29349
  20851548.086 7  -1316557.879 7   -984127.21549  20851547.99649
  21896612.500 6   -350020.684 6   -259298.71948  21896610.55948
  36878368.016 6   -214789.246 6                
 20  5 16  0 22 47.0000000  0 10G03G04G08G14G16G21G26G27G31S22      -0.000169571
  24642430.109 5   -150274.656 5   -112150.12148  24642432.98048
  22180145.867 6  -1313928.070 6   -986092.62548  22180145.25848
  22989539.813 5  -1652260.422 5  -1198095.44149  22989541.29749
  22463332.555 5    238077.852 5    177034.32847  22463331.27047
  20634510.344 6   -552681.004 6   -408909.91848  20634507.79348
  24298658.203 5   -492453.879 5   -366700.82847  24298656.28547
  21351549.992 6   -211369.711 6   -157230.90249  21351550.74249
  20850666.633 7  -1321191.098 7   -987737.51649  20850666.83249
  21896390.109 7   -351188.090 7   -260208.38748  21896388.19148
  36877921.078 6   -217143.492 6                
 20  5 16  0 22 48.0000000  0 10G03G04G08G14G16G21G26G27G31S22      -0.000171021
  24642323.742 5   -150833.816 5   -112585.83648  24642327.04348
  22179283.836 6  -1318458.188 6   -989622.58648  22179283.19948
  22988433.977 5  -1658068.438 5  -1202621.17249  22988436.28149
  22463512.305 5    239025.211 5    177772.53547  22463511.71547
  20634153.266 6   -554555.551 6   -410370.59848  20634151.00048
  24298210.906 5   -494800.930 5   -368529.70747  24298209.98447
  21351418.664 6   -212060.066 6   -157768.83649  21351419.32449
  20849784.922 7  -1325823.098 7   -991346.85949  20849785.06349
  21896168.188 6   -352354.566 6   -261117.33248  21896166.22348
  36877476.203 6   -219496.934 6                
 20  5 16  0 22 49.0000000  0 10G03G04G08G14G16G21G26G27G31S22      -0.000172470
  24642217.734 5   -151392.094 5   -113020.86348  24642220.77048
  22178421.906 6  -1322987.098 6   -993151.60548  22178421.28948
  22987329.508 5  -1663875.438 5  -1207146.10949  22987331.57049
  22463692.953 5    239973.629 5    178511.56347  22463692.31647
  20633796.805 6   -556429.027 6   -411830.45748  20633794.19948
  24297764.875 5   -497146.746 5   -370357.61347  24297763.26247
  21351287.242 6   -212749.574 6   -158306.11749  21351288.28949
  20848904.000 7  -1330453.801 7   -994955.20349  20848904.19949
  21895946.633 6   -353520.059 6   -262025.50848  21895944.46548
  36877030.375 6   -221849.797 6                
 20  5 16  0 22 50.0000000  0 10G03G04G08G14G16G21G26G27G31S22      -0.000173920
  24642111.102 5   -151949.469 5   -113455.18448  24642114.66848
  22177560.445 6  -1327514.773 6   -996679.66448  22177559.65648
  22986224.000 5  -1669681.480 5  -1211670.30549  22986225.90649
  22463873.711 5    240923.098 5    179251.40247  22463873.15247
  20633440.453 6   -558301.449 6   -413289.48448  20633437.77748
  24297319.078 5   -499491.505 5   -372184.69447  24297317.13347
  21351156.531 6   -213438.223 6   -158842.72749  21351157.26249
  20848022.703 7  -1335083.199 7   -998562.52349  20848022.54749
  21895725.063 6   -354684.539 6   -262932.89848  21895722.93848
  36876576.406 6   -224201.809 6                
 20  5 16  0 22 51.0000000  0 10G03G04G08G14G16G21G26G27G31S22      -0.000175369
  24642005.758 5   -152506.145 5   -113888.96148  24642008.23048
  22176698.859 6  -1332041.336 6  -1000206.85548  22176698.08648
  22985119.711 5  -1675486.672 5  -1216193.82448  22985121.44548
  22464054.891 5    241873.488 5    179991.96147  22464053.96547
  20633084.164 6   -560172.949 6   -414747.79348  20633081.60948
  24296872.758 5   -501835.152 5   -374010.90647  24296870.99647
  21351025.102 6   -214126.168 6   -159378.79349  21351026.04749
  20847142.273 7  -1339711.449 7  -1002168.95349  20847142.25849
  21895503.445 6   -355848.148 6   -263839.60248  21895501.44948
  36876130.234 6   -226553.238 6                
 20  5 16  0 22 52.0000000  0 10G03G04G08G14G16G21G26G27G31S22      -0.000176817
  24641899.297 5   -153061.953 5   -114322.05548  24641902.62148
  22175837.984 6  -1336566.734 6  -1003733.14148  22175836.96548
  22984014.984 5  -1681290.906 5  -1220716.61349  22984016.98449
  22464235.578 5    242824.852 5    180733.28147  22464235.27047
  20632728.414 6   -562043.441 6   -416205.32448  20632725.87948
  24296427.000 5   -504177.738 5   -375836.30547  24296425.43047
  21350894.469 6   -214813.328 6   -159914.23849  21350895.40649
  20846261.336 7  -1344338.434 7  -1005774.39849  20846261.75449
  21895282.078 6   -357010.836 6   -264745.59848  21895280.12948
  36875678.781 6   -228904.105 6                
 20  5 16  0 22 53.0000000  0 10G03G04G08G14G16G21G26G27G31S22      -0.000178267
  24641793.867 5   -153616.867 5   -114754.45748  24641796.75048
  22174976.711 6  -1341090.895 6  -1007258.46548  22174976.41848
  22982910.609 5  -1687094.113 5  -1225238.59449  22982912.83649
  22464417.039 5    243777.305 5    181475.45347  22464416.35947
  20632372.609 6   -563912.867 6   -417662.01648  20632370.29348
  24295981.492 5   -506519.156 5   -377660.78547  24295980.11747
  21350763.766 6   -215499.637 6   -160449.02749  21350764.80549
  20845381.547 7  -1348964.137 7  -1009378.84049  20845381.34449
  21895060.789 7   -358172.484 7   -265650.78148  21895059.10248
  36875234.547 6   -231253.902 6                
 20  5 16  0 22 54.0000000  0 10G03G04G08G14G16G21G26G27G31S22      -0.000179712
  24641688.484 5   -154171.035 5   -115186.27348  24641691.78548
  22174116.273 6  -1345613.871 6  -1010782.85948  22174115.61348
  22981806.477 5  -1692896.379 5  -1229759.84049  22981808.40649
  22464598.359 5    244730.738 5    182218.39147  22464597.80947
  20632016.867 6   -565781.273 6   -419117.92248  20632014.56348
  24295535.906 5   -508859.480 5   -379484.40647  24295534.44147
  21350633.289 6   -216185.141 6   -160983.18849  21350634.66849
  20844501.297 7  -1353588.566 7  -1012982.28549  20844501.38349
  21894840.203 7   -359333.188 7   -266555.22748  21894838.28148
  36874792.922 6   -233603.422 6                
 20  5 16  0 22 55.0000000  0 10G03G04G08G14G16G21G26G27G31S22      -0.000181160
  24641583.008 5   -154724.309 5   -115617.40248  24641586.41848
  22173255.891 6  -1350135.637 6  -1014306.31348  22173255.16048
  22980702.711 5  -1698697.660 5  -1234280.32049  22980704.64149
  22464780.070 5    245685.195 5    182962.12147  22464779.34847
  20631661.641 6   -567648.684 6   -420573.04348  20631659.02748
  24295090.617 5   -511198.652 5   -381307.14147  24295089.41447
  21350502.883 6   -216869.828 6   -161516.70749  21350504.37549
  20843622.031 7  -1358211.711 7  -1016584.74249  20843621.76649
  21894619.484 7   -360492.914 7   -267458.91048  21894617.49648
  36874343.875 6   -235951.969 6                
 20  5 16  0 22 56.0000000  0 10G03G04G08G14G16G21G26G27G31S22      -0.000182608
  24641478.453 5   -155276.727 5   -116047.85548  24641481.17248
  22172395.414 6  -1354656.188 6  -1017828.81348  22172394.63748
  22979599.383 5  -1704498.027 5  -1238800.08649  22979600.81649
  22464962.188 5    246640.723 5    183706.68447  22464961.01647
  20631306.367 6   -569515.000 6   -422027.31648  20631303.98848
  24294645.789 5   -513536.688 5   -383128.99247  24294644.82847
  21350372.930 6   -217553.684 6   -162049.58649  21350373.71949
  20842742.133 7  -1362833.578 7  -1020186.19549  20842742.09049
  21894398.992 6   -361651.656 6   -268361.82848  21894397.02748
  36873896.438 5   -238299.867 5                
 20  5 16  0 22 57.0000000  0 10G03G04G08G14G16G21G26G27G31S22      -0.000184053
  24641373.453 5   -155828.215 5   -116477.58648  24641376.41448
  22171535.273 6  -1359175.453 6  -1021350.32448  22171534.62948
  22978495.555 5  -1710297.344 5  -1243319.02749  22978497.27749
  22465144.000 5    247597.297 5    184452.05947  22465142.94147
  20630951.320 6   -571380.242 6   -423480.74648  20630948.93848
  24294201.914 5   -515873.543 5   -384949.91847  24294200.08247
  21350242.953 6   -218236.629 6   -162581.74649  21350244.03149
  20841863.086 7  -1367454.102 7  -1023786.60249  20841863.00049
  21894178.688 6   -362809.332 6   -269263.91448  21894176.57048
  36873449.422 6   -240646.836 6                
 20  5 16  0 22 58.0000000  0 10G03G04G08G14G16G21G26G27G31S22      -0.000185499
  24641268.570 5   -156378.792 5   -116906.60748  24641272.05148
  22170675.852 6  -1363693.445 6  -1024870.84048  22170675.08248
  22977392.398 5  -1716095.660 5  -1247837.19549  22977394.44149
  22465326.508 5    248554.965 5    185198.29747  22465325.23447
  20630596.766 6   -573244.387 6   -424933.32848  20630594.06348
  24293756.961 5   -518209.223 5   -386769.93047  24293755.17247
  21350113.344 6   -218918.727 6   -163113.25849  21350114.03949
  20840984.188 7  -1372073.316 7  -1027385.98849  20840984.03149
  21893958.711 6   -363966.012 6   -270165.22348  21893956.40648
  36873004.094 6   -242993.059 6                
 20  5 16  0 22 59.0000000  0 10G03G04G08G14G16G21G26G27G31S22      -0.000186945
  24641163.953 5   -156928.445 5   -117334.91848  24641166.80548
  22169816.516 6  -1368210.156 6  -1028390.35248  22169815.49648
  22976289.258 5  -1721892.840 5  -1252354.48049  22976290.73449
  22465508.859 5    249513.777 5    185945.42247  22465508.25447
  20630242.445 6   -575107.406 6   -426385.03948  20630240.08248
  24293312.359 5   -520543.662 5   -388588.97247  24293310.60247
  21349983.719 6   -219599.891 6   -163644.03549  21349984.59449
  20840105.195 7  -1376691.102 7  -1030984.26249  20840105.32449
  21893738.547 6   -365121.602 6   -271065.68048  21893736.69948
  36872558.078 6   -245338.496 6                
 20  5 16  0 23  0.0000000  0 10G03G04G08G14G16G21G26G27G31S22      -0.000188389
  24641059.328 5   -157477.188 5   -117762.50448  24641062.77748
  22168957.141 6  -1372725.578 6  -1031908.86748  22168956.39548
  22975186.688 5  -1727689.004 5  -1256870.97349  22975188.21149
  22465691.445 5    250473.656 5    186693.37547  22465690.44547
  20629887.898 6   -576969.320 6   -427835.87548  20629885.41048
  24292869.180 5   -522876.863 5   -390407.05147  24292867.35547
  21349854.188 6   -220280.172 6   -164174.12949  21349855.45749
  20839226.711 7  -1381307.594 7  -1034581.53149  20839226.69149
  21893518.859 6   -366276.160 6   -271965.33648  21893516.79348
  36872113.500 6   -247682.766 6                
 20  5 16  0 23  1.0000000  0 10G03G04G08G14G16G21G26G27G31S22      -0.000189833
  24640955.172 5   -158024.934 5   -118189.32448  24640958.75448
  22168098.094 6  -1377239.691 6  -1035426.35948  22168097.03548
  22974083.766 5  -1733484.105 5  -1261386.63749  22974085.37149
  22465874.805 6    251434.688 6    187442.23447  22465873.32847
  20629533.773 6   -578830.090 6   -429285.82848  20629531.53948
  24292424.711 5   -525208.855 5   -392224.19146  24292422.93846
  21349725.281 6   -220959.527 6   -164703.49649  21349725.71549
  20838348.414 7  -1385922.680 7  -1038177.69949  20838348.50449
  21893299.281 6   -367429.613 6   -272864.13348  21893297.45748
  36871663.859 6   -250026.723 6                
 20  5 16  0 23  2.0000000  0 10G03G04G08G14G16G21G26G27G31S22      -0.000191277
  24640850.992 5   -158571.719 5   -118615.39148  24640854.18848
  22167239.445 6  -1381752.434 6  -1038942.77748  22167238.62148
  22972980.688 5  -1739278.113 5  -1265901.44549  22972982.56649
  22466057.453 6    252396.859 6    188191.98047  22466056.32447
  20629179.859 6   -580689.660 6   -430734.84848  20629177.78948
  24291981.125 5   -527539.578 5   -394040.33246  24291979.73846
  21349595.758 6   -221637.906 6   -165232.10549  21349596.96549
  20837470.250 7  -1390536.348 7  -1041772.77049  20837470.85249
  21893080.156 7   -368581.934 7   -273762.04748  21893077.96148
  36871221.031 6   -252369.348 6                
 20  5 16  0 23  3.0000000  0 10G03G04G08G14G16G21G26G27G31S22      -0.000192720
  24640747.336 5   -159117.535 5   -119040.70348  24640750.40648
  22166380.625 6  -1386263.898 6  -1042458.19948  22166380.44148
  22971878.633 5  -1745071.023 5  -1270415.40249  22971880.68449
  22466240.648 6    253360.180 6    188942.62547  22466239.40247
  20628826.219 6   -582548.125 6   -432183.00448  20628823.95748
  24291537.984 5   -529869.063 5   -395855.51647  24291536.34847
  21349466.703 6   -222315.391 6   -165760.01249  21349467.83649
  20836592.367 7  -1395148.656 7  -1045366.77349  20836592.69949
  21892861.281 6   -369733.219 6   -274659.14848  21892858.85248
  36870774.375 6   -254711.797 6                
 20  5 16  0 23  4.0000000  0 10G03G04G08G14G16G21G26G27G31S22      -0.000194162
  24640643.750 5   -159662.418 5   -119465.29348  24640646.55148
  22165522.578 6  -1390774.055 6  -1045972.60948  22165521.79748
  22970776.383 5  -1750862.887 5  -1274928.53549  22970778.14149
  22466424.156 6    254324.602 6    189694.12147  22466423.45747
  20628473.172 6   -584405.438 6   -433630.25848  20628470.58648
  24291095.008 5   -532197.324 5   -397669.74647  24291093.80947
  21349338.031 6   -222991.930 6   -166287.18849  21349339.06649
  20835715.227 7  -1399759.563 7  -1048959.68449  20835715.20349
  21892642.117 7   -370883.406 7   -275555.40248  21892640.17248
  36870324.063 6   -257053.168 6                
 20  5 16  0 23  5.0000000  0 10G03G04G08G14G16G21G26G27G31S22      -0.000195604
  24640539.359 4   -160206.336 4   -119889.12948  24640543.41448
  22164664.648 6  -1395282.848 6  -1049485.95748  22164663.64548
  22969674.547 5  -1756653.645 5  -1279440.81649  22969676.17649
  22466608.102 6    255290.191 6    190446.53147  22466607.11347
  20628119.641 6   -586261.605 6   -435076.62548  20628117.24648
  24290652.031 5   -534524.289 5   -399482.97347  24290650.88747
  21349209.492 6   -223667.523 6   -166813.62149  21349210.56649
  20834838.141 7  -1404369.090 7  -1052551.53149  20834838.29349
  21892423.484 7   -372032.480 7   -276450.78948  21892421.25048
  36869881.750 6   -259393.875 6                
 20  5 16  0 23  6.0000000  0 10G03G04G08G14G16G21G26G27G31S22      -0.000197046
  24640436.875 5   -160749.242 5   -120312.17648  24640439.78548
  22163807.039 6  -1399790.289 6  -1052998.24648  22163806.21948
  22968573.156 5  -1762443.293 5  -1283952.23049  22968574.70349
  22466791.930 6    256256.926 6    191199.83247  22466790.96947
  20627766.914 6   -588116.582 6   -436522.06348  20627764.39548
  24290209.570 5   -536849.996 5   -401295.21147  24290207.75847
  21349081.484 6   -224342.160 6   -167339.31349  21349081.93049
  20833961.422 7  -1408977.156 7  -1056142.22749  20833961.42249
  21892205.055 7   -373180.434 7   -277345.29748  21892202.93448
  36869435.609 6   -261733.770 6                
 20  5 16  0 23  7.0000000  0 10G03G04G08G14G16G21G26G27G31S22      -0.000198486
  24640333.563 5   -161291.168 5   -120734.46148  24640336.85548
  22162949.305 6  -1404296.406 6  -1056509.50448  22162948.43048
  22967471.008 5  -1768231.848 5  -1288462.79349  22967473.19949
  22466975.930 6    257224.832 6    191954.04747  22466975.26647
  20627414.047 6   -589970.402 6   -437966.59848  20627411.62548
  24289767.156 5   -539174.453 5   -403106.45747  24289765.74247
  21348953.180 6   -225015.824 6   -167864.24649  21348953.66049
  20833084.656 7  -1413583.855 7  -1059731.85949  20833084.64549
  21891986.813 7   -374327.297 7   -278238.96148  21891984.79748
  36868991.563 6   -264072.441 6                
 20  5 16  0 23  8.0000000  0 10G03G04G08G14G16G21G26G27G31S22      -0.000199926
  24640230.023 4   -161832.164 4   -121156.01648  24640233.66048
  22162092.117 6  -1408801.234 6  -1060019.75848  22162091.40648
  22966369.820 5  -1774019.387 5  -1292972.56349  22966371.59849
  22467160.750 6    258193.813 6    192709.09847  22467159.55547
  20627061.648 6   -591823.125 6   -439410.27348  20627059.12948
  24289325.500 5   -541497.742 5   -404916.82047  24289323.84847
  21348824.828 6   -225688.633 6   -168388.51649  21348825.78149
  20832208.398 7  -1418189.195 7  -1063320.44149  20832208.37549
  21891769.195 6   -375473.102 6   -279131.79348  21891767.24248
  36868548.625 6   -266411.070 6                
 20  5 16  0 23  9.0000000  0 10G03G04G08G14G16G21G26G27G31S22      -0.000201368
  24640127.594 4   -162372.129 4   -121576.76648  24640130.70748
  22161235.047 6  -1413304.688 6  -1063528.94948  22161234.11748
  22965268.656 5  -1779805.766 5  -1297481.43449  22965270.32049
  22467345.406 6    259164.027 6    193465.10247  22467344.27747
  20626709.070 6   -593674.617 6   -440852.99248  20626706.40248
  24288883.414 5   -543819.652 5   -406726.10547  24288882.10947
  21348697.383 6   -226360.418 6   -168911.98449  21348698.09849
  20831332.320 7  -1422793.090 7  -1066907.89149  20831332.18449
  21891550.992 6   -376617.746 6   -280023.72748  21891549.03548
  36868098.125 6   -268748.262 6                
 20  5 16  0 23 10.0000000  0 10G03G04G08G14G16G21G26G27G31S22      -0.000202806
  24640025.148 4   -162911.098 4   -121996.73848  24640028.51648
  22160378.383 6  -1417806.742 6  -1067037.04348  22160377.91848
  22964168.063 5  -1785590.957 5  -1301989.37149  22964169.59849
  22467530.352 6    260135.418 6    194222.02747  22467528.64547
  20626356.945 6   -595524.895 6   -442294.77048  20626354.68848
  24288441.953 5   -546140.313 5   -408534.41446  24288440.24246
  21348569.516 6   -227031.227 6   -169434.69549  21348570.39549
  20830456.531 7  -1427395.516 7  -1070494.19949  20830456.34849
  21891333.500 6   -377761.238 6   -280914.75848  21891331.52348
  36867656.406 6   -271085.020 6                
 20  5 16  0 23 11.0000000  0 10G03G04G08G14G16G21G26G27G31S22      -0.000204245
  24639923.094 4   -163448.988 4   -122415.87948  24639925.84048
  22159521.875 6  -1422307.395 6  -1070544.04348  22159521.36748
  22963067.086 5  -1791374.992 5  -1306496.41849  22963068.73849
  22467715.477 6    261108.039 6    194979.91447  22467714.28547
  20626005.047 6   -597373.945 6   -443735.58648  20626002.59048
  24288000.227 5   -548459.621 5   -410341.66846  24287998.77746
  21348441.813 6   -227700.992 6   -169956.59049  21348442.87149
  20829580.695 7  -1431996.469 7  -1074079.35549  20829580.86749
  21891116.016 6   -378903.570 6   -281804.89148  21891113.80948
  36867211.844 6   -273420.430 6                
 20  5 16  0 23 12.0000000  0 10G03G04G08G14G16G21G26G27G31S22      -0.000205683
  24639820.039 4   -163985.891 4   -122834.24648  24639823.60548
  22158665.867 6  -1426806.680 6  -1074049.98048  22158665.18848
  22961966.727 5  -1797157.879 5  -1311002.56349  22961967.84449
  22467900.313 5    262081.844 5    195738.72347  22467899.21947
  20625653.430 6   -599221.789 6   -445175.47348  20625651.16848
  24287558.992 5   -550777.574 5   -412147.86746  24287557.66046
  21348314.656 6   -228369.762 6   -170477.71149  21348315.86349
  20828705.672 7  -1436595.953 7  -1077663.36749  20828705.78149
  21890898.945 6   -380044.723 6   -282694.09849  21890897.04349
  36866765.281 6   -275755.285 6                
 20  5 16  0 23 13.0000000  0 10G03G04G08G14G16G21G26G27G31S22      -0.000207121
  24639718.414 4   -164521.621 4   -123251.69948  24639721.73448
  22157810.133 6  -1431304.406 6  -1077554.70748  22157809.58648
  22960866.602 5  -1802939.484 5  -1315507.71549  22960867.81649
  22468086.109 6    263057.004 6    196498.58647  22468084.80547
  20625302.453 6   -601068.273 6   -446614.29348  20625299.47348
  24287118.266 5   -553094.180 5   -413953.01647  24287116.65647
  21348187.563 6   -229037.418 6   -170997.96549  21348188.71949
  20827830.680 7  -1441193.852 7  -1081246.14549  20827830.87549
  21890682.063 6   -381184.594 6   -283582.30949  21890680.03149
  36866322.172 6   -278088.605 6                
 20  5 16  0 23 14.0000000  0 10G03G04G08G14G16G21G26G27G31S22      -0.000208557
  24639616.797 4   -165056.355 4   -123668.37948  24639620.06648
  22156954.008 6  -1435800.770 6  -1081058.36348  22156953.74648
  22959766.227 5  -1808719.930 5  -1320011.96149  22959767.79749
  22468271.727 6    264033.332 6    197259.36347  22468270.62547
  20624951.008 6   -602913.570 6   -448052.18048  20624948.62548
  24286678.000 5   -555409.402 5   -415757.08246  24286676.29346
  21348060.813 6   -229704.063 6   -171517.42249  21348061.68849
  20826956.289 7  -1445790.316 7  -1084827.80549  20826955.91449
  21890465.133 6   -382323.344 6   -284469.65649  21890463.23049
  36865882.188 6   -280420.707 6                
 20  5 16  0 23 15.0000000  0 10G03G04G08G14G16G21G26G27G31S22      -0.000209993
  24639515.734 4   -165590.043 4   -124084.23448  24639518.62148
  22156098.805 6  -1440295.758 6  -1084560.95348  22156098.07848
  22958666.797 5  -1814499.297 5  -1324515.36748  22958668.11748
  22468457.898 6    265010.883 6    198021.09447  22468456.54347
  20624600.438 6   -604757.656 6   -449489.13348  20624597.59448
  24286237.656 5   -557723.324 5   -417560.14546  24286235.94946
  21347934.133 6   -230369.727 6   -172036.12949  21347934.96949
  20826081.539 7  -1450385.316 7  -1088408.32849  20826081.54349
  21890248.922 6   -383460.906 6   -285356.06349  21890247.06349
  36865436.328 6   -282752.379 6                
 20  5 16  0 23 16.0000000  0 10G03G04G08G14G16G21G26G27G31S22      -0.000211430
  24639414.313 4   -166122.598 4   -124499.21548  24639417.39548
  22155243.367 6  -1444789.266 6  -1088062.38348  22155242.97748
  22957566.805 5  -1820277.367 5  -1329017.75849  22957568.52749
  22468644.359 6    265989.715 6    198783.82447  22468643.14147
  20624249.625 6   -606600.445 6   -450925.06648  20624247.10948
  24285797.820 5   -560035.867 5   -419362.13346  24285795.80946
  21347807.906 6   -231034.320 6   -172553.99249  21347808.49649
  20825207.477 7  -1454978.797 7  -1091987.66449  20825207.07849
  21890032.625 6   -384597.254 6   -286241.53548  21890030.44148
  36864995.359 6   -285082.535 6                
 20  5 16  0 23 17.0000000  0 10G03G04G08G14G16G21G26G27G31S22      -0.000212866
  24639312.727 4   -166654.031 4   -124913.31648  24639316.25848
  22154389.352 6  -1449281.273 6  -1091562.64848  22154388.26248
  22956467.336 5  -1826054.211 5  -1333519.19949  22956469.49649
  22468830.711 6    266969.875 6    199547.58647  22468829.67247
  20623898.938 6   -608441.891 6   -452359.96148  20623896.69548
  24285357.727 5   -562347.012 5   -421163.02047  24285356.32447
  21347681.461 6   -231697.777 6   -173070.97749  21347682.04349
  20824333.383 7  -1459570.680 7  -1095565.75449  20824333.76649
  21889816.563 6   -385732.316 6   -287126.00449  21889814.48049
  36864549.656 6   -287412.164 6                
 20  5 16  0 23 18.0000000  0 10G03G04G08G14G16G21G26G27G31S22      -0.000214298
  24639212.094 4   -167184.387 4   -125326.58648  24639214.96548
  22153534.359 6  -1453771.836 6  -1095061.79348  22153533.99248
  22955368.672 5  -1831829.797 5  -1338019.64849  22955370.45749
  22469017.664 6    267951.277 6    200312.30547  22469016.23847
  20623548.773 6   -610282.094 6   -453793.88748  20623545.98848
  24284917.969 5   -564656.766 5   -422962.82447  24284916.09047
  21347555.539 6   -232360.184 6   -173587.13349  21347556.21149
  20823460.164 7  -1464161.074 7  -1099142.68449  20823460.02049
  21889600.969 6   -386866.164 6   -288009.51648  21889598.73448
  36864106.453 6   -289740.395 6                
 20  5 16  0 23 19.0000000  0 10G03G04G08G14G16G21G26G27G31S22      -0.000215733
  24639111.281 4   -167713.641 4   -125738.98848  24639114.47748
  22152680.055 6  -1458260.953 6  -1098559.80948  22152679.58248
  22954270.320 5  -1837604.203 5  -1342519.18849  22954271.61749
  22469204.539 6    268933.926 6    201078.00847  22469203.37547
  20623199.023 6   -612121.027 6   -455226.82048  20623196.24248
  24284478.875 5   -566965.133 5   -424761.54346  24284477.05546
  21347429.688 6   -233021.539 6   -174102.47749  21347430.55149
  20822586.961 7  -1468749.965 7  -1102718.44149  20822586.95749
  21889385.492 6   -387998.805 6   -288892.09448  21889383.46948
  36863662.922 6   -292067.770 6                
 20  5 16  0 23 20.0000000  0 10G03G04G08G14G16G21G26G27G31S22      -0.000217167
  24639010.820 4   -168241.750 4   -126150.50848  24639013.97348
  22151826.055 6  -1462748.555 6  -1102056.63748  22151825.88348
  22953171.875 5  -1843377.363 5  -1347017.75449  22953173.34049
  22469391.945 6    269917.898 6    201844.74247  22469391.11347
  20622849.109 6   -613958.617 6   -456658.71148  20622846.60948
  24284039.891 5   -569272.078 5   -426559.16846  24284037.99646
  21347304.016 6   -233681.773 6   -174616.94549  21347304.68449
  20821713.820 7  -1473337.254 7  -1106292.94949  20821713.94549
  21889169.883 6   -389130.164 6   -289773.67648  21889168.19148
  36863220.406 6   -294393.953 6                
 20  5 16  0 23 21.0000000  0 10G03G04G08G14G16G21G26G27G31S22      -0.000218599
  24638910.320 4   -168768.719 4   -126561.13348  24638913.36348
  22150972.695 6  -1467234.609 6  -1105552.26648  22150972.16448
  22952073.195 5  -1849149.199 5  -1351515.28949  22952075.22749
  22469579.227 6    270903.254 6    202612.54747  22469578.05947
  20622500.039 6   -615794.836 6   -458089.53948  20622497.44148
  24283601.047 5   -571577.551 5   -428355.62946  24283599.22746
  21347178.750 6   -234340.836 6   -175130.50049  21347179.46549
  20820841.570 7  -1477922.914 7  -1109866.19949  20820841.24649
  21888955.117 6   -390260.176 6   -290654.20748  21888953.24648
  36862773.344 6   -296719.023 6                
 20  5 16  0 23 22.0000000  0 10G03G04G08G14G16G21G26G27G31S22      -0.000220030
  24638809.836 4   -169294.539 4   -126970.86348  24638813.79748
  22150119.250 6  -1471719.180 6  -1109046.73048  22150119.07848
  22950974.961 5  -1854919.754 5  -1356011.82449  22950976.98049
  22469766.773 6    271889.871 6    203381.34847  22469765.71547
  20622150.695 6   -617629.742 6   -459519.32848  20622148.03148
  24283162.180 5   -573881.641 5   -430151.02746  24283160.75846
  21347053.023 6   -234998.828 6   -175643.22349  21347053.81349
  20819968.867 7  -1482507.043 7  -1113438.24649  20819969.00449
  21888740.242 6   -391388.969 6   -291533.78148  21888738.24248
  36862335.734 6   -299043.320 6                
 20  5 16  0 23 23.0000000  0 10G03G04G08G14G16G21G26G27G31S22      -0.000221462
  24638710.828 4   -169819.219 4   -127379.70748  24638713.45748
  22149265.945 6  -1476202.289 6  -1112540.06648  22149265.13748
  22949877.055 5  -1860689.141 5  -1360507.44549  22949879.07849
  22469954.773 6    272877.805 6    204151.17247  22469954.09447
  20621801.688 6   -619463.363 6   -460948.12548  20621798.93448
  24282724.094 5   -576184.324 5   -431945.32447  24282722.64847
  21346928.391 6   -235655.723 6   -176155.09049  21346928.91849
  20819096.883 7  -1487089.633 7  -1117009.09049  20819097.03549
  21888525.344 6   -392516.492 6   -292412.37548  21888523.57848
  36861896.359 6   -301366.258 6                
 20  5 16  0 23 24.0000000  0 10G03G04G08G14G16G21G26G27G31S22      -0.000222893
  24638611.234 4   -170342.852 4   -127787.72748  24638614.00048
  22148413.227 6  -1480683.949 6  -1116032.27048  22148412.51248
  22948779.180 5  -1866457.270 5  -1365002.08649  22948781.43449
  22470142.820 6    273866.992 6    204921.96147  22470141.96947
  20621453.055 6   -621295.695 6   -462375.92248  20621450.53148
  24282286.633 5   -578485.621 5   -433738.54347  24282285.00447
  21346803.711 6   -236311.566 6   -176666.13749  21346804.11749
  20818225.109 7  -1491670.691 7  -1120578.74649  20818225.32049
  21888311.391 6   -393642.813 6   -293290.03148  21888309.36748
  36861450.969 6   -303688.723 6                
 20  5 16  0 23 25.0000000  0 10G03G04G08G14G16G21G26G27G31S22      -0.000224323
  24638511.852 4   -170865.273 4   -128194.80548  24638514.52348
  22147560.758 6  -1485164.051 6  -1119523.26248  22147560.33248
  22947682.094 5  -1872224.109 5  -1369495.72349  22947684.05149
  22470331.859 6    274857.508 6    205693.78947  22470330.88347
  20621104.625 6   -623126.676 6   -463802.65648  20621101.65648
  24281848.625 5   -580785.469 5   -435530.63346  24281846.63346
  21346679.047 6   -236966.266 6   -177176.28949  21346679.23449
  20817353.789 7  -1496250.148 7  -1124147.15249  20817353.86349
  21888097.180 6   -394767.805 6   -294166.64848  21888095.25048
  36861005.297 6   -306009.789 6                
 20  5 16  0 23 26.0000000  0 10G03G04G08G14G16G21G26G27G31S22      -0.000225752
  24638412.258 4   -171386.516 4   -128600.96948  24638415.05548
  22146708.570 6  -1489642.582 6  -1123013.02748  22146707.98848
  22946584.898 5  -1877989.590 5  -1373988.30949  22946587.28549
  22470520.672 6    275849.422 6    206466.70747  22470519.23047
  20620756.664 6   -624956.250 6   -465228.29748  20620754.10248
  24281411.188 5   -583083.820 5   -437321.55946  24281409.82846
  21346554.523 6   -237619.781 6   -177685.52349  21346555.30149
  20816482.516 7  -1500827.957 7  -1127714.28149  20816482.35949
  21887883.563 6   -395891.480 6   -295042.23848  21887881.39848
  36860569.453 6   -308330.078 6                
 20  5 16  0 23 27.0000000  0 10G03G04G08G14G16G21G26G27G31S22      -0.000227180
  24638313.836 4   -171906.523 4   -129006.17248  24638316.05148
  22145856.781 6  -1494119.559 6  -1126501.57448  22145856.05548
  22945488.055 5  -1883753.723 5  -1378479.84049  22945489.91849
  22470709.648 6    276842.742 6    207240.72747  22470708.26247
  20620408.523 6   -626784.438 6   -466652.86348  20620405.99648
  24280975.047 5   -585380.680 5   -439111.31646  24280972.67246
  21346430.625 6   -238272.086 6   -178193.81349  21346431.05949
  20815611.563 7  -1505404.129 7  -1131280.12549  20815611.56649
  21887669.523 6   -397013.785 6   -295916.76648  21887667.79748
  36860125.953 6   -310648.914 6                
 20  5 16  0 23 28.0000000  0 10G03G04G08G14G16G21G26G27G31S22      -0.000228607
  24638215.133 4   -172425.375 4   -129410.48048  24638217.60948
  22145005.070 6  -1498594.984 6  -1129988.93048  22145004.16048
  22944391.172 5  -1889516.621 5  -1382970.40649  22944393.43049
  22470898.391 6    277837.379 6    208015.77347  22470897.59047
  20620061.219 6   -628611.277 6   -468076.37148  20620058.55548
  24280537.805 5   -587676.043 5   -440899.91846  24280536.02046
  21346306.734 6   -238923.270 6   -178701.23049  21346307.27049
  20814740.836 7  -1509978.715 7  -1134844.73849  20814741.28949
  21887457.055 6   -398134.813 6   -296790.29748  21887454.39848
  36859684.766 6   -312967.059 6                
 20  5 16  0 23 29.0000000  0 10G03G04G08G14G16G21G26G27G31S22      -0.000230036
  24638116.703 4   -172943.090 4   -129813.89548  24638119.09448
  22144153.273 6  -1503068.926 6  -1133475.11348  22144152.94948
  22943294.875 5  -1895278.242 5  -1387459.98049  22943296.87549
  22471088.602 6    278833.313 6    208791.81647  22471087.14547
  20619713.844 6   -630436.797 6   -469498.85948  20619710.99248
  24280100.625 5   -589970.051 5   -442687.44946  24280099.69546
  21346182.930 6   -239573.359 6   -179207.79349  21346183.50849
  20813870.805 7  -1514551.719 7  -1138408.12149  20813871.07049
  21887243.430 6   -399254.586 6   -297662.85548  21887241.73048
  36859247.203 6   -315284.387 6                
 20  5 16  0 23 30.0000000  0 10G03G04G08G14G16G21G26G27G31S22      -0.000231462
  24638017.984 4   -173459.645 4   -130216.39848  24638020.93048
  22143302.414 6  -1507541.297 6  -1136960.07848  22143301.69548
  22942198.844 5  -1901038.531 5  -1391948.52049  22942200.73049
  22471277.672 6    279830.629 6    209568.94147  22471277.25047
  20619366.258 6   -632260.922 6   -470920.25448  20619363.92648
  24279663.883 5   -592262.543 5   -444473.80946  24279663.53546
  21346059.453 6   -240222.273 6   -179713.44549  21346059.88749
  20813001.070 7  -1519123.105 7  -1141970.23849  20813001.27749
  21887030.469 6   -400373.016 6   -298534.35549  21887028.67249
  36858805.703 6   -317600.309 6                
 20  5 16  0 23 31.0000000  0 10G03G04G08G14G16G21G26G27G31S22      -0.000232889
  24637919.805 4   -173975.012 4   -130617.98448  24637922.55948
  22142451.508 6  -1512012.184 6  -1140443.87948  22142451.14548
  22941103.078 5  -1906797.559 5  -1396436.07449  22941104.84049
  22471467.883 6    280829.250 6    210347.09047  22471467.27347
  20619019.531 6   -634083.777 6   -472340.66448  20619016.96548
  24279228.484 5   -594553.641 5   -446259.07447  24279227.02047
  21345935.969 6   -240870.082 6   -180218.23049  21345936.67649
  20812131.453 7  -1523692.938 7  -1145531.14849  20812131.62549
  21886818.016 7   -401490.207 7   -299404.89549  21886816.04749
  36858364.297 6   -319915.641 6                
 20  5 16  0 23 32.0000000  0 10G03G04G08G14G16G21G26G27G31S22      -0.000234314
  24637821.391 4   -174489.266 4   -131018.70748  24637824.78548
  22141601.180 6  -1516481.570 6  -1143926.52748  22141600.39148
  22940007.914 5  -1912555.305 5  -1400922.63149  22940008.90249
  22471658.719 5    281829.234 5    211126.30547  22471657.65647
  20618673.266 6   -635905.234 6   -473759.97748  20618670.08248
  24278793.078 5   -596843.301 5   -448043.21947  24278791.17647
  21345813.141 6   -241516.758 6   -180722.13349  21345813.86349
  20811262.031 7  -1528261.160 7  -1149090.80149  20811262.50849
  21886605.781 6   -402606.109 6   -300274.43448  21886603.82048
  36857923.844 6   -322229.492 6                
 20  5 16  0 23 33.0000000  0 10G03G04G08G14G16G21G26G27G31S22      -0.000235739
  24637724.117 4   -175002.305 4   -131418.48448  24637727.12548
  22140750.781 6  -1520949.324 6  -1147407.88748  22140749.96948
  22938911.914 5  -1918311.727 5  -1405408.15649  22938913.66049
  22471848.938 6    282830.598 6    211906.58247  22471848.37947
  20618326.727 6   -637725.316 6   -475178.22748  20618324.09448
  24278357.563 5   -599131.406 5   -449826.16446  24278355.77346
  21345690.188 6   -242162.238 6   -181225.10249  21345690.71949
  20810393.063 7  -1532827.727 7  -1152649.16049  20810393.35249
  21886393.805 6   -403720.645 6   -301142.90249  21886391.76649
  36857478.094 6   -324542.824 6                
 20  5 16  0 23 34.0000000  0 10G03G04G08G14G16G21G26G27G31S22      -0.000237162
  24637626.867 4   -175514.063 4   -131817.24648  24637629.98048
  22139901.078 6  -1525415.496 6  -1150888.02348  22139899.94548
  22937817.016 5  -1924066.797 5  -1409892.62549  22937818.71149
  22472039.500 6    283833.340 6    212687.94147  22472038.88747
  20617980.742 6   -639543.945 6   -476595.33648  20617977.75048
  24277921.875 5   -601418.023 5   -451607.94146  24277920.67646
  21345567.891 6   -242806.531 6   -181727.14849  21345567.89849
  20809524.359 7  -1537392.656 7  -1156206.25849  20809524.41049
  21886181.914 6   -404833.828 6   -302010.31349  21886179.98049
  36857042.797 6   -326854.863 6                
 20  5 16  0 23 35.0000000  0 10G03G04G08G14G16G21G26G27G31S22      -0.000238585
  24637529.898 4   -176024.680 4   -132215.13348  24637532.32848
  22139051.391 6  -1529880.168 6  -1154366.99248  22139050.71548
  22936721.828 5  -1929820.570 5  -1414376.08649  22936723.56649
  22472230.867 6    284837.438 6    213470.35547  22472229.92647
  20617634.938 6   -641361.270 6   -478011.43848  20617631.90248
  24277487.250 5   -603703.215 5   -453388.60546  24277486.23846
  21345445.438 6   -243449.684 6   -182228.30949  21345445.58249
  20808655.953 7  -1541955.969 7  -1159762.08649  20808656.27049
  21885970.266 6   -405945.719 6   -302876.72348  21885968.35548
  36856606.484 6   -329165.969 6                
 20  5 16  0 23 36.0000000  0 10G03G04G08G14G16G21G26G27G31S22      -0.000240007
  24637432.523 4   -176534.207 4   -132612.16848  24637435.78548
  22138202.484 6  -1534343.316 6  -1157844.77048  22138201.48848
  22935627.141 5  -1935573.070 5  -1418858.55549  22935628.62149
  22472422.266 6    285842.855 6    214253.79347  22472421.53547
  20617289.141 6   -643177.270 6   -479426.50048  20617286.28148
  24277052.836 5   -605986.934 5   -455168.12546  24277051.49646
  21345322.969 6   -244091.723 6   -182728.59449  21345323.45749
  20807788.180 7  -1546517.723 7  -1163316.69949  20807788.24649
  21885758.805 7   -407056.336 7   -303742.14148  21885757.06648
  36856164.766 6   -331476.090 6                
 20  5 16  0 23 37.0000000  0 10G03G04G08G14G16G21G26G27G31S22      -0.000241430
  24637336.352 4   -177042.438 4   -133008.19948  24637339.68848
  22137352.508 6  -1538804.895 6  -1161321.32448  22137352.03948
  22934532.719 5  -1941324.223 5  -1423339.97349  22934534.48049
  22472613.648 6    286849.637 6    215038.29747  22472612.80147
  20616943.734 6   -644991.828 6   -480840.44148  20616941.21148
  24276618.469 5   -608269.164 5   -456946.49646  24276616.90246
  21345201.023 6   -244732.578 6   -183227.96549  21345201.41049
  20806920.047 6  -1551077.816 6  -1166870.02049  20806920.29749
  21885547.766 6   -408165.605 6   -304606.51248  21885545.88748
  36855722.656 6   -333784.914 6                
 20  5 16  0 23 38.0000000  0 10G03G04G08G14G16G21G26G27G31S22      -0.000242851
  24637239.531 4   -177549.527 4   -133403.33648  24637242.56348
  22136504.188 6  -1543264.914 6  -1164796.66048  22136503.71148
  22933438.008 5  -1947074.074 5  -1427820.37549  22933440.75049
  22472805.164 6    287857.813 6    215823.89147  22472804.77747
  20616599.016 6   -646805.027 6   -482253.32849  20616595.95349
  24276184.578 5   -610549.941 5   -458723.71146  24276182.97746
  21345079.313 6   -245372.266 6   -183726.42249  21345079.78949
  20806052.813 6  -1555636.289 6  -1170422.07849  20806052.90649
  21885336.750 6   -409273.551 6   -305469.84849  21885334.94149
  36855284.266 6   -336093.094 6                
 20  5 16  0 23 39.0000000  0 10G03G04G08G14G16G21G26G27G31S22      -0.000244272
  24637143.203 4   -178055.355 4   -133797.48448  24637146.12148
  22135656.055 6  -1547723.324 6  -1168270.74648  22135655.38348
  22932344.297 5  -1952822.582 5  -1432299.73049  22932346.07049
  22472997.320 5    288867.406 5    216610.58647  22472997.00047
  20616254.273 6   -648616.824 6   -483665.11748  20616251.51648
  24275751.188 5   -612829.164 5   -460499.73846  24275749.48046
  21344957.602 6   -246010.750 6   -184223.94549  21344958.50449
  20805185.867 6  -1560193.090 6  -1173972.82449  20805185.89149
  21885126.266 6   -410380.156 6   -306332.13748  21885124.54348
  36854845.297 6   -338399.785 6                
 20  5 16  0 23 40.0000000  0 10G03G04G08G14G16G21G26G27G31S22      -0.000245691
  24637047.195 4   -178559.953 4   -134190.68848  24637049.92248
  22134807.719 6  -1552180.102 6  -1171743.56348  22134806.68448
  22931251.273 5  -1958569.672 5  -1436777.97749  22931252.82449
  22473189.844 5    289878.391 5    217398.36747  22473189.66847
  20615909.469 6   -650427.152 6   -485075.75848  20615907.01248
  24275317.305 5   -615106.883 5   -462274.58246  24275315.79346
  21344836.680 6   -246647.980 6   -184720.48449  21344837.07449
  20804318.977 6  -1564748.207 6  -1177522.27049  20804319.03549
  21884915.969 7   -411485.324 7   -307193.30548  21884914.53548
  36854407.797 6   -340705.508 6                
 20  5 16  0 23 41.0000000  0 10G03G04G08G14G16G21G26G27G31S22      -0.000247110
  24636951.727 4   -179063.398 4   -134582.97748  24636954.71948
  22133960.367 6  -1556635.344 6  -1175215.17648  22133958.83248
  22930157.813 5  -1964315.426 5  -1441255.19149  22930159.33249
  22473382.359 5    290890.781 5    218187.23447  22473382.41047
  20615565.375 6   -652236.125 6   -486485.35248  20615562.62148
  24274883.852 5   -617383.063 5   -464048.23046  24274882.93846
  21344715.867 6   -247284.070 6   -185216.14149  21344716.17649
  20803452.273 6  -1569301.723 6  -1181070.46149  20803452.23049
  21884706.023 7   -412589.223 7   -308053.48448  21884704.13348
  36853969.531 6   -343010.051 6                
 20  5 16  0 23 42.0000000  0 10G03G04G08G14G16G21G26G27G31S22      -0.000248528
  24636855.828 4   -179565.582 4   -134974.29348  24636858.64848
  22133112.625 6  -1561089.000 6  -1178685.55548  22133111.89848
  22929064.891 5  -1970059.867 5  -1445731.37549  22929066.30949
  22473575.539 5    291904.539 5    218977.17247  22473575.05947
  20615221.570 6   -654043.703 6   -487893.85248  20615218.27048
  24274451.484 5   -619657.789 5   -465820.74646  24274450.22346
  21344594.703 6   -247918.977 6   -185710.87549  21344595.68849
  20802586.414 6  -1573853.559 6  -1184617.34849  20802586.44149
  21884496.063 6   -413691.750 6   -308912.60549  21884494.25049
  36853533.984 6   -345313.633 6                
 20  5 16  0 23 43.0000000  0 10G03G04G08G14G16G21G26G27G31S22      -0.000249947
  24636760.617 4   -180066.551 4   -135364.66048  24636763.61748
  22132265.477 6  -1565541.098 6  -1182154.72748  22132264.30548
  22927971.898 5  -1975802.891 5  -1450206.46149  22927973.59049
  22473768.836 6    292919.680 6    219768.19147  22473768.13347
  20614877.867 6   -655849.859 6   -489301.24648  20614874.77748
  24274018.641 5   -621931.004 5   -467592.09846  24274017.47746
  21344473.805 6   -248552.691 6   -186204.68049  21344474.88749
  20801720.063 6  -1578403.766 6  -1188162.96149  20801720.38349
  21884286.703 6   -414792.930 6   -309770.66849  21884284.32449
  36853097.344 6   -347615.902 6                
 20  5 16  0 23 44.0000000  0 10G03G04G08G14G16G21G26G27G31S22      -0.000251362
  24636665.125 4   -180566.340 4   -135754.10248  24636668.08248
  22131418.523 6  -1569991.645 6  -1185622.68848  22131417.82848
  22926879.367 5  -1981544.730 5  -1454680.62149  22926880.79349
  22473962.352 6    293936.172 6    220560.26247  22473961.64847
  20614534.125 7   -657654.652 7   -490707.57448  20614531.50048
  24273586.578 5   -624202.734 5   -469362.27346  24273584.92646
  21344353.281 6   -249185.238 6   -186697.57849  21344354.39549
  20800854.594 6  -1582952.355 6  -1191707.31649  20800854.98849
  21884077.328 6   -415892.801 6   -310627.71149  21884075.74249
  36852653.734 6   -349917.102 6                
 20  5 16  0 23 45.0000000  0 10G03G04G08G14G16G21G26G27G31S22      -0.000252779
  24636570.484 4   -181064.965 4   -136142.63748  24636573.42648
  22130571.523 6  -1574440.633 6  -1189089.43848  22130570.56348
  22925786.758 5  -1987285.238 5  -1459153.73849  22925788.38349
  22474155.938 6    294954.012 6    221353.38747  22474155.14147
  20614191.094 7   -659458.074 7   -492112.83648  20614188.09848
  24273154.469 5   -626473.039 5   -471131.33246  24273153.23446
  21344233.227 6   -249816.660 6   -187189.59449  21344234.27049
  20799989.406 6  -1587499.336 6  -1195250.41449  20799989.75449
  21883868.508 7   -416991.375 7   -311483.74248  21883866.54748
  36852216.859 6   -352217.488 6                
 20  5 16  0 23 46.0000000  0 10G03G04G08G14G16G21G26G27G31S22      -0.000254194
  24636476.203 4   -181562.383 4   -136530.23648  24636479.58248
  22129725.227 6  -1578888.051 6  -1192554.95348  22129724.59448
  22924694.641 5  -1993024.406 5  -1463625.82449  22924696.22749
  22474350.063 6    295973.215 6    222147.57447  22474349.24647
  20613848.203 7   -661260.133 7   -493517.04348  20613845.16448
  24272723.008 5   -628741.848 5   -472899.23446  24272721.14146
  21344113.313 6   -250446.914 6   -187680.70349  21344114.46549
  20799124.289 6  -1592044.691 6  -1198792.25049  20799124.64149
  21883659.961 7   -418088.621 7   -312338.73849  21883657.76649
  36851776.531 6   -354516.551 6                
 20  5 16  0 23 47.0000000  0 10G03G04G08G14G16G21G26G27G31S22      -0.000255610
  24636381.023 4   -182058.629 4   -136916.92648  24636384.59848
  22128879.656 6  -1583333.969 6  -1196019.30948  22128878.39148
  22923602.914 5  -1998762.281 5  -1468096.89549  22923604.66449
  22474544.063 6    296993.781 6    222942.81647  22474543.60547
  20613505.516 7   -663060.836 7   -494920.18448  20613502.52748
  24272291.422 5   -631009.160 5   -474665.97746  24272289.71546
  21343993.672 6   -251076.000 6   -188170.90249  21343995.03549
  20798259.867 6  -1596588.414 6  -1202332.82049  20798260.13749
  21883450.922 6   -419184.563 6   -313192.71549  21883449.18449
  36851339.203 6   -356814.777 6                
 20  5 16  0 23 48.0000000  0 10G03G04G08G14G16G21G26G27G31S22      -0.000257025
  24636287.063 4   -182553.715 4   -137302.71148  24636290.43848
  22128033.383 6  -1587778.297 6  -1199482.42248  22128032.80948
  22922511.078 5  -2004498.809 5  -1472566.92249  22922512.85249
  22474738.633 6    298015.730 6    223739.14147  22474737.94547
  20613163.195 7   -664860.121 7   -496322.22748  20613160.46148
  24271860.391 5   -633275.012 5   -476431.57446  24271858.54346
  21343873.883 6   -251703.926 6   -188660.19949  21343875.02349
  20797395.266 6  -1601130.527 6  -1205872.12949  20797395.74249
  21883242.625 6   -420279.160 6   -314045.64849  21883241.01249
  36850904.047 6   -359111.320 6                
 20  5 16  0 23 49.0000000  0 10G03G04G08G14G16G21G26G27G31S22      -0.000258438
  24636192.602 4   -183047.637 4   -137687.58248  24636196.20748
  22127188.477 6  -1592221.055 6  -1202944.30148  22127187.30548
  22921419.445 5  -2010234.055 5  -1477035.94949  22921421.61749
  22474932.844 6    299039.043 6    224536.52747  22474932.77047
  20612820.992 7   -666658.047 7   -497723.21148  20612818.08248
  24271429.273 5   -635539.387 5   -478196.02346  24271427.82046
  21343754.156 6   -252330.695 6   -189148.59049  21343755.72749
  20796531.406 6  -1605671.004 6  -1209410.16049  20796531.82449
  21883034.781 6   -421372.441 6   -314897.56349  21883032.89149
  36850467.547 6   -361406.980 6                
 20  5 16  0 23 50.0000000  0 10G03G04G08G14G16G21G26G27G31S22      -0.000259851
  24636099.008 4   -183540.301 4   -138071.48048  24636102.36348
  22126342.891 6  -1596662.266 6  -1206404.98847  22126342.15247
  22920327.891 5  -2015967.965 5  -1481503.93449  22920330.37949
  22475128.094 6    300063.691 6    225334.94947  22475127.44947
  20612479.102 7   -668454.586 7   -499123.11748  20612476.35948
  24270999.164 5   -637802.262 5   -479959.30546  24270997.32846
  21343635.727 6   -252956.320 6   -189636.08649  21343637.12549
  20795667.289 6  -1610209.848 6  -1212946.92249  20795668.11349
  21882826.969 6   -422464.398 6   -315748.43849  21882825.12549
  36850024.609 6   -363701.480 6                
 20  5 16  0 23 51.0000000  0 10G03G04G08G14G16G21G26G27G31S22      -0.000261263
  24636005.969 4   -184031.805 4   -138454.46948  24636008.91848
  22125498.453 6  -1601101.953 6  -1209864.48448  22125497.79748
  22919237.563 5  -2021700.551 5  -1485970.88349  22919239.82849
  22475323.969 6    301089.695 6    226134.43847  22475322.75847
  20612137.836 7   -670249.805 7   -500521.98848  20612134.68048
  24270568.789 5   -640063.727 5   -481721.48846  24270566.68446
  21343516.656 6   -253580.770 6   -190122.66849  21343518.21149
  20794804.117 7  -1614747.113 7  -1216482.44949  20794804.38349
  21882619.352 6   -423555.051 6   -316598.30149  21882617.41449
  36849593.438 6   -365994.699 6                
 20  5 16  0 23 52.0000000  0 10G03G04G08G14G16G21G26G27G31S22      -0.000262674
  24635912.453 4   -184522.215 4   -138836.59848  24635915.62548
  22124653.375 6  -1605540.113 6  -1213322.79747  22124652.94947
  22918147.102 5  -2027431.922 5  -1490436.88349  22918148.77349
  22475519.617 6    302117.004 6    226934.93447  22475517.95747
  20611796.227 7   -672043.672 7   -501919.81648  20611793.34448
  24270137.727 5   -642323.715 5   -483482.51246  24270136.29346
  21343398.070 6   -254204.105 6   -190608.38749  21343399.53949
  20793941.102 7  -1619282.781 7  -1220016.73849  20793941.05949
  21882411.953 7   -424644.430 7   -317447.16849  21882410.28549
  36849156.703 6   -368287.332 6                
 20  5 16  0 23 53.0000000  0 10G03G04G08G14G16G21G26G27G31S22      -0.000264086
  24635819.328 4   -185011.449 4   -139217.82848  24635822.49648
  22123809.250 6  -1609976.777 6  -1216779.94148  22123808.91448
  22917056.586 5  -2033161.965 5  -1494901.84849  22917058.38349
  22475714.445 5    303145.641 5    227736.47347  22475713.97747
  20611454.984 7   -673836.227 7   -503316.60548  20611451.94548
  24269708.711 5   -644582.309 5   -485242.45746  24269706.86746
  21343280.148 6   -254826.328 6   -191093.23449  21343281.27349
  20793078.461 6  -1623816.879 6  -1223549.80549  20793078.28949
  21882205.109 7   -425732.527 7   -318295.03549  21882202.96549
  36848718.734 6   -370578.430 6                
 20  5 16  0 23 54.0000000  0 10G03G04G08G14G16G21G26G27G31S22      -0.000265495
  24635726.523 4   -185499.563 4   -139598.18048  24635729.70348
  22122965.266 6  -1614411.949 6  -1220235.91048  22122964.36348
  22915966.531 5  -2038890.785 5  -1499365.86349  22915968.46149
  22475910.922 5    304175.590 5    228539.02747  22475909.97747
  20611114.109 7   -675627.441 7   -504712.34848  20611111.34848
  24269279.102 5   -646839.484 5   -487001.28946  24269277.19146
  21343162.430 6   -255447.469 6   -191577.24249  21343163.21949
  20792215.766 6  -1628349.422 6  -1227081.65649  20792215.76249
  21881998.008 7   -426819.379 7   -319141.93049  21881996.23849
  36848286.844 6   -372868.777 6                
 20  5 16  0 23 55.0000000  0 10G03G04G08G14G16G21G26G27G31S22      -0.000266907
  24635633.969 3   -185986.496 3   -139977.60948  24635636.93448
  22122121.711 6  -1618845.582 6  -1223690.69148  22122121.09448
  22914876.531 5  -2044618.305 5  -1503828.86349  22914878.72749
  22476107.031 5    305206.848 5    229342.60547  22476106.22747
  20610773.578 7   -677417.328 7   -506107.06648  20610770.76648
  24268849.563 5   -649095.168 5   -488758.96146  24268847.94146
  21343044.164 6   -256067.449 6   -192060.35249  21343045.00849
  20791353.898 6  -1632880.375 6  -1230612.26649  20791353.80149
  21881791.602 7   -427904.914 7   -319987.80149  21881789.63749
  36847845.156 6   -375158.023 6                
 20  5 16  0 23 56.0000000  0 10G03G04G08G14G16G21G26G27G31S22      -0.000268314
  24635541.680 4   -186472.316 4   -140356.17248  24635544.89148
  22121278.266 6  -1623277.711 6  -1227144.30548  22121277.51648
  22913786.789 5  -2050344.523 5  -1508290.84849  22913788.95349
  22476303.258 5    306239.422 5    230147.21547  22476302.74647
  20610433.133 7   -679205.879 7   -507500.74248  20610430.19148
  24268420.547 5   -651349.445 5   -490515.55146  24268418.81346
  21342926.477 6   -256686.352 6   -192542.62149  21342927.31649
  20790491.484 6  -1637409.727 6  -1234141.63349  20790491.89549
  21881585.266 7   -428989.188 7   -320832.69549  21881583.91449
  36847415.703 6   -377446.238 6                
 20  5 16  0 23 57.0000000  0 10G03G04G08G14G16G21G26G27G31S22      -0.000269724
  24635449.156 4   -186957.039 4   -140733.87948  24635452.46148
  22120435.367 6  -1627708.398 6  -1230596.78548  22120434.53148
  22912697.445 5  -2056069.539 5  -1512751.89549  22912699.26649
  22476500.047 6    307273.285 6    230952.82047  22476499.48447
  20610092.922 7   -680993.148 7   -508893.42248  20610089.86748
  24267991.789 5   -653602.367 5   -492271.06646  24267989.87546
  21342808.680 6   -257304.156 6   -193024.02749  21342809.90249
  20789629.672 6  -1641937.566 6  -1237669.81649  20789630.47749
  21881379.094 6   -430072.234 6   -321676.62549  21881377.32849
  36846974.969 6   -379733.496 6                
 20  5 16  0 23 58.0000000  0 10G03G04G08G14G16G21G26G27G31S22      -0.000271132
  24635357.914 4   -187440.660 4   -141110.73448  24635360.18848
  22119592.273 6  -1632137.594 6  -1234048.10548  22119591.66448
  22911608.648 5  -2061793.316 5  -1517211.98049  22911610.27349
  22476697.188 6    308308.391 6    231759.39847  22476696.63747
  20609752.969 7   -682779.148 7   -510285.10948  20609750.33648
  24267563.563 5   -655853.883 5   -494025.47346  24267561.78946
  21342691.289 6   -257920.910 6   -193504.61749  21342692.33649
  20788768.477 6  -1646463.863 6  -1241196.80549  20788768.74249
  21881173.305 6   -431154.059 6   -322519.60549  21881171.33249
  36846541.594 6   -382019.836 6                
 20  5 16  0 23 59.0000000  0 10G03G04G08G14G16G21G26G27G31S22      -0.000272539
  24635265.031 4   -187923.254 4   -141486.78548  24635268.34448
  22118749.656 6  -1636565.328 6  -1237498.28948  22118749.27748
  22910519.664 5  -2067515.883 5  -1521671.11749  22910521.44549
  22476894.000 6    309344.766 6    232566.96547  22476893.37547
  20609413.773 7   -684563.879 7   -511675.80948  20609410.71548
  24267135.148 5   -658104.023 5   -495778.82846  24267133.62946
  21342574.141 6   -258536.625 6   -193984.39549  21342574.82849
  20787907.508 6  -1650988.672 6  -1244722.62949  20787908.26249
  21880967.477 6   -432234.660 6   -323361.63349  21880965.74649
  36846104.578 6   -384305.574 6                
 20  5 16  0 24  0.0000000  0 10G03G04G08G14G16G21G26G27G31S22      -0.000273945
  24635174.055 4   -188404.555 4   -141861.82048  24635176.82048
  22117907.305 6  -1640991.566 6  -1240947.30548  22117907.17648
  22909431.055 5  -2073237.113 5  -1526129.22749  22909432.35949
  22477091.875 5    310382.504 5    233375.58647  22477091.39847
  20609074.188 7   -686347.227 7   -513065.43048  20609071.23048
  24266707.164 5   -660352.703 5   -497531.05946  24266705.71146
  21342456.633 6   -259151.176 6   -194463.26249  21342458.09849
  20787046.813 6  -1655511.816 6  -1248247.16049  20787047.12149
  21880762.156 6   -433313.949 6   -324202.64149  21880760.49249
  36845677.438 6   -386589.816 6                
 20  5 16  0 24  1.0000000  0 10G03G04G08G14G16G21G26G27G31S22      -0.000275351
  24635082.445 4   -188884.844 4   -142236.07448  24635085.19548
  22117065.484 6  -1645416.297 6  -1244395.14548  22117064.92248
  22908342.047 5  -2078957.191 5  -1530586.43849  22908343.91849
  22477290.016 6    311421.500 6    234185.19547  22477289.00047
  20608735.117 7   -688129.305 7   -514454.06348  20608731.89148
  24266279.813 5   -662599.941 5   -499282.16446  24266277.98446
  21342340.445 6   -259764.637 6   -194941.28549  21342341.66849
  20786186.688 6  -1660033.473 6  -1251770.52749  20786186.78149
  21880557.336 7   -434392.004 7   -325042.68849  21880555.30949
  36845239.344 6   -388873.551 6                
 20  5 16  0 24  2.0000000  0 10G03G04G08G14G16G21G26G27G31S22      -0.000276756
  24634991.047 4   -189364.039 4   -142609.46948  24634994.09048
  22116223.875 6  -1649839.547 6  -1247841.83248  22116223.38748
  22907254.008 5  -2084676.000 5  -1535042.65249  22907255.80149
  22477487.531 6    312461.793 6    234995.81347  22477486.46547
  20608396.203 7   -689910.066 7   -515841.66848  20608393.20748
  24265852.672 5   -664845.820 5   -501032.19946  24265850.49246
  21342223.727 6   -260377.012 6   -195418.46149  21342224.84849
  20785326.359 6  -1664553.539 6  -1255292.65649  20785326.53549
  21880352.328 7   -435468.805 7   -325881.75449  21880350.53549
  36844804.563 6   -391156.051 6                
 20  5 16  0 24  3.0000000  0 10G03G04G08G14G16G21G26G27G31S22      -0.000278160
  24634900.508 4   -189842.125 4   -142982.00848  24634902.96548
  22115382.578 6  -1654261.363 6  -1251287.40648  22115381.73848
  22906166.461 5  -2090393.613 5  -1539497.93449  22906167.85949
  22477685.773 6    313503.309 6    235807.38347  22477684.93447
  20608057.563 7   -691689.598 7   -517228.32048  20608054.97748
  24265425.664 5   -667090.328 5   -502781.16446  24265423.77046
  21342107.508 6   -260988.352 6   -195894.83249  21342108.66049
  20784466.492 6  -1669072.141 6  -1258813.63749  20784466.71149
  21880147.570 6   -436544.406 6   -326719.88349  21880145.63749
  36844369.125 6   -393437.645 6                
 20  5 16  0 24  4.0000000  0 10G03G04G08G14G16G21G26G27G31S22      -0.000279564
  24634809.977 4   -190319.199 4   -143353.75448  24634812.44548
  22114541.172 6  -1658681.785 6  -1254731.89848  22114540.54348
  22905078.344 5  -2096110.059 5  -1543952.30949  22905079.75849
  22477884.180 6    314546.051 6    236619.91047  22477883.24247
  20607719.094 7   -693467.910 7   -518614.02048  20607716.45348
  24264998.070 5   -669333.531 5   -504529.10946  24264996.46146
  21341991.578 6   -261598.684 6   -196370.42249  21341992.68449
  20783606.453 6  -1673589.234 6  -1262333.45749  20783607.15649
  21879942.875 6   -437618.840 6   -327557.10249  21879941.07849
  36843934.516 6   -395718.340 6                
 20  5 16  0 24  5.0000000  0 10G03G04G08G14G16G21G26G27G31S22      -0.000280968
  24634719.133 4   -190795.258 4   -143724.71148  24634722.00448
  22113700.383 6  -1663100.840 6  -1258175.31648  22113699.85548
  22903990.969 5  -2101825.348 5  -1548405.78149  22903992.46949
  22478082.867 5    315589.977 5    237433.35247  22478082.34847
  20607380.883 7   -695245.000 7   -519998.76248  20607378.07048
  24264572.094 5   -671575.453 5   -506276.06346  24264569.79346
  21341875.773 6   -262208.043 6   -196845.24249  21341876.75449
  20782747.672 6  -1678104.895 6  -1265852.15249  20782748.18449
  21879738.648 6   -438692.141 6   -328393.44149  21879737.01649
  36843504.156 6   -397997.914 6                
 20  5 16  0 24  6.0000000  0 10G03G04G08G14G16G21G26G27G31S22      -0.000282372
  24634628.602 4   -191270.238 4   -144094.83248  24634631.37548
  22112859.906 6  -1667518.445 6  -1261617.60548  22112859.10248
  22902902.906 5  -2107539.477 5  -1552858.34449  22902904.78549
  22478282.156 6    316635.109 6    238247.73847  22478280.94947
  20607043.211 7   -697020.879 7   -521382.55948  20607039.95748
  24264145.313 5   -673815.973 5   -508021.93046  24264143.81346
  21341759.672 6   -262816.371 6   -197319.26649  21341760.64549
  20781888.469 6  -1682619.063 6  -1269369.68849  20781888.92249
  21879534.789 7   -439764.262 7   -329228.86349  21879533.01249
  36843071.203 6   -400276.883 6                
 20  5 16  0 24  7.0000000  0 10G03G04G08G14G16G21G26G27G31S22      -0.000283773
  24634538.180 4   -191744.219 4   -144464.17648  24634541.21948
  22112019.063 6  -1671934.645 6  -1265058.78948  22112018.50448
  22901815.984 5  -2113252.410 5  -1557309.98049  22901817.90649
  22478480.422 6    317681.469 6    239063.08647  22478479.49647
  20606705.344 7   -698795.488 7   -522765.37548  20606702.55548
  24263719.086 5   -676055.211 5   -509766.79746  24263717.59846
  21341644.313 6   -263423.664 6   -197792.48449  21341645.28949
  20781029.750 6  -1687131.746 6  -1272886.06349  20781030.26649
  21879330.813 6   -440835.172 6   -330063.34449  21879329.28949
  36842637.875 6   -402554.531 6                
 20  5 16  0 24  8.0000000  0 10G03G04G08G14G16G21G26G27G31S22      -0.000285175
  24634448.578 4   -192217.184 4   -144832.71548  24634451.25448
  22111179.359 6  -1676349.504 6  -1268498.93848  22111178.56648
  22900729.273 5  -2118964.203 5  -1561760.73049  22900730.77049
  22478680.203 6    318728.980 6    239879.33247  22478679.33247
  20606367.797 7   -700568.953 7   -524147.29348  20606365.09848
  24263293.234 5   -678293.141 5   -511510.62946  24263291.66846
  21341528.664 6   -264030.027 6   -198264.96949  21341530.19549
  20780171.258 6  -1691643.008 6  -1276401.33249  20780172.00849
  21879127.398 7   -441904.992 7   -330896.96549  21879125.49649
  36842204.656 6   -404831.934 6                
 20  5 16  0 24  9.0000000  0 10G03G04G08G14G16G21G26G27G31S22      -0.000286577
  24634358.430 4   -192689.172 4   -145200.50448  24634361.53148
  22110339.172 6  -1680762.961 6  -1271937.99648  22110338.74248
  22899642.516 5  -2124674.938 5  -1566210.65649  22899644.13349
  22478879.414 6    319777.695 6    240696.50847  22478878.93047
  20606030.578 7   -702341.215 7   -525528.27348  20606027.92648
  24262867.633 5   -680529.797 5   -513253.47746  24262865.98046
  21341413.406 6   -264635.383 6   -198736.67649  21341414.34849
  20779313.109 6  -1696152.832 6  -1279915.47349  20779313.52749
  21878924.117 7   -442973.648 7   -331729.69149  21878922.09849
  36841774.797 6   -407108.109 6                
 20  5 16  0 24 10.0000000  0 10G03G04G08G14G16G21G26G27G31S22      -0.000287977
  24634269.344 4   -193160.012 4   -145567.39148  24634271.99648
  22109500.164 6  -1685174.992 6  -1275375.94548  22109499.34048
  22898555.859 5  -2130384.422 5  -1570659.60249  22898557.63749
  22479079.320 6    320827.652 6    241514.65647  22479078.77347
  20605693.500 7   -704112.242 7   -526908.30148  20605690.61748
  24262442.133 5   -682765.082 5   -514995.25446  24262440.71546
  21341298.477 6   -265239.707 6   -199207.58249  21341299.78549
  20778455.344 6  -1700661.164 6  -1283428.46149  20778455.30549
  21878720.734 7   -444041.121 7   -332561.48449  21878719.30949
  36841339.344 6   -409383.559 6                
 20  5 16  0 24 11.0000000  0 10G03G04G08G14G16G21G26G27G31S22      -0.000289377
  24634179.352 4   -193629.980 4   -145933.60248  24634182.20748
  22108660.273 6  -1689585.695 6  -1278812.85948  22108659.49648
  22897469.078 5  -2136092.832 5  -1575107.71949  22897471.03949
  22479279.500 6    321878.695 6    242333.65247  22479278.89547
  20605356.898 7   -705882.105 7   -528287.41448  20605353.88348
  24262017.836 5   -684999.150 5   -516736.07846  24262015.57046
  21341183.320 6   -265843.121 6   -199677.77749  21341184.68449
  20777597.438 6  -1705168.074 6  -1286940.34049  20777597.84049
  21878518.172 7   -445107.508 7   -333392.43449  21878516.37149
  36840907.641 6   -411658.281 6                
 20  5 16  0 24 12.0000000  0 10G03G04G08G14G16G21G26G27G31S22      -0.000290777
  24634090.617 4   -194098.930 4   -146299.02048  24634093.06348
  22107821.344 6  -1693995.047 6  -1282248.71948  22107821.14148
  22896383.563 5  -2141800.094 5  -1579554.93449  22896385.16049
  22479479.953 6    322930.945 6    243153.59047  22479478.70747
  20605020.422 7   -707650.785 7   -529665.60948  20605017.43848
  24261592.820 5   -687231.852 5   -518475.84446  24261590.98446
  21341069.031 6   -266445.535 6   -200147.19149  21341070.38349
  20776740.234 6  -1709673.570 6  -1290451.11349  20776740.84849
  21878315.430 6   -446172.746 6   -334222.49249  21878313.72749
  36840475.406 6   -413931.910 6                
 20  5 16  0 24 13.0000000  0 10G03G04G08G14G16G21G26G27G31S22      -0.000292175
  24634001.453 4   -194566.902 4   -146663.67648  24634004.21548
  22106982.695 6  -1698403.012 6  -1285683.50048  22106982.04348
  22895297.961 5  -2147506.223 5  -1584001.27349  22895299.21149
  22479680.445 6    323984.383 6    243974.44947  22479679.43447
  20604683.891 7   -709418.289 7   -531042.88748  20604680.89848
  24261167.883 5   -689463.281 5   -520214.61346  24261166.87946
  21340954.844 6   -267046.973 6   -200615.84449  21340955.73049
  20775883.188 6  -1714177.590 6  -1293960.74249  20775883.63749
  21878112.781 6   -447236.828 6   -335051.64849  21878110.98849
  36840041.656 6   -416204.781 6                
 20  5 16  0 24 14.0000000  0 10G03G04G08G14G16G21G26G27G31S22      -0.000293573
  24633911.977 4   -195033.910 4   -147027.57048  24633915.64148
  22106143.766 6  -1702809.652 6  -1289117.25048  22106143.24648
  22894212.352 5  -2153211.273 5  -1588446.76649  22894213.75049
  22479880.406 6    325038.918 6    244796.16447  22479880.38347
  20604347.953 7   -711184.645 7   -532419.26248  20604344.97348
  24260743.547 5   -691693.469 5   -521952.43046  24260741.74246
  21340840.359 6   -267647.516 6   -201083.80149  21340841.60549
  20775025.945 6  -1718680.262 6  -1297469.31349  20775026.97749
  21877910.477 7   -448299.848 7   -335879.97349  21877908.64149
  36839612.266 6   -418476.508 6                
 20  5 16  0 24 15.0000000  0 10G03G04G08G14G16G21G26G27G31S22      -0.000294971
  24633824.031 4   -195499.891 4   -147390.67648  24633826.70748
  22105305.633 6  -1707214.949 6  -1292549.94148  22105305.15648
  22893127.180 5  -2158915.215 5  -1592891.39849  22893128.12949
  22480081.891 6    326094.609 6    245618.77347  22480081.16047
  20604012.148 7   -712949.867 7   -533794.76248  20604009.19148
  24260319.852 5   -693922.434 5   -523689.28146  24260317.96546
  21340726.469 6   -268247.074 6   -201550.99249  21340727.50449
  20774169.648 6  -1723181.496 6  -1300976.76649  20774170.13349
  21877708.430 7   -449361.762 7   -336707.44149  21877706.85549
  36839181.375 6   -420747.809 6                
 20  5 16  0 24 16.0000000  0 10G03G04G08G14G16G21G26G27G31S22      -0.000296370
  24633735.516 4   -195965.063 4   -147753.15248  24633738.24648
  22104467.766 6  -1711618.988 6  -1295981.66048  22104466.85948
  22892040.836 5  -2164618.137 5  -1597335.22749  22892043.43049
  22480282.430 6    327151.379 6    246442.22347  22480282.10947
  20603676.438 7   -714714.004 7   -535169.41048  20603673.16448
  24259895.586 5   -696150.184 5   -525425.19146  24259894.02046
  21340612.633 6   -268845.793 6   -202017.52749  21340613.58249
  20773313.289 6  -1727681.430 6  -1304483.21149  20773313.80149
  21877506.352 7   -450422.641 7   -337534.10249  21877504.94549
  36838740.656 6   -423017.961 6                
 20  5 16  0 24 17.0000000  0 10G03G04G08G14G16G21G26G27G31S22      -0.000297766
  24633646.711 4   -196429.340 4   -148114.93448  24633649.64548
  22103629.602 6  -1716021.746 6  -1299412.37548  22103629.50848
  22890956.336 5  -2170320.027 5  -1601778.25849  22890958.16049
  22480483.891 6    328209.219 6    247266.51647  22480483.40647
  20603340.531 7   -716477.004 7   -536543.18448  20603337.74248
  24259471.703 5   -698376.754 5   -527160.18046  24259470.42246
  21340498.766 6   -269443.613 6   -202483.35949  21340499.50449
  20772457.641 6  -1732179.980 6  -1307988.57849  20772457.76649
  21877304.867 7   -451482.469 7   -338359.94149  21877302.87549
  36838314.688 6   -425287.469 6                
 20  5 16  0 24 18.0000000  0 10G03G04G08G14G16G21G26G27G31S22      -0.000299162
  24633558.281 4   -196892.590 4   -148475.90648  24633561.88748
  22102791.859 6  -1720423.191 6  -1302842.07848  22102791.87948
  22889871.578 5  -2176020.824 5  -1606220.43849  22889873.30949
  22480685.516 6    329268.148 6    248091.65647  22480685.01647
  20603005.508 7   -718238.922 7   -537916.10548  20603002.31348
  24259048.156 5   -700602.098 5   -528894.21146  24259046.85246
  21340385.055 6   -270040.559 6   -202948.51649  21340385.87549
  20771601.453 6  -1736677.176 6  -1311492.88349  20771602.21149
  21877103.633 7   -452541.234 7   -339184.95749  21877101.49249
  36837879.188 6   -427556.191 6                
 20  5 16  0 24 19.0000000  0 10G03G04G08G14G16G21G26G27G31S22      -0.000300558
  24633470.602 4   -197355.089 4   -148836.29948  24633473.97748
  22101954.883 6  -1724823.406 6  -1306270.82048  22101954.71948
  22888786.945 5  -2181720.660 5  -1610661.86349  22888788.38749
  22480887.281 6    330328.117 6    248917.60547  22480886.90647
  20602670.164 7   -719999.801 7   -539288.21948  20602667.52748
  24258624.891 5   -702826.258 5   -530627.32446  24258623.56646
  21340271.359 6   -270636.625 6   -203412.98049  21340272.44149
  20770745.781 6  -1741173.063 6  -1314996.16449  20770746.41449
  21876902.258 7   -453598.996 7   -340009.19148  21876900.27748
  36837449.453 6   -429823.996 6                
 20  5 16  0 24 20.0000000  0 10G03G04G08G14G16G21G26G27G31S22      -0.000301954
  24633382.625 4   -197816.691 4   -149195.98848  24633386.07048
  22101117.727 6  -1729222.422 6  -1309698.62148  22101117.67248
  22887702.242 5  -2187419.516 5  -1615102.53549  22887704.11749
  22481088.914 5    331389.129 5    249744.36747  22481088.68447
  20602335.867 7   -721759.637 7   -540659.51649  20602332.89149
  24258201.766 5   -705049.260 5   -532359.53246  24258200.46146
  21340158.211 6   -271231.898 6   -203876.82449  21340159.59049
  20769890.820 6  -1745667.648 6  -1318498.44549  20769891.05949
  21876701.297 7   -454655.777 7   -340832.65648  21876698.97748
  36837016.953 6   -432091.297 6                
 20  5 16  0 24 21.0000000  0 10G03G04G08G14G16G21G26G27G31S22      -0.000303349
  24633295.383 4   -198277.418 4   -149554.98848  24633298.52348
  22100281.055 6  -1733620.195 6  -1313125.45748  22100280.53548
  22886618.047 5  -2193117.426 5  -1619542.46149  22886619.93049
  22481291.242 6    332451.137 6    250571.90247  22481290.81647
  20602001.063 7   -723518.414 7   -542030.00049  20601998.11349
  24257779.195 5   -707271.151 5   -534090.87246  24257777.71546
  21340044.594 6   -271826.340 6   -204340.03149  21340046.13749
  20769035.609 6  -1750160.961 6  -1321999.72749  20769036.33649
  21876500.156 7   -455711.566 7   -341655.35249  21876497.88349
  36836588.484 6   -434357.559 6                
 20  5 16  0 24 22.0000000  0 10G03G04G08G14G16G21G26G27G31S22      -0.000304743
  24633207.859 4   -198737.355 4   -149913.38348  24633210.37148
  22099443.867 6  -1738016.762 6  -1316551.35548  22099444.02048
  22885534.305 5  -2198814.328 5  -1623981.60549  22885535.36349
  22481493.875 5    333514.191 5    251400.25447  22481493.05147
  20601666.414 7   -725276.180 7   -543399.68449  20601663.65249
  24257356.906 5   -709491.961 5   -535821.37946  24257355.09046
  21339932.031 6   -272419.969 6   -204802.60249  21339933.09849
  20768180.938 7  -1754652.992 7  -1325500.01249  20768181.70749
  21876299.250 7   -456766.375 7   -342477.27349  21876297.50449
  36836153.906 6   -436623.383 6                
 20  5 16  0 24 23.0000000  0 10G03G04G08G14G16G21G26G27G31S22      -0.000306137
  24633120.156 4   -199196.516 4   -150271.16048  24633123.39148
  22098607.836 6  -1742412.148 6  -1319976.34048  22098607.17248
  22884450.453 5  -2204510.309 5  -1628420.02749  22884451.86349
  22481696.047 5    334578.223 5    252229.36747  22481695.65247
  20601332.258 7   -727032.953 7   -544768.59849  20601329.11349
  24256933.836 5   -711711.662 5   -537551.00146  24256933.05146
  21339819.500 6   -273012.820 6   -205264.56349  21339820.48849
  20767326.352 6  -1759143.789 6  -1328999.33649  20767326.77749
  21876099.117 7   -457820.250 7   -343298.48049  21876097.19549
  36835726.844 6   -438888.098 6                
 20  5 16  0 24 24.0000000  0 10G03G04G08G14G16G21G26G27G31S22      -0.000307531
  24633032.914 4   -199654.793 4   -150628.25848  24633036.09448
  22097771.500 6  -1746806.367 6  -1323400.40248  22097771.35548
  22883367.352 5  -2210205.332 5  -1632857.70349  22883367.96149
  22481898.570 5    335643.227 5    253059.23047  22481898.39847
  20600998.031 7   -728788.719 7   -546136.72749  20600995.14549
  24256512.297 5   -713930.199 5   -539279.73046  24256510.40646
  21339706.484 6   -273604.887 6   -205725.91449  21339707.91849
  20766471.859 6  -1763633.332 6  -1332497.68449  20766472.35949
  21875898.484 7   -458873.156 7   -344118.93049  21875896.45349
  36835290.031 6   -441152.109 6                
 20  5 16  0 24 25.0000000  0 10G03G04G08G14G16G21G26G27G31S22      -0.000308924
  24632945.961 3   -200112.320 3   -150984.77748  24632948.87148
  22096935.313 6  -1751199.395 6  -1326823.54348  22096935.09048
  22882282.758 5  -2215899.434 5  -1637294.66449  22882284.61349
  22482101.102 5    336709.164 5    253889.83647  22482100.73847
  20600664.133 7   -730543.527 7   -547504.10948  20600661.11748
  24256090.055 5   -716147.652 5   -541007.61746  24256088.67246
  21339594.367 6   -274196.184 6   -206186.66849  21339595.48449
  20765617.625 6  -1768121.621 6  -1335995.04749  20765618.09449
  21875698.453 7   -459925.168 7   -344938.67648  21875696.46548
  36834858.609 6   -443415.512 6                
 20  5 16  0 24 26.0000000  0 10G03G04G08G14G16G21G26G27G31S22      -0.000310316
  24632859.484 4   -200569.020 4   -151340.64848  24632861.59048
  22096099.477 6  -1755591.266 6  -1330245.77048  22096099.52048
  22881199.305 5  -2221592.578 5  -1641730.88749  22881200.92249
  22482304.758 5    337776.121 5    254721.22747  22482304.19947
  20600330.070 7   -732297.305 7   -548870.68848  20600327.65648
  24255668.352 5   -718364.020 5   -542734.64846  24255666.78946
  21339481.867 6   -274786.691 6   -206646.80549  21339482.87149
  20764764.016 6  -1772608.684 6  -1339491.46549  20764764.59449
  21875498.188 7   -460976.184 7   -345757.64848  21875496.04348
  36834431.125 6   -445677.973 6                
 20  5 16  0 24 27.0000000  0 10G03G04G08G14G16G21G26G27G31S22      -0.000311708
  24632772.773 4   -201024.910 4   -151695.87948  24632775.42248
  22095264.578 6  -1759981.953 6  -1333667.08648  22095263.96548
  22880116.859 5  -2227284.797 5  -1646166.38349  22880117.18049
  22482507.703 5    338844.055 5    255553.37947  22482507.59047
  20599996.789 7   -734050.125 7   -550236.52348  20599993.98048
  24255246.914 5   -720579.316 5   -544460.85946  24255245.78546
  21339369.234 6   -275376.422 6   -207106.33249  21339370.77349
  20763910.461 6  -1777094.512 6  -1342986.90649  20763911.15249
  21875298.375 7   -462026.320 7   -346575.93848  21875295.93848
  36833999.672 6   -447940.109 6                
 20  5 16  0 24 28.0000000  0 10G03G04G08G14G16G21G26G27G31S22      -0.000313101
  24632686.188 4   -201480.098 4   -152050.57048  24632688.16048
  22094428.883 6  -1764371.508 6  -1337087.51648  22094428.94148
  22879033.320 5  -2232976.121 5  -1650601.18449  22879034.44549
  22482711.336 6    339912.891 6    256386.23847  22482711.08247
  20599663.352 7   -735802.004 7   -551601.62148  20599660.36748
  24254825.953 5   -722793.516 5   -546186.21146  24254824.05146
  21339257.484 6   -275965.430 6   -207565.30149  21339258.77049
  20763057.141 6  -1781579.113 6  -1346481.40249  20763057.74649
  21875099.266 7   -463075.539 7   -347393.51248  21875097.30548
  36833564.656 6   -450201.137 6                
 20  5 16  0 24 29.0000000  0 10G03G04G08G14G16G21G26G27G31S22      -0.000314493
  24632599.703 4   -201934.480 4   -152404.64148  24632602.09448
  22093593.961 6  -1768759.914 6  -1340507.05548  22093593.42648
  22877950.813 5  -2238666.535 5  -1655035.27349  22877951.56349
  22482914.578 5    340982.699 5    257219.85547  22482914.19147
  20599330.133 7   -737552.922 7   -552965.97348  20599327.02748
  24254404.719 5   -725006.664 5   -547910.74646  24254403.16846
  21339145.828 6   -276553.688 6   -208023.68049  21339146.93049
  20762203.922 6  -1786062.523 6  -1349974.96549  20762204.65649
  21874899.570 6   -464123.848 6   -348210.37948  21874897.59448
  36833137.969 6   -452461.902 6                
 20  5 16  0 24 30.0000000  0 10G03G04G08G14G16G21G26G27G31S22      -0.000315884
  24632512.484 4   -202388.121 4   -152758.12948  24632515.63748
  22092759.070 6  -1773147.215 6  -1343925.73048  22092758.90648
  22876868.594 5  -2244356.039 5  -1659468.66449  22876868.71549
  22483118.938 5    342053.414 5    258054.16847  22483118.15647
  20598997.367 7   -739302.898 7   -554329.59448  20598994.07848
  24253982.867 4   -727218.801 4   -549634.48846  24253982.25446
  21339033.844 6   -277141.250 6   -208481.52749  21339035.03549
  20761350.758 6  -1790544.750 6  -1353467.61349  20761351.51249
  21874700.039 7   -465171.285 7   -349026.56648  21874697.87548
  36832707.281 6   -454721.617 6                
 20  5 16  0 24 31.0000000  0 10G03G04G08G14G16G21G26G27G31S22      -0.000317274
  24632427.031 4   -202841.020 4   -153111.03948  24632429.20348
  22091924.430 6  -1777533.410 6  -1347343.54748  22091924.32448
  22875785.859 5  -2250044.711 5  -1663901.39849  22875786.29749
  22483322.750 5    343125.047 5    258889.21147  22483322.30147
  20598664.367 7   -741051.953 7   -555692.50048  20598661.42648
  24253562.328 5   -729429.902 5   -551357.41846  24253561.63746
  21338922.117 6   -277728.074 6   -208938.79749  21338923.41849
  20760498.336 6  -1795025.809 6  -1356959.34449  20760498.46549
  21874500.531 7   -466217.836 7   -349842.05948  21874498.68448
  36832278.594 6   -456981.051 6                
 20  5 16  0 24 32.0000000  0 10G03G04G08G14G16G21G26G27G31S22      -0.000318665
  24632340.719 4   -203293.227 4   -153463.41048  24632343.73048
  22091090.164 6  -1781918.527 6  -1350760.52348  22091089.85548
  22874703.227 5  -2255732.559 5  -1668333.48449  22874704.01649
  22483526.484 6    344197.531 6    259724.90647  22483526.02047
  20598331.359 7   -742800.145 7   -557054.71948  20598328.66448
  24253141.672 5   -731640.000 5   -553079.57846  24253140.95346
  21338810.805 6   -278314.230 6   -209395.54349  21338811.84049
  20759645.281 6  -1799505.695 6  -1360450.16849  20759646.28949
  21874301.867 7   -467263.574 7   -350656.92248  21874299.35548
  36831846.906 6   -459239.699 6                
 20  5 16  0 24 33.0000000  0 10G03G04G08G14G16G21G26G27G31S22      -0.000320055
  24632254.461 4   -203744.691 4   -153815.20748  24632257.74248
  22090255.969 6  -1786302.488 6  -1354176.59048  22090255.37548
  22873620.883 5  -2261419.465 5  -1672764.84049  22873621.91849
  22483731.461 6    345270.957 6    260561.34047  22483730.42247
  20597998.977 7   -744547.359 7   -558416.18848  20597996.34448
  24252721.109 5   -733849.051 5   -554800.90646  24252720.17646
  21338699.055 6   -278899.672 6   -209851.73049  21338700.16049
  20758793.617 6  -1803984.398 6  -1363940.06649  20758794.00049
  21874103.344 7   -468308.367 7   -351471.04348  21874101.28548
  36831422.453 6   -461497.980 6                
 20  5 16  0 24 34.0000000  0 10G03G04G08G14G16G21G26G27G31S22      -0.000321444
  24632169.172 4   -204195.625 4   -154166.59048  24632171.72348
  22089421.625 6  -1790685.375 6  -1357591.82848  22089421.37148
  22872539.313 5  -2267105.500 5  -1677195.51649  22872540.11349
  22483935.414 6    346345.301 6    261398.49647  22483934.38747
  20597666.703 7   -746293.672 7   -559776.94948  20597663.76248
  24252301.438 5   -736057.039 5   -556521.41446  24252300.37146
  21338587.719 6   -279484.398 6   -210307.35549  21338589.09849
  20757941.211 6  -1808461.914 6  -1367429.03949  20757941.60249
  21873904.492 7   -469352.324 7   -352284.51649  21873902.26249
  36830990.594 6   -463755.805 6                
 20  5 16  0 24 35.0000000  0 10G03G04G08G14G16G21G26G27G31S22      -0.000322832
  24632083.609 4   -204645.605 4   -154517.21948  24632086.08248
  22088587.875 6  -1795067.195 6  -1361006.23448  22088587.65648
  22871456.703 5  -2272790.762 5  -1681625.58649  22871458.45349
  22484140.297 6    347420.461 6    262236.28147  22484139.32447
  20597334.555 7   -748039.113 7   -561137.03948  20597331.44948
  24251881.297 5   -738264.105 5   -558241.20346  24251880.09446
  21338476.516 6   -280068.473 6   -210762.48449  21338478.18049
  20757089.477 6  -1812938.332 6  -1370917.15649  20757090.41049
  21873705.984 7   -470395.457 7   -353097.35248  21873703.84448
  36830558.766 6   -466012.863 6                
 20  5 16  0 24 36.0000000  0 10G03G04G08G14G16G21G26G27G31S22      -0.000324223
  24631998.305 4   -205094.954 4   -154867.35848  24632000.61348
  22087754.492 6  -1799447.992 6  -1364419.84848  22087754.10948
  22870375.320 5  -2278475.215 5  -1686055.03149  22870376.36749
  22484344.359 6    348496.492 6    263074.75047  22484344.32047
  20597002.445 7   -749783.723 7   -562496.47348  20596999.61748
  24251461.453 5   -740470.172 5   -559960.21546  24251460.61346
  21338365.609 6   -280651.910 6   -211217.10949  21338367.18449
  20756237.977 6  -1817413.605 6  -1374404.38349  20756238.66849
  21873507.445 7   -471437.805 7   -353909.56648  21873505.29348
  36830132.344 6   -468269.605 6                
 20  5 16  0 24 37.0000000  0 10G03G04G08G14G16G21G26G27G31S22      -0.000325611
  24631913.148 4   -205543.766 4   -155217.08248  24631915.06348
  22086920.656 6  -1803827.719 6  -1367832.62548  22086919.99648
  22869293.656 5  -2284158.852 5  -1690483.83649  22869294.99649
  22484549.758 6    349573.332 6    263913.83647  22484549.28947
  20596671.125 7   -751527.449 7   -563855.21548  20596667.75848
  24251041.813 5   -742675.305 5   -561678.48846  24251040.94546
  21338254.719 6   -281234.695 6   -211671.23049  21338255.99649
  20755386.656 6  -1821887.824 6  -1377890.78549  20755386.82449
  21873309.602 7   -472479.332 7   -354721.14548  21873307.27348
  36829702.359 6   -470525.527 6                
 20  5 16  0 24 38.0000000  0 10G03G04G08G14G16G21G26G27G31S22      -0.000326998
  24631827.445 4   -205991.758 4   -155566.16448  24631830.17648
  22086087.297 6  -1808206.379 6  -1371244.56648  22086087.17248
  22868212.258 5  -2289841.629 5  -1694911.97749  22868213.78549
  22484754.633 6    350651.082 6    264753.64147  22484754.28547
  20596338.750 7   -753270.293 7   -565213.27748  20596336.35948
  24250622.313 5   -744879.402 5   -563395.97346  24250621.69146
  21338144.180 6   -281816.793 6   -212124.80949  21338145.32849
  20754535.531 6  -1826360.855 6  -1381376.26649  20754535.74649
  21873111.313 7   -473520.012 7   -355532.07048  21873108.87948
  36829275.438 6   -472781.207 6                
 20  5 16  0 24 39.0000000  0 10G03G04G08G14G16G21G26G27G31S22      -0.000328386
  24631742.203 4   -206439.063 4   -155914.71548  24631744.89148
  22085254.719 6  -1812583.961 6  -1374655.66048  22085254.26648
  22867130.789 5  -2295523.598 5  -1699339.48049  22867132.31349
  22484960.078 6    351729.688 6    265594.11347  22484959.08247
  20596007.594 7   -755012.246 7   -566570.64148  20596004.68848
  24250202.859 5   -747082.547 5   -565112.71146  24250202.72346
  21338033.305 6   -282398.227 6   -212577.87549  21338034.77349
  20753684.289 6  -1830832.742 6  -1384860.85249  20753685.38749
  21872913.609 7   -474559.852 7   -356342.33248  21872911.05148
  36828844.234 6   -475036.117 6                
 20  5 16  0 24 40.0000000  0 10G03G04G08G14G16G21G26G27G31S22      -0.000329773
  24631657.500 4   -206885.811 4   -156262.83548  24631659.78148
  22084421.445 6  -1816960.543 6  -1378065.98448  22084421.15648
  22866049.805 5  -2301204.789 5  -1703766.37949  22866051.68049
  22485165.672 6    352809.102 6    266435.21947  22485164.55547
  20595675.977 7   -756753.375 7   -567927.36348  20595673.23448
  24249784.273 4   -749284.754 4   -566828.71946  24249783.26646
  21337922.977 6   -282979.039 6   -213030.46149  21337924.30149
  20752833.164 6  -1835303.563 6  -1388344.60249  20752833.84449
  21872715.500 7   -475598.922 7   -357151.99648  21872713.64148
  36828420.797 6   -477290.566 6                
 20  5 16  0 24 41.0000000  0 10G03G04G08G14G16G21G26G27G31S22      -0.000331161
  24631572.375 4   -207331.816 4   -156610.37548  24631574.37148
  22083588.969 6  -1821336.082 6  -1381475.49248  22083588.58248
  22864969.859 5  -2306885.176 5  -1708192.64549  22864970.66049
  22485371.313 6    353889.328 6    267276.95347  22485370.16847
  20595344.914 7   -758493.676 7   -569283.44548  20595342.07048
  24249364.938 4   -751486.043 4   -568544.00446  24249364.14546
  21337812.805 6   -283559.262 6   -213482.58249  21337813.42249
  20751982.789 6  -1839773.316 6  -1391827.53549  20751983.73849
  21872518.289 7   -476637.219 7   -357961.06348  21872516.13348
  36827987.234 6   -479544.582 6                
 20  5 16  0 24 42.0000000  0 10G03G04G08G14G16G21G26G27G31S22      -0.000332548
  24631487.883 4   -207777.297 4   -156957.50048  24631489.81648
  22082756.656 6  -1825710.723 6  -1384884.30948  22082756.08648
  22863888.031 5  -2312564.883 5  -1712618.39149  22863889.68449
  22485576.594 6    354970.297 6    268119.26647  22485575.68847
  20595014.016 7   -760233.238 7   -570638.94548  20595011.27348
  24248945.844 5   -753686.426 5   -570258.59046  24248945.11746
  21337702.078 6   -284138.918 6   -213934.26649  21337703.52049
  20751132.680 6  -1844242.035 6  -1395309.65649  20751133.61749
  21872320.641 7   -477674.805 7   -358769.57048  21872319.11348
  36827556.891 6   -481797.910 6                
 20  5 16  0 24 43.0000000  0 10G03G04G08G14G16G21G26G27G31S22      -0.000333933
  24631403.344 4   -208222.180 4   -157304.17248  24631405.28148
  22081924.109 6  -1830084.320 6  -1388292.30948  22081924.12148
  22862807.727 5  -2318243.820 5  -1717043.53549  22862808.81649
  22485782.563 6    356052.063 6    268962.19547  22485781.22747
  20594683.383 7   -761971.965 7   -571993.80548  20594680.33248
  24248527.836 5   -755885.914 5   -571972.47346  24248526.75846
  21337591.961 6   -284717.980 6   -214385.48449  21337593.10549
  20750282.445 6  -1848709.688 6  -1398790.94149  20750283.02349
  21872123.336 7   -478711.625 7   -359577.48849  21872121.39149
  36827131.047 6   -484051.137 6                
 20  5 16  0 24 44.0000000  0 10G03G04G08G14G16G21G26G27G31S22      -0.000335320
  24631319.055 4   -208666.391 4   -157650.31348  24631320.96548
  22081092.273 6  -1834456.895 6  -1391699.50848  22081091.89848
  22861727.008 5  -2323921.926 5  -1721468.03549  22861728.19149
  22485988.500 6    357134.684 6    269805.79347  22485987.75447
  20594352.461 7   -763709.832 7   -573347.98448  20594349.68848
  24248109.383 5   -758084.473 5   -573685.64546  24248108.85546
  21337481.578 6   -285296.410 6   -214836.21149  21337483.18449
  20749432.398 6  -1853176.230 6  -1402271.36349  20749432.87149
  21871926.117 7   -479747.625 7   -360384.76248  21871924.22348
  36826698.438 6   -486303.457 6                
 20  5 16  0 24 45.0000000  0 10G03G04G08G14G16G21G26G27G31S22      -0.000336706
  24631234.539 4   -209109.988 4   -157995.96948  24631236.16448
  22080260.266 6  -1838828.520 6  -1395105.96948  22080260.18048
  22860647.164 5  -2329599.363 5  -1725892.02049  22860648.13349
  22486194.664 6    358218.047 6    270649.97347  22486193.67247
  20594022.195 7   -765446.934 7   -574701.57048  20594019.50848
  24247691.656 5   -760282.094 5   -575398.06646  24247690.77346
  21337372.125 6   -285874.273 6   -215286.48849  21337373.28149
  20748582.367 6  -1857641.754 6  -1405750.99249  20748583.28549
  21871729.211 7   -480782.926 7   -361191.48448  21871727.33248
  36826269.281 6   -488555.707 6                
 20  5 16  0 24 46.0000000  0 10G03G04G08G14G16G21G26G27G31S22      -0.000338091
  24631150.266 4   -209552.945 4   -158341.13348  24631151.94948
  22079428.969 6  -1843199.086 6  -1398511.60548  22079428.45348
  22859566.625 5  -2335275.953 5  -1730315.33249  22859567.51249
  22486400.789 6    359302.230 6    271494.79347  22486400.10247
  20593691.508 7   -767183.219 7   -576054.52348  20593688.46548
  24247272.969 5   -762478.746 5   -577109.74246  24247272.66046
  21337262.070 6   -286451.516 6   -215736.28949  21337263.59849
  20747733.117 6  -1862106.148 6  -1409229.74649  20747733.54749
  21871532.258 7   -481817.414 7   -361997.58248  21871530.36348
  36825843.672 6   -490807.094 6                
 20  5 16  0 24 47.0000000  0 10G03G04G08G14G16G21G26G27G31S22      -0.000339476
  24631065.781 4   -209995.391 4   -158685.89548  24631067.78148
  22078596.961 6  -1847568.766 6  -1401916.55548  22078596.99248
  22858486.602 5  -2340951.891 5  -1734738.14149  22858488.00449
  22486607.469 6    360387.148 6    272340.18847  22486606.41047
  20593361.047 7   -768918.773 7   -577406.90248  20593358.43848
  24246855.008 5   -764674.660 5   -578820.83246  24246854.35946
  21337152.297 6   -287028.246 6   -216185.68849  21337153.87149
  20746883.867 6  -1866569.602 6  -1412707.76249  20746884.39149
  21871335.180 7   -482851.246 7   -362803.17248  21871333.48448
  36825416.984 6   -493058.266 6                
 20  5 16  0 24 48.0000000  0 10G03G04G08G14G16G21G26G27G31S22      -0.000340860
  24630981.578 4   -210437.293 4   -159030.23048  24630983.57848
  22077765.719 6  -1851937.500 6  -1405320.76248  22077765.31648
  22857406.117 5  -2346627.152 5  -1739160.42649  22857407.57849
  22486814.195 6    361472.770 6    273186.12947  22486813.23047
  20593031.133 7   -770653.586 7   -578758.70748  20593028.34448
  24246437.813 5   -766869.691 5   -580531.25046  24246436.76646
  21337042.836 6   -287604.441 6   -216634.67649  21337043.84849
  20746034.789 6  -1871032.039 6  -1416184.98449  20746035.58649
  21871138.773 7   -483884.391 7   -363608.21948  21871136.87948
  36824984.375 6   -495308.965 6                
 20  5 16  0 24 49.0000000  0 10G03G04G08G14G16G21G26G27G31S22      -0.000342245
  24630897.555 4   -210878.672 4   -159374.16448  24630899.68848
  22076934.281 6  -1856305.332 6  -1408724.26648  22076934.12948
  22856326.398 5  -2352301.730 5  -1743582.17649  22856327.94149
  22487021.055 6    362559.094 6    274032.61347  22487019.82047
  20592701.375 6   -772387.672 6   -580109.94548  20592698.64848
  24246021.039 4   -769063.875 4   -582241.00846  24246019.55946
  21336933.305 6   -288180.129 6   -217083.26649  21336934.64849
  20745185.656 6  -1875493.516 6  -1419661.45749  20745186.02749
  21870942.188 7   -484916.844 7   -364412.72748  21870940.70348
  36824556.141 6   -497559.082 6                
 20  5 16  0 24 50.0000000  0 10G03G04G08G14G16G21G26G27G31S22      -0.000343630
  24630813.594 4   -211319.504 4   -159717.67648  24630815.84448
  22076103.445 6  -1860672.289 6  -1412127.09048  22076103.30948
  22855246.867 5  -2357975.707 5  -1748003.46149  22855247.84849
  22487227.563 6    363646.098 6    274879.62147  22487226.59847
  20592371.352 7   -774121.102 7   -581460.66848  20592368.53548
  24245602.781 5   -771257.281 5   -583950.15246  24245601.70746
  21336823.875 6   -288755.352 6   -217531.49249  21336825.37949
  20744337.234 6  -1879954.047 6  -1423137.19149  20744337.58249
  21870746.117 7   -485948.668 7   -365216.74648  21870744.00848
  36824131.578 6   -499809.066 6                
 20  5 16  0 24 51.0000000  0 10G03G04G08G14G16G21G26G27G31S22      -0.000345015
  24630729.789 4   -211759.781 4   -160060.74648  24630732.02048
  22075272.734 6  -1865038.277 6  -1415529.16048  22075272.55148
  22854167.305 5  -2363648.930 5  -1752424.15649  22854168.55149
  22487434.594 6    364733.863 6    275727.22747  22487433.38347
  20592041.680 7   -775853.715 7   -582810.75448  20592038.72748
  24245185.445 5   -773449.719 5   -585658.53946  24245184.64146
  21336714.672 6   -289330.004 6   -217979.27749  21336715.86349
  20743488.461 6  -1884413.527 6  -1426612.11349  20743488.76649
  21870549.828 7   -486979.758 7   -366020.19148  21870547.97748
  36823702.250 6   -502058.355 6                
 20  5 16  0 24 52.0000000  0 10G03G04G08G14G16G21G26G27G31S22      -0.000346397
  24630646.406 4   -212199.570 4   -160403.43848  24630648.24248
  22074442.055 6  -1869403.406 6  -1418930.56348  22074441.62148
  22853087.617 5  -2369321.500 5  -1756844.33649  22853088.71149
  22487641.719 6    365822.316 6    276575.37147  22487640.50447
  20591711.914 6   -777585.648 6   -584160.31648  20591709.24248
  24244768.328 5   -775641.449 5   -587366.37946  24244767.46946
  21336604.938 6   -289904.156 6   -218426.66449  21336606.74649
  20742640.102 6  -1888872.051 6  -1430086.29349  20742640.51249
  21870353.727 7   -488010.199 7   -366823.13748  21870351.74648
  36823273.453 6   -504307.375 6                
 20  5 16  0 24 53.0000000  0 10G03G04G08G14G16G21G26G27G31S22      -0.000347782
  24630562.813 4   -212638.770 4   -160745.67648  24630564.93048
  22073611.648 6  -1873767.594 6  -1422331.22748  22073611.29748
  22852008.102 5  -2374993.410 5  -1761264.00849  22852009.00049
  22487848.648 6    366911.504 6    277424.09047  22487847.79747
  20591382.328 6   -779316.852 6   -585509.30548  20591379.78548
  24244351.703 5   -777832.305 5   -589073.53546  24244350.37946
  21336495.820 6   -290477.816 6   -218873.67249  21336497.35949
  20741791.914 6  -1893329.594 6  -1433559.70349  20741792.10549
  21870157.820 7   -489039.969 7   -367625.55948  21870155.96148
  36822844.344 6   -506555.645 6                
 20  5 16  0 24 54.0000000  0 10G03G04G08G14G16G21G26G27G31S22      -0.000349165
  24630479.711 4   -213077.535 4   -161087.56648  24630481.45748
  22072781.219 6  -1878130.930 6  -1425731.23048  22072780.93848
  22850929.430 5  -2380664.738 5  -1765683.21949  22850930.46149
  22488056.070 6    368001.297 6    278273.28147  22488055.34447
  20591053.234 6   -781047.414 6   -586857.79348  20591050.37148
  24243934.930 5   -780022.383 5   -590780.08646  24243933.98446
  21336386.867 6   -291051.031 6   -219320.33649  21336388.37549
  20740943.813 6  -1897786.238 6  -1437032.41449  20740944.16449
  21869961.930 7   -490069.125 7   -368427.49648  21869960.14848
  36822417.969 6   -508803.621 6                
 20  5 16  0 24 55.0000000  0 10G03G04G08G14G16G21G26G27G31S22      -0.000350548
  24630395.609 4   -213515.801 4   -161429.07448  24630397.83248
  22071951.328 6  -1882493.363 6  -1429130.52348  22071950.90648
  22849850.461 5  -2386335.375 5  -1770101.90249  22849851.43449
  22488263.891 6    369091.773 6    279123.00047  22488262.75047
  20590724.047 7   -782777.254 7   -588205.72348  20590721.33248
  24243517.852 5   -782211.621 5   -592485.98446  24243517.07846
  21336277.477 6   -291623.738 6   -219766.59849  21336278.87149
  20740095.844 6  -1902241.910 6  -1440504.36349  20740096.36749
  21869766.227 7   -491097.613 7   -369228.91848  21869764.36748
  36821987.219 6   -511051.117 6                
 20  5 16  0 24 56.0000000  0 10G03G04G08G14G16G21G26G27G31S22      -0.000351931
  24630312.453 4   -213953.551 4   -161770.17248  24630314.67248
  22071121.367 6  -1886854.945 6  -1432529.16448  22071120.73848
  22848771.141 5  -2392005.355 5  -1774520.06649  22848772.29749
  22488471.445 6    370182.953 6    279973.27047  22488470.26247
  20590394.930 6   -784506.418 6   -589553.11748  20590392.57448
  24243101.781 5   -784400.125 5   -594191.30146  24243100.98446
  21336168.828 6   -292195.980 6   -220212.50449  21336170.68449
  20739247.906 6  -1906696.645 6  -1443975.58249  20739248.45749
  21869570.516 7   -492125.469 7   -370029.84848  21869568.88748
  36821560.547 6   -513298.227 6                
 20  5 16  0 24 57.0000000  0 10G03G04G08G14G16G21G26G27G31S22      -0.000353313
  24630229.070 4   -214390.805 4   -162110.88748  24630231.53948
  22070291.633 6  -1891215.660 6  -1435927.12548  22070291.07448
  22847692.211 5  -2397674.738 5  -1778937.77049  22847693.25049
  22488679.266 6    371274.734 6    280824.00447  22488677.75447
  20590066.008 7   -786234.910 7   -590900.00048  20590063.44148
  24242684.531 5   -786587.820 5   -595896.00446  24242684.61346
  21336060.188 6   -292767.785 6   -220658.07049  21336061.45349
  20738400.609 7  -1911150.438 7  -1447446.07049  20738401.21149
  21869375.141 7   -493152.723 7   -370830.30548  21869373.39548
  36821132.875 6   -515544.973 6                
 20  5 16  0 24 58.0000000  0 10G03G04G08G14G16G21G26G27G31S22      -0.000354696
  24630145.742 4   -214827.598 4   -162451.25848  24630148.37148
  22069461.742 6  -1895575.496 6  -1439324.40648  22069461.23448
  22846613.695 5  -2403343.512 5  -1783354.99649  22846615.10549
  22488886.703 6    372367.215 6    281675.28947  22488886.15247
  20589737.242 6   -787962.730 6   -592246.35548  20589734.51648
  24242269.023 5   -788774.738 5   -597600.10246  24242268.29746
  21335951.484 6   -293339.102 6   -221103.24649  21335952.97349
  20737553.250 7  -1915603.301 7  -1450915.84049  20737553.91049
  21869179.930 6   -494179.320 6   -371630.24648  21869178.07448
  36820705.531 6   -517791.418 6                
 20  5 16  0 24 59.0000000  0 10G03G04G08G14G16G21G26G27G31S22      -0.000356079
  24630063.680 4   -215263.867 4   -162791.20348  24630064.87948
  22068632.617 6  -1899934.480 6  -1442721.01248  22068631.75448
  22845535.086 5  -2409011.613 5  -1787771.69949  22845536.28549
  22489095.156 6    373460.375 6    282527.10247  22489094.16047
  20589408.633 7   -789689.863 7   -593592.17248  20589405.85248
  24241852.945 4   -790960.871 4   -599303.57846  24241852.34846
  21335842.672 6   -293909.945 6   -221548.06349  21335843.96149
  20736705.961 6  -1920055.234 6  -1454384.87549  20736706.57849
  21868984.508 6   -495205.301 6   -372429.71548  21868982.61348
  36820276.891 6   -520037.598 6                
 20  5 16  0 25  0.0000000  0 10G03G04G08G14G16G21G26G27G31S22      -0.000357460
  24629980.141 4   -215699.776 4   -163130.87848  24629982.59048
  22067803.180 6  -1904292.637 6  -1446116.97748  22067802.57048
  22844456.211 5  -2414679.168 5  -1792187.97349  22844458.23849
  22489303.070 6    374554.117 6    283379.36347  22489302.09447
  20589079.992 7   -791416.359 7   -594937.49648  20589077.48048
  24241437.656 4   -793146.262 4   -601006.47746  24241436.28146
  21335734.094 6   -294480.355 6   -221992.53549  21335735.48849
  20735858.883 6  -1924506.273 6  -1457853.21949  20735859.34049
  21868789.477 6   -496230.684 6   -373228.71948  21868787.18848
  36819850.453 6   -522283.285 6                
 20  5 16  0 25  1.0000000  0 10G03G04G08G14G16G21G26G27G31S22      -0.000358843
  24629897.305 4   -216135.102 4   -163470.09848  24629899.62148
  22066974.031 6  -1908649.910 6  -1449512.25848  22066973.09848
  22843378.109 5  -2420346.039 5  -1796603.71949  22843379.63349
  22489511.008 6    375648.520 6    284232.14547  22489510.62147
  20588751.555 7   -793142.184 7   -596282.29748  20588748.93448
  24241022.352 4   -795330.862 4   -602708.75846  24241020.62946
  21335625.984 6   -295050.348 6   -222436.69149  21335626.99249
  20735012.414 6  -1928956.363 6  -1461320.81649  20735012.46149
  21868594.445 7   -497255.438 7   -374027.22748  21868592.69948
  36819423.500 6   -524528.797 6                
 20  5 16  0 25  2.0000000  0 10G03G04G08G14G16G21G26G27G31S22      -0.000360224
  24629814.914 4   -216570.180 4   -163809.11748  24629817.01648
  22066145.109 6  -1913006.398 6  -1452906.92248  22066144.21948
  22842299.688 5  -2426012.375 5  -1801019.04349  22842301.14149
  22489719.914 6    376743.527 6    285085.39847  22489719.07447
  20588423.180 7   -794867.426 7   -597626.63748  20588420.36748
  24240606.023 5   -797514.711 5   -604410.46146  24240605.18046
  21335517.398 6   -295619.949 6   -222880.53949  21335518.61749
  20734165.563 7  -1933405.637 7  -1464787.78149  20734166.09049
  21868399.367 7   -498279.660 7   -374825.33248  21868397.76648
  36818996.250 6   -526773.840 6                
 20  5 16  0 25  3.0000000  0 10G03G04G08G14G16G21G26G27G31S22      -0.000361605
  24629731.922 4   -217004.723 4   -164147.72348  24629733.75848
  22065315.906 6  -1917362.043 6  -1456300.93848  22065315.30948
  22841221.414 5  -2431678.125 5  -1805433.91849  22841222.95349
  22489928.172 6    377839.160 6    285939.12947  22489926.73447
  20588095.086 6   -796592.008 6   -598970.46948  20588092.34448
  24240190.680 5   -799697.891 5   -606111.63346  24240189.40646
  21335409.195 6   -296189.078 6   -223324.01649  21335410.36749
  20733318.984 7  -1937853.965 7  -1468254.01649  20733319.69949
  21868204.398 7   -499303.262 7   -375622.94148  21868203.37948
  36818564.844 6   -529018.633 6                
 20  5 16  0 25  4.0000000  0 10G03G04G08G14G16G21G26G27G31S22      -0.000362986
  24629649.945 4   -217438.703 4   -164485.89148  24629651.49248
  22064487.625 6  -1921716.855 6  -1459694.29348  22064487.03548
  22840143.359 5  -2437343.215 5  -1809848.27349  22840144.88749
  22490136.867 6    378935.445 6    286793.37947  22490135.99247
  20587767.094 6   -798315.910 6   -600313.76648  20587764.42248
  24239775.117 4   -801880.223 4   -607812.15646  24239774.39146
  21335300.891 6   -296757.777 6   -223767.16449  21335302.13749
  20732472.828 6  -1942301.383 6  -1471719.53949  20732473.32049
  21868009.859 6   -500326.254 6   -376420.08248  21868008.08248
  36818144.266 6   -531262.996 6                
 20  5 16  0 25  5.0000000  0 10G03G04G08G14G16G21G26G27G31S22      -0.000364367
  24629566.984 4   -217872.309 4   -164823.76248  24629569.21548
  22063658.703 6  -1926070.820 6  -1463086.99648  22063658.46548
  22839065.438 5  -2443007.746 5  -1814262.19149  22839067.21149
  22490345.938 6    380032.383 6    287648.14147  22490344.60247
  20587439.484 6   -800039.180 6   -601656.57448  20587436.74248
  24239360.531 4   -804061.836 4   -609512.11346  24239359.17246
  21335192.883 6   -297326.020 6   -224209.95349  21335194.08649
  20731626.445 6  -1946747.875 6  -1475184.33649  20731627.02349
  21867815.438 6   -501348.625 6   -377216.73048  21867813.79348
  36817718.375 6   -533506.957 6                
 20  5 16  0 25  6.0000000  0 10G03G04G08G14G16G21G26G27G31S22      -0.000365747
  24629484.477 4   -218305.418 4   -165161.25048  24629486.73448
  22062830.617 6  -1930423.934 6  -1466479.03148  22062829.91048
  22837987.859 5  -2448671.645 5  -1818675.61749  22837989.61349
  22490554.422 6    381129.914 6    288503.35947  22490553.09047
  20587111.672 6   -801761.777 6   -602998.85948  20587108.66848
  24238945.305 4   -806242.656 4   -611211.44946  24238943.94146
  21335084.625 6   -297893.848 6   -224652.41449  21335086.18049
  20730780.578 7  -1951193.480 7  -1478648.43849  20730780.74249
  21867621.055 7   -502370.402 7   -378012.92648  21867619.40248
  36817285.750 6   -535750.719 6                
 20  5 16  0 25  7.0000000  0 10G03G04G08G14G16G21G26G27G31S22      -0.000367128
  24629402.461 4   -218738.113 4   -165498.41848  24629404.40648
  22062002.648 6  -1934776.266 6  -1469870.45748  22062001.69148
  22836909.953 5  -2454335.004 5  -1823088.62549  22836911.51249
  22490763.547 6    382228.016 6    289359.01647  22490762.40647
  20586783.633 6   -803483.809 6   -604340.70348  20586781.04748
  24238530.320 5   -808422.801 5   -612910.27046  24238529.05946
  21334976.977 6   -298461.293 6   -225094.57849  21334978.37149
  20729934.828 7  -1955638.246 7  -1482111.89549  20729935.21949
  21867426.797 7   -503391.656 7   -378808.70348  21867424.75448
  36816862.203 6   -537994.000 6                
 20  5 16  0 25  8.0000000  0 10G03G04G08G14G16G21G26G27G31S22      -0.000368507
  24629319.945 4   -219170.406 4   -165835.27348  24629321.57048
  22061173.844 6  -1939127.789 6  -1473261.25848  22061173.11348
  22835832.305 5  -2459997.785 5  -1827501.18449  22835834.25449
  22490972.836 6    383326.762 6    290215.18047  22490971.39147
  20586456.203 6   -805205.223 6   -605682.06348  20586452.91848
  24238116.008 5   -810602.266 5   -614608.55346  24238114.43046
  21334869.055 6   -299028.332 6   -225536.43049  21334870.10249
  20729089.094 7  -1960082.090 7  -1485574.62949  20729089.61349
  21867232.602 7   -504412.324 7   -379604.03148  21867230.73048
  36816436.563 6   -540237.301 6                
 20  5 16  0 25  9.0000000  0 10G03G04G08G14G16G21G26G27G31S22      -0.000369888
  24629237.023 4   -219602.313 4   -166171.82448  24629240.01648
  22060346.008 6  -1943478.531 6  -1476651.44948  22060345.82048
  22834755.242 5  -2465660.027 5  -1831913.32049  22834756.68849
  22491181.953 6    384426.051 6    291071.77347  22491180.70347
  20586128.531 6   -806926.004 6   -607022.93048  20586125.39848
  24237701.000 4   -812780.891 4   -616306.17646  24237700.03546
  21334761.063 6   -299594.973 6   -225977.96949  21334762.43849
  20728243.508 7  -1964525.125 7  -1489036.73449  20728244.04349
  21867038.344 7   -505432.449 7   -380398.93848  21867036.55948
  36816007.531 6   -542480.332 6                
 20  5 16  0 25 10.0000000  0 10G03G04G08G14G16G21G26G27G31S22      -0.000371267
  24629154.797 4   -220033.750 4   -166508.01248  24629157.53548
  22059518.453 6  -1947828.441 6  -1480040.98448  22059517.64148
  22833677.648 5  -2471321.664 5  -1836324.98849  22833678.99649
  22491391.133 6    385525.992 6    291928.87147  22491390.09447
  20585801.211 6   -808646.172 6   -608363.32848  20585798.61348
  24237286.281 4   -814958.863 4   -618003.29346  24237285.45746
  21334653.086 6   -300161.203 6   -226419.18849  21334654.88749
  20727398.531 6  -1968967.230 6  -1492498.12149  20727398.84449
  21866844.367 6   -506451.961 6   -381193.36348  21866842.33248
  36815582.563 6   -544723.055 6                
 20  5 16  0 25 11.0000000  0 10G03G04G08G14G16G21G26G27G31S22      -0.000372648
  24629073.438 4   -220464.855 4   -166843.93848  24629075.62548
  22058691.016 6  -1952177.629 6  -1483429.96548  22058690.47748
  22832600.531 5  -2476982.809 5  -1840736.26649  22832601.69549
  22491600.313 6    386626.422 6    292786.34847  22491599.01647
  20585473.672 6   -810365.828 6   -609703.31648  20585471.04348
  24236872.609 4   -817136.130 4   -619699.85546  24236871.64846
  21334545.398 6   -300727.129 6   -226860.17249  21334547.09049
  20726553.602 6  -1973408.566 6  -1495958.90249  20726553.64549
  21866650.758 6   -507471.008 6   -381987.42648  21866648.77348
  36815154.078 6   -546965.395 6                
 20  5 16  0 25 12.0000000  0 10G03G04G08G14G16G21G26G27G31S22      -0.000374027
  24628991.492 4   -220895.566 4   -167179.55548  24628993.94148
  22057863.484 6  -1956526.055 6  -1486818.35248  22057863.03148
  22831523.078 5  -2482643.465 5  -1845147.16849  22831524.48849
  22491809.836 6    387727.422 6    293644.27347  22491809.11347
  20585147.219 6   -812084.879 6   -611042.83648  20585144.41448
  24236457.977 4   -819312.828 4   -621395.98446  24236457.00046
  21334437.734 6   -301292.668 6   -227300.85549  21334439.15649
  20725708.273 7  -1977849.055 7  -1499419.02049  20725708.46549
  21866456.867 6   -508489.535 6   -382781.08648  21866454.41848
  36814727.922 6   -549207.621 6                
 20  5 16  0 25 13.0000000  0 10G03G04G08G14G16G21G26G27G31S22      -0.000375406
  24628909.648 4   -221325.957 4   -167514.92248  24628911.82448
  22057036.023 6  -1960873.789 6  -1490206.19547  22057035.50047
  22830445.820 5  -2488303.664 5  -1849557.70749  22830447.44149
  22492019.867 6    388828.891 6    294502.55547  22492018.36747
  20584819.828 6   -813803.461 6   -612381.98848  20584817.50048
  24236043.781 4   -821488.879 4   -623091.61346  24236042.91046
  21334330.234 6   -301857.934 6   -227741.31649  21334332.04749
  20724863.156 7  -1982288.801 7  -1502878.56649  20724863.43049
  21866263.164 7   -509507.590 7   -383574.37548  21866261.17248
  36814302.094 6   -551449.395 6                
 20  5 16  0 25 14.0000000  0 10G03G04G08G14G16G21G26G27G31S22      -0.000376785
  24628827.289 4   -221755.980 4   -167850.00848  24628830.02348
  22056208.906 6  -1965220.715 6  -1493593.40648  22056208.11348
  22829369.180 5  -2493963.270 5  -1853967.79349  22829370.76249
  22492229.234 6    389930.977 6    295361.31347  22492228.08647
  20584492.813 6   -815521.430 6   -613720.67248  20584490.08248
  24235629.688 4   -823664.133 4   -624786.60946  24235629.43846
  21334222.758 6   -302422.809 6   -228181.48049  21334224.34449
  20724018.813 6  -1986727.656 6  -1506337.41849  20724019.55949
  21866069.336 7   -510525.086 7   -384367.23048  21866067.97748
  36813874.516 6   -553690.703 6                
 20  5 16  0 25 15.0000000  0 10G03G04G08G14G16G21G26G27G31S22      -0.000378164
  24628745.727 4   -222185.630 4   -168184.80048  24628748.18448
  22055381.414 6  -1969566.926 6  -1496980.07048  22055381.00848
  22828292.070 5  -2499622.406 5  -1858377.50449  22828293.84849
  22492438.992 6    391033.570 6    296220.47747  22492438.03547
  20584166.227 6   -817238.844 6   -615058.91848  20584163.35948
  24235215.445 4   -825838.793 4   -626481.16046  24235215.65646
  21334115.531 6   -302987.348 6   -228621.38749  21334116.90249
  20723174.125 7  -1991165.746 7  -1509795.66449  20723174.77049
  21865876.180 6   -511542.086 6   -385159.69949  21865873.76649
  36813450.234 6   -555931.801 6                
 20  5 16  0 25 16.0000000  0 10G03G04G08G14G16G21G26G27G31S22      -0.000379543
  24628663.938 4   -222614.844 4   -168519.25048  24628666.80948
  22054554.453 6  -1973912.336 6  -1500366.10247  22054554.24647
  22827215.188 5  -2505280.992 5  -1862786.79349  22827216.82049
  22492649.398 6    392136.746 6    297080.09047  22492648.26247
  20583839.461 6   -818955.676 6   -616396.70748  20583836.70348
  24234801.961 4   -828012.711 4   -628175.12146  24234802.02346
  21334008.438 6   -303551.500 6   -229060.98849  21334009.53549
  20722329.930 7  -1995602.934 7  -1513253.21549  20722330.34049
  21865682.219 7   -512558.531 7   -385951.73049  21865680.26649
  36813022.297 6   -558172.516 6                
 20  5 16  0 25 17.0000000  0 10G03G04G08G14G16G21G26G27G31S22      -0.000380922
  24628582.195 3   -223043.730 3   -168853.45748  24628585.00848
  22053727.961 6  -1978256.988 6  -1503751.55548  22053727.60948
  22826138.906 5  -2510939.059 5  -1867195.68049  22826140.13749
  22492859.609 6    393240.461 6    297940.12547  22492858.05147
  20583513.133 6   -820671.969 6   -617734.08248  20583510.05948
  24234389.109 4   -830186.016 4   -629868.60946  24234388.24246
  21333901.383 6   -304115.324 6   -229500.32849  21333902.37549
  20721485.547 7  -2000039.324 7  -1516710.14149  20721486.01249
  21865488.883 7   -513574.480 7   -386743.38748  21865486.85548
  36812594.938 6   -560413.219 6                
 20  5 16  0 25 18.0000000  0 10G03G04G08G14G16G21G26G27G31S22      -0.000382301
  24628501.125 4   -223472.254 4   -169187.36348  24628503.12148
  22052901.570 6  -1982600.926 6  -1507136.43448  22052900.84848
  22825062.219 5  -2516596.664 5  -1871604.20749  22825063.79349
  22493069.711 6    394344.688 6    298800.55947  22493068.14147
  20583186.977 6   -822387.699 6   -619071.01648  20583183.34448
  24233974.797 4   -832358.656 4   -631561.57846  24233974.84846
  21333793.359 6   -304678.816 6   -229939.41849  21333794.77349
  20720641.563 6  -2004474.938 6  -1520166.46949  20720642.11349
  21865295.727 7   -514589.938 7   -387534.65648  21865293.93448
  36812173.953 6   -562653.375 6                
 20  5 16  0 25 19.0000000  0 10G03G04G08G14G16G21G26G27G31S22      -0.000383678
  24628420.078 4   -223900.426 4   -169521.00448  24628422.01248
  22052074.727 6  -1986944.098 6  -1510520.72748  22052074.18448
  22823985.227 5  -2522253.676 5  -1876012.27049  22823987.27349
  22493279.992 6    395449.473 6    299661.43047  22493277.99247
  20582859.969 6   -824102.863 6   -620407.50048  20582857.10948
  24233561.344 4   -834530.609 4   -633254.00446  24233561.66046
  21333686.281 6   -305241.961 6   -230378.23449  21333687.80549
  20719797.531 7  -2008909.711 7  -1523622.13349  20719798.08649
  21865102.742 7   -515604.867 7   -388325.50848  21865100.98048
  36811743.109 6   -564893.488 6                
 20  5 16  0 25 20.0000000  0 10G03G04G08G14G16G21G26G27G31S22      -0.000385057
  24628338.617 4   -224328.266 4   -169854.38748  24628340.37148
  22051248.578 6  -1991286.566 6  -1513904.46548  22051248.15648
  22822909.570 5  -2527910.258 5  -1880419.99249  22822911.08649
  22493489.969 6    396554.777 6    300522.69947  22493488.54347
  20582533.602 6   -825817.520 6   -621743.60248  20582531.01248
  24233148.594 4   -836701.904 4   -634945.93046  24233148.43446
  21333579.023 6   -305804.777 6   -230816.78949  21333580.59449
  20718953.805 7  -2013343.703 7  -1527077.19149  20718954.19549
  21864909.523 7   -516619.328 7   -389115.99648  21864907.53948
  36811317.313 6   -567133.254 6                
 20  5 16  0 25 21.0000000  0 10G03G04G08G14G16G21G26G27G31S22      -0.000386435
  24628257.102 4   -224755.738 4   -170187.47748  24628259.10948
  22050422.414 6  -1995628.320 6  -1517287.65247  22050421.86347
  22821833.211 5  -2533566.363 5  -1884827.34849  22821834.46149
  22493700.820 6    397660.555 6    301384.34847  22493699.33647
  20582207.469 6   -827531.668 6   -623079.30548  20582205.03148
  24232735.938 4   -838872.629 4   -636637.39546  24232735.15246
  21333472.367 6   -306367.305 6   -231255.12949  21333473.42249
  20718110.266 7  -2017776.930 7  -1530531.65249  20718110.71149
  21864716.547 7   -517633.324 7   -389906.12548  21864714.85548
  36810894.563 6   -569372.820 6                
 20  5 16  0 25 22.0000000  0 10G03G04G08G14G16G21G26G27G31S22      -0.000387814
  24628175.273 4   -225182.895 4   -170520.32848  24628177.51248
  22049595.992 6  -1999969.316 6  -1520670.25048  22049595.71548
  22820756.695 5  -2539221.965 5  -1889234.31349  22820758.06349
  22493911.117 6    398766.914 6    302246.44547  22493909.66447
  20581881.445 6   -829245.242 6   -624414.55548  20581878.55548
  24232322.500 4   -841042.684 4   -638328.35246  24232322.64846
  21333365.211 6   -306929.484 6   -231693.18849  21333366.64149
  20717266.797 7  -2022209.332 7  -1533985.46949  20717267.29349
  21864524.125 7   -518646.789 7   -390695.84048  21864521.60948
  36810467.703 6   -571612.215 6                
 20  5 16  0 25 23.0000000  0 10G03G04G08G14G16G21G26G27G31S22      -0.000389191
  24628094.414 4   -225609.738 4   -170852.93448  24628096.48048
  22048770.484 6  -2004309.586 6  -1524052.27348  22048770.03948
  22819680.727 5  -2544877.063 5  -1893640.87549  22819681.99249
  22494121.672 6    399873.758 6    303108.91847  22494120.22747
  20581555.508 6   -830958.281 6   -625749.39548  20581552.33248
  24231910.273 4   -843212.057 4   -640018.77946  24231909.46146
  21333258.438 6   -307491.340 6   -232131.00049  21333259.64149
  20716423.594 7  -2026640.910 7  -1537438.64849  20716423.62549
  21864330.938 7   -519659.770 7   -391485.17648  21864329.44148
  36810041.141 6   -573851.090 6                
 20  5 16  0 25 24.0000000  0 10G03G04G08G14G16G21G26G27G31S22      -0.000390568
  24628013.375 3   -226036.156 3   -171185.21148  24628015.29348
  22047944.766 6  -2008649.117 6  -1527433.73048  22047944.13348
  22818604.391 5  -2550531.598 5  -1898047.00849  22818605.96549
  22494332.891 6    400981.156 6    303971.82047  22494330.72347
  20581229.945 6   -832670.785 6   -627083.80948  20581227.02348
  24231497.516 4   -845380.750 4   -641708.66446  24231496.82846
  21333151.398 6   -308052.840 6   -232568.53149  21333152.80949
  20715580.211 7  -2031071.691 7  -1540891.20749  20715580.77049
  21864138.578 7   -520672.258 7   -392274.12148  21864136.24248
  36809614.703 6   -576089.895 6                
 20  5 16  0 25 25.0000000  0 10G03G04G08G14G16G21G26G27G31S22      -0.000391947
  24627931.992 3   -226462.215 3   -171517.20748  24627934.11348
  22047119.016 6  -2012987.945 6  -1530814.63748  22047118.38748
  22817528.992 5  -2556185.738 5  -1902452.84049  22817530.01249
  22494543.375 6    402089.027 6    304835.09447  22494541.55947
  20580903.781 6   -834382.773 6   -628417.82848  20580900.80948
  24231084.172 4   -847548.859 4   -643398.09846  24231083.97346
  21333045.164 6   -308614.074 6   -233005.85949  21333045.99249
  20714737.531 7  -2035501.719 7  -1544343.17249  20714737.46149
  21863945.758 7   -521684.270 7   -393062.70748  21863944.03948
  36809189.063 6   -578328.285 6                
 20  5 16  0 25 26.0000000  0 10G03G04G08G14G16G21G26G27G31S22      -0.000393324
  24627851.672 3   -226888.012 3   -171849.00448  24627853.23448
  22046293.305 6  -2017326.023 6  -1534194.95347  22046293.13747
  22816452.938 5  -2561839.348 5  -1906858.25449  22816454.18849
  22494754.352 6    403197.418 6    305698.77347  22494752.72747
  20580578.227 6   -836094.234 6   -629751.43448  20580575.30548
  24230672.031 4   -849716.285 4   -645086.99646  24230671.82846
  21332937.953 6   -309174.977 6   -233442.92649  21332939.25049
  20713894.414 7  -2039930.941 7  -1547794.51649  20713894.80149
  21863753.594 6   -522695.789 6   -393850.91048  21863751.43448
  36808763.953 6   -580566.629 6                
 20  5 16  0 25 27.0000000  0 10G03G04G08G14G16G21G26G27G31S22      -0.000394701
  24627769.969 3   -227313.449 3   -172180.52048  24627772.16448
  22045467.922 6  -2021663.383 6  -1537574.71947  22045467.60947
  22815377.609 5  -2567492.496 5  -1911263.30149  22815378.38349
  22494965.297 6    404306.355 6    306562.87947  22494963.65647
  20580252.672 6   -837805.148 6   -631084.61748  20580249.32048
  24230260.266 4   -851883.074 4   -646775.40246  24230259.23046
  21332831.266 6   -309735.539 6   -233879.72749  21332832.77349
  20713051.617 7  -2044359.344 7  -1551245.22349  20713052.21949
  21863561.234 6   -523706.828 6   -394638.72748  21863559.32848
  36808337.109 6   -582804.391 6                
 20  5 16  0 25 28.0000000  0 10G03G04G08G14G16G21G26G27G31S22      -0.000396078
  24627689.508 3   -227738.551 3   -172511.76248  24627691.46948
  22044642.453 6  -2025999.984 6  -1540953.88747  22044642.53947
  22814301.539 5  -2573145.109 5  -1915667.93449  22814302.62149
  22495176.469 6    405415.836 6    307427.40647  22495174.64847
  20579926.875 6   -839515.484 6   -632417.35248  20579924.27348
  24229847.609 4   -854049.145 4   -648463.24646  24229847.43846
  21332724.617 6   -310295.750 6   -234316.25849  21332726.01249
  20712209.219 7  -2048786.906 7  -1554695.27049  20712209.69549
  21863368.695 7   -524717.316 7   -395426.12548  21863367.13748
  36807909.594 6   -585042.430 6                
 20  5 16  0 25 29.0000000  0 10G03G04G08G14G16G21G26G27G31S22      -0.000397455
  24627608.266 3   -228163.238 3   -172842.68448  24627610.43448
  22043818.031 6  -2030335.832 6  -1544332.46947  22043817.35247
  22813225.461 5  -2578797.227 5  -1920072.18449  22813227.18849
  22495387.570 6    406525.840 6    308292.34047  22495385.87547
  20579602.133 6   -841225.289 6   -633749.66448  20579599.02748
  24229436.023 3   -856214.598 3   -650150.60546  24229435.50446
  21332618.336 6   -310855.629 6   -234752.52349  21332619.25049
  20711366.969 7  -2053213.684 7  -1558144.70349  20711367.10549
  21863176.648 7   -525727.309 7   -396213.13348  21863174.24248
  36807485.688 6   -587280.074 6                
 20  5 16  0 25 30.0000000  0 10G03G04G08G14G16G21G26G27G31S22      -0.000398830
  24627527.859 3   -228587.496 3   -173173.27048  24627529.73848
  22042992.938 6  -2034670.902 6  -1547710.44548  22042992.45748
  22812150.391 5  -2584448.823 5  -1924476.02549  22812151.87549
  22495598.469 6    407636.402 6    309157.71947  22495597.21947
  20579276.539 6   -842934.512 6   -635081.52348  20579273.67648
  24229023.703 4   -858379.379 4   -651837.44546  24229023.14846
  21332511.773 6   -311415.141 6   -235188.50849  21332512.96149
  20710524.602 7  -2057639.613 7  -1561593.48049  20710524.72349
  21862984.500 7   -526736.770 7   -396999.72348  21862982.66448
  36807061.438 6   -589517.484 6                
 20  5 16  0 25 31.0000000  0 10G03G04G08G14G16G21G26G27G31S22      -0.000400208
  24627446.961 3   -229011.520 3   -173503.68848  24627449.22748
  22042168.070 6  -2039005.270 6  -1551087.87548  22042167.50848
  22811075.039 5  -2590099.898 5  -1928879.45749  22811076.06349
  22495810.609 6    408747.477 6    310023.49247  22495808.54347
  20578951.484 6   -844643.223 6   -636412.98848  20578948.31648
  24228611.961 4   -860543.461 4   -653523.76246  24228611.27046
  21332405.430 6   -311974.344 6   -235624.25049  21332406.59449
  20709682.203 7  -2062064.777 7  -1565041.65649  20709682.57449
  21862792.227 7   -527745.750 7   -397785.94948  21862790.48048
  36806634.656 6   -591754.977 6                
 20  5 16  0 25 32.0000000  0 10G03G04G08G14G16G21G26G27G31S22      -0.000401585
  24627366.109 3   -229435.152 3   -173833.78948  24627368.46548
  22041343.367 6  -2043338.953 6  -1554464.77348  22041342.92648
  22810000.281 5  -2595750.570 5  -1933282.57849  22810001.50849
  22496021.781 6    409859.023 6    310889.62947  22496020.07447
  20578626.383 6   -846351.441 6   -637744.06648  20578622.96948
  24228200.250 4   -862706.965 4   -655209.61746  24228199.30946
  21332299.195 6   -312533.262 6   -236059.77049  21332300.16049
  20708840.547 7  -2066489.180 7  -1568489.24249  20708841.08649
  21862600.336 7   -528754.297 7   -398571.82448  21862598.85948
  36806208.406 6   -593991.930 6                
 20  5 16  0 25 33.0000000  0 10G03G04G08G14G16G21G26G27G31S22      -0.000402960
  24627286.227 3   -229858.590 3   -174163.74248  24627288.34448
  22040518.539 6  -2047671.945 6  -1557841.12948  22040518.46548
  22808924.492 5  -2601400.746 5  -1937685.30549  22808926.46949
  22496233.617 6    410971.055 6    311756.14547  22496231.70747
  20578301.609 6   -848059.160 6   -639074.75448  20578298.45748
  24227788.586 4   -864869.922 4   -656895.03946  24227788.21546
  21332192.719 6   -313091.906 6   -236495.07849  21332193.85549
  20707998.891 7  -2070912.828 7  -1571936.23849  20707999.12149
  21862409.133 7   -529762.379 7   -399357.34849  21862407.37549
  36805783.938 6   -596229.313 6                
 20  5 16  0 25 34.0000000  0 10G03G04G08G14G16G21G26G27G31S22      -0.000404337
  24627205.297 3   -230281.625 3   -174493.37548  24627207.61748
  22039694.367 6  -2052004.223 6  -1561216.93848  22039694.19148
  22807849.859 5  -2607050.473 5  -1942087.68849  22807850.94549
  22496445.156 6    412083.559 6    312623.02747  22496443.35247
  20577976.617 6   -849766.387 6   -640405.06648  20577973.78148
  24227376.836 4   -867032.215 4   -658579.93446  24227376.78546
  21332086.188 6   -313650.250 6   -236930.15249  21332087.78149
  20707157.055 7  -2075335.695 7  -1575382.63349  20707157.60949
  21862217.086 7   -530769.992 7   -400142.50449  21862215.39849
  36805356.922 6   -598466.273 6                
 20  5 16  0 25 35.0000000  0 10G03G04G08G14G16G21G26G27G31S22      -0.000405712
  24627124.898 3   -230704.402 3   -174822.81348  24627127.13348
  22038870.539 6  -2056335.863 6  -1564592.23848  22038869.80148
  22806774.266 5  -2612699.809 5  -1946489.76249  22806775.83649
  22496657.281 6    413196.520 6    313490.27047  22496654.96947
  20577651.898 6   -851473.160 6   -641735.02048  20577649.05548
  24226966.086 4   -869193.930 4   -660264.38346  24226964.70746
  21331979.695 6   -314208.359 6   -237365.04349  21331981.37949
  20706315.688 7  -2079757.828 7  -1578828.44549  20706316.13349
  21862025.445 7   -531777.207 7   -400927.34849  21862023.24649
  36804932.047 6   -600703.363 6                
 20  5 16  0 25 36.0000000  0 10G03G04G08G14G16G21G26G27G31S22      -0.000407089
  24627044.242 3   -231126.922 3   -175152.05148  24627046.73048
  22038046.164 6  -2060666.809 6  -1567967.00048  22038045.79748
  22805699.484 5  -2618348.664 5  -1950891.47349  22805700.77349
  22496868.828 6    414309.957 6    314357.88347  22496867.23447
  20577326.961 6   -853179.430 6   -643064.57448  20577324.30148
  24226554.547 4   -871355.035 4   -661948.35946  24226553.87946
  21331873.977 6   -314766.164 6   -237799.69549  21331875.49649
  20705474.516 7  -2084179.234 7  -1582273.70349  20705474.71549
  21861833.570 6   -532783.957 6   -401711.83248  21861832.36748
  36804504.234 6   -602940.137 6                
 20  5 16  0 25 37.0000000  0 10G03G04G08G14G16G21G26G27G31S22      -0.000408464
  24626963.758 3   -231549.164 3   -175481.07048  24626966.07048
  22037222.320 6  -2064997.047 6  -1571341.21148  22037221.33648
  22804625.125 5  -2623997.051 5  -1955292.81349  22804625.60949
  22497080.938 6    415423.902 6    315225.89147  22497079.28147
  20577002.453 6   -854885.164 6   -644393.72348  20576999.51648
  24226143.336 4   -873515.488 4   -663631.82846  24226142.92246
  21331767.961 6   -315323.695 6   -238234.13349  21331769.24249
  20704633.000 7  -2088599.844 7  -1585718.32849  20704633.57049
  21861642.273 6   -533790.266 6   -402495.96548  21861640.37148
  36804078.531 6   -605176.477 6                
 20  5 16  0 25 38.0000000  0 10G03G04G08G14G16G21G26G27G31S22      -0.000409840
  24626883.516 3   -231971.031 3   -175809.80148  24626885.98448
  22036397.977 6  -2069326.613 6  -1574714.90248  22036397.13748
  22803549.961 5  -2629644.992 5  -1959693.80549  22803550.93849
  22497292.773 6    416538.301 6    316094.25447  22497290.60547
  20576677.945 6   -856590.426 6   -645722.50048  20576675.06348
  24225732.438 4   -875675.410 4   -665314.87146  24225731.45746
  21331662.109 6   -315880.934 6   -238668.35249  21331662.96149
  20703791.852 7  -2093019.695 7  -1589162.37149  20703792.31349
  21861450.711 6   -534796.090 6   -403279.73048  21861449.18848
  36803652.188 6   -607412.891 6                
 20  5 16  0 25 39.0000000  0 10G03G04G08G14G16G21G26G27G31S22      -0.000411217
  24626804.313 3   -232392.566 3   -176138.26248  24626805.88348
  22035574.203 6  -2073655.449 6  -1578088.02048  22035574.17248
  22802475.719 5  -2635292.488 5  -1964094.45349  22802476.22749
  22497505.031 6    417653.188 6    316962.99247  22497503.02347
  20576353.656 6   -858295.211 6   -647050.90248  20576350.59848
  24225321.875 4   -877834.637 4   -666997.39146  24225320.64546
  21331555.820 6   -316437.875 6   -239102.33249  21331556.96949
  20702951.266 7  -2097438.816 7  -1592605.84449  20702951.54349
  21861259.578 6   -535801.484 6   -404063.15249  21861257.70349
  36803227.953 6   -609648.805 6                
 20  5 16  0 25 40.0000000  0 10G03G04G08G14G16G21G26G27G31S22      -0.000412590
  24626723.000 3   -232813.801 3   -176466.50048  24626725.69148
  22034750.531 6  -2077983.609 6  -1581460.61347  22034750.32047
  22801400.836 5  -2640939.488 5  -1968494.70749  22801401.81349
  22497717.422 6    418768.559 6    317832.10947  22497715.48447
  20576029.273 6   -859999.465 6   -648378.89548  20576026.14148
  24224910.367 4   -879993.297 4   -668679.46146  24224909.78946
  21331450.055 6   -316994.555 6   -239536.10549  21331450.86349
  20702110.555 7  -2101857.152 7  -1596048.69949  20702110.44549
  21861068.422 7   -536806.422 7   -404846.21949  21861066.29749
  36802800.172 6   -611884.840 6                
 20  5 16  0 25 41.0000000  0 10G03G04G08G14G16G21G26G27G31S22      -0.000413965
  24626643.234 4   -233234.828 4   -176794.57048  24626645.32848
  22033927.188 6  -2082311.063 6  -1584832.65647  22033926.78947
  22800326.227 5  -2646586.031 5  -1972894.62149  22800327.29349
  22497929.492 6    419884.438 6    318701.62947  22497927.72347
  20575704.797 7   -861703.242 7   -649706.51648  20575702.18448
  24224500.000 4   -882151.332 4   -670361.06646  24224498.60246
  21331344.320 6   -317550.914 6   -239969.63749  21331345.51249
  20701269.656 7  -2106274.691 7  -1599490.93449  20701269.58249
  21860876.930 7   -537810.879 7   -405628.92249  21860875.22349
  36802379.672 6   -614120.168 6                
 20  5 16  0 25 42.0000000  0 10G03G04G08G14G16G21G26G27G31S22      -0.000415342
  24626562.844 3   -233655.379 3   -177122.27348  24626565.33248
  22033103.633 6  -2086637.773 6  -1588204.11748  22033103.49248
  22799252.117 5  -2652232.059 5  -1977294.12149  22799252.46549
  22498141.625 6    421000.828 6    319571.54347  22498140.05547
  20575380.867 7   -863406.457 7   -651033.68849  20575378.48849
  24224089.977 4   -884308.664 4   -672042.10946  24224088.13746
  21331237.945 6   -318106.945 6   -240402.90649  21331239.43049
  20700429.031 7  -2110691.457 7  -1602932.57449  20700429.43449
  21860685.945 7   -538814.844 7   -406411.22748  21860684.43448
  36801953.422 6   -616355.641 6                
 20  5 16  0 25 43.0000000  0 10G03G04G08G14G16G21G26G27G31S22      -0.000416716
  24626483.273 4   -234075.727 4   -177449.82048  24626485.35948
  22032280.805 6  -2090963.801 6  -1591575.05548  22032280.21948
  22798177.586 5  -2657877.660 5  -1981693.29749  22798178.12149
  22498354.789 6    422117.699 6    320441.83247  22498352.83247
  20575056.859 7   -865109.184 7   -652360.48848  20575054.11748
  24223679.477 4   -886465.406 4   -673722.66846  24223677.84046
  21331132.734 6   -318662.703 6   -240835.96549  21331133.31349
  20699588.789 7  -2115107.434 7  -1606373.59049  20699589.14849
  21860495.195 7   -539818.371 7   -407193.19548  21860493.27348
  36801523.938 6   -618590.371 6                
 20  5 16  0 25 44.0000000  0 10G03G04G08G14G16G21G26G27G31S22      -0.000418091
  24626403.305 4   -234495.719 4   -177777.08648  24626405.45748
  22031457.758 6  -2095289.176 6  -1594945.47348  22031457.11748
  22797103.273 5  -2663522.805 5  -1986092.10949  22797103.99249
  22498566.797 6    423235.008 6    321312.46147  22498565.12547
  20574732.688 6   -866811.449 6   -653686.93049  20574730.37549
  24223268.828 4   -888621.621 4   -675402.83646  24223267.76246
  21331026.797 6   -319218.211 6   -241268.82849  21331028.08649
  20698748.727 7  -2119522.727 7  -1609814.07849  20698749.12549
  21860303.945 7   -540821.469 7   -407974.83248  21860302.05948
  36801097.656 6   -620824.996 6                
 20  5 16  0 25 45.0000000  0 10G03G04G08G14G16G21G26G27G31S22      -0.000419466
  24626323.727 4   -234915.508 4   -178104.19548  24626325.67648
  22030635.094 6  -2099613.871 6  -1598315.36748  22030634.28548
  22796028.797 5  -2669167.551 5  -1990490.61749  22796030.04749
  22498779.852 5    424352.766 5    322183.43847  22498777.61347
  20574409.195 6   -868513.250 6   -655013.00849  20574406.56349
  24222858.977 4   -890777.273 4   -677082.55146  24222857.35246
  21330921.406 6   -319773.461 6   -241701.48849  21330922.48449
  20697908.641 7  -2123937.277 7  -1613253.98849  20697909.20749
  21860113.313 7   -541824.160 7   -408756.15248  21860111.09848
  36800674.281 6   -623059.387 6                
 20  5 16  0 25 46.0000000  0 10G03G04G08G14G16G21G26G27G31S22      -0.000420841
  24626243.531 3   -235334.984 3   -178431.06348  24626246.07448
  22029811.938 6  -2103937.930 6  -1601684.77048  22029811.07848
  22794954.813 5  -2674811.863 5  -1994888.78949  22794955.94149
  22498992.398 6    425470.988 6    323054.77747  22498990.86347
  20574085.156 6   -870214.586 6   -656338.72349  20574082.21149
  24222449.211 4   -892932.277 4   -678761.77046  24222447.07446
  21330815.164 6   -320328.473 6   -242133.96549  21330816.61349
  20697068.734 7  -2128351.070 7  -1616693.30549  20697069.21949
  21859922.805 7   -542826.430 7   -409537.14548  21859920.50448
  36800247.578 6   -625293.477 6                
 20  5 16  0 25 47.0000000  0 10G03G04G08G14G16G21G26G27G31S22      -0.000422216
  24626163.914 3   -235754.160 3   -178757.69148  24626165.85248
  22028989.250 6  -2108261.281 6  -1605053.61348  22028988.32048
  22793880.430 5  -2680455.734 5  -1999286.61749  22793881.73449
  22499205.289 6    426589.668 6    323926.46947  22499203.12947
  20573761.648 6   -871915.438 6   -657664.06349  20573758.79749
  24222039.336 4   -895086.680 4   -680440.53546  24222037.34046
  21330710.055 6   -320883.184 6   -242566.21149  21330711.29349
  20696229.133 7  -2132764.125 7  -1620132.04749  20696229.18849
  21859732.234 7   -543828.215 7   -410317.75848  21859730.23448
  36799824.344 6   -627527.637 6                
 20  5 16  0 25 48.0000000  0 10G03G04G08G14G16G21G26G27G31S22      -0.000423590
  24626084.422 3   -236173.086 3   -179084.12548  24626086.02048
  22028166.695 6  -2112583.988 6  -1608421.95748  22028166.02748
  22792807.203 5  -2686099.195 5  -2003684.11749  22792808.30949
  22499418.727 6    427708.777 6    324798.49647  22499416.50047
  20573437.680 6   -873615.801 6   -658989.02348  20573435.35948
  24221628.078 4   -897240.570 4   -682118.88746  24221627.37146
  21330604.211 6   -321437.660 6   -242998.27349  21330605.85549
  20695389.477 7  -2137176.465 7  -1623570.23849  20695389.52349
  21859541.523 7   -544829.621 7   -411098.07448  21859539.70748
  36799396.156 6   -629760.883 6                
 20  5 16  0 25 49.0000000  0 10G03G04G08G14G16G21G26G27G31S22      -0.000424965
  24626004.609 4   -236591.772 4   -179410.37548  24626006.47748
  22027344.148 6  -2116905.984 6  -1611789.74648  22027343.75848
  22791733.188 5  -2691742.230 5  -2008081.28549  22791734.01249
  22499631.859 6    428828.348 6    325670.89147  22499629.20747
  20573114.438 6   -875315.719 6   -660313.63348  20573111.95748
  24221218.969 4   -899393.770 4   -683796.71446  24221217.78546
  21330498.984 6   -321991.871 6   -243430.12549  21330500.25849
  20694549.906 7  -2141588.047 7  -1627007.83649  20694550.38749
  21859350.969 7   -545830.578 7   -411878.04348  21859349.19148
  36798971.828 6   -631994.309 6                
 20  5 16  0 25 50.0000000  0 10G03G04G08G14G16G21G26G27G31S22      -0.000426338
  24625925.063 4   -237010.148 4   -179736.38748  24625926.86348
  22026521.836 6  -2121227.395 6  -1615157.07448  22026521.42248
  22790659.578 5  -2697384.859 5  -2012478.14149  22790660.72749
  22499845.109 6    429948.348 6    326543.61347  22499842.18447
  20572791.297 6   -877015.199 6   -661637.91049  20572788.68449
  24220809.711 5   -901546.543 5   -685474.19546  24220808.21146
  21330393.555 6   -322545.848 6   -243861.80149  21330394.84449
  20693710.375 7  -2145998.949 7  -1630444.89849  20693710.75049
  21859160.047 7   -546831.152 7   -412657.71148  21859158.48448
  36798550.969 6   -634227.043 6                
 20  5 16  0 25 51.0000000  0 10G03G04G08G14G16G21G26G27G31S22      -0.000427713
  24625844.922 4   -237428.270 4   -180062.19948  24625847.23448
  22025700.055 6  -2125548.109 6  -1618523.86348  22025699.10248
  22789585.531 5  -2703027.023 5  -2016874.62549  22789587.17249
  22500057.891 6    431068.836 6    327416.71947  22500055.82847
  20572468.086 6   -878714.188 6   -662961.79749  20572465.49249
  24220400.625 4   -903698.650 4   -687151.15846  24220398.51646
  21330288.281 6   -323099.578 6   -244293.27749  21330289.59849
  20692871.250 7  -2150409.074 7  -1633881.37149  20692871.52749
  21858970.172 7   -547831.277 7   -413437.03148  21858968.01648
  36798125.000 6   -636460.098 6                
 20  5 16  0 25 52.0000000  0 10G03G04G08G14G16G21G26G27G31S22      -0.000429087
  24625766.672 4   -237846.074 4   -180387.76648  24625767.88748
  22024877.914 6  -2129868.191 6  -1621890.16448  22024876.59848
  22788512.188 5  -2708668.863 5  -2021270.85949  22788513.41849
  22500271.242 6    432189.711 6    328290.12547  22500268.65247
  20572144.898 6   -880412.742 6   -664285.34049  20572141.59049
  24219990.664 4   -905850.195 4   -688827.68446  24219989.12946
  21330182.672 6   -323653.082 6   -244724.58249  21330184.16449
  20692032.547 7  -2154818.531 7  -1637317.30549  20692032.42649
  21858779.445 7   -548831.043 7   -414216.06648  21858778.01248
  36797696.703 6   -638692.707 6                
 20  5 16  0 25 53.0000000  0 10G03G04G08G14G16G21G26G27G31S22      -0.000430460
  24625686.352 4   -238263.699 4   -180713.18848  24625688.26648
  22024055.742 6  -2134187.598 6  -1625255.93848  22024054.82048
  22787438.352 5  -2714310.258 5  -2025666.75049  22787439.85249
  22500484.656 6    433311.059 6    329163.90647  22500481.91047
  20571821.438 6   -882110.828 6   -665608.52748  20571818.87148
  24219581.563 4   -908001.168 4   -690503.75846  24219579.73046
  21330077.680 6   -324206.313 6   -245155.67249  21330078.92249
  20691193.281 7  -2159227.242 7  -1640752.66449  20691193.29749
  21858589.820 7   -549830.340 7   -414994.74248  21858587.73848
  36797274.969 6   -640925.625 6                
 20  5 16  0 25 54.0000000  0 10G03G04G08G14G16G21G26G27G31S22      -0.000431835
  24625607.266 4   -238681.059 4   -181038.40648  24625608.68448
  22023233.734 6  -2138506.375 6  -1628621.21948  22023233.58648
  22786365.266 5  -2719951.234 5  -2030062.31649  22786366.70749
  22500697.898 6    434432.809 6    330037.99247  22500695.25447
  20571498.469 6   -883808.465 6   -666931.36348  20571495.98048
  24219172.352 4   -910151.613 4   -692179.43446  24219170.47746
  21329972.555 6   -324759.313 6   -245586.58649  21329973.60249
  20690354.414 7  -2163635.238 7  -1644187.46549  20690354.45749
  21858399.711 6   -550829.250 6   -415773.11748  21858398.30548
  36796847.656 6   -643158.707 6                
 20  5 16  0 25 55.0000000  0 10G03G04G08G14G16G21G26G27G31S22      -0.000433208
  24625527.375 4   -239098.051 4   -181363.33648  24625529.34448
  22022411.922 6  -2142824.422 6  -1631985.92648  22022411.52348
  22785292.133 5  -2725591.703 5  -2034457.48049  22785293.10949
  22500911.672 6    435555.078 6    330912.48847  22500909.16447
  20571175.500 6   -885505.621 6   -668253.82048  20571173.15248
  24218763.211 4   -912301.418 4   -693854.60546  24218761.05946
  21329867.445 6   -325312.000 6   -246017.25049  21329868.43849
  20689515.883 7  -2168042.445 7  -1647621.65649  20689516.21549
  21858209.898 6   -551827.691 6   -416551.12548  21858207.72748
  36796422.797 6   -645391.383 6                
 20  5 16  0 25 56.0000000  0 10G03G04G08G14G16G21G26G27G31S22      -0.000434582
  24625448.094 4   -239514.832 4   -181688.10248  24625450.05148
  22021590.758 6  -2147141.844 6  -1635350.15648  22021590.06648
  22784218.516 5  -2731231.770 5  -2038852.33649  22784219.67249
  22501125.578 6    436677.766 6    331787.30947  22501122.79747
  20570852.734 6   -887202.297 6   -669575.90648  20570850.35548
  24218353.656 4   -914450.676 4   -695529.33246  24218352.56646
  21329762.367 6   -325864.477 6   -246447.75049  21329763.28549
  20688677.109 7  -2172448.961 7  -1651055.30149  20688677.32449
  21858019.891 7   -552825.723 7   -417328.81348  21858018.37948
  36796003.766 6   -647624.012 6                
 20  5 16  0 25 57.0000000  0 10G03G04G08G14G16G21G26G27G31S22      -0.000435955
  24625368.836 3   -239931.344 3   -182012.64848  24625371.01248
  22020769.188 6  -2151458.590 6  -1638713.85248  22020768.85948
  22783145.563 5  -2736871.418 5  -2043246.87149  22783146.66849
  22501339.219 6    437800.887 6    332662.46147  22501336.53147
  20570529.984 6   -888898.527 6   -670897.64148  20570527.39848
  24217944.883 4   -916599.301 4   -697203.59846  24217943.41046
  21329657.008 6   -326416.688 6   -246878.04749  21329658.67249
  20687839.281 7  -2176854.742 7  -1654488.38349  20687839.28149
  21857829.758 7   -553823.352 7   -418106.18448  21857827.58648
  36795575.453 6   -649856.313 6                
 20  5 16  0 25 58.0000000  0 10G03G04G08G14G16G21G26G27G31S22      -0.000437328
  24625290.586 4   -240347.566 4   -182336.98048  24625291.96948
  22019947.609 6  -2155774.695 6  -1642077.05548  22019947.42248
  22782072.461 5  -2742510.668 5  -2047641.09449  22782073.31349
  22501552.500 6    438924.457 6    333537.97347  22501550.26247
  20570207.305 7   -890594.289 7   -672219.02048  20570204.89148
  24217536.609 4   -918747.367 4   -698877.42246  24217534.86746
  21329552.000 6   -326968.656 6   -247308.15649  21329553.21149
  20687000.813 7  -2181259.797 7  -1657920.88749  20687000.52749
  21857640.375 7   -554820.551 7   -418883.22348  21857638.60948
  36795154.625 6   -652088.902 6                
 20  5 16  0 25 59.0000000  0 10G03G04G08G14G16G21G26G27G31S22      -0.000438702
  24625210.852 3   -240763.578 3   -182661.14548  24625212.58648
  22019126.414 6  -2160090.164 6  -1645439.75848  22019126.06648
  22780998.961 5  -2748149.477 5  -2052034.96949  22781000.48049
  22501766.602 6    440048.418 6    334413.78947  22501764.14547
  20569884.828 6   -892289.641 6   -673540.07448  20569881.83248
  24217128.250 4   -920894.988 4   -700550.88746  24217125.78546
  21329447.023 6   -327520.414 6   -247738.09449  21329448.28549
  20686162.430 7  -2185664.156 7  -1661352.85949  20686162.24649
  21857450.516 7   -555817.387 7   -419659.98048  21857448.64848
  36794725.594 6   -654321.109 6                
 20  5 16  0 26  0.0000000  0 10G03G04G08G14G16G21G26G27G31S22      -0.000440075
  24625131.648 4   -241179.230 4   -182985.02748  24625133.23448
  22018305.383 6  -2164404.926 6  -1648801.90648  22018304.87148
  22779926.656 5  -2753787.840 5  -2056428.50849  22779927.19949
  22501980.688 6    441172.902 6    335290.00847  22501977.99247
  20569562.109 6   -893984.488 6   -674860.73448  20569559.25448
  24216719.352 4   -923041.875 4   -702223.79346  24216717.98446
  21329341.844 6   -328071.887 6   -248167.81649  21329343.35249
  20685324.633 7  -2190067.750 7  -1664784.23049  20685324.95349
  21857260.625 7   -556813.719 7   -420436.34048  21857259.40248
  36794301.375 6   -656553.250 6                
 20  5 16  0 26  1.0000000  0 10G03G04G08G14G16G21G26G27G31S22      -0.000441448
  24625052.313 4   -241594.703 4   -183308.77348  24625054.24648
  22017484.156 6  -2168719.035 6  -1652163.55548  22017483.87548
  22778853.648 5  -2759425.797 5  -2060821.71949  22778854.31349
  22502194.438 6    442297.824 6    336166.57047  22502192.26647
  20569239.953 7   -895678.875 7   -676181.03948  20569236.69548
  24216311.016 4   -925188.248 4   -703896.29846  24216309.46946
  21329237.117 6   -328623.082 6   -248597.32049  21329238.66849
  20684486.641 7  -2194470.605 7  -1668215.02349  20684486.99649
  21857071.352 7   -557809.656 7   -421212.40248  21857069.75048
  36793875.063 6   -658785.105 6                
 20  5 16  0 26  2.0000000  0 10G03G04G08G14G16G21G26G27G31S22      -0.000442822
  24624973.242 3   -242009.863 3   -183632.27748  24624975.57048
  22016663.727 6  -2173032.480 6  -1655524.67648  22016663.31648
  22777780.336 5  -2765063.273 5  -2065214.56349  22777781.21949
  22502408.914 6    443423.188 6    337043.47747  22502406.37147
  20568917.523 6   -897372.789 6   -677500.96948  20568914.78548
  24215902.688 4   -927333.918 4   -705568.24246  24215901.01646
  21329132.203 6   -329174.031 6   -249026.63349  21329133.59449
  20683649.008 7  -2198872.738 7  -1671645.25849  20683649.19149
  21856882.336 7   -558805.164 7   -421988.12148  21856880.36748
  36793449.781 6   -661016.707 6                
 20  5 16  0 26  3.0000000  0 10G03G04G08G14G16G21G26G27G31S22      -0.000444195
  24624893.906 3   -242424.742 3   -183955.56348  24624896.74648
  22015843.117 6  -2177345.289 6  -1658885.30948  22015842.57048
  22776708.250 5  -2770700.395 5  -2069607.12549  22776708.63749
  22502622.898 6    444548.961 6    337920.69947  22502620.07847
  20568594.953 7   -899066.250 7   -678820.54348  20568592.38748
  24215494.219 4   -929479.160 4   -707239.85946  24215493.20746
  21329027.773 6   -329724.766 6   -249455.77349  21329028.51249
  20682811.516 7  -2203274.168 7  -1675074.94149  20682811.48049
  21856692.766 7   -559800.297 7   -422763.54748  21856690.52048
  36793025.047 6   -663248.543 6                
