     2.11           OBSERVATION DATA    G (GPS)             RINEX VERSION / TYPE
DAT2RINW 3.10 001   TBYT                30MAY18 21:26:57    PGM / RUN BY / DATE 
TBYT                TBYT                                    OBSERVER / AGENCY   
25535               TRIMBLE 4000SSI     Nav 7.32 Sig 3.08   REC # / TYPE / VERS 
00000000            TRM14532.00                             ANT # / TYPE        
----------------------------------------------------------- COMMENT             
Offset from BOTTOM OF ANTENNA to PHASE CENTER is  69.2 mm   COMMENT             
----------------------------------------------------------- COMMENT             
E184                                                        MARKER NAME         
E184                                                        MARKER NUMBER       
 -2966086.0028  5006102.3191  2603593.8981                  APPROX POSITION XYZ 
        1.4750        0.0000        0.0000                  ANTENNA: DELTA H/E/N
*** Above antenna height is from mark to PHASE CENTER.      COMMENT             
----------------------------------------------------------- COMMENT             
Note: The above height is to the antenna phase center.      COMMENT             
      The RINEX specification calls for this to be the      COMMENT             
      height from the bottom surface of the antenna mount   COMMENT             
      to the survey mark.                                   COMMENT             
Note: The above offsets are CORRECTED.                      COMMENT             
Raw Offsets: H=      1.4840 E=      0.0000 N=      0.0000   COMMENT             
----------------------------------------------------------- COMMENT             
     1     1     0                                          WAVELENGTH FACT L1/2
     4    L1    C1    L2    P2                              # / TYPES OF OBSERV 
     5.000                                                  INTERVAL            
  2018     5    30     0    25    5.0000000                 TIME OF FIRST OBS   
  2018     5    30     1    35   45.0000000                 TIME OF LAST OBS    
     0                                                      RCV CLOCK OFFS APPL 
    12                                                      # OF SATELLITES     
     3   847   847   825   825                              PRN / # OF OBS      
     8   141   143     0     0                              PRN / # OF OBS      
    14   849   849   847   847                              PRN / # OF OBS      
    16   849   849   849   849                              PRN / # OF OBS      
    21   180   185   106   106                              PRN / # OF OBS      
    22   729   734   696   696                              PRN / # OF OBS      
    23   849   849   838   838                              PRN / # OF OBS      
    26   849   849   849   849                              PRN / # OF OBS      
    27   807   808   787   787                              PRN / # OF OBS      
    29   336   336   336   336                              PRN / # OF OBS      
    31   849   849   849   849                              PRN / # OF OBS      
    32   659   659   656   656                              PRN / # OF OBS      
                                                            END OF HEADER       
 18  5 30  0 25  5.0000000  0 10  3 14 16 22 23 26 27 29 31 32
     12459.05915  23830886.64805      3650.83355  23830893.90645
     37756.99117  20699985.31307         0.00000         0.00000
    -23864.00917  20713227.94507    -16283.76057  20713233.23047
     36320.36015  23731463.80505     28301.74856  23731467.50846
    -75464.90815  24522849.88305         0.00000         0.00000
     30513.87718  20724612.90608     15954.29658  20724620.14148
    -57685.29913  22847663.58603         0.00000         0.00000
     81708.75616  23729565.64806     44484.85956  23729570.98046
     16820.00317  21685582.09407      3243.74657  21685586.54747
     85579.90117  22684466.23407         0.00000         0.00000
 18  5 30  0 25 10.0000000  0 10  3 14 16 22 23 26 27 29 31 32
     14465.35705  23831268.52305      5214.18145  23831274.72345
     44610.25707  20701289.18807         0.00000         0.00000
    -27360.84107  20712562.60907    -19008.56347  20712567.82447
     41926.09805  23732530.25005     32669.84846  23732534.35246
    -92559.18205  24519596.21105         0.00000         0.00000
     35240.73808  20725512.34408     19637.56448  20725519.57848
    -75666.05103  22844241.55503         0.00000         0.00000
     94205.77206  23731943.81306     54222.79146  23731949.15646
     19452.83108  21686082.90608      5295.31047  21686087.43047
    100954.45307  22687391.90607         0.00000         0.00000
 18  5 30  0 25 15.0000000  0 10  3 14 16 22 23 26 27 29 31 32
     16500.56505  23831655.43805      6800.06045  23831661.41445
     51494.82707  20702599.39807      2147.02657  20702604.25047
    -30828.51207  20711902.85907    -21710.64247  20711908.16847
     47556.47305  23733601.81305     37057.14746  23733605.87946
   -109633.59105  24516347.60905         0.00000         0.00000
     39992.48208  20726416.75008     23340.22448  20726424.07848
    -93625.44803  22840823.08603         0.00000         0.00000
    106730.98706  23734327.56306     63982.68546  23734332.71946
     22105.56207  21686587.92207      7362.37847  21686592.55147
    116354.36207  22690322.64107         0.00000         0.00000
 18  5 30  0 25 20.0000000  0 10  3 14 16 22 23 26 27 29 31 32
     18565.37705  23832048.90605      8409.00545  23832055.18845
     58411.44907  20703915.57007      7536.60747  20703920.45747
    -34266.26907  20711248.30507    -24389.41247  20711253.74247
     53212.20305  23734678.21905     41464.19646  23734682.35546
   -126687.31905  24513102.83605         0.00000         0.00000
     44769.87008  20727325.74208     27062.86148  20727333.03548
   -111562.74003  22837410.39803         0.00000         0.00000
    119285.15106  23736716.22706     73765.13746  23736721.39546
     24778.94607  21687096.82807      9445.53747  21687101.46947
    131780.35807  22693258.07807      9614.74457  22693266.01647
 18  5 30  0 25 25.0000000  0 10  3 14 16 22 23 26 27 29 31 32
     20658.86705  23832447.01605     10040.27845  23832453.09845
     65359.16307  20705237.62507     12950.40747  20705242.57047
    -37675.08207  20710599.77307    -27045.63047  20710605.07047
     58892.30805  23735758.96905     45890.23246  23735763.36346
   -143721.37905  24509861.51605         0.00000         0.00000
     49571.93108  20728239.50008     30804.72848  20728246.84048
   -129478.91503  22834000.02303         0.00000         0.00000
    131867.31206  23739110.82806     83569.40146  23739116.02046
     27472.06007  21687609.31307     11544.06447  21687613.89547
    147231.48607  22696198.37507     21654.58247  22696205.99647
 18  5 30  0 25 30.0000000  0 10  3 14 16 22 23 26 27 29 31 32
     22780.75805  23832850.48405     11693.70045  23832856.44945
     72337.66407  20706565.44507     18388.20347  20706570.57847
    -41055.22507  20709956.68007    -29679.51247  20709961.93047
     64596.50205  23736844.68005     50335.04746  23736848.47746
   -160736.00305  24506623.39805         0.00000         0.00000
     54398.37608  20729157.96908     34565.59448  20729165.33248
   -147374.14403  22830595.91403         0.00000         0.00000
    144477.16406  23741510.50006     93395.26446  23741515.65646
     30184.65707  21688125.46907     13657.77347  21688130.09847
    162707.45608  22699143.50808     33713.78447  22699150.93047
 18  5 30  0 25 35.0000000  0 10  3 14 16 22 23 26 27 29 31 32
     24932.16505  23833260.68005     13370.11345  23833267.68045
     79348.12507  20707899.61707     23850.89347  20707904.94947
    -44405.58707  20709318.97707    -32290.18747  20709324.08647
     70325.93606  23737934.72706     54799.54946  23737939.10946
   -177730.07505  24503390.03105         0.00000         0.00000
     59250.33308  20730081.34408     38346.33748  20730088.69548
   -165247.34103  22827194.66403         0.00000         0.00000
    157115.82306  23743915.19506    103243.57046  23743920.49246
     32917.80507  21688645.59407     15787.49347  21688650.27047
    178209.37707  22702093.33607     45793.20547  22702100.62947
 18  5 30  0 25 40.0000000  0 10  3 14 16 22 23 26 27 29 31 32
     27111.75205  23833674.55505     15068.49345  23833680.89545
     86389.20407  20709239.49207     29337.43947  20709244.93047
    -47727.49007  20708687.02307    -34878.68647  20708691.93447
     76079.30106  23739029.59406     59282.69146  23739033.78946
   -194704.85205  24500159.91405         0.00000         0.00000
     64126.49208  20731009.21108     42145.93548  20731016.59848
   -183099.77003  22823797.68803         0.00000         0.00000
    169782.04406  23746326.06306    113113.34246  23746331.19546
     35670.23107  21689169.21907     17932.23447  21689173.83647
    193735.96307  22705047.85207     57891.83847  22705055.13347
 18  5 30  0 25 45.0000000  0 10  3 14 16 22 23 26 27 29 31 32
     29319.27406  23834094.82006     16788.62445  23834101.73845
     93460.62107  20710585.32807     34847.63247  20710590.68447
    -51021.17507  20708060.43807    -37445.19647  20708065.43047
     81856.28106  23740129.21106     63784.23146  23740133.00846
   -211660.59605  24496933.17205         0.00000         0.00000
     69026.56508  20731941.69508     45964.16848  20731949.04748
   -200931.70503  22820405.79703         0.00000         0.00000
    182475.46206  23748741.01606    123004.31246  23748746.35946
     38441.67207  21689696.70307     20091.79347  21689701.41447
    209286.90507  22708007.07807     70009.43347  22708014.58247
 18  5 30  0 25 50.0000000  0 10  3 14 16 22 23 26 27 29 31 32
     31554.74605  23834520.33605     18530.55545  23834527.24245
    100562.41207  20711936.50807     40381.49047  20711941.91047
    -54286.58807  20707438.86707    -39989.67047  20707443.76647
     87656.93806  23741233.58606     68304.20146  23741237.35946
   -228597.30305  24493710.44505         0.00000         0.00000
     73950.58108  20732878.57008     49801.05548  20732886.05148
   -218743.06903  22817015.37503     -8322.71255  22817021.52745
    195196.13606  23751161.60906    132916.52646  23751166.57846
     41232.13307  21690227.73407     22266.17247  21690232.45747
    224862.23007  22710970.74207     82146.02447  22710978.43447
 18  5 30  0 25 55.0000000  0  9  3 14 16 22 23 26 29 31 32
     33817.68705  23834950.10905     20293.88345  23834956.80145
    107694.11507  20713293.48407     45938.65647  20713298.89847
    -57524.23007  20706822.56307    -42512.50747  20706827.40247
     93480.81906  23742341.34406     72842.26646  23742345.32846
   -245515.41005  24490491.49205         0.00000         0.00000
     78898.06808  20733819.88308     53656.23848  20733827.46948
    207943.64006  23753587.77306    142849.61746  23753592.53146
     44041.18206  21690762.25806     24455.03847  21690766.96947
    240461.46307  22713939.48407     94301.25047  22713947.25847
 18  5 30  0 26  0.0000000  0  9  3 14 16 22 23 26 29 31 32
     36108.28805  23835387.01605     22078.74045  23835395.58645
    114855.98007  20714656.51607     51519.32047  20714661.91847
    -60733.89707  20706211.89107    -45013.54647  20706216.68447
     99328.12206  23743454.41406     77398.57946  23743458.66846
   -262414.67505  24487275.39105     -2630.01055  24487278.71945
     83869.22008  20734765.78108     57529.86148  20734773.48448
    220718.05406  23756018.43806    152803.64746  23756023.51246
     46869.04207  21691300.28907     26658.55447  21691304.94147
    256084.82507  22716912.67207    106475.27946  22716920.60946
 18  5 30  0 26  5.0000000  0  9  3 14 16 22 23 26 29 31 32
     38427.44705  23835828.21905     23885.88045  23835835.87545
    122048.84207  20716025.26607     57124.14747  20716030.58647
    -63914.72107  20705606.58607    -47492.11447  20705611.12147
    105199.64006  23744571.81306     81973.78846  23744575.86746
   -279294.21605  24484062.93805    -15782.91245  24484065.85545
     88864.90308  20735716.50808     61422.60348  20735724.11748
    233520.25806  23758454.21106    162779.39446  23758459.52046
     49716.56007  21691842.11707     28877.40147  21691846.67647
    271733.18107  22719890.15607    118668.79547  22719897.98847
 18  5 30  0 26 10.0000000  0  9  3 14 16 22 23 26 29 31 32
     40772.95806  23836274.70306     25713.56245  23836282.26645
    129270.50207  20717399.47707     62751.41747  20717404.73847
    -67068.88907  20705006.24207    -49949.90447  20705010.60247
    111093.21606  23745692.96906     86566.19546  23745696.40246
   -296156.23405  24480854.36705    -28922.15246  24480857.28546
     93882.92408  20736671.57808     65332.75048  20736679.36348
    246348.14606  23760895.21106    172775.17046  23760901.08246
     52581.57407  21692387.25807     31109.89047  21692391.73447
    287404.29907  22722872.41407    130880.05747  22722880.28147
 18  5 30  0 26 15.0000000  0  9  3 14 16 22 23 26 29 31 32
     43144.88006  23836725.76606     27561.81545  23836733.10545
    136521.03307  20718779.01607     68401.17647  20718784.28947
    -70196.32307  20704411.19507    -52386.87047  20704415.64847
    117008.91006  23746819.35206     91175.83246  23746823.02046
   -313000.62405  24477648.95305    -42047.64946  24477651.95346
     98923.35208  20737630.73408     69260.35448  20737638.47348
    259201.75506  23763341.28106    182790.97646  23763347.78546
     55464.13607  21692935.78907     33356.04747  21692940.39547
    303098.25407  22725859.00807    143109.11147  22725866.80547
 18  5 30  0 26 20.0000000  0  9  3 14 16 22 23 26 29 31 32
     45544.77505  23837182.44505     29431.86146  23837190.18446
    143802.04007  20720164.69507     74074.67947  20720170.14547
    -73295.45507  20703821.46107    -54801.78047  20703825.94947
    122948.28106  23747949.29706     95803.90046  23747953.11746
   -329825.80805  24474447.28905    -55158.18546  24474450.88746
    103987.73508  20738594.25808     73206.62248  20738602.10248
    272082.58806  23765792.60206    192827.98546  23765798.70746
     58365.86308  21693487.91408     35617.12647  21693492.63747
    318816.60307  22728849.96107    155357.16347  22728857.55947
 18  5 30  0 26 25.0000000  0  9  3 14 16 22 23 26 29 31 32
     47973.12005  23837644.88305     31324.07246  23837652.59846
    151113.96707  20721556.21907     79772.28047  20721561.65647
    -76365.83707  20703237.06307    -57194.28547  20703241.51647
    128911.80006  23749084.13306    100450.78246  23749087.97746
   -346631.28305  24471248.86705    -68253.35446  24471251.87946
    109076.55408  20739562.71108     77171.92748  20739570.52048
    284991.14906  23768249.18806    202886.60646  23768255.39846
     61287.22107  21694043.89807     37893.50147  21694048.57447
    334559.84807  22731845.71907    167624.61047  22731853.38747
 18  5 30  0 26 30.0000000  0  9  3 14 16 22 23 26 29 31 32
     50430.17206  23838113.44506     33238.65246  23838120.98446
    158457.09307  20722953.10907     85494.19147  20722958.85247
    -79407.16907  20702658.61707    -59564.15547  20702663.21147
    134899.69606  23750223.56306    105116.67046  23750227.43046
   -363416.74805  24468054.69505    -81332.92446  24468057.57846
    114190.08508  20740535.85208     81156.49348  20740543.68448
    297927.69106  23770710.05506    212967.03746  23770716.12546
     64228.49807  21694603.51607     40185.40147  21694608.19147
    350328.21507  22734846.25807    179911.63746  22734854.06646
 18  5 30  0 26 35.0000000  0  9  3 14 16 22 23 26 29 31 32
     52916.09106  23838586.00006     35175.70846  23838593.64546
    165831.52407  20724356.78107     91240.48947  20724362.84047
    -82419.35807  20702085.03107    -61911.31747  20702089.63747
    140912.12306  23751367.48406    109801.67446  23751370.69546
   -380182.07805  24464864.60905    -94396.83646  24464867.30546
    119328.44308  20741513.79708     85160.40348  20741521.67648
    310892.34906  23773177.40606    223069.37346  23773183.67646
     67189.85307  21695167.03107     42492.94847  21695171.63747
    366121.86107  22737851.93807    192218.36547  22737860.00447
 18  5 30  0 26 40.0000000  0  9  3 14 16 22 23 26 29 31 32
     55430.76806  23839064.07006     37135.19846  23839072.10246
    173237.19607  20725766.03107     97011.13547  20725771.69147
    -85402.44007  20701517.64807    -64235.79447  20701522.25447
    146949.00706  23752516.07006    114505.73246  23752518.98846
   -396927.33305  24461677.45305   -107445.09246  24461679.24646
    124491.56208  20742496.14108     89183.60948  20742503.93848
    323885.08706  23775650.00806    233193.57446  23775656.10246
     70171.21707  21695734.39807     44816.08847  21695739.22747
    381940.71307  22740861.93807    204544.72646  22740869.77046
 18  5 30  0 26 45.0000000  0  9  3 14 16 22 23 26 29 31 32
     57974.22706  23839547.97706     39117.12746  23839555.57446
    180674.11707  20727181.15607    102806.13547  20727186.77047
    -88356.42207  20700955.35907    -66537.59947  20700960.02347
    153010.37706  23753669.82806    119228.88446  23753672.13746
   -413652.49305  24458494.68005   -120477.68746  24458496.77746
    129679.45108  20743483.54708     93226.11548  20743491.40248
    336905.89006  23778128.35906    243339.64246  23778134.35946
     73172.57408  21696305.55508     47154.80347  21696310.41847
    397784.76007  22743876.73407    216890.72046  22743884.61346
 18  5 30  0 26 50.0000000  0  9  3 14 16 22 23 26 29 31 32
     60545.96906  23840037.29706     41121.07446  23840044.76646
    188141.75607  20728602.39107    108625.07547  20728607.78147
    -91281.81407  20700398.78107    -68817.12647  20700403.39847
    159095.65106  23754827.71106    123970.64846  23754830.52346
   -430358.03405  24455316.01605   -133494.98946  24455318.60546
    134891.56308  20744475.18808     97287.49848  20744483.04348
    349954.17106  23780610.58606    253507.12646  23780616.83246
     76193.41708  21696880.53108     49508.69947  21696885.35947
    413653.47307  22746896.57007    229255.93946  22746904.46146
 18  5 30  0 26 55.0000000  0  9  3 14 16 22 23 26 29 31 32
     63144.71805  23840532.43805     43146.06646  23840540.28146
    195638.91207  20730029.07007    114467.01947  20730034.63747
    -94179.88207  20699846.96907    -71075.36147  20699851.50447
    165203.60506  23755990.23406    128730.09346  23755993.00046
   -447045.22206  24452140.64106   -146497.99046  24452143.39546
    140126.65708  20745471.54708    101366.79248  20745479.23848
    363028.75306  23783099.01606    263695.09346  23783105.20346
     79232.54707  21697459.03107     51876.85147  21697463.64847
    429545.60207  22749920.96107    241639.40246  22749928.75846
 18  5 30  0 27  0.0000000  0  9  3 14 16 22 23 26 29 31 32
     65772.45305  23841032.04705     45193.64745  23841039.28145
    203167.56507  20731461.61707    120333.50247  20731467.24247
    -97048.60007  20699301.39107    -73310.72847  20699306.11347
    171336.23106  23757156.85206    133508.75446  23757159.46546
   -463712.02006  24448969.62506   -159485.09846  24448971.89846
    145386.73108  20746472.48408    105465.55348  20746480.16448
    376131.62306  23785592.14106    273905.10446  23785598.21146
     82291.94307  21698041.28107     54260.79247  21698045.80547
    445463.12607  22752949.77307    254042.66046  22752957.59446
 18  5 30  0 27  5.0000000  0  9  3 14 16 22 23 26 29 31 32
     68425.97605  23841536.57805     47261.32345  23841544.63345
    210724.54307  20732899.63307    126222.05247  20732905.19947
    -99891.20007  20698760.55507    -75525.74247  20698765.23047
    177490.30806  23758328.43006    138304.13146  23758331.31346
   -480361.65806  24445801.10906   -172458.85046  24445803.82846
    150668.57308  20747477.65608    109581.27448  20747485.21948
    389259.51806  23788090.39106    284134.63446  23788096.33246
     85368.40507  21698626.55507     56658.02947  21698631.06647
    461402.87007  22755983.15607    266463.22746  22755991.10546
 18  5 30  0 27 10.0000000  0  9  3 14 16 22 23 26 29 31 32
     71105.91005  23842047.48405     49349.55545  23842056.25445
    218310.46107  20734343.32007    132133.14847  20734348.78147
   -102707.03707  20698224.67207    -77719.90347  20698229.40647
    183666.44206  23759503.43006    143116.69646  23759505.73846
   -496993.44306  24442636.19506   -185418.68746  24442638.87946
    155972.80508  20748486.96108    113714.43748  20748494.40648
    402413.11706  23790593.01606    294384.20146  23790599.08646
     88462.56006  21699215.30506     59069.05647  21699219.69947
    477365.42007  22759020.60207    278901.56546  22759028.56346
 18  5 30  0 27 15.0000000  0  9  3 14 16 22 23 26 29 31 32
     73811.85506  23842562.40606     51458.06845  23842570.67245
    225924.87607  20735792.17207    138066.45247  20735797.35247
   -105496.50807  20697693.78107    -79893.51547  20697698.31647
    189864.24606  23760683.02306    147946.15746  23760685.83646
   -513607.75206  24439474.37506   -198364.91446  24439476.94146
    161299.00108  20749500.53108    117864.71548  20749507.88348
    415591.96906  23793101.95306    304653.43146  23793108.23446
     91574.01206  21699807.38306     61493.56247  21699811.69547
    493350.34507  22762062.57807    291357.33946  22762070.46946
 18  5 30  0 27 20.0000000  0  9  3 14 16 22 23 26 29 31 32
     76540.94805  23843081.31305     53584.64046  23843090.18846
    233564.94907  20737246.29707    144019.74947  20737251.88747
   -108262.46807  20697167.30507    -82048.81047  20697172.05147
    196080.85806  23761866.10206    152790.26946  23761869.28946
   -530207.46106  24436315.49206   -211299.75246  24436317.95346
    166644.33508  20750517.75808    122029.90748  20750525.09848
    428793.18606  23795613.53106    314940.09646  23795619.91846
     94699.89906  21700402.18006     63929.31247  21700406.50447
    509354.85407  22765108.18807    303828.37847  22765116.21947
 18  5 30  0 27 25.0000000  0  9  3 14 16 22 23 26 29 31 32
     79298.36705  23843605.39105     55733.28346  23843613.72746
    241235.88507  20738705.85207    149997.09447  20738711.38347
   -110999.75607  20696646.77307    -84181.76347  20696651.40247
    202321.46006  23763053.25006    157653.08146  23763056.82446
   -546787.34906  24433161.12506   -224219.15246  24433163.71546
    172013.96008  20751539.55508    126214.02848  20751546.94148
    442021.97106  23798131.06306    325248.23046  23798136.94546
     97845.46606  21701000.79706     66380.39547  21701005.05147
    525384.07407  22768158.43007    316318.66847  22768166.34447
 18  5 30  0 27 30.0000000  0  9  3 14 16 22 23 26 29 31 32
     82083.89905  23844135.59405     57903.80545  23844143.50845
    248937.44207  20740171.22707    155998.29647  20740176.67647
   -113708.59007  20696130.94507    -86292.54447  20696135.65647
    208585.82206  23764245.53106    162534.38046  23764249.03546
   -563347.62106  24430009.41406   -237123.26546  24430011.73446
    177407.64308  20752565.96108    130416.89548  20752573.32448
    455278.06406  23800653.50006    335577.64046  23800658.82046
    101010.45806  21701603.16406     68846.62047  21701607.34847
    541437.78907  22771213.48407    328828.04246  22771221.57446
 18  5 30  0 27 35.0000000  0  9  3 14 16 22 23 26 29 31 32
     84893.80405  23844670.42205     60093.33045  23844679.83645
    256665.89207  20741641.89807    162020.46846  20741647.31346
   -116392.68607  20695620.17207    -88384.04447  20695624.94147
    214870.14506  23765441.51606    167431.24346  23765444.73846
   -579892.05906  24426860.47706   -250015.04046  24426863.61746
    182821.67508  20753596.32808    134635.62148  20753603.84448
    468557.80706  23803180.30506    345925.47146  23803186.41046
    104191.14906  21702208.48406     71325.06747  21702212.83247
    557512.26806  22774271.92206    341353.59646  22774280.29346
 18  5 30  0 27 40.0000000  0  9  3 14 16 22 23 26 29 31 32
     87726.73805  23845209.61705     62300.76245  23845218.22345
    264419.95407  20743117.72707    168062.59946  20743123.27046
   -119053.37407  20695114.07007    -90457.31047  20695118.95747
    221173.16306  23766641.10906    172342.68846  23766643.96946
   -596421.87705  24423714.82805   -262895.41146  24423717.61746
    188254.72208  20754630.11708    138869.16348  20754637.78548
    481859.78906  23805712.11706    356290.63746  23805718.18846
    107386.22806  21702816.49206     73814.71147  21702820.86347
    573606.18606  22777334.80506    353894.30046  22777342.57846
 18  5 30  0 27 45.0000000  0  9  3 14 16 22 23 26 29 31 32
     90583.02005  23845753.42205     64526.41445  23845761.87545
    272199.90907  20744598.25807    174124.89546  20744603.94146
   -121690.34107  20694612.32007    -92512.09447  20694617.32447
    227495.18906  23767843.83606    177268.95046  23767846.73046
   -612936.78805  24420572.36705   -275764.17046  24420574.88746
    193707.08808  20755667.60908    143117.75748  20755675.41848
    495184.39006  23808247.64106    366673.42746  23808253.32446
    110596.04306  21703427.27306     76315.85247  21703431.62147
    589719.83606  22780400.93806    366450.38446  22780408.85246
 18  5 30  0 27 50.0000000  0  9  3 14 16 22 23 26 29 31 32
     93462.29205  23846301.65605     66770.03045  23846311.04745
    280005.43107  20746083.67207    180207.10347  20746089.29747
   -124303.96207  20694114.86707    -94548.68847  20694119.93047
    233835.85406  23769050.35206    182209.73146  23769053.56346
   -629437.09806  24417433.17206   -288621.53346  24417435.36346
    199178.39308  20756708.85208    147381.11048  20756716.59048
    508531.15206  23810787.26606    377073.50246  23810792.63346
    113820.22007  21704040.89807     78828.21047  21704045.16447
    605852.83607  22783471.00807    379021.53446  22783478.74646
 18  5 30  0 27 55.0000000  0  9  3 14 16 22 23 26 29 31 32
     96364.91205  23846853.25005     69031.84145  23846861.92645
    287836.88007  20747574.18007    186309.51647  20747579.52347
   -126893.82907  20693622.22707    -96566.76847  20693627.35947
    240195.52806  23770260.39806    187165.30946  23770263.98446
   -645922.49506  24414295.77306   -301467.30446  24414298.72746
    204669.04908  20757753.75808    151659.53848  20757761.53148
    521900.56906  23813331.57806    387491.24346  23813337.10946
    117059.17307  21704657.21107     81352.08247  21704661.59447
    622005.61507  22786544.89807    391608.09346  22786552.63746
 18  5 30  0 28  0.0000000  0  9  3 14 16 22 23 26 29 31 32
     99291.21605  23847410.90605     71312.10145  23847419.59445
    295694.52607  20749069.45307    192432.35247  20749074.50447
   -129459.65107  20693133.77307    -98566.11247  20693138.89547
    246574.50406  23771474.55506    192135.92046  23771478.15246
   -662392.52806  24411161.48406   -314301.11146  24411163.60546
    210179.35108  20758802.17208    155953.27648  20758809.84048
    535292.89106  23815879.96106    397926.82846  23815885.56346
    120313.20306  21705276.39106     83887.69247  21705280.86747
    638178.44207  22789622.57007    404210.28446  22789630.22746
 18  5 30  0 28  5.0000000  0  9  3 14 16 22 23 26 29 31 32
    102240.65005  23847971.05505     73610.36845  23847979.33245
    303577.88607  20750569.46907    198575.22947  20750574.48447
   -132001.96707  20692650.15607   -100547.13947  20692655.21947
    252972.24306  23772691.48406    197121.15846  23772695.03546
   -678847.78606  24408030.68806   -327123.38346  24408032.37546
    215708.75407  20759854.39107    160261.90048  20759862.08248
    548707.58606  23818432.37506    408379.84046  23818438.36346
    123581.76206  21705898.18806     86434.62247  21705902.75847
    654370.78807  22792704.01607    416827.68846  22792711.75446
 18  5 30  0 28 10.0000000  0  9  3 14 16 22 23 26 29 31 32
    105213.37405  23848537.22705     75926.76246  23848546.16046
    311487.06107  20752074.54707    204738.22147  20752079.52747
   -134520.67207  20692170.59407   -102509.76347  20692175.62147
    259388.86106  23773912.98406    202121.12146  23773916.39546
   -695288.13806  24404901.83606   -339934.04946  24404904.43846
    221257.37007  20760910.47707    164585.49548  20760918.15648
    562144.75906  23820989.69506    418850.35246  23820995.33246
    126865.01406  21706523.03906     88993.00147  21706527.71547
    670582.76207  22795788.67207    429460.38546  22795796.43446
 18  5 30  0 28 15.0000000  0  9  3 14 16 22 23 26 29 31 32
    108209.09805  23849106.94505     78261.08045  23849114.52045
    319421.76907  20753584.56307    210921.11447  20753589.43847
   -137016.00807  20691696.05507   -104454.17747  20691701.27047
    265824.11806  23775137.48406    207135.60146  23775141.04746
   -711713.82206  24401776.25006   -352733.28746  24401778.84046
    226824.94307  20761969.93807    168923.85948  20761977.52348
    575604.15506  23823550.95306    429338.18646  23823556.46146
    130162.70606  21707150.65606     91562.62947  21707155.23847
    686814.11007  22798877.62507    442108.18146  22798885.70346
 18  5 30  0 28 20.0000000  0  9  3 14 16 22 23 26 29 31 32
    111227.14105  23849681.91405     80612.79346  23849690.77746
    327381.40507  20755099.27307    217123.42847  20755104.32447
   -139488.60407  20691225.54707   -106380.87547  20691230.97347
    272277.33006  23776365.28906    212164.06546  23776368.64146
   -728125.45106  24398653.20306   -365521.56346  24398655.93446
    232410.83607  20763032.78907    173276.49948  20763040.24648
    589085.13206  23826116.43006    439842.83746  23826122.20746
    133474.20906  21707780.98406     94143.01647  21707785.53147
    703064.19407  22801969.68007    454770.57246  22801977.80546
 18  5 30  0 28 25.0000000  0  9  3 14 16 22 23 26 29 31 32
    114267.48605  23850260.25805     82981.90246  23850268.50046
    335365.89107  20756618.48407    223345.10447  20756623.59447
   -141938.48307  20690759.23407   -108289.86947  20690764.76647
    278748.43006  23777596.38306    217206.48046  23777599.45346
   -744523.05606  24395532.59406   -378298.90846  24395534.85546
    238014.97607  20764099.28107    177643.36348  20764106.62148
    602587.57806  23828685.75006    450364.21846  23828691.09446
    136799.48206  21708413.71906     96734.13647  21708418.28947
    719332.92307  22805065.53107    467447.49146  22805073.77346
 18  5 30  0 28 30.0000000  0  9  3 14 16 22 23 26 29 31 32
    117328.84905  23850843.06305     85367.40845  23850851.48045
    343373.98507  20758142.30507    229585.17747  20758147.47347
   -144366.94807  20690297.14807   -110182.18047  20690302.64547
    285236.17406  23778831.13306    222261.85846  23778834.46146
   -760907.94206  24392414.88306   -391066.32646  24392416.81646
    243636.07507  20765168.95307    182023.44048  20765176.21148
    616110.20906  23831258.78906    460901.33946  23831264.19146
    140137.25406  21709048.81306     99334.99347  21709053.30147
    735619.00507  22808164.82007    480137.92746  22808172.88746
 18  5 30  0 28 35.0000000  0  9  3 14 16 22 23 26 29 31 32
    120410.68405  23851429.82805     87768.81845  23851438.37545
    351405.16307  20759670.65607    235843.23247  20759676.14147
   -146774.54907  20689838.96907   -112058.23747  20689844.35947
    291739.96205  23780068.97705    227329.72646  23780072.24646
   -777280.62206  24389299.12506   -403824.25046  24389301.93846
    249273.59807  20766241.89807    186416.31448  20766249.23848
    629652.53406  23833836.18806    471453.80546  23833841.61346
    143486.97306  21709686.46906    101945.16447  21709690.94547
    751921.93107  22811267.18807    492841.49646  22811275.14846
 18  5 30  0 28 40.0000000  0  9  3 14 16 22 23 26 29 31 32
    123513.36405  23852019.63305     90186.48046  23852028.97746
    359459.81207  20761203.67207    242119.57647  20761209.22747
   -149160.84007  20689385.08607   -113917.68547  20689390.54747
    298260.22906  23781309.06306    232410.44046  23781312.01646
   -793640.66106  24386185.98406   -416572.33846  24386189.09046
    254927.94607  20767317.71907    190822.29748  20767325.12948
    643214.90606  23836417.22706    482021.89246  23836422.52346
    146849.06806  21710326.04706    104564.97947  21710330.48847
    768242.08407  22814372.75807    505558.48746  22814380.56646
 18  5 30  0 28 45.0000000  0  9  3 14 16 22 23 26 29 31 32
    126637.23405  23852614.17205     92620.66046  23852622.82446
    367538.24407  20762740.83607    248414.45047  20762746.36747
   -151525.53807  20688934.79707   -115760.31147  20688940.29347
    304797.34006  23782553.64106    237504.29546  23782556.77046
   -809987.72406  24383075.15606   -429310.29646  24383078.39146
    260599.43007  20768396.97707    195241.63148  20768404.41048
    656797.64306  23839001.73406    492605.84646  23839007.53546
    150223.84406  21710968.21906    107194.67347  21710972.62547
    784579.77407  22817481.92207    518289.14446  22817489.70746
 18  5 30  0 28 50.0000000  0  9  3 14 16 22 23 26 29 31 32
    129783.42405  23853212.64805     95072.25446  23853220.91446
    375641.60007  20764282.93807    254728.75247  20764288.35247
   -153867.53707  20688488.98407   -117585.24447  20688494.41047
    311352.32906  23783800.67206    242612.08646  23783804.58646
   -826320.64806  24379967.04706   -442037.24246  24379970.72746
    266289.18207  20769479.73407    199675.20148  20769487.15648
    670401.88706  23841590.50006    503206.54546  23841596.74646
    153612.48106  21711613.02306    109835.16547  21711617.38347
    800936.13607  22820594.47707    531034.35146  22820602.03946
 18  5 30  0 28 55.0000000  0  9  3 14 16 22 23 26 29 31 32
    132951.32805  23853815.85205     97540.75946  23853824.02346
    383769.28007  20765829.57007    261062.00547  20765834.92647
   -156187.42207  20688047.83607   -119392.94747  20688053.26247
    317924.61305  23785051.57005    247733.34446  23785055.48446
   -842640.06306  24376861.12506   -454753.66846  24376864.84046
    271996.59907  20770565.71907    204122.53648  20770573.14148
    684027.05106  23844183.81306    513823.54346  23844189.50846
    157014.35806  21712260.49206    112485.97847  21712264.88747
    817310.56107  22823710.09407    543793.63646  22823718.05546
 18  5 30  0 29  0.0000000  0  9  3 14 16 22 23 26 29 31 32
    136142.35305  23854423.00005    100027.26046  23854431.73446
    391922.68107  20767380.89107    267415.30047  20767385.88347
   -158483.78607  20687610.86707   -121182.32147  20687616.27047
    324515.61006  23786305.67206    252869.17246  23786309.09446
   -858944.51206  24373758.39106   -467458.42846  24373762.04746
    277723.06907  20771655.28107    208584.71848  20771662.73848
    697674.49606  23846780.43806    524457.90946  23846785.89846
    160430.86306  21712910.41406    115148.18047  21712914.90247
    833704.43807  22826829.68807    556568.07646  22826837.57846
 18  5 30  0 29  5.0000000  0  9  3 14 16 22 23 26 29 31 32
    139357.09505  23855035.29705    102532.23146  23855043.98446
    400102.43907  20768937.62507    273789.13747  20768942.50047
   -160755.93507  20687178.29707   -122952.82747  20687183.75847
    331125.96806  23787563.46906    258020.08446  23787566.94946
   -875233.28106  24370658.82806   -480150.97746  24370662.69546
    283469.27007  20772748.93807    213062.27748  20772756.51248
    711344.90806  23849382.21106    535110.16146  23849387.50846
    163862.73206  21713563.67206    117822.35547  21713568.07847
    850118.45007  22829953.41407    569358.20246  22829961.34046
 18  5 30  0 29 10.0000000  0  9  3 14 16 22 23 26 29 31 32
    142594.62905  23855651.17205    105054.99046  23855659.44946
    408307.55207  20770499.00007    280182.73147  20770503.91047
   -163004.92807  20686750.51607   -124705.28847  20686756.02347
    337754.67706  23788825.29706    263185.29746  23788828.57846
   -891507.41006  24367562.02306   -492832.12446  24367565.85546
    289234.16807  20773845.97707    217554.40448  20773853.66848
    725037.25806  23851987.69506    545779.51246  23851992.82846
    167308.88406  21714219.31306    120507.66547  21714223.75447
    866551.54507  22833080.48407    582163.19546  22833088.42246
 18  5 30  0 29 15.0000000  0  9  3 14 16 22 23 26 29 31 32
    145855.88805  23856271.43805    107596.23545  23856279.89145
    416539.05607  20772065.64807    286596.88547  20772070.61747
   -165229.76107  20686327.22707   -126438.92547  20686332.77047
    344402.74006  23790090.25006    268365.60646  23790094.53946
   -907765.87306  24364468.31306   -505501.04846  24364471.35946
    295018.75807  20774946.77307    222061.87648  20774954.58248
    738752.55706  23854597.46906    556466.76046  23854603.17646
    170770.38106  21714877.96906    123204.92947  21714882.49247
    883004.73507  22836211.23407    594983.84846  22836219.21946
 18  5 30  0 29 20.0000000  0 10  3 14 16 22 23 26 27 29 31 32
    149140.49105  23856896.63305    110155.66946  23856905.44946
    424796.52007  20773636.75807    293031.26847  20773641.65647
   -167430.83107  20685908.21907   -128154.04747  20685913.77347
    351069.71906  23791358.81306    273560.66046  23791362.56346
   -924009.07506  24361376.80506   -518158.06446  24361380.28546
    300822.64007  20776051.11707    226584.37948  20776058.96148
         0.00000  22677948.22702         0.00000         0.00000
    752490.34106  23857211.78106    567171.51146  23857217.35946
    174246.79506  21715539.35206    125913.81847  21715543.88747
    899477.61107  22839346.11707    607819.84346  22839354.18446
 18  5 30  0 29 25.0000000  0 10  3 14 16 22 23 26 27 29 31 32
    152448.11705  23857525.59405    112733.01445  23857534.18845
    433079.65907  20775212.98407    299485.65647  20775217.81347
   -169608.42207  20685493.86707   -129850.86947  20685499.46947
    357755.25806  23792631.21906    278770.15646  23792634.95746
   -940237.33806  24358288.89106   -530803.45546  24358292.55946
    306645.49907  20777159.18807    231121.66648  20777167.06648
         3.26313  22674711.36703         0.00000         0.00000
    766250.34706  23859830.23406    577893.58946  23859835.44946
    177737.84506  21716203.92206    128634.11147  21716208.53947
    915969.85207  22842484.60907    620670.92446  22842492.60546
 18  5 30  0 29 30.0000000  0 10  3 14 16 22 23 26 27 29 31 32
    155778.75505  23858160.03105    115328.31546  23858167.86346
    441388.45707  20776794.28107    305960.03947  20776799.19147
   -171762.56107  20685083.93007   -131529.42147  20685089.43847
    364459.38706  23793907.15606    283994.15246  23793911.05946
   -956450.62606  24355203.71106   -543437.19846  24355207.67246
    312487.32507  20778270.75807    235673.73348  20778278.71948
    -17016.71302  22671471.10902         0.00000         0.00000
    780032.54706  23862452.74206    588632.95546  23862457.69946
    181243.54206  21716871.00006    131365.81147  21716875.64147
    932481.44307  22845626.72707    633537.07846  22845634.59446
 18  5 30  0 29 35.0000000  0 10  3 14 16 22 23 26 27 29 31 32
    159132.38305  23858797.93805    117941.54846  23858806.54346
    449722.82007  20778380.31307    312454.34747  20778385.08247
   -173893.31507  20684678.35207   -133189.74847  20684683.81347
    371182.05506  23795186.07006    289232.58646  23795189.57446
   -972648.92106  24352121.39806   -556059.24646  24352124.97346
    318348.04107  20779386.04707    240240.52248  20779394.02048
    -34020.17703  22668235.89803         0.00000         0.00000
    793836.91906  23865079.60206    599389.60746  23865084.82846
    184763.81306  21717540.93806    134108.87247  21717545.54347
    949012.32407  22848772.51607    646418.27546  22848780.21946
 18  5 30  0 29 40.0000000  0 10  3 14 16 22 23 26 27 29 31 32
    162508.36605  23859440.64105    120572.19046  23859449.04746
    458082.22907  20779970.93007    318968.16747  20779975.65247
   -176001.22407  20684277.54707   -134832.27947  20684283.06647
    377922.64306  23796469.02306    294484.98446  23796472.30546
   -988832.81506  24349041.82006   -568670.08146  24349044.89146
    324227.10007  20780504.82807    244821.60848  20780512.83648
    -51007.61503  22665004.07003         0.00000         0.00000
    807662.86806  23867710.65606    610163.07046  23867715.98846
    188298.11106  21718213.46106    136862.86847  21718218.11347
    965561.93107  22851921.75007    659314.06746  22851929.39546
 18  5 30  0 29 45.0000000  0 10  3 14 16 22 23 26 27 29 31 32
    165907.10805  23860087.16405    123220.55145  23860096.63745
    466467.03807  20781566.60907    325501.78047  20781571.28547
   -178085.97707  20683880.52307   -136456.76347  20683885.98447
    384681.53406  23797755.60906    299751.65246  23797758.94946
  -1005001.95706  24345965.00006   -581269.40946  24345967.93046
    330124.83807  20781627.19507    249417.24848  20781635.20348
    -67978.70603  22661773.46103         0.00000         0.00000
    821510.70106  23870346.27306    620953.59746  23870351.11346
    191846.82206  21718888.69506    139628.09747  21718893.40647
    982130.59707  22855074.62507    672224.70746  22855082.08246
 18  5 30  0 29 50.0000000  0 10  3 14 16 22 23 26 27 29 31 32
    169326.98405  23860738.35205    125885.38145  23860746.74645
    474875.64807  20783166.68007    332053.93947  20783171.44947
   -180149.11507  20683487.92207   -138064.40447  20683493.33647
    391457.16306  23799044.70306    305031.35746  23799048.14846
  -1021157.85406  24342890.39806   -593858.42346  24342893.16446
    336039.66107  20782752.82007    254026.19748  20782760.92248
    -84934.96003  22658546.65603         0.00000         0.00000
    835378.84206  23872985.07806    631759.93546  23872989.68446
    195408.40906  21719566.49206    142403.35547  21719571.28547
    998716.75207  22858230.85907    685148.97446  22858238.31646
 18  5 30  0 29 55.0000000  0 10  3 14 16 22 23 26 27 29 31 32
    172769.04405  23861393.40605    128567.51246  23861402.28146
    483309.11107  20784771.34407    338625.46847  20784775.97347
   -182189.64707  20683099.68007   -139654.42847  20683105.02347
    398250.54206  23800337.31306    310324.88946  23800339.91446
  -1037299.48505  24339818.61705   -606436.31446  24339822.06346
    341972.62507  20783881.64107    258649.28248  20783889.75448
   -101875.35603  22655322.95303         0.00000         0.00000
    849268.31206  23875628.20306    642582.89246  23875632.60946
    198983.85506  21720247.07806    145189.41347  21720251.73047
   1015321.31607  22861390.46907    698087.58446  22861397.90246
 18  5 30  0 30  0.0000000  0 10  3 14 16 22 23 26 27 29 31 32
    176232.72505  23862052.20305    131266.49746  23862060.94946
    491766.84707  20786380.72707    345215.91247  20786385.49647
   -184208.11507  20682715.55507   -141227.25747  20682721.00447
    405061.10106  23801633.88306    315631.80646  23801636.27346
  -1053427.42605  24336749.83605   -619003.55746  24336753.59846
    347923.15008  20785013.78908    263286.05448  20785021.99648
   -118800.37803  22652102.80503         0.00000         0.00000
    863178.51206  23878275.21106    653421.98546  23878279.65246
    202572.62206  21720929.98406    147985.85047  21720934.62547
   1031943.92807  22864553.89807    711040.25846  22864561.80146
 18  5 30  0 30  5.0000000  0 10  3 14 16 22 23 26 27 29 31 32
    179718.39805  23862714.92205    133982.59245  23862723.92645
    500249.22707  20787994.97707    351825.55647  20787999.73447
   -186204.10407  20682335.76607   -142782.57447  20682341.14547
    411889.23706  23802933.18806    320952.43346  23802935.95346
  -1069541.24905  24333683.04705   -631559.79146  24333687.20746
    353891.60708  20786149.80508    267936.79848  20786157.91848
   -135709.70003  22648885.37503         0.00000         0.00000
    877109.92406  23880926.19506    664277.62046  23880930.73046
    206175.08906  21721615.40606    150792.96247  21721619.95347
   1048584.85607  22867720.34407    724007.19946  22867728.41046
 18  5 30  0 30 10.0000000  0 10  3 14 16 22 23 26 27 29 31 32
    183225.55405  23863382.39105    136715.43845  23863390.72745
    508755.77207  20789613.68807    358454.03047  20789618.69147
   -188178.15807  20681960.07007   -144320.79847  20681965.50847
    418734.38706  23804235.75006    326286.31246  23804238.93846
  -1085641.47405  24330619.24205   -644105.41146  24330623.76646
    359877.48408  20787288.65608    272601.11448  20787296.77048
   -152603.80703  22645671.36703         0.00000         0.00000
    891061.95106  23883581.05506    675149.34446  23883585.10946
    209790.76006  21722303.38306    153610.36347  21722307.88347
   1065243.57507  22870890.39807    736987.99746  22870898.57046
 18  5 30  0 30 15.0000000  0 10  3 14 16 22 23 26 27 29 31 32
    186753.77405  23864053.80505    139464.69845  23864062.69145
    517286.02707  20791237.05507    365100.97747  20791242.00047
   -190130.71407  20681588.77307   -145842.27147  20681594.05947
    425596.11706  23805541.25006    331633.10146  23805544.06346
  -1101728.51005  24327558.34405   -656640.75346  24327562.62146
    365880.34008  20788431.26608    277278.65948  20788439.35548
   -169483.09904  22642459.20304         0.00000         0.00000
    905034.11806  23886239.71906    686036.75146  23886243.77346
    213419.20206  21722993.91406    156437.72047  21722998.33247
   1081919.66107  22874063.85207    749982.33646  22874072.15246
 18  5 30  0 30 20.0000000  0 10  3 14 16 22 23 26 27 29 31 32
    190302.00305  23864729.24205    142229.53745  23864737.60245
    525838.96807  20792864.28907    371765.59947  20792869.38747
   -192062.77607  20681220.82807   -147347.77647  20681226.07847
    432473.41606  23806850.31306    336992.02346  23806852.89146
  -1117803.36705  24324499.53905   -669166.59946  24324503.64146
    371899.15607  20789576.57807    281968.64248  20789584.53948
   -186348.57704  22639248.85204         2.43155  22639252.68445
    919025.46006  23888902.40606    696939.09746  23888906.78946
    217059.41906  21723686.63306    159274.25747  21723691.13347
   1098612.07107  22877240.40607    762989.39946  22877248.70746
 18  5 30  0 30 25.0000000  0 10  3 14 16 22 23 26 27 29 31 32
    193871.68906  23865409.26606    145011.12945  23865417.35545
    534416.06307  20794496.64807    378449.05047  20794501.79347
   -193972.88607  20680857.23407   -148836.17647  20680862.39147
    439367.72106  23808161.92206    342364.21246  23808164.81646
  -1133864.59805  24321442.94505   -681681.83846  24321447.65646
    377935.37707  20790725.19507    286672.18548  20790733.06348
   -203198.74604  22636042.27304    -13127.57045  22636045.91845
    933037.42306  23891568.59406    707857.50146  23891573.32846
    220712.84206  21724381.84406    162121.08247  21724386.33247
   1115322.27607  22880420.35907    776010.32046  22880428.67246
 18  5 30  0 30 30.0000000  0 10  3 14 16 22 23 26 27 29 31 32
    197462.15506  23866092.16406    147808.89846  23866100.05546
    543016.62207  20796133.25007    385150.78047  20796138.38347
   -195861.75207  20680498.16407   -150308.01847  20680503.13347
    446278.34206  23809477.06306    347749.10346  23809479.99246
  -1149912.86905  24318389.21105   -694186.98046  24318395.17646
    383988.30907  20791877.01607    291388.75348  20791884.76648
   -220034.31304  22632838.45304    -26246.21145  22632842.77745
    947069.26106  23894238.83606    718791.36246  23894243.17246
    224378.78506  21725079.41406    164977.66547  21725083.83247
   1132049.54507  22883603.39107    789044.54946  22883611.59846
 18  5 30  0 30 35.0000000  0 10  3 14 16 22 23 26 27 29 31 32
    201072.85906  23866778.50006    150622.43646  23866786.41446
    551640.14207  20797774.24207    391870.40547  20797779.30547
   -197729.90707  20680142.71107   -151763.72347  20680147.53947
    453204.77206  23810795.18006    353146.31846  23810798.28546
  -1165948.65605  24315337.98405   -706682.37846  24315343.44546
    390057.41807  20793031.96107    296117.92748  20793039.53548
   -236855.75704  22629636.90604    -39353.86545  22629641.51245
    961120.49506  23896912.64806    729740.35946  23896917.25446
    228056.74906  21725779.33606    167843.61247  21725783.73047
   1148793.38507  22886789.77307    802091.68546  22886797.94546
 18  5 30  0 30 40.0000000  0 10  3 14 16 22 23 26 27 29 31 32
    204703.47705  23867470.33605    153451.48946  23867478.52046
    560286.29607  20799419.28107    398607.66447  20799424.25047
   -199577.66807  20679790.87507   -153203.53547  20679795.48047
    460146.67406  23812116.61706    358555.58246  23812120.02746
  -1181972.30605  24312289.01605   -719168.34046  24312294.41846
    396142.38907  20794189.90607    300859.46048  20794197.38748
   -253663.43303  22626438.51603    -52450.74245  22626443.91845
    975190.80406  23899590.07806    740704.22646  23899594.95346
    231746.40506  21726481.53106    170718.66147  21726485.91447
   1165553.44206  22889978.96106    815151.45246  22889987.22746
 18  5 30  0 30 45.0000000  0 10  3 14 16 22 23 26 27 29 31 32
    208353.50805  23868164.53905    156295.68146  23868173.23846
    568954.56907  20801068.89107    405362.16147  20801073.85947
   -201405.53207  20679443.28907   -154627.84247  20679447.96547
    467103.50906  23813440.11706    363976.49146  23813443.11746
  -1197984.27205  24309241.71105   -731645.17846  24309247.59446
    402242.70506  20795350.83606    305612.94848  20795358.28148
   -270457.73503  22623243.03903    -65537.17345  22623248.37145
    989279.66406  23902270.91406    751682.54746  23902275.43846
    235447.28506  21727185.82006    173602.45947  21727190.20347
   1182329.21507  22893171.29707    828223.46946  22893179.76246
 18  5 30  0 30 50.0000000  0 10  3 14 16 22 23 26 27 29 31 32
    212023.38205  23868863.00005    159155.31346  23868872.82446
    577645.35507  20802722.43007    412134.19847  20802727.43447
   -203213.08907  20679099.10207   -156036.33047  20679103.60247
    474075.66506  23814766.78106    369409.33546  23814769.99246
  -1213984.12505  24306196.70305   -744112.60145  24306201.83645
    408358.76806  20796514.66406    310378.71348  20796521.99248
   -287238.35003  22620049.75003    -78612.99945  22620055.62145
   1003387.44706  23904955.96106    762675.62846  23904961.03546
    239159.78306  21727892.22706    176495.31647  21727896.57447
   1199121.11807  22896366.68007    841308.05846  22896375.01646
 18  5 30  0 30 55.0000000  0 10  3 14 16 22 23 26 27 29 31 32
    215713.48405  23869564.69505    162030.66946  23869575.18846
    586359.08607  20804380.93807    418924.11747  20804385.85947
   -204999.93007  20678758.98407   -157428.67147  20678763.29747
    481063.57706  23816096.83606    374854.45346  23816100.01246
  -1229971.43805  24303154.66405   -756570.25045  24303159.92645
    414491.02306  20797681.66406    315157.09448  20797688.86348
   -304004.74003  22616859.62503    -91677.73045  22616866.54345
   1017514.60106  23907644.07006    773683.80446  23907649.36746
    242884.38606  21728600.86706    179397.60147  21728605.23847
   1215929.54807  22899565.38307    854405.52246  22899573.76646
 18  5 30  0 31  0.0000000  0 10  3 14 16 22 23 26 27 29 31 32
    219423.93405  23870270.93805    164921.91546  23870280.56346
    595095.93707  20806043.38307    425732.05147  20806048.29347
   -206765.89507  20678423.14807   -158804.74447  20678427.48447
    488067.35106  23817429.22706    380311.94146  23817432.77746
  -1245946.07205  24300114.67205   -769018.00845  24300120.43845
    420639.56106  20798851.68806    319948.16348  20798858.93448
   -320756.77203  22613670.82803   -104731.25145  22613676.71145
   1031661.24106  23910336.19506    784707.15946  23910341.23446
    246621.19006  21729311.93806    182309.39547  21729316.29747
   1232754.65407  22902767.12507    867515.97846  22902775.53146
 18  5 30  0 31  5.0000000  0 10  3 14 16 22 23 26 27 29 31 32
    223153.90906  23870981.70306         0.00000         0.00000
    603855.03407  20807710.30507    432557.31147  20807715.36747
   -208511.80307  20678090.93007   -160165.19047  20678095.32447
    495086.21106  23818765.10206    385781.17846  23818768.46546
  -1261908.78705  24297077.34405   -781456.48845  24297083.13345
    426803.59306  20800024.50006    324751.30448  20800031.65248
   -337495.21203  22610486.19503   -117774.19745  22610492.13745
   1045826.51306  23913031.67206    795745.03246  23913036.10246
    250369.40906  21730025.26606    185230.08747  21730029.63747
   1249595.59907  22905972.03907    880638.78046  22905980.24646
 18  5 30  0 31 10.0000000  0 10  3 14 16 22 23 26 27 29 31 32
    226903.34705  23871694.35905         0.00000         0.00000
    612636.26407  20809381.19507    439399.82547  20809386.41047
   -210237.81107  20677762.42207   -161510.13947  20677766.96947
    502120.00406  23820103.78106    391262.05946  23820107.10946
  -1277859.72205  24294041.79705   -793885.79046  24294047.29346
    432982.97206  20801200.53906    329566.40448  20801207.62148
   -354220.33403  22607304.01603   -130806.74445  22607309.65245
   1060010.33306  23915730.62506    806797.35946  23915734.82046
    254128.89106  21730740.55506    188159.54747  21730744.97347
   1266452.24907  22909179.48407    893773.81746  22909187.36346
 18  5 30  0 31 15.0000000  0 10  3 14 16 22 23 26 27 29 31 32
    230672.27705  23872411.35205         0.00000         0.00000
    621439.77107  20811056.74207    446259.69847  20811061.78147
   -211943.77407  20677437.68807   -162839.46147  20677442.16447
    509168.83606  23821445.21906    396754.64246  23821448.55946
  -1293798.71705  24291008.71905   -806305.79145  24291014.05145
    439177.80706  20802379.46906    334393.54848  20802386.58648
   -370931.78703  22604123.89103   -143828.66945  22604129.98445
   1074212.79906  23918433.32006    817864.19546  23918437.66846
    257899.79406  21731458.20306    191097.91047  21731462.59847
   1283324.72007  22912390.35907    906921.19046  22912398.03946
 18  5 30  0 31 20.0000000  0 10  3 14 16 22 23 26 27 29 31 32
    234459.76905  23873131.82005         0.00000         0.00000
    630264.56007  20812735.54707    453136.15047  20812740.46947
   -213630.69307  20677116.87507   -164153.94547  20677121.32847
    516231.71006  23822788.91406    402258.16846  23822792.58246
  -1309726.76005  24287977.48405   -818717.24545  24287982.96945
    445387.12206  20803561.04706    339231.97348  20803568.15248
   -387630.65204  22600946.18804   -156840.75545  22600952.70345
   1088432.93506  23921139.50006    828944.80446  23921144.49246
    261681.15706  21732177.89806    194044.42147  21732182.49247
   1300212.02707  22915604.02307    920080.12646  22915611.70346
 18  5 30  0 31 25.0000000  0 10  3 14 16 22 23 26 27 29 31 32
    238266.12005  23873855.99205         0.00000         0.00000
    639110.92007  20814419.24207    460029.41147  20814424.25847
   -215298.24807  20676799.61707   -165453.34347  20676803.93047
    523308.93306  23824135.57806    407772.87746  23824139.42246
  -1325643.49805  24284948.58605   -831119.89246  24284954.24646
    451611.21606  20804745.36706    344081.91448  20804752.52048
   -404316.60504  22597771.46104   -169842.77445  22597779.63345
   1102671.01106  23923848.96106    840039.41546  23923853.69546
    265473.25406  21732899.30506    196999.29447  21732903.82847
   1317114.46207  22918820.33607    933250.84746  22918828.12146
 18  5 30  0 31 30.0000000  0 10  3 14 16 22 23 26 27 29 31 32
    242092.15205  23874584.50005         0.00000         0.00000
    647979.72707  20816106.82807    466940.17046  20816111.69146
   -216945.60407  20676485.96907   -166736.99647  20676490.29347
    530401.35906  23825485.18806    413299.44346  23825489.00846
  -1341548.10105  24281922.25805   -843513.09246  24281927.00446
    457850.93806  20805932.91406    348944.03248  20805940.09048
   -420988.72504  22594598.14804   -182834.05045  22594605.26645
   1116927.90306  23926561.64106    851148.67146  23926566.28146
    269276.96006  21733623.09406    199963.21547  21733627.45347
   1334032.89507  22922039.87507    946434.03146  22922047.62546
 18  5 30  0 31 35.0000000  0 10  3 14 16 22 23 26 27 29 31 32
    245937.79305  23875316.40605         0.00000         0.00000
    656870.88507  20817798.78107    473868.34047  20817803.48047
   -218572.80607  20676176.45307   -168004.94447  20676180.89547
    537508.89906  23826837.73406    418837.78146  23826841.57846
  -1357440.60905  24278898.07005   -855896.85446  24278902.93446
    464106.20806  20807123.18006    353818.26648  20807130.40248
   -437647.10904  22591428.57804   -195814.56845  22591435.04745
   1131203.49506  23929278.19506    862272.49046  23929283.03546
    273092.21206  21734349.24206    202936.13147  21734353.68447
   1350967.21007  22925262.25807    959629.58746  22925269.99646
 18  5 30  0 31 40.0000000  0 10  3 14 16 22 23 26 27 29 31 32
    249802.61105  23876051.25005        -1.33656  23876060.57046
    665783.97107  20819494.96907    480813.59446  20819499.86746
   -220180.32807  20675870.50007   -169257.55847  20675875.00047
    544631.14306  23828193.53106    424387.57346  23828197.71546
  -1373321.47805  24275875.32805   -868271.54146  24275880.33246
    470376.58106  20808316.39806    358704.26748  20808323.78548
   -454292.15704  22588260.93804   -208784.75745  22588265.12145
   1145497.36806  23931998.23406    873410.56946  23932003.28546
    276918.57106  21735077.41406    205917.70147  21735081.91447
   1367916.99807  22928487.84407    972837.18846  22928495.52346
 18  5 30  0 31 45.0000000  0 10  3 14 16 22 23 26 27 29 31 32
    253686.40106  23876791.19506      3024.98345  23876800.57445
    674718.79107  20821195.07807    487775.78947  20821200.18847
   -221768.35907  20675568.35207   -170494.98547  20675572.89847
    551767.81906  23829550.84406    429948.60846  23829554.68846
  -1389190.85406  24272856.27306   -880637.27846  24272861.07846
    476661.84306  20809512.26606    363601.87048  20809519.68848
   -470924.02204  22585095.72704   -221744.64645  22585101.63345
   1159809.32206  23934721.77306    884562.73746  23934727.34046
    280755.86006  21735807.64806    208907.78947  21735812.19547
   1384882.03107  22931716.39107    986056.68246  22931724.01246
 18  5 30  0 31 50.0000000  0 10  3 14 16 22 23 26 27 29 31 32
    257588.76906  23877533.30506      6065.74345  23877543.29345
    683674.93007  20822899.46107    494754.59746  20822904.77046
   -223337.30307  20675269.68007   -171717.53947  20675274.23847
    558918.56206  23830911.85206    435520.58746  23830916.19946
  -1405049.10606  24269838.06306   -892994.34946  24269842.14146
    482961.61606  20810711.33606    368510.78148  20810718.67648
   -487543.14004  22581933.37504   -234694.58745  22581939.99645
   1174138.94006  23937448.50006    895728.66246  23937454.16046
    284603.65306  21736540.00006    211906.06247  21736544.57047
   1401861.91207  22934947.33607    999287.73946  22934955.10946
 18  5 30  0 31 55.0000000  0 10  3 14 16 22 23 26 27 29 31 32
    261510.25405  23878279.28905      9121.41246  23878288.91446
    692652.96307  20824608.10207    501750.45647  20824613.34047
   -224886.58707  20674974.77307   -172924.77447  20674979.30947
    566083.93505  23832275.00805    441104.00146  23832279.32046
  -1420895.65706  24266823.04706   -905342.29946  24266826.57446
    489276.46706  20811912.85906    373431.44448  20811920.23448
   -504148.87605  22578773.93005   -247634.11545  22578779.10945
   1188486.81806  23940178.81306    906908.82646  23940184.73046
    288462.61406  21737274.23406    214913.04647  21737278.72347
   1418857.21407  22938181.34407   1012530.81946  22938188.87146
 18  5 30  0 32  0.0000000  0 10  3 14 16 22 23 26 27 29 31 32
    265450.16605  23879029.24205     12191.44346  23879036.87546
    701652.21707  20826320.58607    508762.86447  20826325.59047
   -226416.94007  20674683.67207   -174117.25747  20674688.11347
    573263.23605  23833641.73405    446698.26846  23833646.76246
  -1436731.25806  24263809.68006   -917681.72246  24263813.93446
    495605.66106  20813117.19506    378363.28148  20813124.53548
   -520741.92005  22575617.62505   -260563.75845  22575623.14545
   1202852.20606  23942912.87506    918102.62446  23942918.81646
    292331.97806  21738010.56306    217928.13947  21738015.16847
   1435867.20007  22941418.20307   1025785.33646  22941425.56646
 18  5 30  0 32  5.0000000  0 10  3 14 16 22 23 26 27 29 31 32
    269408.96705  23879782.50005     15276.23545  23879790.13345
    710673.09007  20828037.09407    515792.11047  20828041.82847
   -227927.86307  20674396.10907   -175294.60147  20674400.46947
    580456.90305  23835010.03905    452303.70546  23835015.48846
  -1452555.40006  24260798.63306   -930012.22146  24260803.01646
    501949.64907  20814324.62507    383306.64948  20814331.98848
   -537321.84404  22572461.09404   -273483.20945  22572467.08245
   1217235.54806  23945649.61706    929310.40346  23945656.01646
    296212.19806  21738749.02306    220951.68947  21738753.58247
   1452892.32807  22944658.26607   1039051.65946  22944665.57046
 18  5 30  0 32 10.0000000  0 10  3 14 16 22 23 26 27 29 31 32
    273386.63205  23880539.64805     18375.71346  23880546.53146
    719715.61807  20829757.74207    522838.23647  20829762.33647
   -229419.37007  20674112.30507   -176456.81547  20674116.79347
    587664.93505  23836381.75005    457920.34646  23836387.43446
  -1468368.05306  24257789.41406   -942333.77146  24257793.86746
    508308.45206  20815534.70306    388261.55748  20815542.23048
   -553888.58804  22569308.22704   -286392.33845  22569313.74645
   1231636.85606  23948390.00806    940532.17546  23948395.97346
    300103.32306  21739489.44506    223983.73747  21739493.84047
   1469932.61507  22947900.68007   1052329.79146  22947907.94946
 18  5 30  0 32 15.0000000  0 10  3 14 16 22 23 26 27 29 31 32
    277382.34105  23881299.80505     21489.27046  23881307.50846
    728778.98707  20831482.63307    529900.60047  20831487.32047
   -230892.30107  20673832.02307   -177604.55847  20673836.57047
    594886.50005  23837756.13305    463547.55346  23837761.59446
  -1484170.03306  24254782.56306   -954646.99646  24254786.33646
    514681.19406  20816747.25806    393227.32748  20816754.78548
   -570443.01304  22566157.64104   -299291.87245  22566163.11345
   1246055.25906  23951134.14806    951767.28546  23951139.99646
    304004.51306  21740231.82806    227023.62447  21740236.08247
   1486987.19607  22951145.85207   1065619.06646  22951153.07446
 18  5 30  0 32 20.0000000  0 10  3 14 16 22 23 26 27 29 31 32
    281396.95006  23882064.60206     24617.53746  23882071.32846
    737864.04207  20833211.46907    536979.86047  20833215.99247
   -232345.76707  20673555.36707   -178737.13047  20673560.06647
    602122.40805  23839133.07005    469185.91446  23839138.76646
  -1499960.47906  24251777.71106   -966951.24346  24251781.35546
    521068.78406  20817962.56306    398204.67248  20817970.09048
   -586984.18204  22563010.84404   -312181.08445  22563018.10245
   1260491.62106  23953881.30506    963016.41146  23953886.67246
    307916.62706  21740976.41406    230072.02447  21740980.65647
   1504056.91707  22954394.46107   1078920.13846  22954402.28146
 18  5 30  0 32 25.0000000  0 10  3 14 16 22 23 26 27 29 31 32
    285429.83805  23882831.44505     27760.03546  23882838.65646
    746970.17307  20834944.27307    544075.54447  20834948.82047
   -233780.38607  20673282.40607   -179855.01247  20673287.05947
    609372.08505  23840513.06305    474835.01046  23840518.34846
  -1515739.93106  24248775.18806   -979246.93346  24248778.77346
    527470.59906  20819180.97706    403193.09648  20819188.56348
   -603512.64804  22559864.96104   -325060.45245  22559871.06645
   1274945.38006  23956631.71906    974279.08946  23956636.74646
    311839.13606  21741722.82006    233128.51947  21741727.12147
   1521141.25107  22957645.38307   1092232.59146  22957653.39146
 18  5 30  0 32 30.0000000  0 10  3 14 16 22 23 26 27 29 31 32
    289481.41005  23883601.57005     30917.10846  23883608.53546
    756097.75707  20836681.10907    551187.94347  20836685.71547
   -235195.80707  20673013.01607   -180957.93747  20673017.73847
    616635.86505  23841895.21105    480495.08646  23841900.62546
  -1531508.01706  24245774.45306   -991533.73746  24245777.74646
    533887.01506  20820402.06306    408192.90048  20820409.69548
   -620028.06804  22556723.01604   -337929.64645  22556729.75445
   1289416.89306  23959385.47706    985555.60046  23959390.31646
    315772.38306  21742471.38306    236193.38047  21742475.67247
   1538240.49107  22960899.25807   1105556.65446  22960907.44146
 18  5 30  0 32 35.0000000  0 10  3 14 16 22 23 26 27 29 31 32
    293551.23005  23884376.85905     34088.39346  23884384.70346
    765246.41607  20838422.14107    558316.76547  20838426.65247
   -236592.39707  20672747.26607   -182046.18547  20672752.07047
    623913.41605  23843279.53105    486165.90246  23843284.93446
  -1547265.14706  24242776.04706  -1003812.00946  24242779.01246
    540317.63106  20821625.76606    413203.76548  20821633.42248
   -636530.82604  22553582.73404   -350788.89145  22553588.68845
   1303905.75906  23962142.95306    996845.62046  23962147.52346
    319715.98707  21743221.71107    239266.31247  21743225.97747
   1555354.26306  22964156.07806   1118892.04946  22964164.19146
 18  5 30  0 32 40.0000000  0 10  3 14 16 22 23 26 27 29 31 32
    297639.68205  23885154.07005     37274.19346  23885161.83246
    774416.49907  20840167.32007    565462.27847  20840171.77347
   -237969.82107  20672485.18007   -183119.50447  20672490.02047
    631205.04605  23844666.89105    491847.68146  23844672.39846
  -1563010.95506  24239779.58606  -1016081.46346  24239782.57446
    546762.77406  20822852.29706    418225.95148  20822859.90648
   -653020.50904  22550444.64804   -363637.99345  22550450.26245
   1318412.28706  23964903.18006   1008149.40946  23964907.51646
    323670.28406  21743974.27306    242347.57547  21743978.53947
   1572482.91406  22967415.14106   1132239.03146  22967422.98446
 18  5 30  0 32 45.0000000  0 10  3 14 16 22 23 26 27 29 31 32
    301746.39205  23885936.54705     40474.19946  23885943.29746
    783607.66007  20841916.14107    572624.21847  20841920.50047
   -239328.41507  20672226.68007   -184178.15047  20672231.60247
    638510.37005  23846057.74205    497540.14446  23846063.23846
  -1578745.76706  24236785.92206  -1028342.34846  24236789.23846
    553222.09106  20824081.28106    423259.18248  20824088.90248
   -669497.50804  22547308.66404   -376477.19145  22547313.11745
   1332936.14106  23967666.84406   1019466.69946  23967671.42646
    327634.93706  21744728.61706    245436.91247  21744732.90647
   1589626.05707  22970677.66407   1145597.30946  22970685.69546
 18  5 30  0 32 50.0000000  0 10  3 14 16 22 23 26 27 29 31 32
    305871.33405  23886721.14805     43688.43446  23886727.53546
    792819.87807  20843669.39107    579802.56747  20843673.98447
   -240668.19207  20671971.48407   -185222.13347  20671976.24247
    645829.40305  23847450.21105    503243.27446  23847456.09446
  -1594469.56206  24233793.15606  -1040594.64946  24233795.99246
    559695.59106  20825313.23406    428303.46648  20825320.90248
   -685961.76504  22544176.06304   -389306.46245  22544182.34445
   1347477.29906  23970433.92206   1030797.46046  23970438.07046
    331609.93006  21745485.15606    248534.30647  21745489.43447
   1606783.70407  22973942.64807   1158966.89246  22973950.76246
 18  5 30  0 32 55.0000000  0 10  3 14 16 22 23 26 27 29 31 32
    310014.46705  23887509.53905     46916.83546  23887515.91446
    802053.11307  20845426.50007    586997.29047  20845431.28147
   -241989.20107  20671720.35207   -186251.48947  20671725.15647
    653162.11505  23848845.85905    508957.07046  23848851.29746
  -1610182.35406  24230803.14106  -1052838.38946  24230805.57846
    566183.20706  20826547.53106    433358.75148  20826555.19948
   -702413.32304  22541046.22704   -402125.86245  22541052.14545
   1362035.72406  23973203.98406   1042141.68946  23973208.89546
    335595.25606  21746243.45306    251639.75247  21746247.75447
   1623955.81607  22977210.52307   1172347.75146  22977218.95346
 18  5 30  0 33  0.0000000  0 10  3 14 16 22 23 26 27 29 31 32
    314176.12505  23888302.01605     50159.68046  23888308.34446
    811307.69407  20847187.25007    594208.64547  20847191.85547
   -243291.15207  20671472.53107   -187265.99547  20671477.25447
    660508.76105  23850243.85905    514681.72346  23850249.37946
  -1625883.81806  24227815.64806  -1065073.30146  24227818.39146
    572685.25706  20827785.04706    438425.28348  20827792.72748
   -718851.86005  22537918.36705   -414935.10945  22537923.53545
   1376611.71106  23975977.88306   1053499.59446  23975983.37946
    339591.21506  21747003.78106    254753.47747  21747008.11747
   1641142.66807  22980480.97707   1185740.08946  22980489.48846
 18  5 30  0 33  5.0000000  0 10  3 14 16 22 23 26 27 29 31 32
    318356.30505  23889096.78905     53416.96946  23889102.82446
    820583.65007  20848952.60207    601436.66447  20848957.33647
   -244574.00107  20671228.32007   -188265.61347  20671233.13747
    667869.36705  23851645.22705    520417.24246  23851651.18046
  -1641573.89306  24224829.57006  -1077299.32146  24224832.34846
    579201.77107  20829025.08607    443503.08348  20829032.77748
   -735277.32305  22534791.70305   -427734.19945  22534797.14145
   1391205.21906  23978755.15606   1064871.11746  23978761.08646
    343597.91206  21747766.25806    257875.57247  21747770.68847
   1658344.31207  22983754.35207   1199143.94846  22983763.30946
 18  5 30  0 33 10.0000000  0 10  3 14 16 22 23 26 27 29 31 32
    322553.95105  23889895.56305     56687.87646  23889902.05546
    829879.89307  20850721.70307    608680.48547  20850726.48447
   -245838.78607  20670987.74207   -189251.16147  20670992.52347
    675242.90605  23853047.04705    526162.85346  23853052.20346
  -1657253.66306  24221846.07806  -1089517.30546  24221848.91446
    585731.68007  20830267.58607    448591.32048  20830275.35948
   -751690.72904  22531668.51604   -440523.87045  22531674.83245
   1405815.24006  23981535.09406   1076255.53546  23981541.09446
    347614.35006  21748530.60906    261005.25847  21748535.06347
   1675559.66906  22987030.44506   1212558.49446  22987038.92246
 18  5 30  0 33 15.0000000  0 10  3 14 16 22 23 26 27 29 31 32
    326769.86005  23890697.75805     59973.01546  23890704.49646
    839197.20207  20852494.43007    615940.72447  20852499.10547
   -247084.74707  20670750.60207   -190222.03847  20670755.35947
    682630.13305  23854453.29705    531919.13546  23854458.69946
  -1672922.30206  24218864.25806  -1101726.63046  24218866.70746
    592275.73907  20831512.77307    453690.58748  20831520.58248
   -768091.29304  22528546.57004   -453303.52045  22528552.04345
   1420442.54506  23984318.68806   1087653.44846  23984324.82846
    351641.18106  21749296.78106    264143.04247  21749301.15247
   1692789.49906  22990308.86706   1225984.32746  22990317.33246
 18  5 30  0 33 20.0000000  0 10  3 14 16 22 23 26 27 29 31 32
    331004.48305  23891503.41405     63272.70346  23891510.21146
    848536.02707  20854271.58607    623217.72647  20854276.03947
   -248311.46307  20670517.07807   -191177.91647  20670521.83647
    690031.49105  23855861.30505    537686.41146  23855867.04746
  -1688579.34706  24215884.57006  -1113926.92646  24215886.97346
    598834.43907  20832761.04707    458801.25848  20832768.90248
   -784478.55704  22525428.58604   -466072.78845  22525434.30545
   1435087.63006  23987105.27306   1099065.18646  23987110.64146
    355678.85406  21750065.33606    267289.27747  21750069.57847
   1710034.28306  22993590.95306   1239421.80246  22993599.46546
 18  5 30  0 33 25.0000000  0 10  3 14 16 22 23 26 27 29 31 32
    335257.40405  23892312.73405     66586.64146  23892319.42646
    857896.00007  20856053.01607    630511.20547  20856057.56347
   -249519.25907  20670287.36707   -192119.05447  20670292.17247
    697446.65105  23857272.93805    543464.45646  23857278.92646
  -1704225.10106  24212907.61706  -1126118.41446  24212909.76246
    605407.37307  20834011.81307    463923.02348  20834019.68048
   -800852.82904  22522312.89104   -478831.95045  22522316.78145
   1449750.07106  23989896.08606   1110490.45346  23989901.67646
    359727.05306  21750835.61706    270443.71447  21750839.95347
   1727293.64106  22996875.12506   1252870.63946  22996883.64846
 18  5 30  0 33 30.0000000  0 10  3 14 16 22 23 26 27 29 31 32
    339527.94405  23893125.64805     69914.30046  23893133.28146
    867276.43907  20857837.91407    637820.63447  20857842.13347
   -250708.84407  20670061.01607   -193046.00447  20670066.02047
    704874.85305  23858686.43005    549252.66046  23858692.47746
  -1719860.26606  24209932.55506  -1138301.66146  24209934.91046
    611993.84307  20835265.18007    469055.33548  20835273.05948
   -817214.86503  22519199.10903   -491581.60445  22519203.57445
   1464429.20106  23992689.19506   1121928.72246  23992694.68046
    363785.06006  21751607.72706    273605.79647  21751612.14547
   1744566.81207  23000162.29707   1266330.23746  23000170.71546
 18  5 30  0 33 35.0000000  0 10  3 14 16 22 23 26 27 29 31 32
    343815.79705  23893941.75805     73255.48146  23893949.15646
    876677.08407  20859626.83607    645145.80847  20859630.98447
   -251880.48607  20669838.13307   -193958.97147  20669842.94947
    712315.81105  23860102.35905    555050.81146  23860108.13746
  -1735485.18706  24206958.63306  -1150476.94146  24206961.49246
    618593.55807  20836520.91407    474197.96848  20836528.74648
   -833564.86903  22516087.36703   -504321.86445  22516092.81645
   1479124.70306  23995486.35206   1133379.75746  23995491.26246
    367852.52506  21752381.74206    276775.24347  21752386.03147
   1761853.57707  23003451.68007   1279800.43246  23003460.14546
 18  5 30  0 33 40.0000000  0 10  3 14 16 22 23 26 27 29 31 32
    348121.41705  23894761.55505     76610.49946  23894768.23446
    886098.34307  20861419.55507    652487.04547  20861423.75047
   -253033.74107  20669618.68807   -194857.61647  20669623.50447
    719769.96005  23861521.01605    560859.23546  23861527.49646
  -1751099.38806  24203987.54706  -1162643.86146  24203989.64546
    625206.97707  20837779.53907    479351.28048  20837787.23048
   -849902.41903  22512979.03103   -517052.41645  22512984.31645
   1493837.01406  23998285.70306   1144843.90346  23998290.67246
    371930.03806  21753157.60206    279952.51547  21753161.91447
   1779154.32707  23006743.89807   1293281.51846  23006752.46946
 18  5 30  0 33 45.0000000  0 10  3 14 16 22 23 26 27 29 31 32
    352445.02505  23895584.05505     79979.52646  23895590.14846
    895540.44507  20863216.11707    659844.52547  20863220.39547
   -254168.41907  20669402.66407   -195741.78347  20669407.42247
    727237.54305  23862941.53105    566678.12646  23862947.64846
  -1766702.59706  24201018.48406  -1174802.19846  24201020.26646
    631834.29607  20839040.64107    484515.42148  20839048.25048
   -866227.20504  22509872.24204   -529773.04445  22509878.46545
   1508566.33306  24001088.02306   1156321.28746  24001092.96946
    376017.79506  21753935.52306    283137.77347  21753939.75447
   1796469.31307  23010038.96107   1306773.69946  23010047.29746
 18  5 30  0 33 50.0000000  0 10  3 14 16 22 23 26 27 29 31 32
    356786.77005  23896410.24205     83362.70246  23896416.82846
    905003.55807  20865017.07007    667218.37547  20865021.34847
   -255284.36807  20669190.29707   -196611.35047  20669194.96147
    734718.67205  23864365.57805    572507.56746  23864371.36746
  -1782294.63606  24198050.98406  -1186951.79646  24198052.52046
    638475.69807  20840304.53107    489690.53948  20840311.97748
   -882539.13804  22506768.73404   -542483.63145  22506775.01645
   1523312.87205  24003894.33605   1167812.09246  24003899.56346
    380116.00806  21754715.39106    286331.18547  21754719.72747
   1813798.66507  23013336.65607   1320277.07646  23013345.00446
 18  5 30  0 33 55.0000000  0 10  3 14 16 22 23 26 27 29 31 32
    361146.42805  23897240.16405     86759.84746  23897246.43446
    914487.41007  20866821.78907    674608.38547  20866826.33647
   -256381.80607  20668981.59407   -197466.49647  20668986.36347
    742213.11905  23865792.09405    578347.39046  23865798.32846
  -1797875.78806  24195086.03906  -1199092.92646  24195087.73846
    645130.90006  20841570.94506    494876.40948  20841578.32048
   -898838.37104  22503666.43804   -555184.31845  22503671.95745
   1538076.31305  24006703.74205   1179316.07346  24006709.32046
    384224.42306  21755497.14806    289532.54747  21755501.61347
   1831142.13107  23016636.73407   1333791.45146  23016644.94146
 18  5 30  0 34  0.0000000  0 10  3 14 16 22 23 26 27 29 31 32
    365523.35405  23898072.60205     90170.43846  23898078.94146
    923991.42407  20868630.15607    682014.10947  20868634.87947
   -257461.35907  20668776.00007   -198307.70647  20668780.64147
    749720.25505  23867220.43805    584197.10046  23867226.05146
  -1813446.59006  24192123.26606  -1211226.00446  24192124.47346
    651799.29506  20842839.82006    500072.56048  20842847.21948
   -915125.56604  22500567.53904   -567875.60845  22500571.91045
   1552856.03605  24009516.21105   1190832.72846  24009522.38746
    388342.38106  21756280.93806    292741.34247  21756285.46147
   1848499.10106  23019939.71106   1347316.34846  23019947.83646
 18  5 30  0 34  5.0000000  0 10  3 14 16 22 23 26 27 29 31 32
    369917.76805  23898909.01605     93594.67046  23898915.00446
    933515.85207  20870442.60207    689435.73747  20870447.53547
   -258522.79807  20668574.14807   -199134.79847  20668578.81347
    757240.31605  23868651.57005    590056.89446  23868657.54746
  -1829006.79406  24189162.42206  -1223350.82946  24189163.92246
    658481.12107  20844111.39807    505279.17548  20844118.83248
   -931400.40704  22497470.38304   -580557.28545  22497477.07445
   1567652.27906  24012331.78106   1202362.26446  24012338.18046
    392470.16406  21757066.32806    295957.79147  21757070.95747
   1865869.81406  23023245.39806   1360851.94646  23023253.33646
 18  5 30  0 34 10.0000000  0 10  3 14 16 22 23 26 27 29 31 32
    374329.43605  23899748.53105     97032.31146  23899755.63746
    943060.37707  20872258.89807    696873.02647  20872263.97347
   -259566.37307  20668375.54707   -199947.97347  20668380.27047
    764773.05105  23870085.00005    595926.55246  23870090.53146
  -1844556.66406  24186203.17206  -1235467.61446  24186204.77746
    665176.09907  20845385.48407    510496.03848  20845392.91848
   -947663.16604  22494375.87504   -593229.56545  22494381.78145
   1582464.75706  24015150.41406   1213904.44946  24015155.84046
    396607.51306  21757853.54706    299181.69147  21757858.24647
   1883253.95906  23026553.41406   1374398.01646  23026561.57446
 18  5 30  0 34 15.0000000  0 10  3 14 16 22 23 26 27 29 31 32
    378758.77005  23900591.49205    100483.71646  23900599.13746
    952625.48507  20874079.06307    704326.35247  20874084.20747
   -260591.61007  20668180.36707   -200746.86047  20668185.26647
    772318.88705  23871520.59405    601806.41246  23871526.68846
  -1860095.73606  24183246.08606  -1247575.98146  24183248.04346
    671884.69707  20846662.25007    515723.51348  20846669.70748
   -963913.39204  22491283.60204   -605892.08645  22491288.85245
   1597293.97506  24017972.28106   1225459.67046  24017978.71546
    400754.90806  21758642.88306    302413.42347  21758647.59447
   1900652.02006  23029864.35206   1387954.92746  23029872.24246
 18  5 30  0 34 20.0000000  0 10  3 14 16 22 23 26 27 29 31 32
    383206.19405  23901437.81305    103949.24146  23901445.79746
    962211.55207  20875903.12507    711796.00747  20875908.28147
   -261598.17507  20667988.85207   -201531.19547  20667993.71547
    779878.19105  23872958.80505    607696.76346  23872964.32446
  -1875623.56706  24180291.45306  -1259675.57946  24180292.61346
    678607.29606  20847941.40606    520961.90148  20847948.84048
   -980150.60703  22488192.46103   -618544.48845  22488198.34445
   1612140.28806  24020797.57006   1237028.21346  24020803.65246
    404912.73706  21759434.16406    305653.29047  21759438.75847
   1918064.38107  23033177.73407   1401522.98946  23033185.56646
 18  5 30  0 34 25.0000000  0 10  3 14 16 22 23 26 27 29 31 32
    387670.41105  23902287.36705    107427.84946  23902295.34046
    971817.29707  20877731.24207    719281.00147  20877736.65647
   -262587.30607  20667800.65607   -202301.94647  20667805.34447
    787449.72005  23874400.03905    613596.65146  23874405.93446
  -1891141.44706  24177338.49206  -1271767.43146  24177340.09846
    685342.59606  20849223.04706    526210.18448  20849230.42248
   -996376.14503  22485104.43003   -631187.75145  22485109.65645
   1627002.40005  24023625.11705   1248609.06446  24023631.22346
    409079.72306  21760227.13306    308900.28847  21760231.66847
   1935489.74907  23036493.45307   1415101.17846  23036501.29746
 18  5 30  0 34 30.0000000  0 10  3 14 16 22 23 26 27 29 31 32
    392152.37205  23903140.48405    110920.27946  23903148.42246
    981443.71407  20879562.81307    726782.10147  20879568.39147
   -263558.04907  20667615.93007   -203058.37047  20667620.72347
    795034.40205  23875843.79705    619506.79146  23875849.45746
  -1906648.39406  24174387.83606  -1283850.77546  24174389.84046
    692091.59306  20850507.48406    531469.14548  20850514.81348
  -1012588.94603  22482019.54703   -643821.11545  22482023.56645
   1641881.27005  24026457.20305   1260202.97246  24026463.94146
    413256.85406  21761021.90606    312155.19347  21761026.38347
   1952929.11206  23039811.97706   1428690.27746  23039819.87946
 18  5 30  0 34 35.0000000  0 10  3 14 16 22 23 26 27 29 31 32
    396652.02605  23903996.13305    114426.51146  23904004.11746
    991090.70407  20881398.68807    734299.23147  20881404.31347
   -264510.49907  20667434.60207   -203800.53847  20667439.41847
    802632.13406  23877289.27306    625427.10246  23877294.82846
  -1922144.47006  24171438.68006  -1295925.64346  24171440.63746
    698854.17706  20851794.34406    536738.69148  20851801.76648
  -1028789.13203  22478936.36703   -656444.61145  22478943.68445
   1656776.81105  24029291.42205   1271809.87446  24029297.05946
    417444.02406  21761818.75806    315417.91947  21761823.21147
   1970382.35906  23043133.34406   1442290.20146  23043141.21146
 18  5 30  0 34 40.0000000  0 10  3 14 16 22 23 26 27 29 31 32
    401168.84205  23904855.60905    117946.10046  23904864.29746
   1000757.74407  20883238.37507    741831.98647  20883243.89547
   -265445.14807  20667256.80507   -204528.83547  20667261.60947
    810242.45006  23878737.47706    631357.22146  23878742.98446
  -1937630.16706  24168491.93006  -1307992.42146  24168493.54746
    705629.85606  20853083.81306    542018.43848  20853091.29348
  -1044977.14603  22475856.93003   -669058.60545  22475865.09045
   1671688.53305  24032129.20305   1283429.40346  24032135.40246
    421640.77206  21762617.28906    318688.11147  21762621.68447
   1987848.97606  23046457.07006   1455900.53246  23046465.19546
 18  5 30  0 34 45.0000000  0 10  3 14 16 22 23 26 27 29 31 32
    405703.19005  23905718.13305    121479.35646  23905726.63346
   1010445.25407  20885081.75007    749380.69047  20885087.04747
   -266361.60507  20667082.46107   -205242.95647  20667087.21947
    817865.70005  23880187.93005    637297.42546  23880193.37946
  -1953105.04106  24165547.43006  -1320050.75546  24165548.39146
    712419.00306  20854375.61706    547308.67948  20854383.18048
  -1061152.63203  22472779.10203   -681662.87245  22472784.68045
   1686616.80106  24034969.59406   1295061.81246  24034976.09846
    425847.47106  21763417.76606    321966.05947  21763422.16047
   2005329.34706  23049783.68806   1469521.57946  23049791.80146
 18  5 30  0 34 50.0000000  0 10  3 14 16 22 23 26 27 29 31 32
    410255.02505  23906584.47705    125026.24546  23906592.70746
   1020153.19007  20886929.18807    756945.30647  20886934.59047
   -267259.94607  20666911.52307   -205942.96447  20666916.19947
    825501.81105  23881641.22705    643247.63046  23881647.18046
  -1968569.14006  24162604.60906  -1332100.68146  24162606.00446
    719221.55306  20855670.03906    552609.36648  20855677.64848
  -1077315.56203  22469702.42203   -694257.36245  22469708.08245
   1701561.57606  24037814.00006   1306707.07846  24037820.44546
    430064.12206  21764220.17206    325251.76147  21764224.59047
   2022823.42006  23053112.62506   1483153.30546  23053120.73846
 18  5 30  0 34 55.0000000  0 10  3 14 16 22 23 26 27 29 31 32
    414824.90705  23907454.38305    128587.19246  23907462.56646
   1029882.07907  20888780.48407    764526.25747  20888786.01647
   -268139.57807  20666744.16407   -206628.39447  20666748.77047
    833151.40705  23883097.25005    649208.34746  23883103.00446
  -1984021.92006  24159663.95306  -1344141.79646  24159665.68846
    726038.06606  20856967.22706    557920.93348  20856974.76648
  -1093465.41903  22466630.23403   -706841.64145  22466637.44545
   1716523.39506  24040661.20306   1318365.62146  24040668.03546
    434291.25906  21765024.63306    328545.63547  21765029.20347
   2040331.72806  23056444.30506   1496796.12646  23056452.39546
 18  5 30  0 35  0.0000000  0 10  3 14 16 22 23 26 27 29 31 32
    419412.39905  23908327.30505    132161.85646  23908334.73846
   1039631.49007  20890635.57007    772123.19347  20890640.99647
   -269000.96607  20666580.00807   -207299.60547  20666584.48447
    840813.99105  23884555.13305    655179.18546  23884560.07846
  -1999463.78206  24156725.21906  -1356174.40746  24156728.14846
    732868.10406  20858266.89106    563243.03948  20858274.37148
  -1109602.59304  22463559.50004   -719416.03745  22463567.13345
   1731501.78406  24043511.62506   1330037.06746  24043517.95346
    438528.44206  21765830.68006    331847.33547  21765835.30947
   2057853.84106  23059778.66406   1510449.71646  23059786.61346
 18  5 30  0 35  5.0000000  0 10  3 14 16 22 23 26 27 29 31 32
    424016.25005  23909203.55505    135749.27646  23909211.44546
   1049400.21407  20892494.57807    779735.17947  20892500.14547
   -269845.33107  20666419.53107   -207957.55047  20666424.26647
    848488.31405  23886015.48405    661159.17446  23886020.68846
  -2014895.93106  24153788.58606  -1368199.46046  24153790.66046
    739710.44506  20859568.92206    568574.73148  20859576.43848
  -1125728.26204  22460491.11704   -731981.47745  22460497.69145
   1746495.56306  24046364.43006   1341720.51546  24046370.34846
    442774.49607  21766638.90607    335155.94347  21766643.68847
   2075388.54306  23063115.68806   1524113.09946  23063123.70746
 18  5 30  0 35 10.0000000  0 10  3 14 16 22 23 26 27 29 31 32
    428636.96405  23910082.74205    139349.83446  23910090.17646
   1059188.69907  20894357.10907    787362.56647  20894362.55947
   -270672.13607  20666262.07007   -208601.81847  20666266.94547
    856174.89105  23887478.13305    667148.70946  23887483.35946
  -2030317.88706  24150853.68006  -1380216.57646  24150855.50846
    746565.58106  20860873.61706    573916.39648  20860881.16848
  -1141841.95804  22457424.14804   -744537.59145  22457431.25445
   1761505.22206  24049221.16406   1353416.35246  24049226.63746
    447029.92507  21767448.70307    338471.85647  21767453.53147
   2092936.32006  23066454.60206   1537786.67946  23066462.69146
 18  5 30  0 35 15.0000000  0 10  3 14 16 22 23 26 27 29 31 32
    433275.09205  23910965.84405    142963.95846  23910973.92246
   1068997.49607  20896223.88307    795005.77947  20896229.37947
   -271480.92207  20666108.32807   -209232.03947  20666113.32047
    863874.25805  23888943.14105    673148.21246  23888947.46546
  -2045729.11306  24147920.99206  -1392225.32346  24147922.93846
    753434.00506  20862180.50806    579268.41448  20862188.01248
  -1157943.11304  22454360.68804   -757083.97845  22454367.86345
   1776531.25606  24052080.43806   1365124.96046  24052086.19146
    451295.21207  21768260.23407    341795.45347  21768265.01647
   2110497.67306  23069796.87506   1551470.83046  23069804.73046
 18  5 30  0 35 20.0000000  0 10  3 14 16 22 23 26 27 29 31 32
    437930.26605  23911850.84405    146591.35946  23911859.06346
   1078826.28907  20898093.97707    802664.57447  20898099.63747
   -272271.97207  20665957.61707   -209848.44347  20665962.56347
    871586.08705  23890410.60905    679157.43146  23890414.94546
  -2061129.86406  24144990.64806  -1404225.89246  24144993.03946
    760315.43106  20863489.96106    584630.56148  20863497.46548
  -1174032.03504  22451298.49204   -769620.78445  22451305.77345
   1791573.36806  24054942.97706   1376846.08046  24054949.04746
    455570.07007  21769073.68807    345126.51247  21769078.56347
   2128072.28306  23073141.00806   1565165.31446  23073149.20346
 18  5 30  0 35 25.0000000  0 10  3 14 16 22 23 26 27 29 31 32
    442602.76105  23912740.60205    150232.25246  23912749.43046
   1088675.32807  20899968.39807    810339.14147  20899974.30547
   -273045.03107  20665810.64807   -210450.82947  20665815.55947
    879310.63505  23891880.52305    685176.56346  23891884.64846
  -2076519.86206  24142061.52306  -1416218.09046  24142063.63346
    767210.11006  20864801.89106    590003.03648  20864809.44148
  -1190108.43104  22448239.47704   -782147.84545  22448247.93045
   1806631.77406  24057808.28906   1388579.88746  24057814.26646
    459854.76607  21769889.19507    348465.22947  21769894.19947
   2145660.42306  23076487.89106   1578870.34946  23076496.09846
 18  5 30  0 35 30.0000000  0 10  3 14 16 22 23 26 27 29 31 32
    447292.12905  23913633.20305    153886.29746  23913641.85546
   1098544.17107  20901846.19507    818029.14147  20901852.16047
   -273800.57007  20665666.79707   -211039.55947  20665671.73047
    887047.43405  23893352.50005    691205.25146  23893357.19946
  -2091899.59706  24139134.98406  -1428202.30146  24139136.16846
    774117.57106  20866116.39106    595385.47248  20866123.95348
  -1206172.73003  22445182.63303   -794665.46845  22445188.94945
   1821706.02706  24060677.02306   1400326.05446  24060682.89546
    464148.81506  21770706.21106    351811.23447  21770711.20347
   2163261.62806  23079837.26606   1592585.56046  23079845.53146
 18  5 30  0 35 35.0000000  0 10  3 14 16 22 23 26 27 29 31 32
    451998.61905  23914528.25805    157553.70146  23914536.72346
   1108433.12907  20903728.28107    825734.82247  20903734.16447
   -274538.30007  20665526.32807   -211614.41547  20665531.28547
    894796.70305  23894827.41405    697243.63846  23894831.15246
  -2107268.72806  24136210.34406  -1440178.23646  24136211.14146
    781038.08606  20867433.34406    600778.07948  20867440.97748
  -1222224.65503  22442127.66403   -807173.45945  22442134.23845
   1836796.45006  24063548.84406   1412084.81846  24063554.66846
    468452.55507  21771525.13307    355164.79347  21771530.02047
   2180876.14806  23083189.07806   1606311.15246  23083197.39146
 18  5 30  0 35 40.0000000  0 10  3 14 16 22 23 26 27 29 31 32
    456722.22805  23915427.46905    161234.44146  23915436.52046
   1118342.12607  20905613.53907    833456.10947  20905619.50447
   -275258.23407  20665389.32807   -212175.40647  20665394.39147
    902558.45105  23896304.60205    703291.73046  23896308.94946
  -2122627.31106  24133287.71906  -1452145.95046  24133289.06646
    787971.62006  20868752.75806    606180.83148  20868760.43848
  -1238264.25104  22439075.98404   -819671.82645  22439082.26645
   1851902.93106  24066423.22706   1423856.11446  24066428.88746
    472765.96107  21772346.04707    358525.88247  21772350.95747
   2198503.97106  23086543.66406   1620047.08946  23086552.01246
 18  5 30  0 35 45.0000000  0 10  3 14 16 22 23 26 27 29 31 32
    461462.81505  23916329.71905    164928.40446  23916339.27346
   1128271.09307  20907503.08607    841192.95647  20907509.10947
   -275960.50907  20665255.73407   -212722.63447  20665260.89147
    910332.54205  23897784.12505    709349.45946  23897788.85946
  -2137975.40606  24130367.09406  -1464105.50146  24130367.92646
    794918.06006  20870074.81306    611593.63948  20870082.44548
  -1254291.53304  22436027.12504   -832160.62845  22436033.78145
   1867025.33906  24069301.27306   1435639.81446  24069306.55946
    477088.96007  21773168.53107    361894.44647  21773173.51247
   2216144.95006  23089900.85906   1633793.27746  23089908.99646
 18  5 30  0 35 50.0000000  0 10  3 14 16 22 23 26 27 29 31 32
    466220.17105  23917235.21105    168635.43746  23917244.64846
   1138219.79607  20909396.32807    848945.18547  20909402.09447
   -276645.34407  20665125.14807   -213256.27147  20665130.37547
    918118.66905  23899265.28105    715416.57646  23899269.87546
  -2153313.20506  24127448.73406  -1476057.02946  24127449.21546
    801877.19106  20871398.98406    617016.33548  20871406.67648
  -1270306.75604  22432978.89804   -844640.04245  22432986.23845
   1882163.47306  24072181.68806   1447435.76646  24072187.59446
    481421.32507  21773993.13307    365270.30947  21773997.98447
   2233798.89106  23093260.17206   1647549.57346  23093268.14546
 18  5 30  0 35 55.0000000  0 10  3 14 16 22 23 26 27 29 31 32
    470994.16205  23918142.78105    172355.42946  23918152.53546
   1148188.11807  20911293.36707    856712.70247  20911299.15647
   -277312.77007  20664998.21107   -213776.34547  20665003.49647
    925916.78105  23900749.28905    721493.02046  23900753.68446
  -2168640.83706  24124531.81306  -1488000.62446  24124532.89146
    808848.90906  20872725.46906    622448.83848  20872733.06648
  -1286309.96604  22429932.41404   -857110.10545  22429938.22745
   1897317.21306  24075065.33606   1459243.86846  24075071.27746
    485762.93007  21774819.44507    368653.37947  21774824.27347
   2251465.66006  23096622.16406   1661315.87946  23096629.90246
 18  5 30  0 36  0.0000000  0 10  3 14 16 22 23 26 27 29 31 32
    475784.67805  23919054.69505    176088.28246  23919064.41446
   1158175.91007  20913193.75007    864495.38947  20913199.48047
   -277963.01307  20664874.68007   -214283.02647  20664880.11747
    933726.84205  23902235.57005    727578.77446  23902240.12946
  -2183958.41906  24121616.97706  -1499936.38746  24121618.58246
    815833.05006  20874054.79706    627891.02648  20874062.30148
  -1302301.34404  22426890.19504   -869570.91045  22426897.35945
   1912486.42706  24077952.12506   1471064.01246  24077957.97346
    490113.66207  21775647.14807    372043.56247  21775652.04747
   2269145.14106  23099986.50006   1675092.09246  23099994.66046
 18  5 30  0 36  5.0000000  0 10  3 14 16 22 23 26 27 29 31 32
    480592.47605  23919969.61705    179834.61046  23919979.59446
   1168184.01307  20915098.36707    872293.90847  20915104.09847
   -278595.29307  20664754.31307   -214775.71647  20664759.65647
    941549.54605  23903724.32805    733674.38046  23903728.66446
  -2199265.14306  24118704.32006  -1511863.70446  24118705.92646
    822830.40306  20875386.18806    633343.50648  20875393.71548
  -1318280.03704  22423849.60904   -882021.83145  22423857.65245
   1927671.90206  24080842.08606   1482896.84146  24080847.65246
    494474.30108  21776477.12508    375441.45947  21776482.00047
   2286838.09106  23103353.09406   1688878.78746  23103361.20746
 18  5 30  0 36 10.0000000  0 10  3 14 16 22 23 26 27 29 31 32
    485418.11805  23920887.78105    183594.84946  23920898.03946
   1178212.95607  20917006.98407    880108.66747  20917012.36347
   -279209.00107  20664637.45307   -215253.93747  20664642.85547
    949385.51005  23905214.63305    739780.32446  23905218.92246
  -2214560.36806  24115793.69506  -1523782.05546  24115794.63346
    829841.53706  20876720.34406    638806.72248  20876727.81348
  -1334245.47504  22420811.07804   -894462.43045  22420819.34445
   1942874.20106  24083734.93806   1494742.78146  24083740.53946
    498845.45207  21777309.05507    378847.54647  21777313.95347
   2304545.07506  23106722.93806   1702676.41346  23106730.96946
 18  5 30  0 36 15.0000000  0 10  3 14 16 22 23 26 27 29 31 32
    490260.30105  23921808.93805    187367.97946  23921818.23446
   1188261.41007  20918918.85907    887938.62747  20918924.13347
   -279805.47407  20664523.93007   -215718.72547  20664529.23847
    957233.37305  23906708.61705    745895.54446  23906712.64846
  -2229845.45006  24112885.03906  -1535692.51946  24112886.05946
    836865.13606  20878056.81306    644279.65548  20878064.19948
  -1350198.89705  22417775.15605   -906893.63445  22417783.59845
   1958092.00106  24086630.80506   1506600.79346  24086636.03146
    503225.81307  21778142.46907    382260.80947  21778147.40247
   2322264.77206  23110094.72706   1716483.94946  23110102.68846
 18  5 30  0 36 20.0000000  0 10  3 14 16 22 23 26 27 29 31 32
    495119.11905  23922733.68805    191154.06546  23922742.87946
   1198329.47307  20920835.31307    895783.86847  20920840.49247
   -280384.62407  20664413.75807   -216170.01147  20664419.05547
    965093.19805  23908204.10205    752020.05746  23908208.71946
  -2245120.26006  24109978.11706  -1547594.97746  24109979.47746
    843901.27106  20879395.84406    649762.35048  20879403.19548
  -1366140.30005  22414742.45305   -919315.50245  22414751.39845
   1973325.35306  24089529.21106   1518470.91946  24089534.80146
    507615.44707  21778977.92207    385681.30147  21778982.78547
   2339997.27006  23113468.93806   1730301.45646  23113476.39546
 18  5 30  0 36 25.0000000  0 10  3 14 16 22 23 26 27 29 31 32
    499995.29705  23923662.28105    194953.67146  23923671.60246
   1208417.89207  20922754.70307    903644.96647  20922759.82447
   -280945.66407  20664307.10207   -216607.18547  20664312.31647
    972965.76505  23909702.50005    758154.52346  23909708.11346
  -2260384.01806  24107073.68006  -1559488.81946  24107074.99246
    850950.69206  20880737.31306    655255.39848  20880744.71148
  -1382068.83705  22411710.85205   -931727.38545  22411718.00445
   1988575.03306  24092431.32806   1530353.76646  24092436.28546
    512015.12406  21779814.96906    389109.61947  21779819.73847
   2357743.29006  23116846.05506   1744129.50546  23116853.66446
 18  5 30  0 36 30.0000000  0 10  3 14 16 22 23 26 27 29 31 32
    504887.74005  23924593.20305    198765.94846  23924602.44146
   1218525.58907  20924678.03907    911521.08647  20924683.02047
   -281489.73207  20664203.50007   -217031.13247  20664208.76247
    980849.94605  23911202.30505    764298.03345  23911207.70745
  -2275637.78606  24104171.05506  -1571374.86046  24104172.26246
    858012.34406  20882081.10906    660757.98448  20882088.55548
  -1397985.59004  22408681.75804   -944130.05545  22408689.98845
   2003839.89806  24095336.27306   1542248.46146  24095341.38346
    516423.83907  21780654.04707    392544.97947  21780658.82847
   2375501.78406  23120225.62506   1757967.27946  23120233.73846
 18  5 30  0 36 35.0000000  0 10  3 14 16 22 23 26 27 29 31 32
    509796.97805  23925527.23405    202591.32746  23925536.36746
   1228653.06807  20926605.37507    919412.62347  20926610.42647
   -282016.30807  20664103.37507   -217441.45047  20664108.56647
    988746.22605  23912704.76605    770450.95946  23912709.47746
  -2290881.08206  24101270.09406  -1583252.73246  24101271.88746
    865086.68406  20883427.25806    666270.45348  20883434.78548
  -1413890.05603  22405654.49203   -956523.15045  22405662.14845
   2019120.41106  24098244.11706   1554155.35846  24098249.28546
    520842.11007  21781494.64807    395987.78847  21781499.50047
   2393273.22506  23123607.39106   1771815.13746  23123615.94946
 18  5 30  0 36 40.0000000  0 10  3 14 16 22 23 26 27 29 31 32
    514722.92705  23926464.28905    206429.73546  23926473.50446
   1238800.27507  20928536.43007    927319.53747  20928541.66847
   -282525.46607  20664006.53107   -217838.19847  20664011.71147
    996654.57005  23914210.13305    776613.29746  23914215.06646
  -2306113.95806  24098371.21106  -1595122.49246  24098373.46146
    872173.67206  20884775.93806    671792.77648  20884783.47748
  -1429782.27703  22402630.04703   -968906.70645  22402637.86745
   2034416.63206  24101154.64806   1566074.49446  24101159.31346
    525269.78807  21782337.35207    399437.92247  21782342.13347
   2411057.56306  23126991.78906   1785673.04146  23127000.30146
 18  5 30  0 36 45.0000000  0 10  3 14 16 22 23 26 27 29 31 32
    519665.71705  23927404.90605    210281.25446  23927414.61346
   1248967.36907  20930471.18007    935241.94647  20930476.38347
   -283017.05307  20663913.04707   -218221.25747  20663918.36747
   1004575.10605  23915716.79705    782785.14346  23915722.14146
  -2321336.21506  24095474.43806  -1606983.98046  24095476.71146
    879273.44606  20886126.89806    677325.06448  20886134.34448
  -1445661.99803  22399609.20303   -981280.49845  22399617.78545
   2049728.70206  24104068.44506   1578005.96846  24104073.84846
    529707.11707  21783181.75007    402895.57547  21783186.52047
   2428854.92706  23130378.63306   1799541.09346  23130386.98046
 18  5 30  0 36 50.0000000  0 10  3 14 16 22 23 26 27 29 31 32
    524624.60605  23928348.75005    214145.32846  23928357.94146
   1259153.55207  20932409.56307    943179.22047  20932414.74247
   -283491.81207  20663822.64107   -218591.19847  20663828.04347
   1012507.04705  23917226.09405    788965.86246  23917231.20346
  -2336548.60106  24092579.34406  -1618837.80046  24092582.15646
    886385.23506  20887480.43006    682866.71048  20887487.89848
  -1461530.12703  22396588.74203   -993645.25245  22396597.05545
   2065055.82006  24106985.25006   1589949.17046  24106990.39546
    534153.29507  21784027.91407    406360.12347  21784032.81347
   2446664.53506  23133767.02306   1813418.69346  23133775.18446
 18  5 30  0 36 55.0000000  0 10  3 14 16 22 23 26 27 29 31 32
    529600.08405  23929295.55505    218022.31146  23929304.69946
   1269359.37207  20934351.71107    951131.79947  20934356.91447
   -283949.23207  20663735.59407   -218947.63247  20663741.18447
   1020451.00905  23918738.46905    795155.96646  23918744.01246
  -2351750.54406  24089686.96106  -1630683.49046  24089690.38346
    893509.57206  20888836.07806    688418.13848  20888843.62948
  -1477385.96003  22393572.06303  -1006000.44245  22393581.92245
   2080398.52006  24109905.30506   1601904.50246  24109911.03546
    538608.82007  21784875.71907    409831.95147  21784880.58247
   2464486.93906  23137159.21906   1827306.26946  23137167.05146
 18  5 30  0 37  0.0000000  0 10  3 14 16 22 23 26 27 29 31 32
    534591.61905  23930245.53905    221911.81746  23930255.18846
   1279584.21607  20936297.57007    959099.20247  20936302.64547
   -284389.91307  20663651.72707   -219291.02147  20663657.25847
   1028406.32405  23920251.89105    801354.89746  23920257.41046
  -2366942.67306  24086795.90606  -1642521.50546  24086798.82446
    900645.86206  20890193.97706    693978.88148  20890201.57448
  -1493230.12103  22390556.39803  -1018346.51845  22390565.55545
   2095756.18506  24112827.23406   1613871.50446  24112833.21146
    543073.10406  21785725.36706    413310.60647  21785730.19547
   2482321.53006  23140552.72706   1841203.33346  23140560.88746
 18  5 30  0 37  5.0000000  0 10  3 14 16 22 23 26 27 29 31 32
    539599.94105  23931198.40605    225814.39546  23931208.23046
   1289828.89207  20938247.02307    967082.06247  20938252.02747
   -284813.06707  20663571.27307   -219620.75547  20663576.66447
   1036373.73505  23921768.18805    807563.27146  23921773.44946
  -2382124.18706  24083906.64106  -1654351.24046  24083909.33646
    907794.87806  20891554.41406    699549.54348  20891562.01248
  -1509061.87603  22387544.81303  -1030682.96245  22387553.50045
   2111129.54706  24115752.76606   1625850.73446  24115758.47346
    547546.93507  21786576.67207    416796.70047  21786581.43047
   2500169.07806  23143949.11706   1855110.49246  23143957.14846
 18  5 30  0 37 10.0000000  0 10  3 14 16 22 23 26 27 29 31 32
    544625.30205  23932154.71105    229730.25546  23932164.58246
   1300093.65607  20940200.39107    975080.57447  20940205.30147
   -285218.46007  20663494.00807   -219936.64447  20663499.27047
   1044353.55005  23923287.14805    813781.28546  23923293.07846
  -2397294.79406  24081020.23406  -1666172.49346  24081022.96546
    914956.87606  20892917.43806    705130.32048  20892925.03548
  -1524880.83704  22384534.38304  -1043009.42745  22384544.47745
   2126518.90706  24118681.21906   1637842.45346  24118687.04346
    552030.58707  21787429.79707    420290.45447  21787434.57847
   2518029.83706  23147347.77306   1869027.94946  23147356.13346
 18  5 30  0 37 15.0000000  0 10  3 14 16 22 23 26 27 29 31 32
    549667.39505  23933113.97705    233659.14546  23933123.61346
   1310378.16107  20942157.42207    983094.46647  20942162.02747
   -285606.37207  20663420.31307   -220238.91347  20663425.38747
   1052345.38305  23924807.19505    820008.68546  23924812.25846
  -2412454.78706  24078135.59406  -1677985.46546  24078138.47746
    922131.53207  20894282.67207    710720.95748  20894290.27048
  -1540687.38704  22381526.37504  -1055326.24245  22381535.64845
   2141923.92206  24121612.17206   1649846.36046  24121618.55946
    556523.75107  21788285.00007    423791.61747  21788289.73447
   2535903.48806  23150749.10906   1882955.44746  23150757.18846
 18  5 30  0 37 20.0000000  0 10  3 14 16 22 23 26 27 29 31 32
    554725.74905  23934076.37505    237600.72446  23934085.81346
   1320681.97607  20944118.18007    991123.40647  20944122.75047
   -285977.25007  20663349.74207   -220527.90947  20663354.68847
   1060348.79805  23926331.31305    826245.10546  23926336.85546
  -2427604.57306  24075252.59406  -1689790.48346  24075255.68846
    929318.37106  20895650.27306    716321.08648  20895657.88348
  -1556481.92704  22378522.49204  -1067633.68945  22378532.09445
   2157344.10706  24124546.94506   1661862.07746  24124553.37946
    561026.00507  21789141.68807    427299.86447  21789146.49247
   2553789.56206  23154152.32806   1896892.63046  23154160.67646
 18  5 30  0 37 25.0000000  0 10  3 14 16 22 23 26 27 29 31 32
    559800.39405  23935042.22705    241554.99046  23935051.96946
   1331005.12007  20946082.65607    999167.41147  20946087.21547
   -286331.09307  20663282.28907   -220803.63047  20663287.07047
   1068363.81605  23927856.46105    832490.56646  23927862.03946
  -2442744.15306  24072371.64106  -1701587.55146  24072374.27746
    936517.43806  20897020.20306    721930.74348  20897027.77748
  -1572264.41704  22375517.94504  -1079931.71845  22375527.30145
   2172779.55906  24127483.97706   1673889.69646  24127490.18846
    565537.40406  21790000.35906    430815.23547  21790005.00047
   2571688.09806  23157558.20306   1910839.51746  23157566.43446
 18  5 30  0 37 30.0000000  0 10  3 14 16 22 23 26 27 29 31 32
    564891.36005  23936010.70305    245521.97446  23936020.16446
   1341347.61907  20948050.82007   1007226.49947  20948055.69547
   -286667.87307  20663218.30507   -221066.05547  20663223.15647
   1076390.48705  23929383.75805    838745.12746  23929388.29346
  -2457873.48906  24069492.19506  -1713376.63346  24069494.76246
    943728.74506  20898392.65606    727549.93948  20898400.23048
  -1588034.81004  22372516.02304  -1092220.34745  22372525.93045
   2188230.26106  24130424.29706   1685929.18646  24130430.20346
    570057.99306  21790860.53906    434337.76347  21790865.21547
   2589599.08706  23160966.93806   1924796.10646  23160975.25046
 18  5 30  0 37 35.0000000  0 10  3 14 16 22 23 26 27 29 31 32
    569998.49405  23936982.76605    249501.55246  23936991.88746
   1351709.33507  20950022.53107   1015300.56047  20950027.46547
   -286987.72907  20663157.39807   -221315.29547  20663162.35547
   1084428.62405  23930913.01605    845008.60146  23930917.00046
  -2472992.72306  24066615.19506  -1725157.85446  24066618.33646
    950952.15106  20899767.19506    733178.56648  20899774.73448
  -1603793.21503  22369516.72703  -1104499.62345  22369526.42245
   2203696.05206  24133367.19506   1697980.45746  24133372.68046
    574587.62307  21791722.28907    437867.34147  21791726.89547
   2607522.40206  23164377.67206   1938762.31846  23164385.98446
 18  5 30  0 37 40.0000000  0 10  3 14 16 22 23 26 27 29 31 32
    575122.14005  23937958.14105    253494.01646  23937967.07446
   1362090.64807  20951997.86707   1023389.89047  20952003.01247
   -287290.29807  20663099.58607   -221551.06347  20663104.42647
   1092478.59906  23932444.70306    851281.31346  23932449.12146
  -2488101.45106  24063740.14106  -1736930.88546  24063743.39846
    958188.00506  20901143.95306    738816.89148  20901151.43448
  -1619539.32703  22366520.64103  -1116769.32345  22366531.71945
   2219177.27005  24136312.96105   1710043.74346  24136318.62146
    579126.65207  21792586.16407    441404.24847  21792590.80547
   2625458.38506  23167790.77306   1952738.39746  23167799.20346
 18  5 30  0 37 45.0000000  0 10  3 14 16 22 23 26 27 29 31 32
    580262.49305  23938935.87505    257499.48246  23938944.75046
   1372491.70407  20953977.35207   1031494.60247  20953982.71947
   -287575.38607  20663045.39807   -221773.21047  20663050.05147
   1100540.59905  23933978.84405    857563.39346  23933982.38346
  -2503199.49306  24060866.89106  -1748695.59146  24060870.33646
    965436.48606  20902523.32806    744465.05548  20902530.70348
  -1635272.83903  22363527.51603  -1129029.20745  22363538.45345
   2234674.13605  24139261.50005   1722119.20946  24139267.04346
    583675.29907  21793451.85907    444948.64847  21793456.45347
   2643407.22306  23171206.18006   1966724.49646  23171214.45746
 18  5 30  0 37 50.0000000  0 10  3 14 16 22 23 26 27 29 31 32
    585419.31205  23939917.04705    261517.77146  23939926.12146
   1382912.27307  20955960.24207   1039614.51747  20955965.77347
   -287843.24807  20662994.58607   -221981.93547  20662999.19147
   1108614.37205  23935515.34405    863854.64946  23935519.22346
  -2518287.04206  24057995.56306  -1760452.11546  24057998.98446
    972697.36806  20903905.09406    750122.88048  20903912.36348
  -1650994.01803  22360535.39103  -1141279.47345  22360546.57445
   2250186.36806  24142213.81306   1734206.64446  24142219.98846
    588233.31706  21794319.23406    448500.34347  21794323.69947
   2661368.66506  23174624.31306   1980720.39946  23174632.76646
 18  5 30  0 37 55.0000000  0 10  3 14 16 22 23 26 27 29 31 32
    590591.25205  23940901.89805    265547.84646  23940911.41846
   1393351.05707  20957946.75807   1047748.62947  20957952.24247
   -288095.20907  20662946.60207   -222178.26847  20662951.13747
   1116698.57005  23937053.99205    870154.00746  23937058.11746
  -2533365.40506  24055126.16406  -1772201.49846  24055129.37546
    979969.33406  20905288.95306    755789.34548  20905296.12948
  -1666704.15404  22357545.64804  -1153521.12845  22357555.44945
   2265712.66106  24145168.14106   1746305.05846  24145174.91446
    592799.39706  21795188.06306    452058.32147  21795192.43447
   2679341.41206  23178043.86706   1994725.12546  23178052.44946
 18  5 30  0 38  0.0000000  0 10  3 14 16 22 23 26 27 29 31 32
    595780.57505  23941888.69505    269591.46946  23941897.72346
   1403810.25807  20959937.18807   1055898.65147  20959942.78947
   -288329.05607  20662902.10207   -222360.48447  20662906.71947
   1124795.45906  23938594.77306    876463.25846  23938598.34846
  -2548432.35506  24052259.10906  -1783941.98646  24052262.80146
    987254.56806  20906675.14806    761466.14648  20906682.23048
  -1682401.04804  22354559.25804  -1165752.43945  22354567.18445
   2281255.22106  24148126.20306   1758416.16346  24148132.33246
    597375.77106  21796058.93806    455624.32547  21796063.36747
   2697327.63106  23181466.52306   2008740.35446  23181474.33246
 18  5 30  0 38  5.0000000  0 10  3 14 16 22 23 26 27 29 31 32
    600986.21905  23942879.27305    273647.81446  23942888.10246
   1414288.87807  20961930.82807   1064063.80647  20961936.52347
   -288545.79207  20662860.91407   -222529.37047  20662865.47347
   1132903.96905  23940137.55505    882781.56446  23940140.47346
  -2563488.88106  24049394.40606  -1795674.34546  24049397.79346
    994552.10106  20908064.04706    767152.53648  20908071.01248
  -1698085.59904  22351575.05504  -1177974.15145  22351583.44945
   2296813.00006  24151086.25006   1770539.10146  24151092.50846
    601961.43607  21796931.43807    459197.56847  21796935.68047
   2715326.37506  23184891.71106   2022765.32946  23184899.67246
 18  5 30  0 38 10.0000000  0 10  3 14 16 22 23 26 27 29 31 32
    606207.80505  23943873.14805    277716.57946  23943881.52046
   1424786.50607  20963928.75007   1072243.77047  20963934.38747
   -288745.81707  20662822.94507   -222685.23247  20662827.57447
   1141023.72505  23941682.24205    889108.64646  23941685.59446
  -2578535.28906  24046531.23406  -1807398.83046  24046533.93046
   1001861.47606  20909454.85206    772848.15448  20909461.77048
  -1713758.25903  22348592.18803  -1190186.62645  22348600.59445
   2312385.59905  24154049.64105   1782673.57245  24154055.88745
    606555.98807  21797805.72707    462777.73947  21797809.99247
   2733337.16906  23188319.03906   2036799.68946  23188327.16446
 18  5 30  0 38 15.0000000  0 10  3 14 16 22 23 26 27 29 31 32
    611445.78505  23944870.21905    281798.12246  23944879.05946
   1435303.62607  20965930.05507   1080438.92247  20965935.45747
   -288928.61507  20662788.09407   -222827.67247  20662792.69947
   1149155.18305  23943229.94505    895444.84046  23943233.96546
  -2593571.17606  24043669.43006  -1819115.11246  24043672.58246
   1009183.21706  20910848.10906    778553.40748  20910854.85948
  -1729418.54104  22345612.00004  -1202389.45245  22345620.09045
   2327973.57705  24157016.20305   1794820.01745  24157022.19145
    611159.95906  21798682.10906    466365.25047  21798686.39847
   2751360.53006  23191748.90606   2050843.86146  23191757.39546
 18  5 30  0 38 20.0000000  0 10  3 14 16 22 23 26 27 29 31 32
    616699.89505  23945870.70305    285892.21246  23945878.77046
   1445839.95107  20967935.11707   1088649.03847  20967940.23847
   -289094.49807  20662756.32007   -222956.92847  20662760.96147
   1157298.09305  23944780.00005    901789.96946  23944783.84446
  -2608596.77506  24040810.53906  -1830823.36446  24040813.58646
   1016517.00506  20912243.54706    784268.04748  20912250.33248
  -1745066.67604  22342634.44504  -1214582.82745  22342642.93445
   2343576.51905  24159985.21105   1806978.17246  24159991.22346
    615773.05506  21799559.87506    469959.87047  21799564.27047
   2769396.15106  23195180.35906   2064897.56346  23195189.24646
 18  5 30  0 38 25.0000000  0 10  3 14 16 22 23 26 27 29 31 32
    621970.65705  23946873.46905    289999.28946  23946882.00446
   1456396.03807  20969943.78907   1096874.55947  20969948.71147
   -289242.94507  20662728.18007   -223072.60447  20662732.72747
   1165452.92505  23946331.39105    908144.37346  23946335.30546
  -2623611.53206  24037953.06306  -1842523.15846  24037956.55546
   1023863.37506  20913641.62506    789992.48348  20913648.39848
  -1760702.10004  22339658.03104  -1226766.25145  22339666.20345
   2359195.03606  24162957.75006   1819148.45746  24162963.69146
    620395.81307  21800439.55507    473562.01547  21800443.97347
   2787444.55606  23198615.13306   2078961.22746  23198623.64546
 18  5 30  0 38 30.0000000  0 10  3 14 16 22 23 26 27 29 31 32
    627258.34105  23947879.54705    294119.56346  23947887.32046
   1466972.14507  20971956.24207   1105115.68147  20971961.04747
   -289373.68307  20662703.53107   -223174.48347  20662708.05547
   1173619.95505  23947886.15605    914508.30446  23947889.53146
  -2638615.18506  24035097.75006  -1854214.29946  24035101.31346
   1031222.61006  20915042.03106    795726.94148  20915048.81648
  -1776324.50803  22336684.93803  -1238939.55545  22336692.95745
   2374829.39706  24165932.63306   1831331.07946  24165939.99646
    625028.53107  21801321.09407    477171.92247  21801325.34847
   2805506.02806  23202051.64806   2093035.07646  23202060.40646
 18  5 30  0 38 35.0000000  0 10  3 14 16 22 23 26 27 29 31 32
    632562.70305  23948888.78905    298252.82346  23948896.66846
   1477568.05007  20973972.57007   1113372.22547  20973977.29347
   -289486.94107  20662681.80507   -223262.73847  20662686.27047
   1181798.93905  23949442.16405    920881.53946  23949445.55146
  -2653607.94906  24032244.49206  -1865896.95946  24032248.37146
   1038594.46206  20916445.01606    801471.23648  20916451.80148
  -1791934.19403  22333714.96103  -1251102.94045  22333722.92245
   2390479.29306  24168910.84406   1843525.80646  24168917.70346
    629670.95107  21802204.43007    480789.39347  21802208.59047
   2823580.30606  23205491.57006   2107118.92046  23205500.14146
 18  5 30  0 38 40.0000000  0 10  3 14 16 22 23 26 27 29 31 32
    637882.70105  23949901.10905    302398.27046  23949909.22346
   1488182.67507  20975992.55507   1121643.35947  20975997.38347
   -289583.74808  20662663.50008   -223338.17347  20662667.90647
   1189988.86405  23951000.67205    927263.29546  23951004.19946
  -2668590.80006  24029393.33606  -1877571.90246  24029396.89846
   1045977.88306  20917849.89806    807224.55348  20917856.71948
  -1807532.12003  22330747.07003  -1263257.18245  22330754.96145
   2406143.74206  24171891.88306   1855731.86146  24171898.09446
    634322.06107  21803089.27307    484413.63747  21803093.65647
   2841666.35306  23208932.96106   2121211.92546  23208941.75446
 18  5 30  0 38 45.0000000  0 10  3 14 16 22 23 26 27 29 31 32
    643218.49405  23950916.29705    306556.03446  23950924.28146
   1498816.20007  20978016.08607   1129929.21847  20978020.98447
   -289663.93608  20662647.93008   -223400.66047  20662652.25447
   1198189.84405  23952561.10205    933653.65946  23952564.86346
  -2683563.58806  24026544.08606  -1889239.00846  24026547.59046
   1053373.05906  20919257.32806    812987.02848  20919264.31648
  -1823118.10203  22327781.04703  -1275402.08045  22327788.86745
   2421822.90506  24174875.57006   1867949.37546  24174880.29346
    638982.07007  21803976.10907    488044.81747  21803980.45747
   2859764.34206  23212377.48406   2135314.22746  23212386.40646
 18  5 30  0 38 50.0000000  0 10  3 14 16 22 23 26 27 29 31 32
    648570.00405  23951935.15605    310726.04946  23951943.22346
   1509468.56707  20980043.03907   1138229.75747  20980048.02047
   -289727.62508  20662635.92208   -223450.29047  20662640.28147
   1206401.86105  23954123.63305    940052.62646  23954127.80546
  -2698526.41706  24023697.03106  -1900898.34446  24023700.60546
   1060779.88206  20920666.53906    818758.57848  20920673.58648
  -1838692.21903  22324818.04703  -1287537.77345  22324825.15245
   2437516.62006  24177861.82806   1880178.22446  24177867.10246
    643650.87408  21804864.63308    491682.84647  21804869.22747
   2877874.15806  23215823.64106   2149425.75746  23215832.28146
 18  5 30  0 38 55.0000000  0 10  3 14 16 22 23 26 27 29 31 32
    653936.89505  23952956.57005    314908.04146  23952964.08646
   1520139.42807  20982073.73407   1146544.70647  20982078.85547
   -289775.11808  20662626.90608   -223487.29747  20662631.30147
   1214624.54105  23955688.62505    946459.91046  23955692.32846
  -2713479.56806  24020851.42206  -1912550.15046  24020855.16046
   1068198.00607  20922078.24207    824538.93348  20922085.32448
  -1854254.77004  22321856.18004  -1299664.45845  22321863.63745
   2453224.59506  24180851.11706   1892418.20046  24180856.67246
    648328.15408  21805754.57008    495327.47447  21805759.29347
   2895995.50006  23219271.60206   2163546.25246  23219280.25446
 18  5 30  0 39  0.0000000  0 10  3 14 16 22 23 26 27 29 31 32
    659319.60605  23953980.64105    319102.34846  23953988.26246
   1530829.23407  20984107.51607   1154874.41647  20984112.61347
   -289805.94008  20662621.03108   -223511.31347  20662625.36747
   1222858.30105  23957255.28905    952875.82446  23957259.09846
  -2728422.57906  24018007.82806  -1924194.05146  24018011.49646
   1075627.89907  20923492.07807    830328.45848  20923499.17248
  -1869805.30303  22318897.47703  -1311781.75345  22318905.30945
   2468947.28106  24183843.07006   1904669.64346  24183848.08646
    653014.35508  21806646.43008    498979.05847  21806651.14147
   2914128.78106  23222722.59406   2177676.07346  23222731.38746
 18  5 30  0 39  5.0000000  0 10  3 14 16 22 23 26 27 29 31 32
    664718.20005  23955008.04705    323309.04446  23955015.37546
   1541538.06207  20986145.75807   1163218.95447  20986150.98447
   -289820.04007  20662618.54707   -223522.30047  20662623.07047
   1231103.27005  23958824.35205    959300.48146  23958828.34846
  -2743355.33606  24015166.12506  -1935829.95546  24015170.33246
   1083069.65507  20924908.18807    836127.22848  20924915.34048
  -1885343.67903  22315940.08603  -1323889.55845  22315947.07445
   2484684.76006  24186837.78906   1916932.62246  24186843.60246
    657709.59108  21807539.90608    502637.68547  21807544.52347
   2932274.10006  23226175.24206   2191815.25846  23226184.36346
 18  5 30  0 39 10.0000000  0 10  3 14 16 22 23 26 27 29 31 32
    670132.79905  23956038.16405    327528.21246  23956045.16446
   1552266.03207  20988186.89807   1171578.40747  20988192.25447
   -289817.31408  20662619.05508   -223520.17747  20662623.55547
   1239359.50505  23960395.32005    965733.90546  23960400.21946
  -2758277.72206  24012326.61706  -1947457.78246  24012330.71946
   1090523.34707  20926326.50007    841935.29848  20926333.66448
  -1900869.79504  22312986.11704  -1335987.82045  22312992.91445
   2500437.12306  24189835.21906   1929207.19746  24189840.48046
    662413.95808  21808434.88308    506303.42547  21808439.62947
   2950431.54105  23229630.75005   2205963.90046  23229639.60246
 18  5 30  0 39 15.0000000  0 10  3 14 16 22 23 26 27 29 31 32
    675563.83305  23957071.81305    331760.18946  23957079.42246
   1563013.54507  20990232.21907   1179953.08847  20990237.64547
   -289797.37108  20662622.68008   -223504.64247  20662627.21547
   1247627.42205  23961968.85205    972176.42446  23961972.54346
  -2773189.30106  24009489.03106  -1959077.19146  24009493.90646
   1097989.39307  20927747.36707    847752.99548  20927754.61348
  -1916383.22404  22310034.12504  -1348076.20545  22310041.72345
   2516204.78206  24192835.39106   1941493.67046  24192840.77046
    667127.88908  21809332.03108    509976.62047  21809336.84847
   2968601.51905  23233088.36705   2220122.30746  23233097.13746
 18  5 30  0 39 20.0000000  0 10  3 14 16 22 23 26 27 29 31 32
    681010.24705  23958107.82005    336004.14246  23958115.14846
   1573779.57107  20992280.82807   1188342.19247  20992286.27747
   -289761.22008  20662629.67208   -223476.47247  20662634.23047
   1255905.98905  23963544.71905    978627.24646  23963547.90646
  -2788091.10506  24006652.91406  -1970688.98946  24006656.81646
   1105466.76607  20929170.17207    853579.51448  20929177.50048
  -1931884.98005  22307083.60205  -1360155.49245  22307090.76645
   2531986.66505  24195838.57805   1953791.22646  24195844.28546
    671850.34508  21810230.57808    513656.45747  21810235.41847
   2986783.00906  23236548.04706   2234289.68146  23236556.99246
 18  5 30  0 39 25.0000000  0 10  3 14 16 22 23 26 27 29 31 32
    686472.80905  23959147.42205    340260.67246  23959154.70346
   1584564.94507  20994333.43807   1196746.36947  20994338.99247
   -289708.08008  20662639.82808   -223435.07047  20662644.17647
   1264196.02505  23965121.96905    985087.01046  23965125.30946
  -2802982.30206  24003819.57006  -1982292.52846  24003823.43846
   1112956.24507  20930595.39807    859415.47048  20930602.72748
  -1947374.20605  22304136.32805  -1372225.02245  22304143.17245
   2547783.59405  24198844.53105   1966100.50746  24198850.40246
    676582.12108  21811131.04708    517343.55347  21811136.00447
   3004976.77306  23240010.47706   2248466.63246  23240019.31646
 18  5 30  0 39 30.0000000  0 10  3 14 16 22 23 26 27 29 31 32
    691951.18705  23960190.24205    344529.52746  23960197.40646
   1595369.30607  20996389.21907   1205165.34347  20996394.80947
   -289638.28008  20662653.32008   -223380.68247  20662657.79747
   1272497.11305  23966701.39105    991555.37246  23966704.43846
  -2817863.20906  24000987.93006  -1993888.03746  24000992.06646
   1120457.49507  20932022.94507    865260.59548  20932030.35548
  -1962851.28305  22301191.51605  -1384285.08045  22301198.57445
   2563595.24005  24201853.05505   1978421.26145  24201858.53945
    681322.92308  21812033.18008    521037.68247  21812038.21947
   3023182.49706  23243474.32006   2262652.89746  23243483.66446
 18  5 30  0 39 35.0000000  0 10  3 14 16 22 23 26 27 29 31 32
    697444.90505  23961235.49205    348810.34846  23961242.62146
   1606192.12807  20998448.84407   1213598.70547  20998454.49247
   -289552.35708  20662669.42208   -223313.72947  20662673.96947
   1280808.78805  23968282.61705    998031.99646  23968286.13346
  -2832734.30406  23998158.03906  -2005475.90446  23998162.52746
   1127970.02408  20933452.21108    871114.50848  20933459.68048
  -1978316.63905  22298248.07005  -1396336.00945  22298255.45745
   2579421.11005  24204865.02305   1990753.09145  24204870.59045
    686072.25308  21812937.00008    524738.46047  21812942.07447
   3041399.68006  23246941.24206   2276848.08046  23246950.30546
 18  5 30  0 39 40.0000000  0 10  3 14 16 22 23 26 27 29 31 32
    702955.45005  23962284.25805    353104.29046  23962291.30546
   1617034.90507  21000511.95307   1222047.61947  21000517.70747
   -289448.78608  20662689.18808   -223233.02447  20662693.80547
   1289132.56805  23969867.15605   1004518.06046  23969871.18846
  -2847594.07506  23995330.18006  -2017054.94446  23995334.34046
   1135495.30607  20934884.21907    876978.35648  20934891.65248
  -1993768.79505  22295307.93005  -1408376.66145  22295314.57445
   2595262.68805  24207880.14805   2003097.17245  24207886.37145
    690831.64208  21813842.62508    528447.07247  21813847.54747
   3059629.77906  23250410.13306   2291053.33546  23250418.68046
 18  5 30  0 39 45.0000000  0 10  3 14 16 22 23 26 27 29 31 32
    708481.08405  23963335.84405    357409.96446  23963342.25446
   1627895.91307  21002578.73407   1230510.73547  21002584.45347
   -289329.27408  20662711.93008   -223139.90047  20662716.53547
   1297466.67905  23971453.32005   1011012.16446  23971457.69146
  -2862444.20706  23992504.52306  -2028626.46946  23992508.97746
   1143031.64407  20936318.49207    882850.82348  20936325.85548
  -2009209.42405  22292369.47705  -1420408.31345  22292376.13345
   2611118.20706  24210897.39106   2015452.10345  24210903.36745
    695599.32608  21814750.14808    532162.14947  21814755.05947
   3077871.09606  23253882.14806   2305267.33346  23253890.71946
 18  5 30  0 39 50.0000000  0 10  3 14 16 22 23 26 27 29 31 32
    714022.22905  23964390.63305    361727.72746  23964397.20746
   1638775.56007  21004648.97707   1238988.37647  21004654.77747
   -289193.42408  20662737.76608   -223034.04647  20662742.32447
   1305811.53005  23973040.25005   1017514.64446  23973044.35246
  -2877284.30706  23989680.21106  -2040190.17246  23989685.07446
   1150579.41208  20937754.86708    888732.19548  20937762.25448
  -2024638.11005  22289433.20305  -1432430.65445  22289439.61345
   2626988.04906  24213917.31306   2027818.22445  24213922.28145
    700375.73007  21815658.84407    535884.02447  21815663.75447
   3096124.02306  23257355.16406   2319490.37446  23257363.94546
 18  5 30  0 39 55.0000000  0 10  3 14 16 22 23 26 27 29 31 32
    719578.92105  23965447.92205    366057.59846  23965455.18046
   1649673.95507  21006723.14107   1247480.62747  21006729.19947
   -289041.12507  20662766.37507   -222915.37147  20662771.16847
   1314167.18805  23974630.97705   1024025.53646  23974635.14846
  -2892114.28506  23986858.43806  -2051746.00546  23986863.38346
   1158138.70308  20939193.36708    894622.54848  20939200.69548
  -2040054.77105  22286499.38305  -1444443.62445  22286505.84045
   2642872.32206  24216939.73406   2040195.57146  24216945.34846
    705160.99808  21816569.40608    539612.80447  21816574.41047
   3114388.63906  23260830.79706   2333722.51746  23260839.78946
 18  5 30  0 40  0.0000000  0 10  3 14 16 22 23 26 27 29 31 32
    725151.14905  23966507.84405    370399.57746  23966514.85546
   1660591.06907  21008800.63307   1255987.46447  21008806.57447
   -288872.41707  20662798.51607   -222783.91047  20662803.42647
   1322533.67205  23976223.21105   1030544.87946  23976227.54746
  -2906934.04806  23984038.44506  -2063293.87646  23984043.62546
   1165709.48108  20940634.00808    900521.85448  20940641.38348
  -2055459.42705  22283567.72705  -1456447.27345  22283573.49245
   2658770.98106  24219964.92206   2052584.11945  24219970.57045
    709955.05708  21817481.76608    543348.43247  21817487.00447
   3132664.88506  23264308.61706   2347963.72946  23264317.27046
 18  5 30  0 40  5.0000000  0 10  3 14 16 22 23 26 27 29 31 32
    730738.99505  23967571.50805    374753.75046  23967578.39146
   1671526.98507  21010881.57007   1264508.95147  21010887.67647
   -288687.21207  20662833.97707   -222639.60047  20662838.91047
   1330911.03605  23977817.41405   1037072.70246  23977821.72746
  -2921743.60506  23981220.25806  -2074833.79046  23981225.91846
   1173291.84508  20942076.82008    906430.19048  20942084.32448
  -2070851.87404  22280638.66404  -1468441.38345  22280644.85245
   2674684.12306  24222993.25806   2064983.97145  24222999.03545
    714758.04908  21818395.76608    547091.02047  21818401.10947
   3150952.89006  23267788.83606   2362214.10046  23267797.88746
 18  5 30  0 40 10.0000000  0 10  3 14 16 22 23 26 27 29 31 32
    736342.71005  23968637.99205    379120.28646  23968644.63746
   1682481.92407  21012966.11707   1273045.26147  21012972.08247
   -288485.30207  20662872.35907   -222482.26947  20662877.24647
   1339299.46805  23979413.74205   1043609.13446  23979417.89146
  -2936542.74906  23978403.97706  -2086365.60546  23978410.23446
   1180885.98208  20943521.90608    912347.69948  20943529.50448
  -2086231.99105  22277712.42205  -1480425.86845  22277718.02345
   2690611.87106  24226024.21106   2077395.19945  24226029.90645
    719570.16807  21819311.53907    550840.71947  21819316.87147
   3169252.82606  23271271.04706   2376473.77446  23271280.14546
 18  5 30  0 40 15.0000000  0 10  3 14 16 22 23 26 27 29 31 32
    741962.19505  23969707.07805    383499.09446  23969713.91046
   1693455.84407  21015054.24207   1281596.35847  21015060.14847
   -288266.63807  20662913.71907   -222311.88347  20662918.61747
   1347698.95405  23981011.56305   1050154.16946  23981015.02046
  -2951331.41206  23975590.15606  -2097889.22646  23975596.27346
   1188491.88408  20944969.15608    918274.37548  20944976.85948
  -2101599.74205  22274788.40605  -1492400.74145  22274793.83245
   2706554.33205  24229058.03905   2089817.89445  24229063.74645
    724391.38808  21820228.92208    554597.51047  21820234.05547
   3187564.68106  23274755.82006   2390742.72946  23274764.39146
 18  5 30  0 40 20.0000000  0 10  3 14 16 22 23 26 27 29 31 32
    747596.72005  23970779.34405    387889.63246  23970785.52046
   1704447.96007  21017146.19507   1290161.63747  21017151.99647
   -288032.13307  20662958.44507   -222129.15747  20662963.29747
   1356108.67105  23982612.08605   1056707.18546  23982615.55546
  -2966110.38706  23972777.62506  -2109405.29946  23972783.98846
   1196108.75908  20946418.64808    924209.60048  20946426.36348
  -2116955.85205  22271866.12505  -1504366.54745  22271871.36345
   2722510.65105  24232094.40605   2102251.38345  24232100.52345
    729220.94608  21821148.08608    558360.79947  21821153.30147
   3205887.65406  23278242.53906   2405020.35146  23278251.28546
 18  5 30  0 40 25.0000000  0 10  3 14 16 22 23 26 27 29 31 32
    753246.89705  23971854.64805    392292.34746  23971860.41446
   1715458.94707  21019241.64807   1298741.62247  21019247.20347
   -287781.08007  20663006.28907   -221933.53647  20663011.17647
   1364529.32205  23984214.14105   1063268.72246  23984217.69146
  -2980879.01305  23969967.02305  -2120913.35146  23969973.46946
   1203737.25108  20947870.35208    930153.87648  20947878.12548
  -2132299.68605  22268946.05505  -1516322.79745  22268951.72745
   2738481.47405  24235133.47705   2114696.17845  24235139.93445
    734059.51207  21822068.69507    562131.10947  21822073.80547
   3224222.39506  23281731.54706   2419307.13846  23281740.34046
 18  5 30  0 40 30.0000000  0 10  3 14 16 22 23 26 27 29 31 32
    758912.36405  23972932.78905    396706.97046  23972938.33246
   1726488.43807  21021340.60907   1307336.02647  21021346.19947
   -287513.87407  20663057.09407   -221725.32547  20663061.89847
   1372960.51005  23985819.18005   1069838.48546  23985822.15646
  -2995637.63605  23967158.96105  -2132413.59146  23967164.87946
   1211377.01008  20949324.08608    936106.93048  20949331.95348
  -2147631.59505  22266028.27305  -1528269.75045  22266033.89845
   2754466.43305  24238175.31305   2127151.95245  24238181.84045
    738906.73807  21822991.08607    565908.17047  21822996.13747
   3242568.55306  23285223.23406   2433602.82946  23285231.96946
 18  5 30  0 40 35.0000000  0 10  3 14 16 22 23 26 27 29 31 32
    764593.24605  23974013.65605    401133.63146  23974019.85546
   1737536.49707  21023442.94507   1315944.89747  21023448.43047
   -287230.38507  20663111.16407   -221504.42347  20663116.08647
   1381402.38005  23987425.24205   1076416.56346  23987428.19546
  -3010386.10306  23964352.03106  -2143905.91846  23964357.77346
   1219028.13608  20950780.14108    942068.84348  20950788.11348
  -2162951.41105  22263113.44505  -1540207.25145  22263119.70345
   2770465.70205  24241219.90605   2139618.91945  24241226.30545
    743762.76308  21823915.16408    569692.08047  21823920.30947
   3260926.23306  23288716.54706   2447907.49646  23288724.93046
 18  5 30  0 40 40.0000000  0 10  3 14 16 22 23 26 27 29 31 32
    770289.64305  23975097.64805    405572.41746  23975104.66046
   1748603.23607  21025548.78907   1324568.32547  21025554.26247
   -286930.47907  20663167.96907   -221270.73147  20663172.90247
   1389854.97505  23989033.52305   1083002.98846  23989036.72346
  -3025124.37106  23961547.60906  -2155390.27546  23961553.18846
   1226690.71808  20952238.31308    948039.68548  20952246.39148
  -2178259.05105  22260199.68805  -1552135.25545  22260206.46145
   2786479.30805  24244267.18805   2152097.06845  24244272.90645
    748627.67307  21824841.01607    573482.91547  21824846.13747
   3279295.50006  23292212.50806   2462221.18846  23292221.07846
 18  5 30  0 40 45.0000000  0 10  3 14 16 22 23 26 27 29 31 32
    776001.32205  23976184.36705    410023.08446  23976190.64846
   1759688.44007  21027658.05507   1333206.14047  21027663.51647
   -286614.38207  20663228.37507   -221024.42547  20663233.22747
   1398318.08805  23990644.30505   1089597.62246  23990648.02046
  -3039852.52306  23958745.18006  -2166866.76446  23958750.74646
   1234364.55108  20953698.48408    954019.29448  20953706.51648
  -2193554.68105  22257289.90605  -1564053.94145  22257295.33245
   2802507.04306  24247316.89806   2164586.21445  24247321.90245
    753501.28107  21825768.53107    577280.52947  21825773.74647
   3297676.17406  23295709.77306   2476543.77646  23295718.61346
 18  5 30  0 40 50.0000000  0 10  3 14 16 22 23 26 27 29 31 32
    781728.49605  23977274.54705    414485.81346  23977280.67646
   1770792.31707  21029771.18807   1341858.50647  21029776.46147
   -286281.93607  20663291.57807   -220765.38147  20663296.30147
   1406791.93605  23992256.74205   1096200.60946  23992260.55146
  -3054570.39206  23955944.45306  -2178335.23546  23955949.98446
   1242049.82908  20955161.07008    960007.82048  20955169.09048
  -2208838.10705  22254381.47705  -1575963.11945  22254387.85245
   2818549.12506  24250369.95306   2177086.54345  24250375.02745
    758383.77707  21826697.62507    581085.06547  21826702.80547
   3316068.41006  23299209.94506   2490875.37246  23299217.91846
 18  5 30  0 40 55.0000000  0 10  3 14 16 22 23 26 27 29 31 32
    787470.92105  23978366.66405    418960.39746  23978372.53546
   1781914.68407  21031887.94507   1350525.27747  21031893.25447
   -285933.32807  20663357.92207   -220493.74147  20663362.63347
   1415276.27805  23993871.34405   1102811.77246  23993874.53146
  -3069278.18705  23953145.89805  -2189795.85946  23953151.88746
   1249746.32508  20956625.64108    966005.08848  20956633.63748
  -2224109.48605  22251475.28105  -1587862.89045  22251481.07045
   2834605.29106  24253425.02306   2189597.81745  24253430.20345
    763274.98007  21827628.46107    584896.39047  21827633.52347
   3334472.03006  23302712.10206   2505215.83946  23302720.23846
 18  5 30  0 41  0.0000000  0 10  3 14 16 22 23 26 27 29 31 32
    793228.75005  23979462.91405    423446.99546  23979469.86746
   1793055.68707  21034008.04707   1359206.57347  21034013.22747
   -285568.44607  20663427.26607   -220209.41447  20663432.07047
   1423771.24705  23995487.84405   1109431.22546  23995490.94946
  -3083975.67206  23950349.17206  -2201248.43346  23950354.50446
   1257454.18708  20958092.39808    972011.21448  20958100.31348
  -2239368.72305  22248571.63305  -1599753.18945  22248577.80945
   2850675.69905  24256483.21905   2202120.21645  24256489.72345
    768175.02307  21828560.76607    588714.60547  21828565.74647
   3352887.14006  23306215.94506   2519565.25846  23306223.85946
 18  5 30  0 41  5.0000000  0 10  3 14 16 22 23 26 27 29 31 32
    799002.09205  23980561.38305    427945.69646  23980568.99246
   1804215.39907  21036131.67207   1367902.44747  21036136.85247
   -285187.17507  20663499.78107   -219912.32147  20663504.66847
   1432276.93305  23997107.00805   1116059.03546  23997110.20746
  -3098662.82605  23947554.10205  -2212692.95046  23947559.64546
   1265173.51108  20959561.25008    978026.27248  20959569.02348
  -2254615.61105  22245669.83605  -1611633.85845  22245676.02345
   2866760.47705  24259543.94505   2214653.78145  24259550.22745
    773083.99807  21829494.98407    592539.78147  21829500.05947
   3371313.85806  23309722.83606   2533923.72846  23309731.04346
 18  5 30  0 41 10.0000000  0 10  3 14 16 22 23 26 27 29 31 32
    804791.26605  23981663.39805    432456.74846  23981670.49246
   1815394.21107  21038258.78907   1376613.20447  21038263.91047
   -284789.15607  20663575.74207   -219602.17847  20663580.69947
   1440793.70105  23998726.63305   1122695.46646  23998729.63346
  -3113339.18405  23944761.34405  -2224129.04946  23944767.16846
   1272904.65808  20961032.53108    984050.54148  20961040.24648
  -2269849.84605  22242770.54705  -1623504.69145  22242775.70345
   2882859.91006  24262607.82806   2227198.81845  24262612.60945
    778002.33307  21830430.90607    596372.25247  21830436.02747
   3389752.51306  23313231.18806   2548291.48546  23313239.52346
 18  5 30  0 41 15.0000000  0 10  3 14 16 22 23 26 27 29 31 32
    810595.22505  23982767.23405    436979.31946  23982774.06646
   1826591.04907  21040389.55507   1385338.00747  21040394.69947
   -284375.46707  20663654.43007   -219279.82347  20663659.46947
   1449320.48105  24000349.68005   1129339.71946  24000352.51646
  -3128005.80906  23941970.46106  -2235557.58646  23941976.30946
   1280646.55908  20962505.65608    990083.18848  20962513.31348
  -2285072.42905  22239873.98405  -1635366.46145  22239879.30545
   2898972.93206  24265674.13306   2239754.41245  24265679.25445
    782928.94207  21831368.48407    600211.16747  21831373.62947
   3408202.07706  23316741.77306   2562667.73546  23316750.15646
 18  5 30  0 41 20.0000000  0 10  3 14 16 22 23 26 27 29 31 32
    816414.39105  23983874.73405    441513.72946  23983882.01646
   1837806.31207  21042523.83607   1394077.17347  21042529.13347
   -283945.69107  20663736.22707   -218944.93547  20663741.25447
   1457857.66005  24001974.58605   1135992.04546  24001977.86746
  -3142662.35705  23939181.13305  -2246978.26846  23939187.09846
   1288399.59708  20963980.93808    996124.51448  20963988.58248
  -2300282.93605  22236979.72705  -1647218.81845  22236985.78545
   2915099.96806  24268743.00806   2252320.90645  24268748.42245
    787864.25807  21832307.57807    604056.86447  21832312.71147
   3426662.87306  23320255.29706   2577052.74646  23320263.98446
 18  5 30  0 41 25.0000000  0 10  3 14 16 22 23 26 27 29 31 32
    822249.01205  23984984.87505    446060.17446  23984992.57846
   1849040.25807  21044661.35907   1402830.89247  21044666.66847
   -283499.53107  20663821.27307   -218597.28047  20663826.25447
   1466405.53305  24003600.73405   1142652.71746  24003605.05946
  -3157308.47906  23936394.10206  -2258390.83746  23936399.49246
   1296164.06608  20965458.53908   1002174.74848  20965466.24248
  -2315481.11905  22234087.53905  -1659061.56245  22234094.53945
   2931241.30906  24271814.68006   2264898.59045  24271819.20345
    792808.54107  21833248.39107    607909.54947  21833253.40647
   3445135.24306  23323770.47706   2591446.78046  23323778.90646
 18  5 30  0 41 30.0000000  0 10  3 14 16 22 23 26 27 29 31 32
    828099.13705  23986098.26605    450618.71046  23986106.32046
   1860292.94207  21046802.79707   1411599.20847  21046808.21147
   -283036.92507  20663909.25807   -218236.81047  20663914.10947
   1474964.12605  24005229.55505   1149321.74546  24005233.15246
  -3171944.11506  23933608.76606  -2269795.23846  23933614.34446
   1303940.01908  20966938.50008   1008233.92948  20966946.19148
  -2330666.83205  22231198.11705  -1670894.56145  22231203.47345
   2947396.98206  24274889.13306   2277487.39745  24274894.04345
    797761.87007  21834190.95307    611769.28847  21834196.01647
   3463619.20806  23327287.70306   2605849.83946  23327296.27346
 18  5 30  0 41 35.0000000  0 10  3 14 16 22 23 26 27 29 31 32
    833964.21405  23987214.16405    455188.89546  23987222.30146
   1871563.80507  21048947.64807   1420381.69447  21048953.05147
   -282558.45507  20664000.15607   -217863.98047  20664005.28947
   1483532.87005  24006860.35905   1155998.68846  24006863.69946
  -3186569.84706  23930825.73406  -2281191.91846  23930831.51246
   1311726.88908  20968420.09408   1014301.61648  20968427.90248
  -2345840.64905  22228310.48405  -1682718.29845  22228316.59045
   2963566.42306  24277965.74206   2290086.96145  24277969.01245
    802723.65007  21835135.18007    615635.61147  21835140.17247
   3482114.21206  23330807.21106   2620261.51346  23330815.61746
 18  5 30  0 41 40.0000000  0 10  3 14 16 22 23 26 27 29 31 32
    839844.71905  23988333.27305    459771.08246  23988340.71946
   1882853.33807  21051095.94507   1429178.72847  21051101.37147
   -282063.63707  20664094.35907   -217478.41047  20664099.24647
   1492112.31105  24008493.38305   1162683.97646  24008496.24246
  -3201185.11705  23928044.37505  -2292580.43646  23928050.10546
   1319525.15508  20969903.98408   1020378.18048  20969911.80548
  -2361002.06705  22225425.68805  -1694532.39045  22225432.34445
   2979750.12705  24281045.65605   2302697.64045  24281049.61745
    807694.42207  21836081.05507    619508.93847  21836086.02347
   3500620.72506  23334329.30506   2634682.15946  23334337.57046
 18  5 30  0 41 45.0000000  0 10  3 14 16 22 23 26 27 29 31 32
    845741.02105  23989455.31305    464365.59846  23989462.85246
   1894161.91307  21053247.72707   1437990.60147  21053253.27047
   -281552.08907  20664191.71907   -217079.79847  20664196.53547
   1500702.76405  24010127.16405   1169377.82646  24010130.04746
  -3215789.48406  23925265.24206  -2303960.47346  23925271.16046
   1327335.19708  20971390.17208   1026463.92348  20971397.93448
  -2376150.66505  22222543.08605  -1706336.48145  22222549.16845
   2995948.47105  24284127.93005   2315319.71245  24284132.00845
    812674.56307  21837028.82007    623389.56847  21837033.69547
   3519139.14106  23337853.28906   2649112.07546  23337861.60246
 18  5 30  0 41 50.0000000  0 10  3 14 16 22 23 26 27 29 31 32
    851651.67305  23990580.46905    468971.29846  23990587.73846
   1905488.05507  21055403.22707   1446816.16447  21055408.69947
   -281025.25607  20664292.03907   -216669.28047  20664296.87947
   1509302.73505  24011764.37505   1176079.09046  24011767.53946
  -3230384.48905  23922488.03105  -2315333.19846  23922493.48046
   1335155.54608  20972878.25008   1032557.70248  20972886.09448
  -2391287.91705  22219663.10905  -1718131.72145  22219669.36745
   3012159.94306  24287213.16406   2327952.03245  24287218.82445
    817662.65007  21837977.83607    627276.38647  21837982.69947
   3537667.97006  23341379.03106   2663550.10546  23341387.40246
 18  5 30  0 41 55.0000000  0 10  3 14 16 22 23 26 27 29 31 32
    857577.35805  23991708.07805    473588.69546  23991715.81646
   1916832.48007  21057562.08607   1455655.97247  21057567.51247
   -280482.43907  20664395.21107   -216246.31047  20664400.08647
   1517912.96405  24013402.61705   1182788.35246  24013406.46146
  -3244969.32705  23919712.60905  -2326697.99546  23919718.64546
   1342986.90608  20974368.75008   1038660.06148  20974376.62948
  -2406413.10305  22216783.81305  -1729917.55845  22216790.27045
   3028385.27706  24290300.89106   2340595.15745  24290305.09845
    822659.36907  21838928.70307    631169.93147  21838933.53147
   3556207.93106  23344906.74206   2677996.80446  23344914.59846
 18  5 30  0 42  0.0000000  0 10  3 14 16 22 23 26 27 29 31 32
    863517.62305  23992838.11705    478217.47346  23992845.30546
   1928194.77607  21059724.07807   1464509.70547  21059729.48047
   -279924.11407  20664501.50007   -215811.25747  20664506.46947
   1526532.97705  24015043.10905   1189505.24346  24015046.63746
  -3259544.45806  23916939.27306  -2338055.21246  23916944.53546
   1350828.83408  20975860.93808   1044770.65348  20975868.86348
  -2421526.61905  22213908.37505  -1741694.35045  22213914.48045
   3044623.96706  24293390.50006   2353248.67145  24293394.55545
    827664.27207  21839881.12507    635069.85447  21839885.98847
   3574758.56406  23348437.35206   2692451.81346  23348445.52346
 18  5 30  0 42  5.0000000  0 10  3 14 16 22 23 26 27 29 31 32
    869473.36905  23993971.93005    482858.31446  23993979.48046
   1939575.78907  21061889.93007   1473378.02747  21061895.14547
   -279349.37107  20664610.86707   -215363.40847  20664615.83647
   1535163.63505  24016685.32805   1196230.41646  24016688.98446
  -3274109.00106  23914167.93806  -2349404.17846  23914173.65646
   1358682.18108  20977355.53108   1050890.13748  20977363.53948
  -2436627.58905  22211034.37505  -1753461.33445  22211041.05545
   3060876.91506  24296483.78106   2365913.29745  24296488.90245
    832678.29307  21840835.39807    638976.88247  21840840.18047
   3593320.70306  23351969.68806   2706915.80946  23351977.49646
 18  5 30  0 42 10.0000000  0 10  3 14 16 22 23 26 27 29 31 32
    875444.02705  23995107.46105    487510.75446  23995115.70346
   1950975.03107  21064059.07007   1482260.54747  21064064.20347
   -278758.73607  20664723.21107   -214903.17247  20664728.23847
   1543804.45305  24018329.87505   1202963.51746  24018332.99246
  -3288663.46406  23911398.25006  -2360745.29146  23911404.08646
   1366546.43908  20978851.77308   1057018.12948  20978859.77048
  -2451716.50005  22208163.53105  -1765218.92146  22208169.12146
   3077143.63905  24299579.06305   2378588.64545  24299584.44145
    837700.88906  21841791.23406    642890.59247  21841795.96947
   3611893.88506  23355503.87506   2721388.40946  23355512.39846
 18  5 30  0 42 15.0000000  0 10  3 14 16 22 23 26 27 29 31 32
    881430.30005  23996247.15605    492175.36546  23996256.04346
   1962393.18007  21066232.00807   1491157.80047  21066237.07047
   -278151.51507  20664838.68007   -214430.01347  20664843.80147
   1552456.09605  24019976.26605   1209705.05146  24019979.10246
  -3303207.17606  23908630.54706  -2372078.04546  23908636.39546
   1374422.30508  20980350.53908   1063155.16848  20980358.54748
  -2466792.64405  22205294.60205  -1776966.57345  22205301.03545
   3093424.81905  24302676.78105   2391275.23545  24302682.37145
    842732.78106  21842748.66406    646811.54747  21842753.43447
   3630478.76706  23359040.60206   2735870.11746  23359049.39546
 18  5 30  0 42 20.0000000  0 10  3 14 16 22 23 26 27 29 31 32
    887432.04405  23997388.85905    496852.05246  23997397.38346
   1973830.04507  21068408.45307   1500069.63947  21068413.50447
   -277527.89207  20664957.35907   -213944.07447  20664962.56347
   1561118.37705  24021624.48405   1216454.87246  24021627.80146
  -3317740.18406  23905864.63306  -2383402.48446  23905871.07846
   1382309.63008  20981851.57808   1069301.13548  20981859.60948
  -2481856.16905  22202428.36705  -1788704.35646  22202435.15246
   3109720.26605  24305778.21905   2403972.96045  24305784.44145
    847773.81606  21843707.83606    650739.62047  21843712.60547
   3649075.19206  23362579.57806   2750360.82046  23362588.58246
 18  5 30  0 42 25.0000000  0 10  3 14 16 22 23 26 27 29 31 32
    893448.35905  23998533.63305    501540.08646  23998542.36746
   1985284.77207  21070588.24207   1508995.39747  21070593.31647
   -276888.75007  20665078.88307   -213446.04347  20665083.87547
   1569790.40705  24023274.79705   1223212.28946  24023278.55946
  -3332263.40906  23903101.21906  -2394719.28246  23903107.59446
   1390207.49608  20983354.44508   1075455.31548  20983362.51248
  -2496907.91305  22199563.85205  -1800432.97046  22199570.66046
   3126029.05605  24308881.12505   2416681.09245  24308886.57445
    852823.08807  21844668.83607    654674.11447  21844673.64147
   3667682.25806  23366120.21106   2764859.81646  23366128.93446
 18  5 30  0 42 30.0000000  0 10  3 14 16 22 23 26 27 29 31 32
    899479.77505  23999681.41405    506239.89446  23999690.30146
   1996757.91307  21072771.39107   1517935.50247  21072776.37147
   -276233.54507  20665203.53907   -212935.49147  20665208.49647
   1578472.75505  24024926.59405   1229977.74946  24024930.66046
  -3346776.33605  23900339.39105  -2406028.05246  23900345.41446
   1398116.44308  20984859.54708   1081618.12848  20984867.61348
  -2511947.36105  22196701.53905  -1812152.00146  22196707.45746
   3142351.73306  24311987.80506   2429400.04145  24311993.77045
    857881.11407  21845631.31307    658615.43447  21845636.05947
   3686300.49806  23369663.21906   2779367.51546  23369671.93046
 18  5 30  0 42 35.0000000  0 10  3 14 16 22 23 26 27 29 31 32
    905526.61105  24000831.47705    510951.72246  24000840.63346
   2008249.72407  21074958.14107   1526890.15447  21074963.07447
   -275561.96807  20665331.42207   -212412.18147  20665336.50847
   1587165.67705  24026580.79705   1236751.44346  24026584.75846
  -3361278.57805  23897579.74205  -2417328.51146  23897585.67246
   1406036.76408  20986366.70308   1087789.80648  20986374.82848
  -2526974.17005  22193842.45305  -1823861.20845  22193848.67645
   3158688.57806  24315096.36706   2442130.04145  24315102.61345
    862948.26207  21846595.69507    662563.85947  21846600.40647
   3704930.20706  23373208.41406   2793884.15146  23373217.05546
 18  5 30  0 42 40.0000000  0 10  3 14 16 22 23 26 27 29 31 32
    911588.51505  24001985.21905    515675.28746  24001993.55546
   2019759.91707  21077148.69507   1535859.13147  21077153.37147
   -274874.34707  20665462.21907   -211876.37447  20665467.36347
   1595868.89805  24028237.10205   1243533.17346  24028241.41446
  -3375770.40605  23894822.26605  -2428620.84946  23894828.12546
   1413968.15608  20987876.00808   1093970.10848  20987884.06348
  -2541988.62805  22190984.35205  -1835560.79746  22190990.23446
   3175039.32906  24318208.46106   2454870.85445  24318214.68445
    868024.24407  21847561.55507    666519.17047  21847566.38347
   3723571.08206  23376755.57006   2808409.49246  23376763.71946
 18  5 30  0 42 45.0000000  0 10  3 14 16 22 23 26 27 29 31 32
    917666.70405  24003143.39805    520411.52846  24003151.77046
   2031289.67807  21079342.70307   1544843.35747  21079347.56647
   -274169.47907  20665596.47707   -211327.12647  20665601.53947
   1604583.56505  24029895.27305   1250323.81546  24029899.03546
  -3390250.69105  23892066.85205  -2439904.17946  23892073.06346
   1421911.80208  20989387.55508   1100159.95948  20989395.62148
  -2556989.52305  22188130.83605  -1847249.80546  22188136.90646
   3191405.11906  24321322.41406   2467623.42545  24321329.04745
    873110.22107  21848529.28107    670482.26447  21848534.14547
   3742224.29806  23380305.45306   2822944.45346  23380313.82446
 18  5 30  0 42 50.0000000  0 10  3 14 16 22 23 26 27 29 31 32
    923759.63205  24004302.61705    525159.25646  24004310.29746
   2042837.48507  21081540.07007   1553841.64447  21081544.94547
   -273448.88007  20665733.70307   -210765.62547  20665738.84847
   1613308.12905  24031555.74205   1257122.17846  24031559.36346
  -3404720.83505  23889313.29705  -2451179.59046  23889319.34446
   1429866.19508  20990901.42208   1106358.18248  20990909.45348
  -2571978.36505  22185278.37505  -1858929.42145  22185283.84845
   3207784.48906  24324439.06306   2480386.56545  24324444.79345
    878204.72907  21849498.71907    674452.00947  21849503.62947
   3760888.34606  23383856.95306   2837487.85446  23383865.46546
 18  5 30  0 42 55.0000000  0 10  3 14 16 22 23 26 27 29 31 32
    929867.23705  24005464.25005    529918.40746  24005472.28146
   2054403.27407  21083741.19507   1562853.94947  21083746.11747
   -272712.61107  20665873.63307   -210191.90847  20665878.70747
   1622042.56605  24033218.03105   1263928.23046  24033221.39546
  -3419180.98105  23886561.06305  -2462447.21746  23886566.84046
   1437831.25508  20992416.97708   1112564.71848  20992425.05548
  -2586955.18205  22182428.69505  -1870599.67145  22182435.31645
   3224177.35106  24327558.60206   2493160.23545  24327563.47745
    883307.68507  21850469.75807    678428.33747  21850474.58647
   3779563.13206  23387410.68006   2852039.60746  23387419.44946
 18  5 30  0 43  0.0000000  0 10  3 14 16 22 23 26 27 29 31 32
    935989.31005  24006629.00005    534688.84946  24006637.47746
   2065986.85407  21085945.07007   1571880.10847  21085949.96947
   -271960.89407  20666016.82807   -209606.15847  20666022.00847
   1630786.70805  24034881.85905   1270741.85246  24034885.46946
  -3433631.26206  23883811.46906  -2473707.16846  23883818.13746
   1445806.79408  20993934.64808   1118779.42248  20993942.69148
  -2601920.16405  22179581.02305  -1882260.68945  22179587.58645
   3240583.47406  24330680.86706   2505944.24645  24330686.32845
    888418.89807  21851442.43007    682411.09747  21851447.37547
   3798248.47206  23390966.44506   2866599.59646  23390975.21546
 18  5 30  0 43  5.0000000  0 10  3 14 16 22 23 26 27 29 31 32
    942126.62405  24007797.31305    539471.17046  24007806.44546
   2077588.94007  21088153.02307   1580920.69147  21088157.99247
   -271192.97807  20666162.93807   -209007.78347  20666167.87147
   1639541.24505  24036548.14105   1277563.55946  24036551.31646
  -3448070.96906  23881063.56306  -2484958.88346  23881069.89146
   1453793.52708  20995454.28108   1125002.84848  20995462.21948
  -2616872.54005  22176735.41405  -1893911.88345  22176741.77745
   3257003.57706  24333805.07806   2518739.10945  24333811.17245
    893539.12607  21852416.76607    686400.88047  21852421.80547
   3816945.08706  23394524.11706   2881168.36846  23394532.84046
 18  5 30  0 43 10.0000000  0 10  3 14 16 22 23 26 27 29 31 32
    948279.15505  24008968.46905    544265.35046  24008976.46546
   2089209.53407  21090364.23407   1589975.69547  21090369.18047
   -270408.85207  20666312.13307   -208396.77447  20666316.96147
   1648306.16705  24038215.62505   1284393.35746  24038220.05546
  -3462499.97506  23878317.69506  -2496202.26846  23878323.60246
   1461791.49008  20996976.41408   1131235.02648  20996984.28148
  -2631812.27905  22173892.03905  -1905553.23945  22173898.15645
   3273437.71405  24336932.65605   2531544.92345  24336937.87145
    898668.41607  21853392.74207    690397.72747  21853397.81647
   3835653.00506  23398083.78906   2895745.95146  23398092.61746
 18  5 30  0 43 15.0000000  0 10  3 14 16 22 23 26 27 29 31 32
    954446.46205  24010141.55505    549071.03646  24010149.92646
   2100848.25307  21092579.23407   1599044.82347  21092584.20347
   -269608.93307  20666464.46907   -207773.46247  20666469.32047
   1657081.06005  24039885.57005   1291230.92046  24039890.04746
  -3476918.77306  23875574.11706  -2507437.68046  23875580.38746
   1469800.20808  20998500.50008   1137475.58248  20998508.39148
  -2646739.79205  22171051.92205  -1917185.03645  22171058.06345
   3289885.37905  24340062.25805   2544361.30445  24340068.98445
    903806.31407  21854370.44507    694401.28347  21854375.54347
   3854371.77106  23401646.05506   2910331.98446  23401655.00046
 18  5 30  0 43 20.0000000  0 10  3 14 16 22 23 26 27 29 31 32
    960628.07205  24011318.35205    553887.87846  24011326.37146
   2112504.57207  21094797.18007   1608127.66847  21094802.30147
   -268793.72407  20666619.50807   -207138.23747  20666624.19547
   1665865.37905  24041557.40605   1298075.84046  24041561.66046
  -3491327.79006  23872831.95306  -2518665.48346  23872837.52046
   1477819.23308  21000026.35208   1143724.17248  21000034.27748
  -2661655.57805  22168213.66405  -1928807.73545  22168219.54745
   3306346.11805  24343194.37505   2557187.85545  24343201.14845
    908952.34508  21855349.71108    698411.17147  21855354.90247
   3873100.91206  23405209.82806   2924926.09446  23405218.78546
 18  5 30  0 43 25.0000000  0 10  3 14 16 22 23 26 27 29 31 32
    966824.84305  24012497.46905    558716.53746  24012505.81646
   2124179.39607  21097018.97707   1617224.93047  21097024.28547
   -267962.33907  20666777.82007   -206490.40847  20666782.66047
   1674660.07905  24043230.25005   1304928.85046  24043234.36346
  -3505726.14506  23870092.39106  -2529884.99746  23870097.84046
   1485849.42508  21001554.43008   1149981.46248  21001562.33248
  -2676558.68505  22165377.52305  -1940420.54045  22165384.50045
   3322820.80805  24346329.77305   2570025.26345  24346334.69545
    914107.40707  21856330.74207    702428.10247  21856335.96947
   3891841.28206  23408776.18006   2939528.95846  23408784.93846
 18  5 30  0 43 30.0000000  0 10  3 14 16 22 23 26 27 29 31 32
    973036.19305  24013678.71105    563556.54446  24013687.38746
   2135872.15207  21099243.99207   1626336.16247  21099249.25447
   -267115.38107  20666938.84407   -205830.44147  20666943.67247
   1683464.54805  24044906.35205   1311789.47446  24044910.44146
  -3520114.47706  23867354.26606  -2541096.68746  23867359.43446
   1493890.17708  21003084.63308   1156246.97848  21003092.61748
  -2691449.71705  22162543.60905  -1952023.94645  22162550.60945
   3339308.82405  24349467.57805   2582873.06245  24349473.03945
    919270.91907  21857313.30507    706451.61547  21857318.55547
   3910592.28206  23412344.31306   2954140.10146  23412353.62146
 18  5 30  0 43 35.0000000  0 10  3 14 16 22 23 26 27 29 31 32
    979262.78805  24014863.95305    568408.43346  24014873.08646
   2147583.51107  21101472.54707   1635461.89147  21101477.89147
   -266252.16707  20667103.01607   -205157.80847  20667107.77347
   1692279.44805  24046583.03105   1318658.22846  24046587.55546
  -3534492.01806  23864618.26606  -2552299.97946  23864623.41046
   1501942.19408  21004616.88308   1162521.27248  21004624.78548
  -2706327.98605  22159712.97705  -1963617.39745  22159719.39845
   3355810.87805  24352607.35205   2595731.76845  24352612.13345
    924443.57407  21858297.38307    710482.25147  21858302.58647
   3929354.60506  23415914.46106   2968760.07446  23415923.86346
 18  5 30  0 43 40.0000000  0 10  3 14 16 22 23 26 27 29 31 32
    985504.21305  24016051.60205    573271.89846  24016059.72746
   2159312.98907  21103704.60907   1644601.73847  21103709.82447
   -265373.13307  20667270.49207   -204472.84947  20667275.13347
   1701104.32605  24048262.71905   1325534.74046  24048267.50046
  -3548859.19806  23861884.10906  -2563495.20446  23861889.40646
   1510004.99708  21006151.25008   1168803.97248  21006159.21148
  -2721193.87105  22156884.07805  -1975201.18945  22156889.68045
   3372326.54005  24355751.10205   2608601.08745  24355755.94145
    929624.92506  21859283.72706    714519.66247  21859288.76647
   3948127.78406  23419487.10206   2983388.49046  23419496.43446
 18  5 30  0 43 45.0000000  0 10  3 14 16 22 23 26 27 29 31 32
    991759.79305  24017241.57005    578146.36146  24017249.69546
   2171060.00307  21105940.02307   1653755.25147  21105945.29747
   -264478.94007  20667440.50807   -203776.07847  20667445.10247
   1709938.53205  24049944.10205   1332418.53146  24049948.75446
  -3563216.63006  23859152.20306  -2574682.81446  23859157.74646
   1518077.96708  21007687.50808   1175094.59248  21007695.53948
  -2736048.04205  22154056.83605  -1986775.88445  22154062.75445
   3388855.10605  24358895.59405   2621480.44945  24358901.19545
    934814.36506  21860271.12506    718563.37847  21860276.18847
   3966911.17106  23423061.66406   2998024.87746  23423070.91446
 18  5 30  0 43 50.0000000  0 10  3 14 16 22 23 26 27 29 31 32
    998029.96205  24018435.11705    583032.17846  24018443.17246
   2182824.95207  21108178.89107   1662922.73947  21108184.09447
   -263569.14907  20667613.85907   -203067.15047  20667618.51247
   1718782.48505  24051627.05505   1339309.92046  24051631.61346
  -3577563.83706  23856422.00006  -2585862.44846  23856427.75446
   1526161.53608  21009225.78908   1181393.47248  21009233.91448
  -2750890.01605  22151232.61705  -1998341.04145  22151238.52345
   3405397.02005  24362043.36705   2634370.26345  24362049.33245
    940012.33907  21861260.14107    722613.74347  21861265.28547
   3985705.22706  23426638.03106   3012669.58146  23426647.34046
 18  5 30  0 43 55.0000000  0 10  3 14 16 22 23 26 27 29 31 32
   1004314.33505  24019631.20305    587929.05846  24019639.57446
   2194607.48907  21110420.90607   1672103.93147  21110426.20347
   -262644.09207  20667789.72707   -202346.32647  20667794.52047
   1727635.84205  24053311.56305   1346208.62946  24053316.23846
  -3591901.15806  23853693.50006  -2597034.38546  23853699.10246
   1534255.34708  21010766.01608   1187700.33448  21010774.18848
  -2765720.12605  22148410.87505  -2009896.97746  22148416.64146
   3421951.93105  24365193.66405   2647270.19945  24365199.04345
    945218.49407  21862251.01607    726670.48447  21862256.21947
   4004509.56706  23430216.31306   3027322.29646  23430225.66846
 18  5 30  0 44  0.0000000  0 10  3 14 16 22 23 26 27 29 31 32
   1010613.77405  24020829.83605    592837.70046  24020837.42246
   2206408.44307  21112666.66407   1681299.47747  21112671.83247
   -261702.95207  20667968.85907   -201612.97547  20667973.79347
   1736499.43505  24054997.68805   1353115.31346  24055002.72746
  -3606227.82106  23850967.57806  -2608198.02046  23850973.16846
   1542360.20908  21012308.18808   1194015.80648  21012316.43048
  -2780537.52305  22145590.47705  -2021443.00245  22145596.19545
   3438520.65705  24368347.30505   2660180.88745  24368353.05945
    950433.65207  21863243.34407    730734.24047  21863248.58247
   4023325.01306  23433796.89806   3041983.66446  23433805.79746
 18  5 30  0 44  5.0000000  0 10  3 14 16 22 23 26 27 29 31 32
   1016927.63305  24022031.07805    597757.61446  24022039.02746
   2218227.13507  21114915.64807   1690508.84747  21114920.60547
   -260746.34907  20668150.87507   -200867.57147  20668155.92647
   1745372.60805  24056686.96905   1360029.47446  24056691.45746
  -3620544.41206  23848243.26606  -2619353.80146  23848248.60946
   1550475.50208  21013852.65608   1200339.40948  21013860.86348
  -2795342.83505  22142773.32805  -2032979.59945  22142779.34045
   3455102.56905  24371502.25805   2673101.82945  24371507.68445
    955657.22707  21864237.43807    734804.55647  21864242.74647
   4042150.95206  23437379.30506   3056653.20846  23437388.41446
 18  5 30  0 44 10.0000000  0 10  3 14 16 22 23 26 27 29 31 32
   1023256.84405  24023235.47705    602689.45446  24023243.46146
   2230064.53507  21117168.17207   1699732.79547  21117173.09447
   -259773.38107  20668335.99207   -200109.41747  20668340.97347
   1754256.29805  24058377.04705   1366951.82346  24058381.45346
  -3634849.94606  23845520.81306  -2630500.95946  23845525.62946
   1558602.15208  21015399.11708   1206671.85848  21015407.25448
  -2810135.10305  22139958.51605  -2044506.03346  22139964.89146
   3471698.60205  24374660.28905   2686033.80146  24374665.44546
    960890.11807  21865233.16407    738882.13147  21865238.60247
   4060988.26606  23440964.35906   3071331.61046  23440973.31646
 18  5 30  0 44 15.0000000  0 10  3 14 16 22 23 26 27 29 31 32
   1029600.02805  24024441.71905    607632.18446  24024449.08246
   2241919.30007  21119423.93007   1708970.27047  21119428.92247
   -258785.39307  20668524.07807   -199339.55847  20668528.96547
   1763149.10905  24060070.01605   1373881.26246  24060073.97746
  -3649145.81706  23842800.07806  -2641640.58346  23842805.52746
   1566738.80108  21016947.43008   1213012.10048  21016955.52048
  -2824915.66405  22137145.90605  -2056023.32445  22137153.31645
   3488307.39506  24377821.03106   2698975.69746  24377826.32846
    966131.00507  21866230.46107    742965.93747  21866235.92247
   4079835.62106  23444550.82806   3086017.83546  23444559.70346
 18  5 30  0 44 20.0000000  0 10  3 14 16 22 23 26 27 29 31 32
   1035958.08505  24025652.21105    612586.49046  24025660.59446
   2253792.28707  21121683.60207   1718221.94347  21121688.47747
   -257781.51407  20668714.99207   -198557.31247  20668719.91447
   1772051.95605  24061764.42205   1380818.55446  24061769.26246
  -3663431.11006  23840082.25006  -2652771.98846  23840087.59446
   1574886.31108  21018497.85208   1219360.80748  21018505.80148
  -2839683.62205  22134335.89105  -2067530.80546  22134342.75046
   3504929.77905  24380984.41405   2711928.19946  24380990.09846
    971380.78007  21867229.43007    747056.66747  21867234.89147
   4098693.89406  23448139.32806   3100712.56946  23448148.29746
 18  5 30  0 44 25.0000000  0 10  3 14 16 22 23 26 27 29 31 32
   1042331.69905  24026865.14805    617552.94846  24026874.00046
   2265684.17207  21123946.56307   1727488.34447  21123951.46147
   -256761.03207  20668909.14807   -197762.13147  20668913.98847
   1780965.48605  24063459.85205   1387764.15146  24063464.03546
  -3677705.07706  23837365.84406  -2663894.57946  23837370.88346
   1583045.39708  21020050.57008   1225718.53748  21020058.35548
  -2854438.23005  22131528.12505  -2079027.90846  22131535.35946
   3521566.46505  24384149.97705   2724891.83546  24384156.07046
    976640.11307  21868230.32807    751154.84847  21868235.66047
   4117563.75706  23451730.17206   3115416.35346  23451738.83646
 18  5 30  0 44 30.0000000  0 10  3 14 16 22 23 26 27 29 31 32
   1048719.94505  24028081.05505    622530.80146  24028089.88346
   2277594.05507  21126212.79707   1736768.76847  21126217.88347
   -255724.84607  20669106.55507   -196954.71647  20669111.48847
   1789888.80105  24065158.67205   1394717.38546  24065163.20746
  -3691968.63006  23834651.53906  -2675009.04346  23834657.16446
   1591215.12808  21021605.20308   1232084.55948  21021612.74248
  -2869180.44005  22128722.82805  -2090515.34146  22128730.16846
   3538216.53905  24387318.44505   2737865.88646  24387323.88346
    981908.14307  21869232.66407    755259.80647  21869238.10247
   4136444.32706  23455323.15606   3130128.46946  23455331.78546
 18  5 30  0 44 35.0000000  0 10  3 14 16 22 23 26 27 29 31 32
   1055122.47105  24029298.97705    627519.77145  24029307.21945
   2289521.59807  21128482.44507   1746062.95547  21128487.48447
   -254673.35707  20669306.57007   -196135.37547  20669311.65647
   1798821.53805  24066857.82005   1401677.96146  24066861.39546
  -3706222.10906  23831939.30506  -2686115.68546  23831944.50846
   1599395.14307  21023161.79707   1238458.60048  21023169.12548
  -2883910.52505  22125919.88305  -2101993.33846  22125927.11746
   3554879.64705  24390489.89105   2750850.13246  24390495.17646
    987184.48208  21870236.82008    759371.23347  21870242.23447
   4155335.22006  23458918.07806   3144848.62946  23458926.57846
 18  5 30  0 44 40.0000000  0 10  3 14 16 22 23 26 27 29 31 32
   1061539.04304  24030520.20304    632519.67645  24030528.92645
   2301466.57007  21130755.74207   1755370.72347  21130760.86347
   -253606.73607  20669509.49207   -195304.24747  20669514.69547
   1807763.46505  24068559.78105   1408645.69046  24068563.39146
  -3720465.64206  23829228.47706  -2697214.55246  23829233.87946
   1607585.24907  21024720.35907   1244840.50248  21024727.55948
  -2898628.72505  22123118.78905  -2113462.05746  22123127.09046
   3571555.54205  24393662.82805   2763844.33646  24393668.43046
    992468.96807  21871242.46107    763489.00747  21871247.91047
   4174236.21506  23462514.52306   3159576.65446  23462523.38746
 18  5 30  0 44 45.0000000  0 10  3 14 16 22 23 26 27 29 31 32
   1067970.16004  24031744.33604    637530.94845  24031752.28545
   2313429.47807  21133032.13307   1764692.46647  21133037.28947
   -252524.49207  20669715.35207   -194460.94247  20669720.85947
   1816715.06405  24070263.13305   1415620.95346  24070266.59046
  -3734698.76006  23826520.16406  -2708305.26546  23826525.68446
   1615785.91008  21026280.82808   1251230.62948  21026287.92248
  -2913334.47105  22120320.95305  -2124921.08446  22120328.96146
   3588244.74705  24396838.33605   2776848.90746  24396843.93846
    997762.10407  21872249.62507    767613.52047  21872255.12147
   4193147.80606  23466113.42206   3174312.94246  23466122.19146
 18  5 30  0 44 50.0000000  0 10  3 14 16 22 23 26 27 29 31 32
   1074415.31305  24032971.25805    642553.14845  24032979.32445
   2325409.80407  21135312.02307   1774027.77747  21135317.07447
   -251427.16007  20669924.17207   -193605.87747  20669929.53947
   1825675.88205  24071968.66405   1422603.39546  24071972.71946
  -3748922.02706  23823813.27306  -2719388.32046  23823818.89846
   1623996.64908  21027843.33608   1257628.60548  21027850.39548
  -2928028.32005  22117524.32805  -2136370.83846  22117532.60546
   3604946.71405  24400016.57805   2789863.42046  24400022.37946
   1003063.41606  21873258.64106    771744.40947  21873264.11347
   4212069.49306  23469714.10906   3189057.08246  23469722.80946
 18  5 30  0 44 55.0000000  0 10  3 14 16 22 23 26 27 29 31 32
   1080875.86005  24034200.44505    647587.33346  24034208.23046
   2337408.88507  21137595.30507   1783377.70547  21137600.32047
   -250313.40107  20670136.32007   -192738.01347  20670141.79347
   1834647.20505  24073675.82805   1429594.02346  24073680.24646
  -3763134.03606  23821108.89806  -2730462.61446  23821114.43046
   1632218.77707  21029408.00807   1264035.45648  21029415.13748
  -2942708.85805  22114730.87505  -2147810.23346  22114738.60246
   3621662.82005  24403197.42205   2802888.95446  24403203.51646
   1008374.24106  21874269.15606    775882.71547  21874274.62947
   4231002.59306  23473316.77306   3203810.12846  23473325.53146
 18  5 30  0 45  0.0000000  0 10  3 14 16 22 23 26 27 29 31 32
   1087350.44405  24035432.32805    652632.45946  24035439.90246
   2349425.43507  21139881.87507   1792741.24847  21139886.94947
   -249184.52007  20670350.84407   -191858.36347  20670356.24647
   1843627.74905  24075384.14105   1436591.83346  24075388.81646
  -3777336.04606  23818406.42206  -2741529.12046  23818411.78946
   1640450.97107  21030974.42207   1270450.15048  21030981.62148
  -2957377.39905  22111939.40605  -2159240.25646  22111947.52046
   3638391.72005  24406381.03105   2815924.45246  24406387.24246
   1013693.23706  21875281.50006    780027.38547  21875286.87947
   4249945.79206  23476921.86706   3218571.04246  23476930.63746
 18  5 30  0 45  5.0000000  0 10  3 14 16 22 23 26 27 29 31 32
   1093839.04805  24036667.49205    657688.51545  24036674.69145
   2361459.40407  21142171.96107   1802118.36547  21142177.11747
   -248040.55507  20670568.60907   -190966.96447  20670573.91847
   1852617.43205  24077094.92205   1443596.76746  24077100.13746
  -3791528.09406  23815705.97706  -2752587.85746  23815711.42646
   1648693.22107  21032542.83607   1276872.67648  21032550.08248
  -2972033.98405  22109150.79705  -2170660.96546  22109158.50046
   3655133.37605  24409566.27305   2828969.90146  24409573.25046
   1019020.40606  21876295.05506    784178.42247  21876300.43447
   4268899.05106  23480528.50806   3233339.80246  23480536.99646
 18  5 30  0 45 10.0000000  0 10  3 14 16 22 23 26 27 29 31 32
   1100341.65805  24037904.71105    662755.48645  24037912.48445
   2373510.75107  21144465.18007   1811509.02047  21144470.37147
   -246881.49507  20670789.15607   -190063.80347  20670794.51247
   1861616.24905  24078806.80505   1450608.83846  24078811.63346
  -3805710.18706  23813007.44506  -2763638.83746  23813013.03546
   1656945.51007  21034113.39807   1283303.02648  21034120.80948
  -2986678.52605  22106363.22705  -2182072.28146  22106371.60946
   3671887.77405  24412754.78905   2842025.26746  24412762.37546
   1024355.76206  21877310.32006    788335.83647  21877315.51247
   4287862.34406  23484137.19506   3248116.37646  23484145.52046
 18  5 30  0 45 15.0000000  0 10  3 14 16 22 23 26 27 29 31 32
   1106858.92305  24039144.86705    667833.87945  24039153.48445
   2385580.15907  21146761.72707   1820913.75047  21146767.08247
   -245706.69307  20671012.71107   -189148.37247  20671018.04347
   1870624.85305  24080521.51605   1457628.53746  24080526.41446
  -3819881.67406  23810310.46906  -2774681.55646  23810315.23846
   1665208.48808  21035685.65608   1289741.70648  21035693.07848
  -3001310.44105  22103579.15605  -2193473.77546  22103587.43446
   3688655.56105  24415945.64805   2855091.07245  24415953.55145
   1029699.93706  21878327.35906    792500.12647  21878332.45747
   4306836.35106  23487748.14106   3262901.29746  23487756.64146
 18  5 30  0 45 20.0000000  0 10  3 14 16 22 23 26 27 29 31 32
   1113390.40705  24040387.60905    672923.33545  24040396.10945
   2397667.22907  21149062.04707   1830332.24147  21149067.75447
   -244516.60207  20671239.39107   -188221.03347  20671244.72347
   1879642.82005  24082237.94505   1464655.50846  24082242.16446
  -3834042.90206  23807615.84406  -2785716.28546  23807620.35546
   1673481.72908  21037260.02308   1296188.38248  21037267.48048
  -3015930.05505  22100797.18005  -2204865.67046  22100805.12946
   3705436.31905  24419138.44505   2868166.99845  24419145.55145
   1035052.54506  21879345.83606    796670.98547  21879350.92247
   4325820.64306  23491360.82806   3277694.23646  23491369.19946
 18  5 30  0 45 25.0000000  0 10  3 14 16 22 23 26 27 29 31 32
   1119936.76805  24041633.25005    678024.38545  24041642.40645
   2409772.56307  21151365.47707   1839764.96447  21151371.20747
   -243310.58507  20671468.66407   -187281.28447  20671473.83247
   1888670.80405  24083955.53105   1471690.29546  24083959.51646
  -3848193.22706  23804923.31306  -2796742.52246  23804927.07446
   1681765.84508  21038836.39108   1302643.52948  21038843.90648
  -3030536.76105  22098017.16405  -2216247.52846  22098025.21946
   3722230.65105  24422334.12505   2881253.48645  24422340.80545
   1040414.20006  21880366.28106    800848.89347  21880371.59047
   4344815.81406  23494975.48406   3292495.63946  23494983.24646
 18  5 30  0 45 30.0000000  0 10  3 14 16 22 23 26 27 29 31 32
   1126497.68705  24042881.43005    683136.76845  24042890.05945
   2421895.94207  21153672.55507   1849211.74547  21153678.42647
   -242088.87807  20671701.28107   -186329.30747  20671706.41447
   1897708.51505  24085675.75005   1478732.65446  24085679.62946
  -3862332.87906  23802232.83606  -2807760.44046  23802237.45346
   1690060.59207  21040415.03107   1309106.96248  21040422.54748
  -3045130.78505  22095240.26605  -2227619.50446  22095248.73046
   3739038.32005  24425532.56305   2894350.38145  24425539.31345
   1045784.67206  21881388.06306    805033.66847  21881393.21947
   4363821.61806  23498591.75806   3307305.33846  23498599.48446
 18  5 30  0 45 35.0000000  0 10  3 14 16 22 23 26 27 29 31 32
   1133073.62605  24044133.78905    688260.86246  24044141.78546
   2434037.67907  21155983.00807   1858672.83747  21155988.58647
   -240851.13907  20671936.71107   -185364.83647  20671941.82047
   1906756.31505  24087397.25805   1485782.88246  24087400.79746
  -3876461.48706  23799543.82806  -2818769.75746  23799548.79746
   1698366.33007  21041995.38307   1315578.96048  21042002.92248
  -3059711.74205  22092465.60205  -2238981.29046  22092473.97346
   3755859.68005  24428734.16405   2907457.94245  24428740.53945
   1051164.33506  21882411.89806    809225.60947  21882417.06647
   4382838.42906  23502211.03906   3322123.60746  23502218.57846
 18  5 30  0 45 40.0000000  0 10  3 14 16 22 23 26 27 29 31 32
   1139663.93905  24045387.14105    693396.14745  24045394.78545
   2446197.22307  21158296.68007   1868147.80347  21158302.12947
   -239597.88207  20672175.29707   -184388.27647  20672180.34847
   1915813.59605  24089121.14105   1492840.49546  24089124.31646
  -3890579.59106  23796857.32006  -2829770.87446  23796861.76246
   1706682.51608  21043577.92208   1322059.10048  21043585.56648
  -3074280.11705  22089693.25805  -2250333.24546  22089701.95746
   3772694.17305  24431937.45305   2920575.72346  24431944.39546
   1056552.69506  21883437.38306    813424.32847  21883442.46947
   4401865.67406  23505831.56306   3336950.01346  23505839.38346
 18  5 30  0 45 45.0000000  0 10  3 14 16 22 23 26 27 29 31 32
   1146269.06705  24046644.79705    698543.00545  24046651.25445
   2458375.00407  21160614.31307   1877636.98447  21160619.86747
   -238328.69707  20672416.72707   -183399.30247  20672421.85947
   1924880.84705  24090846.42205   1499905.88446  24090849.71546
  -3904686.77606  23794172.58606  -2840763.46246  23794176.52346
   1715009.57208  21045162.64108   1328547.70848  21045170.26248
  -3088835.53605  22086923.46905  -2261675.12246  22086932.02746
   3789542.22205  24435142.86705   2933704.08746  24435149.53546
   1061950.15706  21884464.25806    817630.13847  21884469.37947
   4420903.80006  23509454.59406   3351784.89146  23509462.54346
 18  5 30  0 45 50.0000000  0 10  3 14 16 22 23 26 27 29 31 32
   1152888.29105  24047903.64105    703700.83445  24047910.19145
   2470570.29007  21162935.00007   1887139.79947  21162940.52047
   -237044.32807  20672661.10907   -182398.49547  20672666.10247
   1933957.34205  24092573.62505   1506978.46846  24092576.74246
  -3918783.77806  23791489.96906  -2851748.11046  23791492.78146
   1723346.75008  21046749.03908   1335044.20748  21046756.60248
  -3103378.64605  22084156.32005  -2273007.41446  22084165.14846
   3806403.05705  24438352.32805   2946842.38546  24438358.63346
   1067355.96606  21885493.02306    821842.45347  21885498.16847
   4439952.04606  23513079.43806   3366627.65746  23513087.23446
 18  5 30  0 45 55.0000000  0 10  3 14 16 22 23 26 27 29 31 32
   1159521.52705  24049165.85205    708869.59045  24049173.14545
   2482783.04607  21165258.90607   1896656.22447  21165264.36747
   -235744.81107  20672908.48407   -181385.88447  20672913.54747
   1943042.97105  24094302.38305   1514058.17346  24094305.79346
  -3932870.59306  23788809.46906  -2862724.84446  23788812.46946
   1731694.01308  21048337.41408   1341548.56148  21048345.05948
  -3117909.54805  22081391.07005  -2284330.20446  22081400.03946
   3823276.63705  24441563.19505   2959990.61046  24441569.98046
   1072770.11406  21886523.35906    826061.26647  21886528.58647
   4459010.35506  23516706.07006   3381478.27346  23516714.06646
 18  5 30  0 46  0.0000000  0 10  3 14 16 22 23 26 27 29 31 32
   1166169.39905  24050430.95305    714049.76345  24050437.89545
   2495013.90307  21167586.37507   1906186.75847  21167591.68447
   -234429.56107  20673158.85907   -180361.01547  20673163.93447
   1952138.37905  24096032.74205   1521145.50446  24096036.35246
  -3946946.59506  23786131.04706  -2873693.15946  23786134.41046
   1740051.92708  21049927.82008   1348061.21748  21049935.47748
  -3132427.60305  22078628.26605  -2295642.97946  22078637.41046
   3840163.56705  24444776.80505   2973149.26546  24444784.19146
   1078193.17806  21887555.31306    830287.03447  21887560.62147
   4478079.29806  23520334.78106   3396337.17246  23520342.87146
 18  5 30  0 46  5.0000000  0 10  3 14 16 22 23 26 27 29 31 32
   1172831.93105  24051699.66405    719241.36445  24051706.05145
   2507262.83207  21169917.43807   1915731.37547  21169922.58247
   -233098.51807  20673412.11707   -179323.83847  20673417.08647
   1961243.58205  24097765.75005   1528240.44646  24097769.43046
  -3961011.75006  23783454.27306  -2884653.03346  23783457.62546
   1748420.56308  21051520.43808   1354582.23148  21051528.15248
  -3146932.73005  22075867.75805  -2306945.66346  22075877.65246
   3857063.89205  24447992.46105   2986318.35946  24448000.01246
   1083625.21607  21888589.01607    834519.78847  21888594.39547
   4497158.94406  23523965.61706   3411204.40546  23523973.03946
 18  5 30  0 46 10.0000000  0 10  3 14 16 22 23 26 27 29 31 32
   1179508.12705  24052969.75005    724443.56945  24052976.00845
   2519528.88207  21172251.46107   1925289.33147  21172256.41847
   -231752.69607  20673668.07807   -178275.14947  20673673.02347
   1970357.56105  24099500.68005   1535342.22746  24099504.59446
  -3975067.01606  23780779.72706  -2895605.20346  23780782.66846
   1756798.92408  21053114.66408   1361110.82448  21053122.30948
  -3161425.88305  22073109.87505  -2318239.01946  22073119.54746
   3873976.64005  24451210.58605   2999497.11446  24451218.75846
   1089065.29207  21889624.27307    838758.80547  21889629.55947
   4516248.29806  23527598.25006   3426079.20846  23527605.98846
 18  5 30  0 46 15.0000000  0 10  3 14 16 22 23 26 27 29 31 32
   1186198.81405  24054243.38305    729657.06245  24054250.38345
   2531812.87907  21174589.07007   1934861.27147  21174593.89847
   -230391.28707  20673927.40607   -177214.31447  20673932.23447
   1979481.16605  24101236.64105   1542451.51046  24101240.60246
  -3989111.50806  23778107.25006  -2906548.98446  23778110.36746
   1765187.81608  21054711.08608   1367647.62448  21054718.62548
  -3175906.25505  22070354.77305  -2329522.42146  22070364.28146
   3890902.63905  24454431.64805   3012686.19946  24454439.35246
   1094514.21306  21890661.12506    843004.71247  21890666.28147
   4535348.17006  23531232.65606   3440962.21446  23531240.74646
 18  5 30  0 46 20.0000000  0 10  3 14 16 22 23 26 27 29 31 32
   1192902.97605  24055519.14105    734881.08445  24055525.83245
   2544113.76507  21176929.68807   1944446.37647  21176934.63347
   -229015.29607  20674189.10907   -176142.11147  20674193.99647
   1988613.35705  24102973.93005   1549567.50545  24102977.42245
  -4003146.30806  23775435.98406  -2917485.18246  23775440.14546
   1773586.22208  21056309.39108   1374191.84048  21056316.82448
  -3190374.84905  22067601.64805  -2340796.64246  22067610.45346
   3907840.77305  24457654.93805   3025884.73745  24457662.75845
   1099970.92706  21891699.50006    847256.68647  21891704.73847
   4554457.52506  23534868.83606   3455852.60646  23534876.63346
 18  5 30  0 46 25.0000000  0 10  3 14 16 22 23 26 27 29 31 32
   1199622.07805  24056797.51605    740116.74045  24056804.18445
   2556433.08307  21179274.13307   1954045.84247  21179279.23047
   -227623.22807  20674454.09407   -175057.38247  20674458.79347
   1997755.62605  24104713.97705   1556691.35645  24104717.48045
  -4017169.82106  23772767.58606  -2928412.58946  23772771.50046
   1781995.63807  21057909.71907   1380744.63248  21057917.05948
  -3204830.09905  22064850.41405  -2352060.47246  22064858.71546
   3924792.56105  24460880.84405   3039093.91345  24460888.79345
   1105436.97207  21892739.57007    851515.93747  21892744.80947
   4573577.86906  23538507.37506   3470751.54546  23538514.94946
 18  5 30  0 46 30.0000000  0 10  3 14 16 22 23 26 27 29 31 32
   1206354.92005  24058078.73405    745363.09745  24058086.12145
   2568769.60807  21181621.47707   1963658.71247  21181626.66847
   -226216.27907  20674721.78907   -173961.06047  20674726.48847
   2006906.81105  24106456.14805   1563822.13146  24106460.60246
  -4031183.25006  23770101.12506  -2939332.13946  23770104.94546
   1790414.85807  21059511.75007   1387305.06048  21059519.06648
  -3219273.22405  22062102.18805  -2363314.85646  22062110.87546
   3941756.81205  24464109.04705   3052312.79645  24464117.14845
   1110911.18706  21893781.19506    855781.55647  21893786.52747
   4592708.00806  23542147.66406   3485658.12746  23542155.77746
 18  5 30  0 46 35.0000000  0 10  3 14 16 22 23 26 27 29 31 32
   1213101.88405  24059362.19505    750620.48345  24059368.03145
   2581123.71407  21183972.47707   1973285.27947  21183977.80947
   -224794.11907  20674992.53107   -172852.88647  20674997.25447
   2016067.25805  24108198.46905   1570960.12846  24108202.33646
  -4045186.23906  23767436.23406  -2950243.53446  23767440.18446
   1798844.23407  21061115.78107   1393873.40548  21061122.94548
  -3233703.84605  22059356.17205  -2374559.49846  22059364.50846
   3958733.85205  24467339.54705   3065541.66545  24467347.29745
   1116393.91808  21894824.65608    860053.80447  21894830.02347
   4611848.27406  23545789.89806   3500572.60646  23545797.94146
 18  5 30  0 46 40.0000000  0 10  3 14 16 22 23 26 27 29 31 32
   1219862.72505  24060649.16405    755888.66745  24060656.42245
   2593495.20407  21186326.81307   1982925.39647  21186332.33247
   -223356.91707  20675265.87507   -171732.98947  20675270.58647
   2025236.70205  24109942.93005   1578105.14746  24109946.99646
  -4059178.96806  23764773.34406  -2961146.95846  23764777.19946
   1807283.56707  21062721.74207   1400449.50848  21062728.83648
  -3248122.14705  22056612.24205  -2385794.53846  22056620.63746
   3975723.51205  24470572.26605   3078780.36345  24470579.51245
   1121884.99608  21895869.38308    864332.55947  21895874.77347
   4630998.46706  23549434.14106   3515494.81446  23549442.30146
 18  5 30  0 46 45.0000000  0 10  3 14 16 22 23 26 27 29 31 32
   1226637.54905  24061938.58605    761167.74945  24061945.26645
   2605884.13907  21188684.23407   1992579.10747  21188689.78947
   -221904.60307  20675542.28107   -170601.31447  20675546.87547
   2034415.15405  24111690.07005   1585257.17546  24111694.12546
  -4073161.37506  23762112.52306  -2972042.32446  23762116.74246
   1815732.95207  21064329.65607   1407033.44348  21064336.77348
  -3262527.98805  22053871.18805  -2397019.86546  22053879.48846
   3992725.85805  24473808.71105   3092028.95246  24473815.99246
   1127384.51007  21896916.00807    868617.88847  21896921.31647
   4650158.65206  23553080.37506   3530424.81146  23553088.54746
 18  5 30  0 46 50.0000000  0 10  3 14 16 22 23 26 27 29 31 32
   1233427.31405  24063229.71905    766458.48045  24063237.16445
   2618291.48107  21191045.31307   2002247.16447  21191050.96147
   -220436.22007  20675821.71107   -169457.11747  20675826.38747
   2043603.64405  24113438.92205   1592417.02345  24113443.07045
  -4087132.44006  23759454.28906  -2982928.85046  23759457.95746
   1824193.33108  21065939.57808   1413625.94748  21065946.73048
  -3276920.42605  22051132.35905  -2408234.74446  22051140.53146
   4009741.83205  24477046.22705   3105288.15745  24477051.61745
   1132893.38807  21897964.28107    872910.51747  21897969.64847
   4669329.80406  23556728.66406   3545363.34446  23556736.77746
 18  5 30  0 46 55.0000000  0 10  3 14 16 22 23 26 27 29 31 32
   1240230.95305  24064524.98405    771760.01346  24064533.46146
   2630716.16307  21193409.44507   2011928.73047  21193415.08247
   -218952.78407  20676104.08607   -168301.19147  20676108.76247
   2052801.10605  24115189.41405   1599583.87945  24115192.96545
  -4101093.15906  23756797.64106  -2993807.34546  23756801.10946
   1832663.65307  21067551.42207   1420226.19148  21067558.75048
  -3291300.48405  22048395.58605  -2419439.98946  22048402.73846
   4026770.37905  24480286.80505   3118557.16445  24480293.16845
   1138410.63408  21899014.18808    877209.67047  21899019.47347
   4688510.86306  23560378.50006   3560309.60646  23560386.33246
 18  5 30  0 47  0.0000000  0 10  3 14 16 22 23 26 27 29 31 32
   1247048.02805  24065822.32005    777072.01145  24065830.56345
   2643157.74707  21195777.14107   2021623.46447  21195782.71947
   -217454.75707  20676389.20307   -167133.89747  20676393.96147
   2062007.10205  24116940.84405   1606757.37645  24116944.89845
  -4115043.96406  23754143.18006  -3004678.11546  23754146.27346
   1841143.46307  21069165.07007   1426833.82848  21069172.48048
  -3305668.56905  22045661.47705  -2430635.92245  22045670.17645
   4043811.09305  24483529.03105   3131835.63045  24483534.69145
   1143935.81607  21900065.64107    881515.00347  21900070.94947
   4707701.37006  23564030.39106   3575263.22946  23564038.56346
 18  5 30  0 47  5.0000000  0 10  3 14 16 22 23 26 27 29 31 32
   1253879.15405  24067121.77305    782394.95745  24067130.75445
   2655616.86207  21198148.14107   2031331.86047  21198153.75447
   -215941.53207  20676677.10907   -165954.76647  20676681.86747
   2071222.24905  24118693.94505   1613938.01246  24118697.23846
  -4128984.24206  23751490.30506  -3015540.68146  23751493.73846
   1849633.38807  21070780.71907   1433449.35148  21070788.14148
  -3320024.05505  22042929.89805  -2441821.99746  22042937.56646
   4060864.56805  24486774.96905   3145124.04045  24486780.84045
   1149469.56408  21901118.53908    885827.00547  21901123.75447
   4726901.95606  23567683.79706   3590224.71046  23567691.62946
 18  5 30  0 47 10.0000000  0 10  3 14 16 22 23 26 27 29 31 32
   1260724.67505  24068425.08605    787729.14545  24068433.25845
   2668093.82707  21200522.35907   2041054.17247  21200527.91447
   -214412.77907  20676967.93007   -164763.53247  20676972.72347
   2080446.88405  24120449.56305   1621126.04546  24120452.80946
  -4142913.68406  23748839.80506  -3026394.79746  23748843.35546
   1858133.77007  21072398.30507   1440073.02048  21072405.89148
  -3334366.61405  22040200.59405  -2452998.02346  22040208.08646
   4077931.07005  24490022.53905   3158422.60046  24490028.87946
   1155012.22108  21902173.29708    890145.94747  21902178.64147
   4746112.92706  23571339.39806   3605194.26646  23571347.53546
 18  5 30  0 47 15.0000000  0 10  3 14 16 22 23 26 27 29 31 32
   1267584.10105  24069729.82005    793074.11245  24069736.80945
   2680588.21007  21202899.96107   2050790.08647  21202905.56347
   -212868.93407  20677261.65607   -163560.53547  20677266.35547
   2089680.54805  24122206.95305   1628321.10145  24122210.53945
  -4156832.62606  23746191.14806  -3037240.73746  23746193.90246
   1866644.15706  21074017.73406   1446704.48548  21074025.28548
  -3348696.59905  22037473.55505  -2464164.22846  22037481.49246
   4095010.24505  24493273.01605   3171731.05545  24493279.49645
   1160563.37908  21903229.75808    894471.51847  21903234.93847
   4765333.88906  23574997.18006   3620171.63246  23575005.10546
 18  5 30  0 47 20.0000000  0 10  3 14 16 22 23 26 27 29 31 32
   1274457.59805  24071038.53105    798430.08145  24071045.85945
   2693100.16707  21205280.82807   2060539.66247  21205287.06347
   -211309.87607  20677558.28107   -162345.68547  20677563.01647
   2098923.38705  24123965.71905   1635523.28246  24123969.32846
  -4170740.98306  23743544.03906  -3048078.41846  23743546.37146
   1875164.66107  21075639.14807   1453343.82448  21075646.77048
  -3363013.87405  22034749.21105  -2475320.54545  22034756.35245
   4112102.15205  24496524.80505   3185049.40946  24496531.01646
   1166123.15007  21904287.75007    898803.80547  21904293.01247
   4784564.91306  23578656.60906   3635156.82646  23578664.92246
 18  5 30  0 47 25.0000000  0 10  3 14 16 22 23 26 27 29 31 32
   1281345.14605  24072349.56305    803797.03445  24072355.66845
   2705629.69107  21207665.08607   2070302.90147  21207671.06347
   -209735.58007  20677857.99207   -161118.95947  20677862.91447
   2108175.37805  24125726.40605   1642732.62145  24125730.09845
  -4184638.72106  23740899.72706  -3058907.82546  23740901.75446
   1883695.29706  21077262.53906   1459991.05548  21077270.13748
  -3377318.49605  22032027.21905  -2486467.01445  22032034.68845
   4129206.80905  24499779.86705   3198377.72045  24499785.19945
   1171691.61908  21905347.35208    903142.86947  21905352.73047
   4803806.00506  23582318.00806   3650149.85646  23582326.60246
 18  5 30  0 47 30.0000000  0 10  3 14 16 22 23 26 27 29 31 32
   1288246.74405  24073661.10905    809174.87845  24073667.28545
   2718176.79207  21210052.82807   2080079.83647  21210058.72347
   -208146.04407  20678160.43807   -159880.36047  20678165.47747
   2117436.50905  24127489.04705   1649949.08745  24127492.15245
  -4198525.77006  23738256.89106  -3069728.88546  23738258.95346
   1892236.09606  21078887.69506   1466646.21648  21078895.24648
  -3391610.36805  22029307.35205  -2497603.55645  22029314.66845
   4146324.24005  24503037.35905   3211715.99445  24503043.38345
   1177268.69508  21906408.67208    907488.63847  21906414.19147
   4823057.16706  23585981.33606   3665150.73246  23585990.34046
 18  5 30  0 47 35.0000000  0 10  3 14 16 22 23 26 27 29 31 32
   1295162.20904  24074976.64104    814563.52745  24074983.21545
   2730741.26407  21212443.53907   2089870.31547  21212449.36347
   -206541.45907  20678465.87507   -158630.03347  20678471.11347
   2126706.58505  24129253.10205   1657172.52445  24129256.17245
  -4212402.33806  23735616.32006  -3080541.78046  23735618.46546
   1900786.84207  21080514.86707   1473309.13248  21080522.41848
  -3405889.68005  22026589.41405  -2508730.29345  22026596.74245
   4163454.20105  24506296.93005   3225064.02145  24506302.69545
   1182854.24008  21907471.57808    911841.00147  21907477.07447
   4842318.23105  23589646.27305   3680159.33246  23589655.05546
 18  5 30  0 47 40.0000000  0 10  3 14 16 22 23 26 27 29 31 32
   1302091.79704  24076295.95304    819963.21045  24076303.89145
   2743323.34907  21214838.19507   2099674.53247  21214843.97347
   -204921.61307  20678774.10207   -157367.81847  20678779.39847
   2135985.88805  24131018.46105   1664403.14045  24131022.16445
  -4226268.17106  23732977.51606  -3091346.30046  23732979.61346
   1909347.77607  21082143.96107   1479979.99548  21082151.45348
  -3420156.16805  22023874.66405  -2519847.02245  22023882.59045
   4180596.97305  24509559.01605   3238422.01245  24509564.85245
   1188448.50808  21908536.17208    916200.16147  21908541.66847
   4861589.41005  23593313.75805   3695175.81746  23593322.85546
 18  5 30  0 47 45.0000000  0 10  3 14 16 22 23 26 27 29 31 32
   1309035.21404  24077618.10904    825373.66045  24077626.15245
   2755922.77307  21217235.60207   2109492.26447  21217241.27347
   -203286.77007  20679085.10907   -156093.91247  20679090.41847
   2145274.07905  24132785.71105   1671640.69445  24132788.92245
  -4240123.52406  23730341.12506  -3102142.66646  23730343.76246
   1917918.59007  21083774.79707   1486658.55348  21083782.39548
  -3434410.07405  22021162.74205  -2530953.95245  22021170.79745
   4197752.25105  24512823.92205   3251789.76345  24512830.05145
   1194051.18508  21909602.23408    920565.87747  21909607.62547
   4880870.41605  23596982.71905   3710199.95346  23596991.94546
 18  5 30  0 47 50.0000000  0 10  3 14 16 22 23 26 27 29 31 32
   1315991.63903  24078940.14803    830794.21845  24078949.05945
   2768538.76107  21219636.53907   2119322.90347  21219642.14147
   -201637.67407  20679398.93807   -154808.90347  20679404.09447
   2154570.47205  24134555.17205   1678884.62545  24134559.19145
  -4253969.12006  23727706.53106  -3112931.42846  23727709.57846
   1926498.55508  21085407.58608   1493344.23548  21085415.20748
  -3448652.15605  22018452.06305  -2542051.66645  22018460.11745
   4214919.27905  24516090.60905   3265166.65445  24516097.92645
   1199661.51108  21910669.89808    924937.55947  21910675.24247
   4900160.50705  23600653.80505   3725231.15646  23600663.16046
 18  5 30  0 47 55.0000000  0 10  3 14 16 22 23 26 27 29 31 32
   1322962.03304  24080267.80504    836225.65045  24080276.15245
   2781172.23207  21222040.53107   2129167.16747  21222045.92247
   -199973.42708  20679715.74208   -153512.08747  20679720.98047
   2163875.93205  24136325.25005   1686135.64545  24136328.73045
  -4267804.04106  23725073.95306  -3123711.88546  23725076.50846
   1935088.56308  21087042.32008   1500037.73948  21087050.00048
  -3462881.49505  22015744.42205  -2553139.45445  22015752.51245
   4232098.92305  24519359.60905   3278553.38445  24519367.71145
   1205280.47908  21911739.30508    929315.97447  21911744.60247
   4919460.56805  23604326.21105   3740270.13246  23604335.76646
 18  5 30  0 48  0.0000000  0 10  3 14 16 22 23 26 27 29 31 32
   1329945.90304  24081596.26604    841667.65345  24081602.82845
   2793822.69907  21224447.78107   2139024.67747  21224453.23047
   -198294.52808  20680035.06308   -152203.85447  20680040.44147
   2173189.98205  24138098.32005   1693393.36245  24138102.05945
  -4281628.74106  23722443.35906  -3134484.37846  23722445.80946
   1943688.15708  21088678.68808   1506738.71148  21088686.34448
  -3477098.52405  22013038.44505  -2564217.68345  22013047.26245
   4249290.74105  24522630.96105   3291949.60245  24522638.02045
   1210907.56808  21912809.85908    933700.71547  21912815.28547
   4938770.11005  23608000.74205   3755316.50946  23608009.77046
 18  5 30  0 48  5.0000000  0 10  3 14 16 22 23 26 27 29 31 32
   1336943.64804  24082928.53904    847120.45845  24082935.92645
   2806490.50307  21226858.14107   2148895.69047  21226863.76647
   -196600.59308  20680357.37508   -150883.90247  20680362.68447
   2182512.88605  24139871.40605   1700657.95945  24139874.81645
  -4295442.84706  23719814.66406  -3145248.60546  23719816.70346
   1952297.67207  21090316.98407   1513447.42248  21090324.59448
  -3491302.87905  22010335.78905  -2575285.98345  22010344.17245
   4266495.04604  24525904.39104   3305355.54145  24525911.28545
   1216543.17608  21913882.32008    938092.08747  21913887.73447
   4958089.48805  23611677.17205   3770370.54246  23611686.15246
 18  5 30  0 48 10.0000000  0 10  3 14 16 22 23 26 27 29 31 32
   1343955.21004  24084262.42204    852584.01645  24084269.69145
   2819175.73107  21229272.33607   2158780.27347  21229278.05547
   -194891.56808  20680682.68008   -149552.19447  20680687.98847
   2191844.78305  24141647.65605   1707929.53145  24141651.05545
  -4309246.29206  23717187.88306  -3156004.52246  23717189.67646
   1960917.16107  21091957.38307   1520163.92048  21091964.89848
  -3505494.46905  22007635.68805  -2586344.35645  22007644.50445
   4283711.93304  24529180.78904   3318771.29245  24529187.93045
   1222187.41508  21914956.53908    942490.18547  21914962.07047
   4977418.76505  23615355.50005   3785432.30346  23615364.38746
 18  5 30  0 48 15.0000000  0 10  3 14 16 22 23 26 27 29 31 32
   1350980.71803  24085599.35903    858058.42945  24085606.71145
   2831878.47307  21231689.52307   2168678.50847  21231695.35947
   -193167.33608  20681010.71108   -148208.63447  20681015.83247
   2201185.70505  24143425.57005   1715208.15745  24143428.64145
  -4323038.97006  23714563.25806  -3166752.04946  23714565.59046
   1969546.72408  21093599.32008   1526888.26948  21093606.96548
  -3519673.19605  22004937.46105  -2597392.71545  22004946.53545
   4300941.44804  24532459.02304   3332196.88745  24532466.34045
   1227840.34708  21916032.15608    946895.06047  21916037.58247
   4996758.02505  23619035.67205   3800501.84446  23619045.26246
 18  5 30  0 48 20.0000000  0 10  3 14 16 22 23 26 27 29 31 32
   1358019.66603  24086938.68003    863543.30445  24086945.82045
   2844598.15707  21234110.14107   2178589.94447  21234115.97747
   -191428.48307  20681341.71907   -146853.68647  20681346.92247
   2210535.12605  24145204.53905   1722493.41445  24145206.55545
  -4336821.43806  23711940.64106  -3177491.62546  23711942.48046
   1978185.78208  21095243.39808   1533620.01548  21095251.16048
  -3533839.62305  22002241.20305  -2608431.49145  22002247.87145
   4318183.06604  24535740.17204   3345631.90445  24535747.39545
   1233501.37108  21917109.52308    951306.24447  21917114.71547
   5016106.71505  23622717.97705   3815578.73546  23622727.88346
 18  5 30  0 48 25.0000000  0 10  3 14 16 22 23 26 27 29 31 32
   1365072.84103  24088280.84403    869039.25145  24088289.39145
   2857335.60607  21236533.98407   2188515.22547  21236539.76247
   -189674.18007  20681675.43007   -145486.69547  20681680.64547
   2219893.86905  24146985.14105   1729785.93445  24146987.23845
  -4350592.82306  23709319.96106  -3188222.55846  23709322.07046
   1986835.16808  21096889.21908   1540359.79948  21096897.16848
  -3547992.83805  21999547.52305  -2619459.93145  21999554.39545
   4335437.58204  24539024.22704   3359076.95145  24539030.97745
   1239171.39308  21918188.41408    955724.44147  21918193.59447
   5035465.66205  23626401.35905   3830663.60946  23626411.65246
 18  5 30  0 48 30.0000000  0 10  3 14 16 22 23 26 27 29 31 32
   1372139.95403  24089625.81303    874546.11945  24089634.87545
   2870090.45907  21238961.00807   2198454.06647  21238966.46947
   -187904.82707  20682012.18007   -144107.97947  20682017.23047
   2229261.57405  24148767.79705   1737085.41645  24148770.22345
  -4364353.46506  23706701.43806  -3198945.13846  23706703.39546
   1995494.53008  21098537.07008   1547107.34748  21098545.09048
  -3562133.21605  21996857.72705  -2630478.40945  21996865.05545
   4352704.63104  24542309.76604   3372531.79045  24542317.76245
   1244850.04408  21919269.02308    960149.36347  21919274.02747
   5054834.45705  23630087.18805   3845756.15646  23630096.20346
 18  5 30  0 48 35.0000000  0 10  3 14 16 22 23 26 27 29 31 32
   1379220.83203  24090972.04703    880063.68845  24090981.75445
   2882862.69407  21241391.62507   2208406.45647  21241396.95747
   -186120.41708  20682351.75008   -142717.52747  20682356.81347
   2238638.14905  24150553.14105   1744391.81745  24150555.88345
  -4378103.35906  23704084.71906  -3209659.33246  23704086.39546
   2004163.82408  21100186.86708   1553862.63148  21100194.96948
  -3576260.78305  21994169.18005  -2641486.92145  21994176.60245
   4369984.20704  24545597.28104   3385996.39545  24545604.31645
   1250537.28708  21920351.25808    964580.98347  21920356.21547
   5074213.10105  23633774.28905   3860856.38446  23633783.94946
 18  5 30  0 48 40.0000000  0 10  3 14 16 22 23 26 27 29 31 32
   1386314.99403  24092324.22703    885591.59245  24092332.91445
   2895651.77707  21243825.34407   2218371.97147  21243830.61747
   -184321.50308  20682694.24208   -141315.77747  20682699.27047
   2248023.12405  24152338.72705   1751704.79645  24152340.80145
  -4391843.08906  23701470.25006  -3220365.61746  23701472.26646
   2012842.51608  21101838.26608   1560625.24348  21101846.41448
  -3590376.02305  21991482.35205  -2652485.82745  21991488.91445
   4387275.77204  24548889.18804   3399470.30645  24548895.08245
   1256232.61008  21921435.11708    969018.89647  21921440.08647
   5093601.05105  23637463.81305   3875963.86046  23637473.21546
 18  5 30  0 48 45.0000000  0 10  3 14 16 22 23 26 27 29 31 32
   1393422.93103  24093675.71103    891130.22345  24093684.11745
   2908458.17707  21246262.28107   2228350.98047  21246267.54347
   -182507.59308  20683039.39108   -139902.34247  20683044.25447
   2257416.93005  24154126.07805   1759024.63745  24154129.59445
  -4405572.11306  23698857.43006  -3231063.56146  23698859.94946
   2021531.08908  21103491.60208   1567395.55648  21103499.69148
  -3604478.46905  21988799.46905  -2663474.73045  21988806.03145
   4404579.76004  24552181.85204   3412953.91245  24552188.35545
   1261936.52208  21922520.61708    973463.49347  21922525.78547
   5112998.78005  23641155.14805   3891078.95446  23641163.66046
 18  5 30  0 48 50.0000000  0 10  3 14 16 22 23 26 27 29 31 32
   1400545.18403  24095031.33603    896680.04145  24095039.64845
   2921282.45307  21248702.63307   2238343.91847  21248707.93047
   -180678.12408  20683387.47708   -138476.78147  20683392.34047
   2266820.08305  24155915.36705   1766351.76945  24155918.46145
  -4419289.89906  23696247.12506  -3241752.75646  23696249.23446
   2030230.06507  21105146.94507   1574173.97148  21105155.01248
  -3618567.54005  21986118.82005  -2674453.23145  21986123.87145
   4421896.68905  24555476.76605   3426447.64145  24555483.58645
   1267649.59008  21923607.79708    977915.22647  21923613.01247
   5132406.83205  23644848.29705   3906202.11246  23644857.27746
 18  5 30  0 48 55.0000000  0 10  3 14 16 22 23 26 27 29 31 32
   1407680.99903  24096389.03103    902240.40545  24096397.39145
   2934123.85407  21251146.32007   2248350.19447  21251151.67647
   -178833.86308  20683738.44508   -137039.69947  20683743.37947
   2276231.89605  24157706.85905   1773685.66345  24157710.10545
  -4432997.15406  23693638.74206  -3252433.71946  23693640.54746
   2038938.68907  21106804.23407   1580959.89548  21106812.30148
  -3632643.94405  21983439.69505  -2685421.86045  21983445.67245
   4439225.83405  24558774.97705   3439950.86045  24558780.95345
   1273371.05408  21924696.61708    982373.50047  21924701.78547
   5151824.45105  23648543.07005   3921332.70346  23648553.29346
 18  5 30  0 49  0.0000000  0 10  3 14 16 22 23 26 27 29 31 32
   1414830.48604  24097749.84404    907811.41045  24097758.46145
   2946982.49207  21253593.22707   2258369.90947  21253598.71147
   -176974.69408  20684092.30508   -135591.00047  20684097.08647
   2285652.46205  24159499.19505   1781026.34545  24159502.27745
  -4446693.74906  23691032.78906  -3263106.37546  23691035.25046
   2047657.15608  21108463.19508   1587753.49148  21108471.27348
  -3646707.53305  21980763.74205  -2696380.51045  21980770.46945
   4456567.33205  24562074.69505   3453463.71645  24562080.66045
   1279101.04008  21925786.95308    986838.41647  21925792.09847
   5171251.73505  23652240.47705   3936470.83046  23652250.54746
 18  5 30  0 49  5.0000000  0 10  3 14 16 22 23 26 27 29 31 32
   1421993.41604  24099113.09404    913392.91045  24099119.85545
   2959858.12307  21256043.17207   2268402.86847  21256048.57447
   -175100.82908  20684448.76608   -134130.84747  20684453.62947
   2295081.55805  24161292.72705   1788373.66745  24161296.30145
  -4460379.84806  23688428.21106  -3273770.86046  23688430.89546
   2056385.18308  21110124.08608   1594554.54448  21110132.15248
  -3660758.54405  21978089.64105  -2707329.33245  21978095.98045
   4473920.96905  24565377.09405   3466986.04045  24565383.21145
   1284839.37108  21926879.07008    991309.83847  21926884.10947
   5190688.50705  23655938.80505   3951616.34046  23655949.39146
 18  5 30  0 49 10.0000000  0 10  3 14 16 22 23 26 27 29 31 32
   1429169.88204  24100479.03104    918984.97445  24100488.36345
   2972750.86707  21258496.69507   2278449.15747  21258502.14547
   -173212.19508  20684808.18808   -132659.18147  20684813.10947
   2304519.22605  24163089.10905   1795727.71045  24163093.46945
  -4474055.34906  23685825.95306  -3284427.08446  23685828.13346
   2065122.85308  21111786.89108   1601363.11748  21111794.96948
  -3674796.87705  21975417.91405  -2718268.28545  21975423.70345
   4491286.79605  24568681.25005   3480517.84545  24568688.04745
   1290586.12807  21927972.65607    995787.83147  21927977.57847
   5210134.80405  23659639.12505   3966769.27146  23659649.34846
 18  5 30  0 49 15.0000000  0 10  3 14 16 22 23 26 27 29 31 32
   1436360.05504  24101847.29704    924587.72945  24101854.33245
   2985660.87707  21260953.54707   2288508.90147  21260958.90247
   -171308.60308  20685170.50008   -131175.86247  20685175.46947
   2313965.71605  24164886.89805   1803088.61145  24164891.29345
  -4487720.08806  23683225.66406  -3295074.92946  23683228.43046
   2073870.36308  21113451.56308   1608179.35448  21113459.59448
  -3688822.27705  21972749.46105  -2729197.16145  21972755.16845
   4508665.00305  24571988.05505   3494059.29145  24571994.43045
   1296341.48707  21929067.67207   1000272.52847  21929072.55947
   5229590.82605  23663341.47705   3981929.77946  23663350.83246
 18  5 30  0 49 20.0000000  0 10  3 14 16 22 23 26 27 29 31 32
   1443564.67104  24103218.10904    930201.71145  24103224.84845
   2998588.89807  21263413.50807   2298582.68247  21263418.95747
   -169389.30708  20685535.68808   -129680.30747  20685540.64547
   2323421.73205  24166685.76605   1810456.92245  24166689.55145
  -4501373.27306  23680627.52306  -3305713.78146  23680630.44146
   2082628.43408  21115118.01608   1615003.81748  21115126.05948
  -3702834.01205  21970083.32805  -2740115.38245  21970089.89145
   4526056.30405  24575297.93805   3507610.93045  24575303.49245
   1302106.18908  21930164.62508   1004764.50147  21930169.64147
   5249057.28405  23667046.52305   3997098.42146  23667056.09046
 18  5 30  0 49 25.0000000  0 10  3 14 16 22 23 26 27 29 31 32
   1450782.68405  24104591.71905    935826.14145  24104598.69545
   3011533.90207  21265877.07007   2308669.69447  21265882.59047
   -167455.38208  20685903.68008   -128173.35247  20685908.54347
   2332886.15705  24168486.93005   1817831.77945  24168490.48045
  -4515015.94706  23678031.24206  -3316344.43746  23678033.57446
   2091396.02008  21116786.53908   1621835.69048  21116794.52348
  -3716833.10605  21967419.25805  -2751023.75645  21967425.73845
   4543459.67005  24578610.43005   3521171.98345  24578616.35945
   1307879.16508  21931263.35208   1009262.91947  21931268.35547
   5268533.15705  23670752.44505   4012274.40946  23670762.42246
 18  5 30  0 49 30.0000000  0 10  3 14 16 22 23 26 27 29 31 32
   1458014.42705  24105967.09405    941461.23645  24105976.09845
   3024496.23107  21268343.68807   2318770.20447  21268349.24247
   -165506.46908  20686274.47708   -126654.71947  20686279.37547
   2342359.41705  24170290.42205   1825213.55245  24170294.38345
  -4528647.78706  23675437.30506  -3326966.62546  23675438.79346
   2100173.48608  21118456.78908   1628675.26748  21118464.64548
  -3730819.22005  21964757.85205  -2761922.05945  21964763.66445
   4560875.39705  24581923.40605   3534742.68845  24581928.27045
   1313660.79108  21932363.53908   1013768.07947  21932368.60247
   5288018.73805  23674460.53905   4027457.96146  23674469.90646
 18  5 30  0 49 35.0000000  0 10  3 14 16 22 23 26 27 29 31 32
   1465259.25505  24107346.33605    947106.53545  24107355.62145
   3037475.27507  21270813.53907   2328883.73847  21270818.97747
   -163543.16208  20686648.26608   -125124.86547  20686653.09447
   2351840.87205  24172094.44505   1832601.67845  24172098.18445
  -4542269.28706  23672845.21106  -3337580.76846  23672847.18046
   2108960.22208  21120129.00008   1635522.07648  21120136.79748
  -3744792.90005  21962098.60205  -2772810.64945  21962104.95345
   4578302.89705  24585239.86705   3548322.57945  24585245.93845
   1319450.52708  21933465.08608   1018279.55147  21933470.12547
   5307513.45805  23678170.90605   4042648.64646  23678180.34446
 18  5 30  0 49 40.0000000  0 10  3 14 16 22 23 26 27 29 31 32
   1472518.06005  24108726.98405    952762.72545  24108735.53145
   3050471.84807  21273286.46107   2339010.93347  21273291.96947
   -161564.64308  20687024.67208   -123583.16447  20687029.59447
   2361331.32205  24173900.22705   1839996.80845  24173904.17645
  -4555879.63306  23670255.11706  -3348186.23746  23670257.64846
   2117757.02608  21121802.83608   1642376.72948  21121810.60948
  -3758753.35505  21959441.87505  -2783688.90945  21959447.91045
   4595743.02305  24588559.10205   3561912.29345  24588564.59845
   1325249.21408  21934568.68008   1022797.99847  21934573.76647
   5327018.14305  23681882.07005   4057847.07846  23681891.43846
 18  5 30  0 49 45.0000000  0 10  3 14 16 22 23 26 27 29 31 32
   1479790.71605  24110110.84405    958429.74645  24110119.34445
   3063485.83307  21275762.68807   2349151.70147  21275768.07847
   -159571.01608  20687403.96908   -122029.68947  20687408.84447
   2370830.66805  24175707.50805   1847398.90045  24175711.72745
  -4569478.95106  23667667.43006  -3358783.11646  23667669.93846
   2126563.80708  21123478.71108   1649239.15948  21123486.46148
  -3772700.61405  21956787.51605  -2794556.87945  21956794.25445
   4613195.60105  24591880.83605   3575511.68245  24591886.93045
   1331056.73608  21935673.69508   1027323.33447  21935678.74647
   5346532.63805  23685595.59405   4073053.15546  23685605.13746
 18  5 30  0 49 50.0000000  0 10  3 14 16 22 23 26 27 29 31 32
   1487076.87205  24111498.11705    964107.26345  24111506.72345
   3076516.94007  21278242.79707   2359305.80847  21278248.23447
   -157562.58608  20687786.18008   -120464.67847  20687791.19547
   2380338.56405  24177517.46905   1854807.64345  24177520.92645
  -4583067.49806  23665081.54706  -3369371.58046  23665083.71546
   2135380.23808  21125156.38308   1656109.11348  21125164.09848
  -3786635.00105  21954135.78905  -2805414.85745  21954141.62545
   4630660.33005  24595203.52305   3589120.55445  24595208.43445
   1336872.79708  21936780.63308   1031855.32747  21936785.70747
   5366056.67605  23689310.72705   4088266.65646  23689320.18846
 18  5 30  0 49 55.0000000  0 10  3 14 16 22 23 26 27 29 31 32
   1494375.94105  24112886.93805    969794.85445  24112896.28145
   3089564.62107  21280725.62507   2369472.82847  21280731.28547
   -155539.90608  20688171.02308   -118888.56647  20688176.05147
   2389854.49205  24179327.82805   1862222.66745  24179331.37945
  -4596645.83406  23662497.85206  -3379952.08446  23662499.82046
   2144205.78008  21126835.86708   1662986.17148  21126843.57048
  -3800557.04505  21951486.85205  -2816263.19545  21951493.16845
   4648136.69705  24598529.77305   3602738.47545  24598536.20745
   1342696.79408  21937888.90608   1036393.49747  21937893.84047
   5385589.65105  23693028.17205   4103487.14746  23693037.01246
 18  5 30  0 50  0.0000000  0 10  3 14 16 22 23 26 27 29 31 32
   1501688.70605  24114278.28105    975493.13745  24114287.03945
   3102629.54807  21283211.96907   2379653.28147  21283217.41847
   -153502.27908  20688558.84408   -117300.80747  20688563.78947
   2399379.12105  24181140.14105   1869644.45645  24181144.07845
  -4610213.22406  23659915.71906  -3390524.05546  23659917.53546
   2153041.10108  21128517.18808   1669870.84848  21128524.86748
  -3814466.02505  21948840.23405  -2827101.35945  21948846.36345
   4665625.36805  24601857.42205   3616365.99045  24601862.32045
   1348529.52008  21938998.86708   1040938.46147  21939003.75447
   5405132.29505  23696746.60205   4118715.17146  23696755.17246
 18  5 30  0 50  5.0000000  0 10  3 14 16 22 23 26 27 29 31 32
   1509015.70105  24115672.45305    981202.50045  24115680.74245
   3115712.32007  21285701.40607   2389847.64247  21285706.72747
   -151449.10608  20688949.60208   -115700.93247  20688954.60547
   2408913.09505  24182955.02305   1877073.51745  24182958.51645
  -4623769.07106  23657336.11706  -3401087.05546  23657337.93446
   2161886.81908  21130200.32808   1676763.61948  21130208.05548
  -3828361.31005  21946196.22705  -2837928.83845  21946202.63745
   4683126.88305  24605188.05505   3630003.54345  24605193.11745
   1354371.56908  21940110.60908   1045490.69747  21940115.42647
   5424685.16805  23700467.31305   4133951.15846  23700476.60946
 18  5 30  0 50 10.0000000  0 10  3 14 16 22 23 26 27 29 31 32
   1516356.45205  24117070.26605    986922.55645  24117078.64845
   3128812.46607  21288194.32007   2400055.54447  21288199.47747
   -149380.90608  20689343.07808   -114089.34747  20689348.03547
   2418455.88705  24184770.92205   1884509.43745  24184774.18045
  -4637313.83706  23654758.70306  -3411641.43446  23654759.64146
   2170742.43008  21131885.54708   1683664.09348  21131893.27348
  -3842243.36405  21943553.62505  -2848746.02745  21943560.44545
   4700640.81605  24608520.52305   3643650.76145  24608525.82045
   1360222.47007  21941224.08607   1050049.83847  21941228.82047
   5444247.81005  23704189.89105   4149194.75746  23704198.97746
 18  5 30  0 50 15.0000000  0 10  3 14 16 22 23 26 27 29 31 32
   1523709.93805  24118469.25805    992652.53445  24118478.07445
   3141928.93807  21290690.21107   2410276.16747  21290695.44947
   -147298.69408  20689739.31308   -112466.84847  20689744.32847
   2428006.46105  24186587.91405   1891951.43445  24186592.21545
  -4650848.57806  23652183.45306  -3422187.99646  23652184.41446
   2179606.93108  21133572.28908   1690571.48748  21133580.00448
  -3856113.19305  21940914.72705  -2859553.69745  21940920.87945
   4718166.12905  24611855.68005   3657306.86745  24611860.41445
   1366081.17008  21942338.85908   1054615.06047  21942343.78147
   5463819.17905  23707914.62505   4164445.14746  23707923.30146
 18  5 30  0 50 20.0000000  0 10  3 14 16 22 23 26 27 29 31 32
   1531077.27205  24119870.76605    998393.28245  24119879.80545
   3155062.88207  21293189.64107   2420510.40547  21293194.87947
   -145201.32208  20690138.41408   -110832.53647  20690143.31347
   2437565.93705  24188407.09405   1899400.37745  24188411.03145
  -4664372.08706  23649609.55506  -3432725.80246  23649610.58646
   2188481.44108  21135261.20308   1697486.67748  21135268.89548
  -3869969.64705  21938277.96105  -2870350.92846  21938284.18446
   4735703.93205  24615193.13305   3670972.66945  24615197.35245
   1371948.83508  21943455.42208   1059187.26647  21943460.40247
   5483400.42005  23711640.83605   4179703.24846  23711649.77046
 18  5 30  0 50 25.0000000  0 10  3 14 16 22 23 26 27 29 31 32
   1538457.65705  24121275.67205   1004144.21645  24121284.98045
   3168213.50907  21295692.01607   2430757.64447  21295697.37147
   -143089.61408  20690540.43808   -109187.05047  20690545.38347
   2447133.53005  24190227.78105   1906855.62345  24190231.73045
  -4677885.14806  23647038.46906  -3443255.46746  23647040.05146
   2197365.15908  21136951.55508   1704409.04648  21136959.22348
  -3883813.55905  21935643.85205  -2881138.39946  21935651.13346
   4753253.44006  24618533.02306   3684647.59645  24618537.95745
   1377824.67208  21944573.48408   1063765.83847  21944578.34847
   5502990.68405  23715368.93805   4194968.35546  23715377.71946
 18  5 30  0 50 30.0000000  0 10  3 14 16 22 23 26 27 29 31 32
   1545850.73105  24122682.53105   1009905.04945  24122691.44145
   3181380.45707  21298197.57007   2441017.59847  21298202.79747
   -140963.90708  20690944.83608   -107530.65747  20690949.84047
   2456708.88605  24192049.93805   1914316.92245  24192053.62945
  -4691388.08406  23644468.92206  -3453777.24446  23644470.46946
   2206257.73208  21138643.81308   1711338.31948  21138651.46948
  -3897645.18305  21933012.28905  -2891916.28946  21933019.38346
   4770814.28506  24621874.80506   3698331.34645  24621879.90245
   1383708.31008  21945693.07008   1068350.48547  21945697.92247
   5522589.65105  23719098.35905   4210240.25446  23719107.08246
 18  5 30  0 50 35.0000000  0 10  3 14 16 22 23 26 27 29 31 32
   1553257.57405  24124091.88305   1015676.61845  24124101.37945
   3194564.78807  21300706.53107   2451291.09947  21300711.66447
   -138823.11208  20691352.29708   -105862.50747  20691357.37147
   2466293.00205  24193874.10205   1921785.05445  24193878.33245
  -4704879.82406  23641901.28106  -3464290.27046  23641902.46546
   2215160.22008  21140337.86708   1718275.32648  21140345.54748
  -3911463.43905  21930382.21905  -2902683.76946  21930388.19546
   4788387.50306  24625218.65606   3712024.75345  24625223.83645
   1389600.84208  21946814.46908   1072942.06047  21946819.08647
   5542198.35705  23722829.91405   4225519.71846  23722838.97746
 18  5 30  0 50 40.0000000  0 10  3 14 16 22 23 26 27 29 31 32
   1560677.73605  24125504.41405   1021458.57845  24125513.96945
   3207766.10007  21303218.63307   2461577.82947  21303223.88347
   -136667.65308  20691762.42208   -104182.93347  20691767.64847
   2475885.53805  24195699.05505   1929259.74845  24195703.33245
  -4718360.73106  23639336.18006  -3474794.86946  23639337.39846
   2224072.19408  21142033.78908   1725219.72248  21142041.37548
  -3925268.76805  21927755.48405  -2913441.16646  21927762.27046
   4805972.69706  24628564.83606   3725727.49445  24628570.10945
   1395501.89608  21947937.33608   1077540.27547  21947942.02347
   5561816.41405  23726563.13305   4240806.50246  23726572.00846
 18  5 30  0 50 45.0000000  0 10  3 14 16 22 23 26 27 29 31 32
   1568111.12205  24126918.61705   1027250.81345  24126928.30145
   3220984.24607  21305733.84407   2471877.67547  21305739.16447
   -134497.67208  20692175.40608   -102492.04247  20692180.62147
   2485486.26605  24197526.04705   1936740.82545  24197531.32045
  -4731830.95906  23636772.87506  -3485291.13746  23636773.54346
   2232993.53808  21143731.61708   1732171.40747  21143739.20347
  -3939061.24705  21925130.31305  -2924188.54946  21925137.28946
   4823569.73505  24631913.61705   3739439.45745  24631920.88745
   1401411.31708  21949061.85908   1082145.01547  21949066.69947
   5581443.66105  23730297.96905   4256100.44546  23730306.43446
 18  5 30  0 50 50.0000000  0 10  3 14 16 22 23 26 27 29 31 32
   1575557.74605  24128334.93005   1033053.37445  24128346.16045
   3234219.27607  21308252.51607   2482190.68147  21308257.85947
   -132313.11108  20692590.99208   -100789.78647  20692596.23047
   2495095.29405  24199354.29705   1944228.36745  24199358.80945
  -4745290.43506  23634211.51606  -3495779.03246  23634212.27746
   2241924.31908  21145430.93808   1739130.44347  21145438.47747
  -3952840.80605  21922508.57005  -2934925.85246  21922515.77046
   4841178.66706  24635264.25806   3753160.68545  24635269.43845
   1407329.20008  21950187.90608   1086756.35247  21950192.78147
   5601080.18005  23734034.71105   4271401.60946  23734043.18846
 18  5 30  0 50 55.0000000  0 10  3 14 16 22 23 26 27 29 31 32
   1583017.64905  24129754.98405   1038866.29545  24129765.98045
   3247471.24807  21310774.14807   2492516.88647  21310779.60947
   -130113.95408  20693009.50008    -99076.15747  20693014.87947
   2504712.65905  24201184.64805   1951722.42845  24201190.80145
  -4758739.06306  23631651.93006  -3506258.48946  23631652.56346
   2250864.54008  21147132.22708   1746096.83547  21147139.67247
  -3966607.40905  21919889.28905  -2945653.07846  21919896.72346
   4858799.51605  24638616.86705   3766891.21845  24638622.37545
   1413255.54808  21951315.68808   1091374.28747  21951320.56347
   5620725.94605  23737773.59405   4286709.97946  23737782.11746
 18  5 30  0 51  0.0000000  0 10  3 14 16 22 23 26 27 29 31 32
   1590490.68605  24131176.90605   1044689.41745  24131188.00845
   3260740.01007  21313299.36707   2502856.17447  21313304.84047
   -127900.32808  20693430.83608    -97351.25247  20693436.15647
   2514338.25105  24203016.70305   1959222.89145  24203022.18845
  -4772177.01406  23629095.07006  -3516729.62146  23629095.87946
   2259814.06608  21148835.26608   1753070.48448  21148842.71148
  -3980361.17805  21917272.51605  -2956370.30646  21917280.32446
   4876432.15205  24641972.82805   3780630.92145  24641978.00845
   1419190.29408  21952445.08608   1095998.75747  21952449.94947
   5640380.85806  23741513.80506   4302025.48446  23741522.11746
 18  5 30  0 51  5.0000000  0 10  3 14 16 22 23 26 27 29 31 32
   1597976.60305  24132602.06305   1050522.57745  24132612.32045
   3274025.28607  21315827.57007   2513208.33347  21315833.21947
   -125672.52108  20693854.80508    -95615.30147  20693860.23047
   2523971.76505  24204849.71905   1966729.52345  24204854.79345
  -4785604.51906  23626539.89806  -3527192.61546  23626540.81346
   2268772.67208  21150540.01608   1760051.20847  21150547.39147
  -3994102.31205  21914656.89805  -2967077.68946  21914664.98846
   4894076.29605  24645330.10905   3794379.61345  24645334.82045
   1425133.14808  21953576.06308   1100629.55247  21953580.93847
   5660044.64706  23745255.60206   4317347.87446  23745264.21946
 18  5 30  0 51 10.0000000  0 10  3 14 16 22 23 26 27 29 31 32
   1605475.71205  24134028.19505   1056366.06345  24134037.59845
   3287327.41507  21318358.74207   2523573.62147  21318364.30947
   -123430.21608  20694281.39808    -93868.05347  20694286.83647
   2533613.46905  24206684.79705   1974242.53245  24206689.15645
  -4799021.25806  23623986.79706  -3537647.22046  23623988.03946
   2277740.64008  21152246.43808   1767039.23847  21152253.91847
  -4007830.51505  21912044.68005  -2977774.99146  21912052.39546
   4911732.25105  24648689.68005   3808137.49345  24648694.83645
   1431084.39708  21954708.43008   1105266.88147  21954713.29347
   5679717.60106  23748999.32806   4332677.42446  23749008.47346
 18  5 30  0 51 15.0000000  0 10  3 14 16 22 23 26 27 29 31 32
   1612988.16505  24135457.53105   1062219.93045  24135467.56645
   3300646.54907  21320893.26607   2533952.16547  21320898.84447
   -121173.17908  20694711.05508    -92109.32547  20694716.56347
   2543263.61705  24208520.64105   1981762.10345  24208525.01245
  -4812426.96006  23621435.83606  -3548093.22446  23621435.94146
   2286718.15908  21153954.88308   1774034.72147  21153962.28147
  -4021545.57605  21909434.69505  -2988462.03246  21909442.14146
   4929400.19405  24652052.14105   3821904.67445  24652058.19945
   1437044.30908  21955842.50008   1109910.95647  21955847.32847
   5699399.90706  23752744.61706   4348014.27146  23752754.07846
 18  5 30  0 51 20.0000000  0 10  3 14 16 22 23 26 27 29 31 32
   1620513.17505  24136890.28905   1068083.56345  24136901.14545
   3313981.86207  21323430.99207   2544343.31447  21323436.58247
   -118902.25908  20695143.13308    -90339.77847  20695148.55947
   2552921.34905  24210359.41405   1989287.61145  24210365.02745
  -4825822.41306  23618886.46106  -3558531.24846  23618886.70746
   2295704.39908  21155664.91408   1781036.99947  21155672.32447
  -4035248.26205  21906827.00805  -2999139.43446  21906835.18046
   4947079.28205  24655416.43805   3835680.55345  24655423.02345
   1443012.09308  21956978.31308   1114561.18247  21956983.14147
   5719090.76506  23756491.50006   4363357.76846  23756500.57446
 18  5 30  0 51 25.0000000  0 10  3 14 16 22 23 26 27 29 31 32
   1628051.69005  24138324.79705   1073957.74345  24138335.61745
   3327334.36407  21325971.78107   2554747.86047  21325977.43047
   -116616.50508  20695578.17208    -88558.67347  20695583.62147
   2562587.61605  24212197.97705   1996819.75445  24212202.87545
  -4839206.64506  23616339.64806  -3568960.52646  23616339.59046
   2304700.31908  21157376.58608   1788046.80947  21157384.07847
  -4048937.61105  21904222.04705  -3009806.46246  21904229.83246
   4964770.49305  24658782.82805   3849465.91145  24658789.52045
   1448988.64208  21958115.48408   1119218.25247  21958120.47747
   5738791.11406  23760240.69506   4378708.66346  23760249.68846
 18  5 30  0 51 30.0000000  0 10  3 14 16 22 23 26 27 29 31 32
   1635603.64405  24139761.50005   1079842.37645  24139771.86345
   3340703.95207  21328515.94507   2565165.71547  21328521.73447
   -114315.96708  20696015.99208    -86766.04747  20696021.20747
   2572262.35405  24214039.49205   2004358.49545  24214043.84045
  -4852579.75006  23613794.47706  -3579381.12046  23613794.96946
   2313705.87108  21159090.46908   1795064.11747  21159098.12547
  -4062613.65105  21901619.25005  -3020463.12446  21901627.18846
   4982473.78505  24662151.44505   3863260.66445  24662157.30545
   1454973.92608  21959254.18008   1123882.11447  21959259.34847
   5758500.89406  23763991.32806   4394066.90346  23764000.19146
 18  5 30  0 51 35.0000000  0 10  3 14 16 22 23 26 27 29 31 32
   1643168.32105  24141201.52305   1085736.90545  24141212.55545
   3354089.91207  21331063.32007   2575596.33047  21331069.13347
   -112001.38908  20696456.33608    -84962.47847  20696461.28147
   2581944.90205  24215881.66405   2011903.33245  24215886.10545
  -4865942.40006  23611251.91406  -3589793.55746  23611252.51246
   2322720.33908  21160805.79708   1802088.37047  21160813.45347
  -4076277.10305  21899019.49205  -3031109.95646  21899027.06646
   5000188.41205  24665522.68805   3877064.27445  24665527.91445
   1460967.26008  21960394.87508   1128552.23647  21960400.19547
   5778219.37606  23767743.68006   4409431.94746  23767752.55546
 18  5 30  0 51 40.0000000  0 10  3 14 16 22 23 26 27 29 31 32
   1650746.02405  24142643.61705   1091641.60645  24142654.07445
   3367492.57507  21333613.77307   2586039.95947  21333619.37547
   -109672.41708  20696899.46108    -83147.69247  20696904.28947
   2591635.48605  24217725.32805   2019454.44445  24217729.14845
  -4879294.31006  23608710.96106  -3600197.62846  23608711.61746
   2331744.00908  21162522.90608   1809119.79747  21162530.60947
  -4089927.60405  21896422.14805  -3041746.71346  21896430.09846
   5017914.66305  24668895.86705   3890876.91345  24668902.83245
   1466968.97808  21961536.93808   1133228.88847  21961542.25847
   5797946.89706  23771498.31306   4424804.03646  23771507.55146
 18  5 30  0 51 45.0000000  0 10  3 14 16 22 23 26 27 29 31 32
   1658336.95805  24144087.86705   1097556.61345  24144098.06645
   3380912.11407  21336167.35207   2596496.73647  21336172.87147
   -107328.87208  20697345.53908    -81321.55247  20697350.32047
   2601334.35005  24219571.60905   2027012.00545  24219575.45345
  -4892635.21106  23606172.52306  -3610593.14046  23606173.08646
   2340777.08708  21164241.86708   1816158.54047  21164249.73447
  -4103564.95005  21893826.88305  -3052373.21346  21893835.30146
   5035652.80005  24672271.17205   3904698.81045  24672278.23045
   1472979.36108  21962680.67208   1137912.29347  21962686.05147
   5817683.63006  23775253.83606   4440183.28946  23775263.09846
 18  5 30  0 51 50.0000000  0 10  3 14 16 22 23 26 27 29 31 32
   1665941.74905  24145535.10905   1103482.42245  24145544.75845
   3394349.19507  21338724.46907   2606967.18747  21338729.98847
   -104970.08308  20697794.44508    -79483.53547  20697799.20347
   2611042.15005  24221418.96905   2034576.51345  24221423.02345
  -4905964.43606  23603636.02306  -3620979.56046  23603636.82046
   2349820.34508  21165962.72708   1823205.22047  21165970.60547
  -4117188.45105  21891233.89805  -3062988.92746  21891241.54346
   5053403.44205  24675649.23405   3918530.50145  24675655.57445
   1478999.00208  21963826.14108   1142602.91747  21963831.49647
   5837430.23106  23779011.19506   4455570.23746  23779020.29346
 18  5 30  0 51 55.0000000  0 10  3 14 16 22 23 26 27 29 31 32
   1673559.07305  24146984.83605   1109418.01245  24146994.69545
   3407802.47007  21341284.43807   2617450.25447  21341290.03947
   -102597.42108  20698245.98408    -77634.70747  20698250.73047
   2620757.46105  24223267.50005   2042146.87745  24223272.38745
  -4919283.33306  23601101.63306  -3631357.92446  23601101.97346
   2358872.28208  21167685.30508   1830258.69547  21167693.03147
  -4130799.46205  21888643.97705  -3073594.90646  21888651.31646
   5071165.20406  24679028.85206   3932370.85145  24679034.51245
   1485026.52008  21964973.16408   1147299.68547  21964978.57847
   5857185.34106  23782770.19506   4470963.80546  23782779.84446
 18  5 30  0 52  0.0000000  0 10  3 14 16 22 23 26 27 29 31 32
   1681189.80205  24148437.49205   1115364.03845  24148447.37545
   3421272.87807  21343847.82007   2627946.67647  21343853.57447
   -100209.97108  20698700.21108    -75774.35647  20698705.00447
   2630481.22505  24225118.20305   2049723.81146  24225123.00846
  -4932591.02206  23598569.39806  -3641727.54746  23598570.10246
   2367933.85008  21169409.84408   1837319.68247  21169417.66447
  -4144397.03805  21886056.57005  -3084190.42646  21886064.34446
   5088938.98606  24682411.44506   3946220.56845  24682416.69545
   1491062.89308  21966121.82008   1152003.35147  21966127.28147
   5876949.85106  23786531.43006   4486364.67646  23786540.84446
 18  5 30  0 52  5.0000000  0 10  3 14 16 22 23 26 27 29 31 32
   1688833.11805  24149891.59405   1121319.84645  24149901.92245
   3434759.56107  21346414.24207   2638455.77547  21346419.87947
    -97808.55108  20699157.19508    -73903.12147  20699161.95347
   2640212.61505  24226969.99205   2057306.69845  24226974.99645
  -4945888.25106  23596038.67206  -3652089.03046  23596039.37546
   2377004.23208  21171135.68008   1844387.53747  21171143.46547
  -4157981.99105  21883471.75805  -3094776.10446  21883479.44946
   5106723.96606  24685795.60906   3960078.97245  24685801.31645
   1497107.27008  21967272.11708   1156713.24847  21967277.69547
   5896722.96606  23790293.98406   4501772.27346  23790303.72746
 18  5 30  0 52 10.0000000  0 10  3 14 16 22 23 26 27 29 31 32
   1696489.21805  24151347.98405   1127285.62045  24151358.72345
   3448262.67607  21348983.80507   2648977.67747  21348989.51247
    -95392.98308  20699616.78908    -72020.86147  20699621.50047
   2649951.78305  24228823.60205   2064895.67345  24228828.05545
  -4959174.85806  23593510.39806  -3662442.24446  23593511.07846
   2386083.54108  21172863.31308   1851462.34247  21172870.99247
  -4171554.09805  21880888.72705  -3105351.76546  21880896.17246
   5124520.30405  24689182.09405   3973946.25145  24689189.14145
   1503159.81008  21968423.84408   1161429.50947  21968429.34047
   5916504.82006  23794058.45306   4517186.68246  23794068.18446
 18  5 30  0 52 15.0000000  0 10  3 14 16 22 23 26 27 29 31 32
   1704158.27805  24152807.66405   1133261.51845  24152818.46145
   3461782.43007  21351556.52307   2659512.54347  21351562.31347
    -92963.07008  20700079.18808    -70127.42147  20700083.92247
   2659698.96405  24230677.57805   2072490.87245  24230681.69145
  -4972450.57506  23590984.12506  -3672786.97046  23590984.92246
   2395172.02408  21174592.89108   1858544.28047  21174600.58247
  -4185113.17905  21878308.66405  -3115917.27746  21878316.40246
   5142328.24305  24692570.60205   3987822.56345  24692576.57845
   1509220.79108  21969577.32008   1166152.34947  21969582.91047
   5936295.61706  23797824.53906   4532608.05246  23797833.89546
 18  5 30  0 52 20.0000000  0 10  3 14 16 22 23 26 27 29 31 32
   1711839.78505  24154269.46105   1139247.10345  24154280.86745
   3475318.34307  21354132.28107   2670060.00247  21354137.84847
    -90519.30008  20700544.21908    -68223.18647  20700549.01247
   2669453.64505  24232534.59405   2080091.91945  24232537.84045
  -4985715.84506  23588459.65606  -3683123.53146  23588460.80546
   2404269.19908  21176323.98408   1865632.97747  21176331.68847
  -4198659.66405  21875730.80505  -3126472.99546  21875738.55546
   5160147.28405  24695961.64105   4001707.52145  24695966.96145
   1515289.71708  21970732.14808   1170881.37747  21970737.57447
   5956094.90306  23801592.10906   4548036.04246  23801601.65246
 18  5 30  0 52 25.0000000  0 10  3 14 16 22 23 26 27 29 31 32
   1719534.42905  24155733.51605   1145242.93845  24155744.13745
   3488871.10707  21356711.42207   2680620.59147  21356716.87147
    -88061.02008  20701011.93008    -66307.64347  20701016.95747
   2679216.42306  24234392.66406   2087699.26246  24234395.79346
  -4998970.02606  23585937.55506  -3693451.46346  23585939.02046
   2413375.71308  21178057.08608   1872728.94847  21178064.75447
  -4212192.90405  21873155.07005  -3137018.35746  21873163.14846
   5177978.02105  24699354.64105   4015601.59845  24699360.67645
   1521367.26108  21971888.74208   1175617.11847  21971894.13347
   5975903.27506  23805361.75006   4563471.10746  23805371.17646
 18  5 30  0 52 30.0000000  0 10  3 14 16 22 23 26 27 29 31 32
   1727242.67905  24157200.71905   1151249.36445  24157210.61345
   3502441.19907  21359293.75007   2691194.68047  21359299.11747
    -85587.71907  20701482.85907    -64380.39647  20701488.05147
   2688987.85506  24236251.73406   2095313.34545  24236254.50045
  -5012212.61906  23583417.27306  -3703770.36646  23583418.99646
   2422492.03708  21179791.64808   1879832.56047  21179799.07047
  -4225712.37505  21870583.13305  -3147552.99946  21870590.82446
   5195821.00105  24702750.07005   4029505.20045  24702757.18845
   1527453.92108  21973046.90608   1180359.96947  21973052.15647
   5995721.25506  23809133.14106   4578913.66046  23809142.28546
 18  5 30  0 52 35.0000000  0 10  3 14 16 22 23 26 27 29 31 32
   1734963.66605  24158669.82805   1157265.68745  24158679.52345
   3516027.69107  21361878.94507   2701781.55347  21361884.23047
    -83100.29407  20701955.94507    -62442.14847  20701961.20747
   2698767.07405  24238112.53905   2102933.49145  24238116.21945
  -5025444.47106  23580899.68006  -3714080.89846  23580901.42646
   2431617.31208  21181528.36708   1886943.14947  21181535.60247
  -4239218.94705  21868012.23405  -3158077.60846  21868019.62146
   5213675.32505  24706147.70305   4043417.64445  24706155.12545
   1533548.78508  21974206.85208   1185109.21547  21974212.09047
   6015547.93906  23812905.75006   4594363.00546  23812915.02346
 18  5 30  0 52 40.0000000  0 10  3 14 16 22 23 26 27 29 31 32
   1742697.59405  24160141.70305   1163292.11545  24160151.73845
   3529630.89407  21364467.56307   2712381.44847  21364472.85947
    -80598.49107  20702432.14107    -60492.69347  20702437.44947
   2708554.28705  24239975.10205   2110559.90045  24239979.36745
  -5038665.36006  23578383.94506  -3724382.88046  23578386.24246
   2440751.78408  21183266.60208   1894060.90847  21183273.61347
  -4252712.33005  21865444.37505  -3168591.93146  21865451.32846
   5231541.20605  24709547.34405   4057339.10445  24709553.73045
   1539652.17908  21975368.21108   1189865.10547  21975373.36747
   6035383.58206  23816680.93806   4609819.33746  23816690.41046
 18  5 30  0 52 45.0000000  0 10  3 14 16 22 23 26 27 29 31 32
   1750444.74005  24161615.83605   1169328.85545  24161625.14545
   3543251.02607  21367059.58607   2722994.53247  21367065.19947
    -78082.08107  20702910.92207    -58531.85947  20702916.28947
   2718349.76206  24241839.39106   2118192.73946  24241843.78546
  -5051874.96806  23575869.80506  -3734676.06946  23575872.79346
   2449895.71408  21185006.60908   1901186.04647  21185013.48047
  -4266192.28705  21862879.59405  -3179095.79346  21862886.48846
   5249418.87905  24712949.28105   4071269.74645  24712956.10245
   1545764.34508  21976531.35908   1194627.82547  21976536.46947
   6055228.42206  23820457.39106   4625282.82646  23820466.48846
 18  5 30  0 52 50.0000000  0 10  3 14 16 22 23 26 27 29 31 32
   1758205.14505  24163092.62505   1175375.93945  24163102.42645
   3556888.09207  21369654.68807   2733620.81047  21369660.38347
    -75551.02608  20703392.64808    -56559.61747  20703397.91047
   2728153.51005  24243704.47705   2125832.01745  24243708.88345
  -5065073.25406  23573358.37506  -3744960.43346  23573361.36346
   2459049.12708  21186748.52308   1908318.58147  21186755.20347
  -4279658.73705  21860317.38305  -3189589.12846  21860324.73446
   5267308.43905  24716353.93005   4085209.66145  24716360.02345
   1551885.32008  21977696.09408   1199397.40947  21977700.98047
   6075082.47806  23824235.29706   4640753.50346  23824244.09046
 18  5 30  0 52 55.0000000  0 10  3 14 16 22 23 26 27 29 31 32
   1765978.14806  24164572.21106   1181432.83545  24164582.77345
   3570541.46207  21372252.67207   2744259.79247  21372258.37947
    -73005.99808  20703877.03908    -54576.48347  20703882.33647
   2737964.82805  24245571.37505   2133477.18145  24245575.77045
  -5078260.83906  23570848.75006  -3755236.46046  23570851.82046
   2468211.36808  21188492.05508   1915458.00147  21188498.59447
  -4293112.31305  21857756.83605  -3200072.45446  21857764.53946
   5285209.18105  24719761.02305   4099158.28845  24719767.01245
   1558014.45908  21978862.43008   1204173.35047  21978867.30547
   6094945.09706  23828014.96106   4656230.85046  23828024.44546
 18  5 30  0 53  0.0000000  0 10  3 14 16 22 23 26 27 29 31 32
   1773764.38306  24166052.89106   1187500.02745  24166062.98445
   3584211.82207  21374854.10207   2754912.00747  21374859.89147
    -70446.32108  20704364.09408    -52581.93647  20704369.29747
   2747784.45005  24247440.18805   2141128.82745  24247443.45745
  -5091437.09206  23568341.67206  -3765503.65946  23568344.90646
   2477383.09408  21190237.25008   1922604.81147  21190243.64847
  -4306552.32205  21855199.13305  -3210545.19046  21855206.59046
   5303121.80405  24723168.75805   4113116.15545  24723175.26245
   1564152.46508  21980030.60208   1208956.20447  21980035.54747
   6114816.98106  23831796.21906   4671715.41246  23831806.03146
 18  5 30  0 53  5.0000000  0  9  3 14 16 22 23 26 27 31 32
   1781563.43005  24167537.35905   1193577.22045  24167547.59445
   3597898.73507  21377458.61707   2765577.12547  21377464.39547
    -67872.39008  20704853.83608    -50576.28047  20704859.09847
   2757611.91505  24249310.82805   2148786.59145  24249313.93445
  -5104602.37706  23565836.14106  -3775762.32946  23565839.16446
   2486563.86908  21191984.29708   1929758.67647  21191990.52047
  -4319979.19905  21852644.25805  -3221007.67346  21852651.78546
   1570298.91308  21981200.14808   1213745.64447  21981205.10547
   6134697.66106  23835579.42206   4687206.82646  23835589.27046
 18  5 30  0 53 10.0000000  0  9  3 14 16 22 23 26 27 31 32
   1789375.80705  24169024.46105   1199664.78645  24169035.16445
   3611602.67607  21380066.44507   2776255.51547  21380072.27047
    -65283.70208  20705346.42208    -48559.12647  20705351.54347
   2767447.71105  24251182.44505   2156450.81845  24251184.88345
  -5117756.19906  23563333.09406  -3786012.06346  23563335.66046
   2495754.21608  21193733.09408   1936919.99347  21193739.28147
  -4333392.36905  21850091.94505  -3231459.50046  21850099.29746
   1576454.31308  21982371.45308   1218542.06447  21982376.55147
   6154587.64306  23839364.25806   4702705.48846  23839374.16446
 18  5 30  0 53 15.0000000  0  9  3 14 16 22 23 26 27 31 32
   1797200.78606  24170513.28906   1205762.17045  24170522.66845
   3625322.96607  21382677.33607   2786946.65047  21382683.09047
    -62680.98808  20705841.75808    -46531.03747  20705846.86747
   2777291.11105  24253055.21105   2164120.99445  24253058.56345
  -5130899.21206  23560832.50006  -3796253.38246  23560835.06646
   2504953.41108  21195483.82008   1944088.19547  21195489.97347
  -4346792.54905  21847541.86705  -3241901.19946  21847549.77046
   1582617.94008  21983544.35208   1223344.89647  21983549.42647
   6174486.23006  23843150.51606   4718210.85546  23843160.23446
 18  5 30  0 53 20.0000000  0  9  3 14 16 22 23 26 27 31 32
   1805038.23406  24172004.47706   1211869.24745  24172014.02045
   3639059.45307  21385291.33607   2797650.40047  21385297.03147
    -60064.37008  20706339.62508    -44492.11347  20706344.54747
   2787142.01205  24254929.78105   2171797.04745  24254932.21945
  -5144031.51906  23558333.04706  -3806486.35546  23558335.57846
   2514161.31408  21197236.07808   1951263.17847  21197242.27747
  -4360179.86605  21844994.39805  -3252332.88746  21845002.75846
   1588789.69608  21984718.69508   1228154.06047  21984723.64147
   6194393.28506  23846939.27306   4733722.82546  23846949.46146
 18  5 30  0 53 25.0000000  0  9  3 14 16 22 23 26 27 31 32
   1812888.74106  24173498.65606   1217986.51345  24173506.96945
   3652812.69107  21387908.49207   2808367.20447  21387914.18847
    -57433.25608  20706840.33608    -42441.88947  20706845.22347
   2797000.98105  24256805.93805   2179479.35245  24256808.76245
  -5157152.51006  23555836.27306  -3816710.50946  23555838.93446
   2523378.53008  21198989.99208   1958445.41547  21198996.40247
  -4373553.69005  21842449.91405  -3262754.05046  21842458.98846
   1594970.20108  21985894.86708   1232970.03947  21985899.95347
   6214309.36606  23850729.20306   4749241.82746  23850739.54346
 18  5 30  0 53 30.0000000  0  9  3 14 16 22 23 26 27 31 32
   1820752.32306  24174994.93006   1224113.98845  24175002.64545
   3666582.74507  21390528.79707   2819097.10747  21390534.55147
    -54787.63708  20707343.73408    -40380.36247  20707348.63347
   2806868.05505  24258683.07005   2187167.96045  24258687.33645
  -5170262.19806  23553341.59406  -3826925.83846  23553344.55946
   2532605.07308  21200745.83608   1965634.91847  21200752.35247
  -4386913.99605  21839906.68005  -3273164.68646  21839915.63746
   1601159.47708  21987072.43808   1237792.84847  21987077.68847
   6234234.49206  23854520.61706   4764767.87046  23854530.82846
 18  5 30  0 53 35.0000000  0  9  3 14 16 22 23 26 27 31 32
   1828629.18906  24176494.13306   1230251.80145  24176502.99645
   3680369.86207  21393152.24207   2829840.30947  21393158.07847
    -52127.25908  20707849.97708    -38307.34047  20707854.82847
   2816743.44605  24260562.89105   2194863.06545  24260566.89845
  -5183360.27006  23550849.30506  -3837132.12646  23550851.90646
   2541841.16008  21202503.18008   1972831.86247  21202509.83647
  -4400260.51005  21837367.23405  -3283564.56546  21837376.40246
   1607357.73708  21988252.00008   1242622.65247  21988257.57847
   6254168.92106  23858313.85206   4780301.16646  23858323.85246
 18  5 30  0 53 40.0000000  0  9  3 14 16 22 23 26 27 31 32
   1836518.96706  24177995.05506   1236399.70345  24178003.60245
   3694173.60807  21395778.95307   2840596.46847  21395784.93047
    -49452.54108  20708358.89808    -36223.14847  20708363.79747
   2826626.78005  24262443.89805   2202564.36045  24262447.67245
  -5196447.15306  23548358.93006  -3847329.70246  23548361.68446
   2551086.43508  21204262.53908   1980035.97047  21204269.27747
  -4413593.61505  21834830.33605  -3293953.99746  21834839.58646
   1613564.62108  21989433.19508   1247459.18147  21989438.75047
   6274112.22806  23862109.02306   4795841.38346  23862119.05946
 18  5 30  0 53 45.0000000  0  9  3 14 16 22 23 26 27 31 32
   1844422.17406  24179499.10906   1242558.02745  24179507.37545
   3707994.56407  21398409.33607   2851366.04547  21398415.44147
    -46762.93307  20708870.67207    -34127.35647  20708875.54747
   2836518.59905  24264325.52305   2210272.25945  24264328.74645
  -5209522.27806  23545870.64806  -3857518.11046  23545873.80146
   2560341.42408  21206023.78108   1987247.64947  21206030.62547
  -4426912.76505  21832295.35905  -3304332.55246  21832304.56346
   1619780.72008  21990616.06308   1252302.89147  21990621.65247
   6294064.98006  23865905.78106   4811388.96446  23865915.86346
 18  5 30  0 53 50.0000000  0  9  3 14 16 22 23 26 27 31 32
   1852337.31506  24181005.09406   1248725.66645  24181013.99245
   3721831.19107  21401042.39107   2862147.82947  21401048.39147
    -44059.98408  20709385.07808    -32021.16847  20709389.75447
   2846417.29105  24266209.77305   2217985.51845  24266213.51245
  -5222587.12506  23543384.32006  -3867698.50846  23543387.41446
   2569604.58408  21207786.30508   1994465.69247  21207793.35247
  -4440219.43805  21829762.90605  -3314701.37346  21829771.80546
   1626004.45808  21991800.40608   1257152.55047  21991805.96147
   6314025.63506  23869704.58606   4826942.68846  23869714.78546
 18  5 30  0 53 55.0000000  0  9  3 14 16 22 23 26 27 31 32
   1860264.28906  24182513.92206   1254902.50945  24182522.50445
   3735683.40907  21403678.20307   2872941.75147  21403684.21547
    -41343.70907  20709901.95307    -29904.59447  20709906.72347
   2856322.83505  24268094.44505   2225704.12045  24268098.88745
  -5235641.72206  23540900.12506  -3877870.91946  23540903.64146
   2578875.87008  21209550.68008   2001690.06747  21209557.80947
  -4453513.68705  21827233.35205  -3325060.52446  21827242.43846
   1632235.82808  21992986.01608   1262008.16047  21992991.33647
   6333994.10005  23873504.50805   4842502.51746  23873514.43846
 18  5 30  0 54  0.0000000  0  9  3 14 16 22 23 26 27 31 32
   1868203.69806  24184024.48406   1261089.05345  24184032.11745
   3749551.84907  21406317.41407   2883748.32247  21406323.28547
    -38613.50407  20710421.44507    -27777.16047  20710426.16847
   2866235.80305  24269980.83605   2233428.49245  24269983.95345
  -5248685.47106  23538418.06306  -3888034.88746  23538421.94146
   2588155.86708  21211316.65608   2008921.23247  21211323.68047
  -4466794.87405  21824706.34405  -3335409.49546  21824715.10246
   1638475.41908  21994173.50008   1266870.17947  21994178.98447
   6353971.00806  23877306.23406   4858068.91146  23877316.17646
 18  5 30  0 54  5.0000000  0  9  3 14 16 22 23 26 27 31 32
   1876155.91006  24185537.76606   1267285.56845  24185545.62145
   3763436.85107  21408959.50807   2894567.78747  21408965.44947
    -35869.04807  20710943.81307    -25638.62247  20710948.66447
   2876156.59805  24271868.22705   2241158.97145  24271871.43845
  -5261717.98006  23535937.99206  -3898190.09546  23535941.87146
   2597444.91008  21213084.27308   2016159.44247  21213091.25047
  -4480062.61505  21822181.20305  -3345747.99646  21822190.40646
   1644723.60908  21995362.63308   1271738.89547  21995367.97747
   6373956.67706  23881108.74206   4873642.12446  23881118.26246
 18  5 30  0 54 10.0000000  0  9  3 14 16 22 23 26 27 31 32
   1884120.70006  24187053.43006   1273491.90745  24187061.52045
   3777338.17507  21411605.14807   2905399.97647  21411611.10247
    -33110.55407  20711468.62507    -23489.14547  20711473.64147
   2886084.97905  24273758.28105   2248895.35245  24273760.82445
  -5274739.44606  23533460.22706  -3908336.69546  23533463.89546
   2606742.80708  21214853.75008   2023404.54947  21214860.69147
  -4493317.15205  21819658.73405  -3356076.22246  21819667.34046
   1650980.20408  21996553.17208   1276614.16347  21996558.38747
   6393950.90505  23884913.90605   4889222.01946  23884923.80146
 18  5 30  0 54 15.0000000  0  9  3 14 16 22 23 26 27 31 32
   1892098.04006  24188571.44506   1279708.01545  24188579.31345
   3791255.85107  21414253.35907   2916244.91647  21414259.28947
    -30338.06507  20711996.26607    -21328.76147  20712001.45747
   2896020.90805  24275648.87505   2256637.62545  24275652.47345
  -5287749.92906  23530984.20306  -3918474.72546  23530987.52046
   2616049.55508  21216624.51608   2030656.54247  21216631.38747
  -4506558.47605  21817139.21905  -3366394.14146  21817148.08246
   1657245.15808  21997745.48408   1281495.94447  21997750.48847
   6413953.65905  23888720.11705   4904808.56346  23888729.59046
 18  5 30  0 54 20.0000000  0  9  3 14 16 22 23 26 27 31 32
   1900088.34306  24190091.82806   1285934.22545  24190099.21545
   3805190.24907  21416904.68007   2927102.88647  21416910.69147
    -27551.15407  20712526.61707    -19157.14447  20712531.83247
   2905964.83805  24277541.07005   2264386.13545  24277543.49645
  -5300748.91306  23528510.64106  -3928603.79946  23528513.71146
   2625365.55108  21218397.50808   2037915.74747  21218404.21147
  -4519786.10805  21814622.22705  -3376701.37946  21814630.45746
   1663518.92308  21998939.10208   1286384.59047  21998943.95347
   6433965.38105  23892527.94505   4920402.09646  23892537.37146
 18  5 30  0 54 25.0000000  0  9  3 14 16 22 23 26 27 31 32
   1908091.74806  24191614.61706   1292170.64145  24191623.18845
   3819141.51407  21419559.56307   2937974.00347  21419565.75047
    -24749.66407  20713059.85207    -16974.16347  20713065.11347
   2915916.88505  24279434.27305   2272140.98645  24279437.30945
  -5313736.29606  23526039.35906  -3938723.82746  23526042.66446
   2634690.94508  21220172.14808   2045182.29047  21220178.82847
  -4532999.89205  21812107.61705  -3386997.83346  21812116.66846
   1669801.67308  22000134.81308   1291280.24047  22000139.48847
   6453986.15905  23896337.56305   4936002.68746  23896347.48046
 18  5 30  0 54 30.0000000  0  9  3 14 16 22 23 26 27 31 32
   1916107.88606  24193140.50806   1298416.97345  24193149.43045
   3833109.29107  21422218.00807   2948857.98247  21422224.13747
    -21933.95007  20713595.35907    -14780.09847  20713600.86747
   2925876.71405  24281329.93805   2279901.90245  24281332.65645
  -5326712.39806  23523569.68806  -3948835.06346  23523572.79346
   2644025.38808  21221948.46908   2052455.89047  21221955.11347
  -4546200.20605  21809595.86705  -3397283.77346  21809604.81346
   1676093.05608  22001332.02308   1296182.61347  22001336.68847
   6474015.68305  23900148.85205   4951610.08546  23900158.80546
 18  5 30  0 54 35.0000000  0  9  3 14 16 22 23 26 27 31 32
   1924136.17606  24194668.00806   1304672.77945  24194676.83645
   3847092.98807  21424878.76607   2959754.36247  21424884.81347
    -19104.60707  20714133.89107    -12575.41947  20714139.50447
   2935843.72405  24283227.15605   2287668.39545  24283228.84445
  -5339677.76506  23521102.59406  -3958937.95146  23521105.88746
   2653368.26508  21223726.25008   2059736.07047  21223732.87147
  -4559387.57605  21807086.22705  -3407559.65546  21807095.17246
   1682392.48108  22002530.73408   1301091.24947  22002535.38747
   6494053.32205  23903962.25805   4967223.80846  23903971.64846
 18  5 30  0 54 40.0000000  0  9  3 14 16 22 23 26 27 31 32
   1932176.28006  24196198.42206   1310937.79345  24196207.80145
   3861092.27107  21427542.83607   2970662.87647  21427548.87147
    -16261.96807  20714674.85907    -10360.38147  20714680.26247
   2945817.50705  24285124.46905   2295440.17145  24285126.67245
  -5352632.71206  23518637.53106  -3969032.71046  23518640.90646
   2662719.24608  21225505.69508   2067022.55947  21225512.31647
  -4572562.35205  21804579.27305  -3417825.71646  21804588.26646
   1688699.64808  22003730.82808   1306005.91947  22003735.48047
   6514098.74205  23907776.62505   4982843.59646  23907786.32046
 18  5 30  0 54 45.0000000  0  9  3 14 16 22 23 26 27 31 32
   1940228.62206  24197730.24206   1317212.35145  24197739.18845
   3875107.58607  21430209.51607   2981583.89047  21430215.51647
    -13405.58807  20715218.43007     -8134.63447  20715223.70347
   2955798.52905  24287024.28905   2303217.58145  24287025.74245
  -5365576.82806  23516174.17206  -3979119.02346  23516176.89146
   2672078.78208  21227286.69508   2074315.71247  21227293.48047
  -4585724.05505  21802074.79705  -3428081.58146  21802083.27346
   1695014.98508  22004932.56308   1310926.96047  22004937.34447
   6534152.39706  23911593.30506   4998469.78846  23911603.01246
 18  5 30  0 54 50.0000000  0  9  3 14 16 22 23 26 27 31 32
   1948293.88906  24199264.79706   1323496.96945  24199273.78945
   3889139.60707  21432879.83607   2992517.92447  21432885.84847
    -10534.71907  20715764.92207     -5897.59347  20715770.12547
   2965787.46705  24288925.11705   2311001.13145  24288926.86345
  -5378509.36306  23513713.20306  -3989196.30046  23513716.22746
   2681447.54508  21229069.55508   2081616.05647  21229076.54347
  -4598871.97305  21799572.96105  -3438326.69446  21799580.67646
   1701339.18008  22006136.03908   1315854.90947  22006141.06647
   6554214.95606  23915410.91406   5014102.94846  23915420.29346
 18  5 30  0 54 55.0000000  0  9  3 14 16 22 23 26 27 31 32
   1956371.93306  24200802.29706   1329791.56745  24200811.16045
   3903188.19907  21435553.33607   3003464.87347  21435559.27747
     -7649.55507  20716313.68807     -3649.41547  20716318.64547
   2975784.22905  24290826.79705   2318790.83745  24290830.03145
  -5391430.46406  23511254.78106  -3999264.67546  23511257.95746
   2690825.38108  21230854.11708   2088923.46647  21230861.18847
  -4612006.21605  21797073.59405  -3448561.16246  21797081.08646
   1707672.12308  22007341.18008   1320789.67047  22007346.28947
   6574286.29006  23919230.17206   5029742.92346  23919239.01246
 18  5 30  0 55  0.0000000  0  9  3 14 16 22 23 26 27 31 32
   1964463.79206  24202342.07806   1336096.90745  24202351.41045
   3917254.42307  21438229.97707   3014425.56247  21438235.95347
     -4749.10907  20716865.78107     -1389.33047  20716870.59847
   2985789.78005  24292730.26605   2326587.34345  24292733.62945
  -5404339.11606  23508797.97706  -4009323.36346  23508801.55146
   2700213.31808  21232640.49208   2096238.74447  21232647.66847
  -4625125.75405  21794576.83605  -3458784.17946  21794584.04746
   1714014.84308  22008548.28908   1325732.04747  22008553.44547
   6594367.41806  23923051.82006   5045390.53546  23923060.91846
 18  5 30  0 55  5.0000000  0  9  3 14 16 22 23 26 27 31 32
   1972567.33506  24203884.56306   1342411.34945  24203893.35545
   3931336.10607  21440909.77307   3025398.29847  21440915.78547
     -1835.49007  20717420.14807       881.02047  20717424.93047
   2995801.97905  24294635.96905   2334389.04345  24294639.84845
  -5417237.40206  23506343.35906  -4019373.97746  23506346.86346
   2709609.23208  21234428.61708   2103560.23047  21234436.06347
  -4638232.69005  21792082.47705  -3468997.38046  21792089.77046
   1720365.20208  22009756.71908   1330680.37547  22009761.74647
   6614456.17105  23926874.46105   5061044.08146  23926883.95746
 18  5 30  0 55 10.0000000  0  9  3 14 16 22 23 26 27 31 32
   1980683.09806  24205428.80506   1348735.32545  24205438.10245
   3945433.84007  21443592.46907   3036383.54347  21443598.51647
      1091.90107  20717977.04707      3162.10147  20717981.73447
   3005821.47505  24296542.40605   2342196.44045  24296547.52745
  -5430124.67006  23503891.02306  -4029416.01446  23503895.07846
   2719013.74208  21236218.27308   2110888.40547  21236225.71947
  -4651326.40805  21789590.99205  -3479200.28046  21789598.19146
   1726723.85608  22010966.36708   1335635.16747  22010971.54747
   6634553.17306  23930699.31306   5076704.05446  23930708.62146
 18  5 30  0 55 15.0000000  0  9  3 14 16 22 23 26 27 31 32
   1988812.10806  24206975.34406   1355069.63345  24206984.32445
   3959548.58607  21446278.35907   3047382.04247  21446284.39547
      4033.98007  20718537.10907      5454.63247  20718541.80947
   3015849.14205  24298451.25805   2350010.19645  24298455.77045
  -5442999.98706  23501441.04706  -4039448.74146  23501444.70346
   2728427.74908  21238009.68008   2118223.98747  21238017.13747
  -4664405.96006  21787101.86706  -3489392.13046  21787108.99646
   1733091.70308  22012178.21908   1340597.12447  22012183.52747
   6654659.34406  23934525.29706   5092371.17946  23934534.71146
 18  5 30  0 55 20.0000000  0  9  3 14 16 22 23 26 27 31 32
   1996952.89405  24208524.28105   1361413.09245  24208533.63745
   3973678.93907  21448967.21107   3058392.70247  21448973.37547
      6989.39707  20719099.54707      7757.55247  20719104.30547
   3025883.64205  24300359.71905   2357829.26745  24300363.96145
  -5455864.66106  23498992.82806  -4049473.15946  23498996.44946
   2737849.90108  21239802.60208   2125565.91547  21239810.18847
  -4677472.69406  21784615.74206  -3499573.99946  21784622.62546
   1739467.41908  22013391.59408   1345565.21947  22013396.84447
   6674773.32606  23938352.85206   5108044.39546  23938362.71146
 18  5 30  0 55 25.0000000  0  9  3 14 16 22 23 26 27 31 32
   2005106.43905  24210076.35905   1367766.48145  24210085.41045
   3987825.83507  21451659.50807   3069416.25047  21451665.56647
      9959.07007  20719664.60207     10071.58047  20719669.37147
   3035925.90805  24302271.48405   2365654.45945  24302275.32845
  -5468717.75506  23496546.75006  -4059488.55046  23496550.09046
   2747281.12708  21241597.55508   2132914.92047  21241605.16447
  -4690525.62406  21782131.78106  -3509745.11846  21782138.49646
   1745851.95608  22014606.57008   1350540.17947  22014611.86747
   6694896.03906  23942182.18806   5123724.40246  23942191.35546
 18  5 30  0 55 30.0000000  0  9  3 14 16 22 23 26 27 31 32
   2013272.76306  24211630.25006   1374129.82945  24211639.03145
   4001989.35307  21454354.53907   3080452.74647  21454360.48047
     12943.05807  20720232.40607     12396.76147  20720237.16447
   3045975.93505  24304184.23405   2373485.64245  24304187.60945
  -5481559.30506  23494103.28106  -4069494.92746  23494106.46946
   2756721.46108  21243393.84408   2140271.02147  21243401.43047
  -4703564.72206  21779650.59406  -3519905.45146  21779657.22746
   1752245.34008  22015823.08608   1355522.02947  22015828.24247
   6715027.52206  23946012.71106   5139411.24846  23946021.70346
 18  5 30  0 55 35.0000000  0  9  3 14 16 22 23 26 27 31 32
   2021451.34306  24213186.35906   1380502.75545  24213195.58645
   4016168.93907  21457053.00007   3091501.76447  21457059.10547
     15940.80807  20720802.85207     14732.66947  20720807.60947
   3056033.22005  24306097.59405   2381322.44445  24306101.73045
  -5494389.74806  23491661.82806  -4079492.67046  23491665.06346
   2766170.37208  21245191.86708   2147633.80548  21245199.32448
  -4716590.51406  21777171.37506  -3530055.42046  21777178.19546
   1758647.08608  22017041.32008   1360510.39247  22017046.43047
   6735167.22706  23949845.84406   5155104.49946  23949854.64846
 18  5 30  0 55 40.0000000  0  9  3 14 16 22 23 26 27 31 32
   2029642.63806  24214745.41406   1386885.58745  24214754.16045
   4030365.00007  21459754.18807   3102563.62047  21459760.09447
     18952.79307  20721375.86707     17079.67147  20721380.53147
   3066098.20405  24308012.81305   2389165.30445  24308017.02045
  -5507208.62106  23489222.71106  -4089481.41146  23489226.46146
   2775628.33308  21246991.67208   2155003.63647  21246999.07047
  -4729602.49006  21774695.27306  -3540194.61846  21774702.47346
   1765057.63808  22018261.21108   1365505.62247  22018266.22747
   6755315.61606  23953679.60906   5170804.51746  23953688.75446
 18  5 30  0 55 45.0000000  0  9  3 14 16 22 23 26 27 31 32
   2037846.41206  24216306.58606   1393278.13545  24216314.79345
   4044577.37607  21462458.93807   3113638.19147  21462464.90247
     21978.81807  20721951.75807     19437.60847  20721956.42247
   3076170.67505  24309930.07005   2397013.97945  24309934.04345
  -5520016.08006  23486785.50006  -4099461.25246  23486789.21546
   2785095.13308  21248793.16408   2162380.36047  21248800.34047
  -4742600.82506  21772222.07006  -3550323.18346  21772228.31646
   1771476.82308  22019482.84408   1370507.58047  22019487.89547
   6775472.49306  23957515.47706   5186511.15746  23957524.29346
 18  5 30  0 55 50.0000000  0  9  3 14 16 22 23 26 27 31 32
   2046062.37306  24217869.97706   1399680.17545  24217878.52345
   4058805.77507  21465166.49207   3124725.24947  21465172.31647
     25018.57107  20722530.10207     21806.24347  20722534.78947
   3086250.31205  24311848.02305   2404868.24545  24311852.79345
  -5532812.49106  23484350.52306  -4109432.48546  23484353.98046
   2794570.45308  21250596.42208   2169763.72547  21250603.46947
  -4755585.84906  21769750.62506  -3560441.37246  21769756.75446
   1777904.42608  22020705.96908   1375516.10047  22020711.04347
   6795637.51106  23961352.49206   5202224.12646  23961361.47346
 18  5 30  0 55 55.0000000  0  9  3 14 16 22 23 26 27 31 32
   2054290.55606  24219436.29706   1406091.73045  24219443.89545
   4073050.24607  21467877.06307   3135824.82847  21467883.00447
     28072.08807  20723111.35207     24185.60447  20723116.10947
   3096337.18405  24313767.00005   2412728.12845  24313771.93445
  -5545597.67606  23481917.45306  -4119394.97446  23481920.73446
   2804054.36807  21252401.24207   2177153.78848  21252408.21948
  -4768557.44706  21767282.75806  -3570549.11346  21767289.34446
   1784340.39808  22021930.62508   1380531.13947  22021935.87547
   6815810.74906  23965191.48406   5217943.52546  23965200.51246
 18  5 30  0 56  0.0000000  0  9  3 14 16 22 23 26 27 31 32
   2062532.38406  24221004.35906   1412513.92645  24221011.81645
   4087312.24007  21470590.98407   3146938.06247  21470596.79747
     31140.82907  20723695.23407     26576.83047  20723700.09847
   3106432.67605  24315688.87505   2420594.74745  24315695.25045
  -5558370.21306  23479486.83606  -4129347.60746  23479490.09446
   2813548.24607  21254207.84407   2184551.61648  21254214.59448
  -4781514.20306  21764817.29706  -3580645.28446  21764823.64846
   1790786.13608  22023157.20308   1385553.78847  22023162.52347
   6835993.60206  23969032.06306   5233670.40546  23969041.30146
 18  5 30  0 56  5.0000000  0  9  3 14 16 22 23 26 27 31 32
   2070786.62706  24222574.75006   1418945.79546  24222582.77046
   4101590.48107  21473308.07807   3158063.95747  21473314.06647
     34223.53607  20724282.00007     28978.93547  20724286.86347
   3116535.58905  24317611.28105   2428467.15945  24317615.73445
  -5571131.35406  23477058.70306  -4139291.34046  23477061.42246
   2823050.88607  21256016.28107   2191956.27348  21256023.00848
  -4794457.31906  21762354.28106  -3590730.82546  21762360.91446
   1797240.45408  22024385.55508   1390583.12347  22024390.87547
   6856184.85606  23972874.61706   5249403.82946  23972883.71546
 18  5 30  0 56 10.0000000  0  9  3 14 16 22 23 26 27 31 32
   2079052.70906  24224147.63306   1425386.87445  24224153.87945
   4115884.40007  21476028.16407   3169202.07347  21476034.23447
     37319.63307  20724871.16407     31391.46947  20724876.25047
   3126645.36605  24319534.48405   2436344.87345  24319540.88345
  -5583881.60206  23474632.31306  -4149226.57846  23474634.91446
   2832561.73908  21257825.78108   2199367.32847  21257832.36747
  -4807387.33706  21759893.28906  -3600806.16046  21759899.16046
   1803702.79908  22025615.34408   1395618.71347  22025620.66447
   6876383.94506  23976718.31306   5265143.34546  23976727.63346
 18  5 30  0 56 15.0000000  0  9  3 14 16 22 23 26 27 31 32
   2087331.36306  24225723.35906   1431837.76645  24225729.43045
   4130194.70507  21478751.37507   3180352.96047  21478757.22347
     40429.86007  20725462.86707     33815.01947  20725467.87147
   3136762.69005  24321460.03905   2444228.49745  24321465.57045
  -5596620.24606  23472208.12506  -4159152.77746  23472210.75046
   2842081.50008  21259637.32808   2206785.32847  21259644.06647
  -4820303.52406  21757435.55506  -3610870.71846  21757441.94146
   1810173.88108  22026846.78108   1400661.11247  22026851.96147
   6896591.55806  23980563.66406   5280889.49646  23980572.87946
 18  5 30  0 56 20.0000000  0  9  3 14 16 22 23 26 27 31 32
   2095621.88906  24227300.74206   1438297.90745  24227307.76645
   4144520.71507  21481477.42207   3191516.07447  21481483.29347
     43553.50807  20726057.46107     36249.02747  20726062.55947
   3146886.89905  24323386.28105   2452117.47445  24323390.68845
  -5609347.92406  23469786.28106  -4169070.44446  23469789.11746
   2851609.50608  21261450.49208   2214209.75147  21261457.31347
  -4833206.51606  21754980.35906  -3620924.98746  21754986.81646
   1816653.08308  22028079.71908   1405709.83347  22028084.95747
   6916807.03406  23984410.30506   5296641.78046  23984419.85946
 18  5 30  0 56 25.0000000  0  9  3 14 16 22 23 26 27 31 32
   2103924.08906  24228880.32806   1444767.15145  24228886.50445
   4158862.25507  21484206.82807   3202691.29047  21484212.64147
     46690.39307  20726654.22707     38693.35347  20726659.32447
   3157017.79405  24325314.49205   2460011.66645  24325318.69945
  -5622064.82706  23467366.48406  -4178979.73046  23467369.89546
   2861145.57408  21263265.00808   2221640.45847  21263272.00847
  -4846096.50006  21752527.35906  -3630969.14946  21752534.88746
   1823140.23708  22029314.22708   1410764.75647  22029319.39547
   6937030.19006  23988258.97706   5312400.05646  23988268.23846
 18  5 30  0 56 30.0000000  0  9  3 14 16 22 23 26 27 31 32
   2112239.11306  24230463.06306   1451246.38845  24230469.27345
   4173220.49307  21486938.93007   3213879.51947  21486944.74247
     49841.70907  20727253.93007     41148.91947  20727258.96947
   3167156.52505  24327243.32005   2467911.98245  24327248.79345
  -5634769.80906  23464948.57006  -4188879.72146  23464951.87546
   2870690.82008  21265081.33608   2229078.31647  21265088.47747
  -4858972.30506  21750077.32006  -3641002.25346  21750084.71946
   1829636.48408  22030550.35208   1415826.76147  22030555.56647
   6957262.12806  23992109.03906   5328165.18446  23992118.51246
 18  5 30  0 56 35.0000000  0  9  3 14 16 22 23 26 27 31 32
   2120566.54706  24232048.02306   1457735.29945  24232054.46945
   4187594.96807  21489674.28907   3225080.39947  21489680.02047
     53006.98107  20727856.31307     43615.36347  20727861.25847
   3177302.57605  24329174.70305   2475818.00945  24329178.62945
  -5647463.26806  23462533.14106  -4198770.73246  23462536.65646
   2880244.81608  21266899.35208   2236522.99047  21266906.65647
  -4871834.34806  21747629.69506  -3651024.60346  21747637.07046
   1836141.40708  22031788.23408   1420895.52747  22031793.39147
   6977502.43006  23995960.88306   5343936.83446  23995970.00446
 18  5 30  0 56 40.0000000  0  9  3 14 16 22 23 26 27 31 32
   2128905.86906  24233634.78106   1464233.48045  24233641.34445
   4201985.20007  21492412.57807   3236293.56047  21492418.28547
     56185.75707  20728461.24207     46092.33447  20728466.21147
   3187455.56205  24331107.15605   2483729.41345  24331111.30545
  -5660145.64506  23460119.89106  -4208653.09546  23460123.27746
   2889807.13408  21268719.11708   2243974.14747  21268726.57447
  -4884683.06506  21745185.03106  -3661036.58446  21745192.11346
   1842654.55908  22033027.69508   1425970.70947  22033032.77047
   6997750.63906  23999813.82806   5359714.64146  23999822.86746
 18  5 30  0 56 45.0000000  0  9  3 14 16 22 23 26 27 31 32
   2137257.78806  24235224.04706   1470741.45845  24235230.02345
   4216391.78707  21495154.08607   3247519.46147  21495159.73447
     59378.73507  20729068.68007     48580.36547  20729073.85947
   3197616.11205  24333040.13305   2491646.70645  24333044.35245
  -5672816.25506  23457708.40606  -4218526.29746  23457711.24246
   2899378.38808  21270540.51608   2251432.26447  21270548.16047
  -4897517.77006  21742742.69506  -3671037.64946  21742749.61346
   1849176.57908  22034268.71108   1431052.80347  22034273.73847
   7018007.40906  24003668.54706   5375499.11746  24003677.55146
 18  5 30  0 56 50.0000000  0  9  3 14 16 22 23 26 27 31 32
   2145620.77106  24236815.40606   1477258.04545  24236822.06345
   4230813.32807  21497898.59407   3258757.02047  21497904.26647
     62584.36507  20729678.71907     51078.25747  20729683.81647
   3207782.72405  24334974.96905   2499568.72445  24334978.84845
  -5685476.57806  23455299.52306  -4228391.47346  23455302.50046
   2908957.11108  21272363.25808   2258896.19547  21272371.13747
  -4910339.93106  21740302.36706  -3681028.95246  21740309.19946
   1855706.02108  22035511.29708   1436140.68547  22035516.34847
   7038271.23306  24007524.83606   5391289.08746  24007533.88746
 18  5 30  0 56 55.0000000  0  9  3 14 16 22 23 26 27 31 32
   2153995.74206  24238409.14106   1483783.97845  24238415.19945
   4245250.70807  21500646.01607   3270006.92147  21500651.64147
     65803.53107  20730291.35207     53586.69547  20730296.49647
   3217956.28205  24336911.08605   2507496.15845  24336915.59845
  -5698125.71006  23452892.30506  -4238247.93146  23452895.34046
   2918544.18208  21274187.50008   2266366.63347  21274195.35547
  -4923148.66306  21737865.38306  -3691009.77246  21737872.51246
   1862243.73708  22036755.39808   1441235.01147  22036760.52047
   7058543.00606  24011382.64806   5407085.25446  24011391.40646
 18  5 30  0 57  0.0000000  0  9  3 14 16 22 23 26 27 31 32
   2162382.82006  24240004.88306   1490319.36445  24240011.27045
   4259704.11407  21503396.35907   3281269.31047  21503401.89147
     69036.42207  20730906.55507     56105.82747  20730911.60547
   3228136.96905  24338847.82805   2515429.13645  24338852.91445
  -5710763.47106  23450487.78906  -4248095.53046  23450491.28146
   2928139.76608  21276013.38308   2273843.70748  21276021.20348
  -4935943.76206  21735430.23406  -3700979.97146  21735436.65646
   1868789.91608  22038000.95308   1446335.92347  22038006.15647
   7078822.88906  24015241.71906   5422887.74446  24015250.32446
 18  5 30  0 57  5.0000000  0  9  3 14 16 22 23 26 27 31 32
   2170782.00906  24241603.74206   1496864.19145  24241609.88345
   4274173.51707  21506149.57807   3292544.16547  21506155.22747
     72282.99207  20731524.40607     58635.61847  20731529.42247
   3238324.71305  24340786.38305   2523367.63845  24340791.65645
  -5723389.85806  23448085.04706  -4257934.27746  23448088.59846
   2937743.83608  21277841.14108   2281327.39448  21277848.96148
  -4948725.23006  21732997.94506  -3710939.57546  21733004.21546
   1875344.58208  22039248.24208   1451443.44547  22039253.51647
   7099110.85106  24019102.06306   5438696.52146  24019110.83246
 18  5 30  0 57 10.0000000  0  9  3 14 16 22 23 26 27 31 32
   2179193.72906  24243204.28106   1503418.79145  24243209.71945
   4288659.33307  21508906.25007   3303831.80747  21508911.98047
     75543.70507  20732144.87507     61176.42847  20732149.82047
   3248519.99605  24342727.11705   2531312.01445  24342732.13345
  -5736004.42406  23445684.43006  -4267763.81946  23445687.65246
   2947356.83708  21279670.35908   2288818.04148  21279678.16848
  -4961492.59606  21730568.49206  -3720888.17446  21730574.93846
   1881908.16808  22040497.29708   1456557.92247  22040502.65247
   7119407.34506  24022964.30506   5454511.96446  24022972.96946
 18  5 30  0 57 15.0000000  0  9  3 14 16 22 23 26 27 31 32
   2187617.49806  24244807.16406   1509982.75245  24244813.46945
   4303161.08207  21511665.82807   3315131.86047  21511671.58247
     78818.08807  20732768.02307     63727.89447  20732772.88747
   3258722.32005  24344668.20305   2539261.86545  24344673.16045
  -5748607.59706  23443286.12506  -4277584.48646  23443289.12546
   2956978.28208  21281501.28908   2296315.26848  21281508.98048
  -4974246.35906  21728141.24206  -3730826.16946  21728147.32446
   1888480.21108  22041748.08608   1461678.99047  22041753.46547
   7139711.84505  24026828.07805   5470333.62446  24026837.57446
 18  5 30  0 57 20.0000000  0  9  3 14 16 22 23 26 27 31 32
   2196053.69306  24246412.08606   1516556.41845  24246418.23845
   4317679.12007  21514428.75007   3326444.61447  21514434.58647
     82106.45407  20733393.57807     66290.25247  20733398.50047
   3268932.02805  24346611.03905   2547217.46545  24346615.05945
  -5761199.04106  23440890.17206  -4287396.00646  23440893.05546
   2966608.53408  21283333.89808   2303819.36047  21283341.48447
  -4986986.08506  21725717.36706  -3740753.22446  21725723.80146
   1895061.07708  22043000.26608   1466806.93647  22043005.70347
   7160024.73106  24030693.15606   5486161.80846  24030702.27746
 18  5 30  0 57 25.0000000  0  9  3 14 16 22 23 26 27 31 32
   2204502.35706  24248020.31306   1523139.77945  24248026.71145
   4332213.53207  21517194.49207   3337770.12247  21517200.29347
     85408.92707  20734022.18807     68863.60647  20734027.15647
   3279149.23105  24348555.17205   2555178.91145  24348560.84445
  -5773778.60506  23438496.58606  -4297198.27046  23438499.91446
   2976247.69608  21285168.18008   2311330.39347  21285175.61347
  -4999711.71806  21723295.75006  -3750669.30046  21723301.86746
   1901650.89408  22044254.20308   1471941.85947  22044259.67647
   7180346.10306  24034560.71106   5501996.63346  24034569.69146
 18  5 30  0 57 30.0000000  0  9  3 14 16 22 23 26 27 31 32
   2212963.15406  24249630.19506   1529732.59845  24249637.53545
   4346763.95907  21519963.34407   3349108.11247  21519969.32047
     88725.14907  20734653.09407     71447.66847  20734658.14547
   3289373.54905  24350501.79705   2563145.90445  24350507.73845
  -5786346.63706  23436104.67206  -4306991.54846  23436107.98846
   2985895.39408  21287004.23408   2318848.07847  21287011.58647
  -5012423.54806  21720876.68006  -3760574.61146  21720882.99646
   1908249.30308  22045509.87508   1477083.48247  22045515.32447
   7200675.56906  24038429.23406   5517837.74746  24038437.73446
 18  5 30  0 57 35.0000000  0  9  3 14 16 22 23 26 27 31 32
   2221435.72506  24251242.59406   1536334.61045  24251249.20345
   4361330.01907  21522735.00807   3360458.28447  21522741.03147
     92054.72707  20735286.72707     74042.14047  20735291.87147
   3299604.63805  24352448.71905   2571118.17045  24352453.66445
  -5798903.48206  23433715.56306  -4316776.10546  23433718.84446
   2995551.26608  21288841.57008   2326372.13547  21288848.88747
  -5025121.93706  21718460.45306  -3770469.45846  21718466.51246
   1914855.94208  22046767.14808   1482231.51347  22046772.75047
   7221012.79906  24042299.14806   5533684.91846  24042308.04746
 18  5 30  0 57 40.0000000  0  9  3 14 16 22 23 26 27 31 32
   2229919.42506  24252856.67206   1542945.29645  24252862.87145
   4375911.09407  21525509.68007   3371820.15547  21525515.53947
     95397.09107  20735922.75807     76646.57247  20735927.97347
   3309841.85905  24354396.39105   2579095.22245  24354401.55945
  -5811449.75406  23431327.59406  -4326552.41746  23431331.08646
   3005214.69908  21290680.51608   2333902.08548  21290687.85548
  -5037807.50006  21716046.39806  -3780354.31546  21716052.59846
   1921470.23008  22048025.95308   1487385.50047  22048031.47347
   7241357.12806  24046170.75806   5549537.62446  24046179.30546
 18  5 30  0 57 45.0000000  0  9  3 14 16 22 23 26 27 31 32
   2238415.44906  24254473.43006   1549565.56045  24254479.41845
   4390508.38107  21528287.39807   3383194.65447  21528293.04747
     98753.41307  20736561.40607     79261.88547  20736566.57447
   3320086.35405  24356345.49205   2587077.92245  24356351.91445
  -5823984.21406  23428942.43006  -4336319.52646  23428945.82846
   3014886.86408  21292520.95308   2341438.83747  21292528.46947
  -5050478.98706  21713634.95306  -3790228.21246  21713641.01246
   1928093.36808  22049286.21108   1492546.37947  22049291.57847
   7261709.74806  24050043.91406   5565396.77646  24050052.73046
 18  5 30  0 57 50.0000000  0  9  3 14 16 22 23 26 27 31 32
   2246923.95306  24256092.82006   1556195.55645  24256098.38745
   4405122.05507  21531068.59407   3394581.92647  21531074.14847
    102123.90207  20737202.80507     81888.23147  20737207.68047
   3330338.33205  24358297.10905   2595066.47745  24358301.55145
  -5836506.65606  23426559.47706  -4346077.26846  23426562.92246
   3024567.94608  21294363.28908   2348982.53848  21294370.92248
  -5063136.26306  21711226.20306  -3800091.03046  21711232.70746
   1934725.48907  22050548.39807   1497714.25947  22050553.61347
   7282070.85806  24053918.42206   5581262.54546  24053927.21546
 18  5 30  0 57 55.0000000  0  9  3 14 16 22 23 26 27 31 32
   2255444.58106  24257714.05506   1562834.99945  24257719.94945
   4419751.72107  21533852.25007   3405981.66047  21533857.79347
    105508.12207  20737847.00007     84525.29647  20737851.84047
   3340597.38905  24360249.48405   2603060.53945  24360254.27745
  -5849017.47906  23424178.80506  -4355825.96146  23424182.05146
   3034257.56308  21296207.29708   2356532.89148  21296214.89548
  -5075779.62806  21708819.99206  -3809943.00446  21708825.79346
   1941366.24907  22051812.10207   1502888.87047  22051817.23447
   7302440.06306  24057794.41406   5597134.63846  24057802.92646
 18  5 30  0 58  0.0000000  0  9  3 14 16 22 23 26 27 31 32
   2263977.47606  24259338.54706   1569484.01245  24259343.94945
   4434397.58107  21536639.33607   3417394.00947  21536644.86747
    108906.19407  20738493.55507     87173.14647  20738498.44147
   3350863.77305  24362202.13305   2611060.32645  24362205.89545
  -5861516.44406  23421800.29706  -4365565.42246  23421803.69546
   3043955.90008  21298052.66408   2364090.03848  21298060.27348
  -5088408.91706  21706417.12506  -3819783.99946  21706423.46546
   1948015.87407  22053077.50007   1508070.39547  22053082.41047
   7322817.52006  24061671.88306   5613013.14946  24061680.86346
 18  5 30  0 58  5.0000000  0  9  3 14 16 22 23 26 27 31 32
   2272521.83006  24260963.97706   1576141.94745  24260969.80145
   4449058.82507  21539429.50007   3428818.34947  21539435.16047
    112317.41807  20739142.56307     89831.22347  20739147.49647
   3361136.56905  24364157.85205   2619065.07045  24364162.49245
  -5874004.40206  23419423.97706  -4375296.30746  23419427.25846
   3053662.13008  21299899.69508   2371653.33448  21299907.42248
  -5101024.90906  21704016.21106  -3829614.63746  21704022.49246
   1954673.56607  22054344.31307   1513258.20347  22054349.21147
   7343202.41805  24065551.20305   5628897.45946  24065560.65246
 18  5 30  0 58 10.0000000  0  9  3 14 16 22 23 26 27 31 32
   2281078.02306  24262591.71106   1582809.11645  24262598.44945
   4463735.79607  21542222.14807   3440254.94447  21542227.87947
    115742.18607  20739794.23407     92499.87547  20739799.03947
   3371416.16305  24366112.98405   2627075.14045  24366117.16845
  -5886480.95406  23417049.75806  -4385018.28746  23417053.09846
   3063376.60208  21301748.20308   2379223.05648  21301756.08248
  -5113627.23306  21701618.10206  -3839434.63346  21701624.25446
   1961339.65307  22055612.96907   1518452.55147  22055617.90247
   7363595.10905  24069431.82805   5644787.84546  24069441.61746
 18  5 30  0 58 15.0000000  0  9  3 14 16 22 23 26 27 31 32
   2289645.81206  24264222.98406   1589485.30745  24264228.80945
   4478428.27307  21545018.21107   3451703.62047  21545024.10547
    119180.18907  20740448.68007     95178.86947  20740453.44947
   3381702.34305  24368070.64105   2635090.30645  24368074.62545
  -5898946.25906  23414677.51606  -4394731.49846  23414681.11346
   3073099.13408  21303598.42208   2386799.05548  21303606.40648
  -5126216.08006  21699222.73406  -3849244.13046  21699228.80546
   1968013.94507  22056883.04707   1523653.29547  22056887.98047
   7383995.39405  24073313.60905   5660684.15346  24073323.50446
 18  5 30  0 58 20.0000000  0  9  3 14 16 22 23 26 27 31 32
   2298225.63206  24265855.25006   1596170.88845  24265860.80545
   4493136.67207  21547816.90607   3463164.70647  21547822.59047
    122631.79707  20741105.42207     97868.45147  20741110.13347
   3391995.54805  24370029.84405   2643110.97945  24370034.52045
  -5911399.89706  23412307.70306  -4404435.62846  23412311.54746
   3082830.12808  21305450.30508   2394381.64648  21305458.39548
  -5138791.00906  21696829.91406  -3859042.77846  21696836.17246
   1974696.90207  22058154.94507   1528860.79147  22058159.82047
   7404403.68205  24077197.38305   5676586.69646  24077207.05546
 18  5 30  0 58 25.0000000  0  9  3 14 16 22 23 26 27 31 32
   2306817.13406  24267489.57806   1602865.56645  24267495.66045
   4507860.66607  21550618.96107   3474637.94147  21550624.66847
    126096.77507  20741764.68007    100568.42547  20741769.63747
   3402295.39805  24371989.64805   2651136.83845  24371996.39845
  -5923842.20006  23409940.31306  -4414130.92946  23409944.10946
   3092569.23408  21307303.57008   2401970.55348  21307311.71948
  -5151352.32306  21694439.45306  -3868830.82246  21694446.25046
   1981388.17407  22059428.07007   1534074.76447  22059433.06347
   7424819.64605  24081082.64105   5692495.21646  24081092.31346
 18  5 30  0 58 30.0000000  0  9  3 14 16 22 23 26 27 31 32
   2315421.24706  24269127.21106   1609570.06945  24269134.23445
   4522601.18707  21553424.02307   3486124.05947  21553429.82447
    129576.03807  20742426.85907    103279.52547  20742431.80547
   3412602.86005  24373951.16405   2659168.61345  24373956.34445
  -5936272.16106  23407574.65606  -4423816.60346  23407578.26646
   3102317.44208  21309158.50808   2409566.55448  21309166.65648
  -5163899.03506  21692051.94506  -3878607.47946  21692058.70746
   1988088.76207  22060703.17207   1539296.00247  22060708.14147
   7445244.20306  24084969.11706   5708410.42446  24084978.70746
 18  5 30  0 58 35.0000000  0  9  3 14 16 22 23 26 27 31 32
   2324036.20706  24270766.68006   1616283.01645  24270773.17245
   4537356.47007  21556231.78107   3497621.67447  21556237.58247
    133067.82707  20743091.40607    106000.39147  20743096.23447
   3422916.12505  24375913.61705   2667204.93445  24375917.25045
  -5948691.60006  23405211.25806  -4433494.08846  23405215.00846
   3112072.92708  21311014.98408   2417168.22448  21311022.99248
  -5176432.96506  21689666.66406  -3888374.17846  21689674.05146
   1994796.83706  22061979.73406   1544523.07847  22061984.59847
   7465675.58406  24088857.83606   5724330.96246  24088867.41446
 18  5 30  0 58 40.0000000  0  9  3 14 16 22 23 26 27 31 32
   2332663.03206  24272408.27306   1623005.19845  24272415.01245
   4552127.50707  21559042.46107   3509131.56547  21559048.26247
    136573.14307  20743758.39807    108731.80247  20743763.10947
   3433236.19505  24377877.14805   2675246.53245  24377880.11345
  -5961099.46806  23402850.32806  -4443162.55646  23402854.34846
   3121836.71208  21312872.97708   2424776.36648  21312880.94948
  -5188953.02706  21687284.07006  -3898130.05846  21687291.32846
   2001513.40906  22063257.60906   1549756.77247  22063262.56647
   7486114.79206  24092746.53906   5740257.59746  24092756.66846
 18  5 30  0 58 45.0000000  0  9  3 14 16 22 23 26 27 31 32
   2341302.47306  24274052.18806   1629737.20345  24274059.23445
   4566915.13307  21561856.61707   3520654.37947  21561862.39547
    140092.77707  20744428.15607    111474.37147  20744432.90247
   3443563.93505  24379843.18005   2683294.10445  24379847.91445
  -5973494.87606  23400491.53906  -4452821.32046  23400495.26646
   3131609.60308  21314732.78108   2432391.60348  21314740.62548
  -5201458.43906  21684904.34406  -3907874.52146  21684911.32046
   2008239.32407  22064537.73407   1554997.74347  22064542.62147
   7506562.61906  24096637.76606   5756190.94946  24096647.75446
 18  5 30  0 58 50.0000000  0  9  3 14 16 22 23 26 27 31 32
   2349953.92906  24275698.89106   1636478.59345  24275704.78545
   4581718.72007  21564673.62507   3532189.63347  21564679.48447
    143626.09407  20745100.55507    114227.60747  20745105.00847
   3453898.66505  24381809.96905   2691347.14645  24381814.45745
  -5985878.51306  23398135.04706  -4462470.91246  23398138.97346
   3141390.98208  21316593.99208   2440013.45448  21316601.77748
  -5213949.75506  21682527.67206  -3917608.00946  21682534.25846
   2014973.95006  22065819.41406   1560245.49647  22065824.38347
   7527018.43606  24100530.71906   5772130.52646  24100540.07446
 18  5 30  0 58 55.0000000  0  9  3 14 16 22 23 26 27 31 32
   2358617.07106  24277347.20306   1643229.07845  24277353.41445
   4596537.93907  21567493.57807   3543737.06847  21567499.43847
    147172.73907  20745775.49207    116991.22847  20745780.03947
   3464240.04105  24383778.12505   2699405.34545  24383781.02045
  -5998250.68706  23395780.93806  -4472111.56446  23395784.75846
   3151180.52808  21318456.90608   2447641.67748  21318464.72748
  -5226427.31806  21680152.95306  -3927330.79146  21680159.05946
   2021716.98806  22067102.44506   1565499.79947  22067107.35547
   7547481.92606  24104424.20306   5788076.08446  24104433.84046
 18  5 30  0 59  0.0000000  0  9  3 14 16 22 23 26 27 31 32
   2367292.19406  24278998.11706   1649988.92045  24279005.15245
   4611373.05207  21570316.41407   3555296.88647  21570322.15647
    150733.07007  20746452.90607    119765.50947  20746457.37147
   3474588.40205  24385746.95305   2707468.96545  24385749.47345
  -6010611.03907  23393428.55507  -4481743.00646  23393432.16446
   3160978.51608  21320321.39808   2455276.48048  21320329.37148
  -5238890.80906  21677781.25806  -3937042.60546  21677788.10246
   2028468.75206  22068387.24206   1570760.90647  22068392.01247
   7567953.36606  24108320.20306   5804027.83146  24108329.65246
 18  5 30  0 59  5.0000000  0  9  3 14 16 22 23 26 27 31 32
   2375979.04906  24280650.89106   1656757.90245  24280658.59445
   4626223.84207  21573142.61707   3566868.92547  21573148.57047
    154306.82607  20747133.06307    122550.25147  20747137.43447
   3484943.44005  24387717.47705   2715537.80645  24387721.66045
  -6022959.79606  23391078.97706  -4491365.41846  23391082.29346
   3170784.73008  21322187.45308   2462917.68948  21322195.39148
  -5251340.42406  21675412.35906  -3946743.58546  21675418.86346
   2035229.00006  22069673.61706   1576028.63247  22069678.34047
   7588432.54306  24112217.43806   5819985.61346  24112226.58246
 18  5 30  0 59 10.0000000  0  9  3 14 16 22 23 26 27 31 32
   2384677.62806  24282306.30506   1663536.01245  24282313.64545
   4641090.29007  21575971.44507   3578453.16947  21575977.49247
    157893.97307  20747815.53907    125345.43247  20747819.95747
   3495305.15805  24389688.64105   2723611.87445  24389693.11745
  -6035297.01506  23388731.14806  -4500978.82746  23388734.51246
   3180599.12708  21324055.15608   2470565.27348  21324063.03548
  -5263776.17106  21673046.00806  -3956433.78846  21673051.85546
   2041997.74806  22070961.76606   1581302.98347  22070966.55947
   7608919.40706  24116115.60206   5835949.39046  24116124.89846
 18  5 30  0 59 15.0000000  0  9  3 14 16 22 23 26 27 31 32
   2393387.87306  24283963.84406   1670323.21745  24283971.64145
   4655972.34007  21578803.36707   3590049.57247  21578809.40247
    161494.49707  20748500.83607    128151.03947  20748505.14847
   3505673.53705  24391662.08605   2731691.13245  24391666.52745
  -6047622.66106  23386385.62506  -4510583.22146  23386388.84846
   3190421.66708  21325924.21908   2478219.19748  21325932.00448
  -5276198.08606  21670681.86706  -3966113.18746  21670688.16046
   2048774.95606  22072251.44506   1586583.92647  22072256.39147
   7629413.91106  24120015.77306   5851919.11546  24120025.31646
 18  5 30  0 59 20.0000000  0  9  3 14 16 22 23 26 27 31 32
   2402109.29406  24285623.94506   1677119.11545  24285631.25045
   4670869.53107  21581638.43007   3601657.76347  21581644.44147
    165107.88907  20749188.56307    130966.67847  20749192.77047
   3516048.07605  24393636.57805   2739775.15845  24393640.92645
  -6059937.21706  23384041.91406  -4520178.98046  23384045.52346
   3200251.88908  21327794.84408   2485879.10648  21327802.58248
  -5288606.61306  21668321.03106  -3975782.17246  21668327.47746
   2055560.14706  22073542.57006   1591871.08847  22073547.56347
   7649915.60306  24123916.98406   5867894.43446  24123926.75046
 18  5 30  0 59 25.0000000  0  9  3 14 16 22 23 26 27 31 32
   2410842.50006  24287285.18006   1683924.19145  24287292.12145
   4685782.46007  21584476.34407   3613278.22347  21584482.42647
    168734.76907  20749878.74207    133792.82447  20749883.07847
   3526429.41805  24395611.66405   2747864.52745  24395617.28945
  -6072240.04006  23381700.98406  -4529765.59646  23381704.81646
   3210090.38808  21329666.93808   2493545.46748  21329674.77048
  -5301001.13206  21665962.28906  -3985440.23646  21665968.81646
   2062353.94106  22074835.39806   1597164.95247  22074840.43847
   7670425.04506  24127819.68806   5883875.76146  24127829.37146
 18  5 30  0 59 30.0000000  0  9  3 14 16 22 23 26 27 31 32
   2419587.55706  24288949.30506   1690738.52945  24288956.91445
   4700711.17107  21587316.93807   3624910.97747  21587323.05547
    172375.16307  20750571.53907    136629.49747  20750575.92247
   3536817.59905  24397588.68005   2755959.19945  24397593.30945
  -6084531.04106  23379361.93006  -4539343.00546  23379365.24646
   3219937.21308  21331540.66408   2501218.31548  21331548.67248
  -5313381.53306  21663606.25006  -3995087.30946  21663612.54346
   2069156.44106  22076129.95306   1602465.60047  22076134.91047
   7690942.29305  24131723.83605   5899863.22046  24131733.55546
 18  5 30  0 59 35.0000000  0  9  3 14 16 22 23 26 27 31 32
   2428343.73606  24290615.88306   1697561.54545  24290621.82445
   4715654.96707  21590160.90607   3636555.48947  21590167.01247
    176028.41707  20751266.29707    139476.19547  20751270.85547
   3547211.87004  24399565.98404   2764058.59545  24399570.88345
  -6096810.88406  23377025.23406  -4548911.71646  23377028.79746
   3229791.66208  21333415.89808   2508897.10748  21333424.07048
  -5325748.57006  21661253.01606  -4004723.96546  21661259.10946
   2075966.92206  22077425.89806   1607772.46147  22077430.85547
   7711466.66305  24135629.57805   5915856.21246  24135639.29746
 18  5 30  0 59 40.0000000  0  9  3 14 16 22 23 26 27 31 32
   2437112.10706  24292284.31306   1704394.02445  24292290.89845
   4730614.91207  21593007.36707   3648212.57947  21593013.50847
    179695.60107  20751964.21907    142333.74647  20751968.90647
   3557613.32704  24401545.93804   2772163.64545  24401550.63745
  -6109078.52006  23374690.77306  -4558470.92146  23374694.21946
   3239654.81708  21335292.82808   2516582.67948  21335301.19948
  -5338101.09306  21658901.96106  -4014349.29146  21658908.10246
   2082786.48206  22078723.57006   1613086.40447  22078728.53947
   7731999.21905  24139536.82005   5931855.58946  24139546.52746
 18  5 30  0 59 45.0000000  0  9  3 14 16 22 23 26 27 31 32
   2445892.04306  24293954.92206   1711235.53845  24293961.79345
   4745590.39007  21595857.24207   3659881.77547  21595863.43047
    183376.08907  20752664.68007    145201.65447  20752669.53147
   3568021.34205  24403527.07805   2780273.77245  24403531.87145
  -6121334.50506  23372358.83606  -4568021.04846  23372362.34046
   3249526.04208  21337171.22708   2524274.54248  21337179.70348
  -5350439.71906  21656554.10906  -4023963.80046  21656559.71146
   2089614.53406  22080022.80506   1618406.96247  22080027.68047
   7752539.32705  24143445.41405   5947860.84346  24143454.78146
 18  5 30  0 59 50.0000000  0  9  3 14 16 22 23 26 27 31 32
   2454683.18106  24295627.63306   1718085.74345  24295634.47745
   4760581.02307  21598709.91407   3671562.77847  21598716.27747
    187069.47007  20753367.22707    148079.60247  20753372.07847
   3578435.47105  24405508.20305   2788388.63045  24405513.51245
  -6133579.22106  23370028.34406  -4577562.38546  23370031.69546
   3259404.96008  21339051.05508   2531972.39748  21339059.67248
  -5362764.80506  21654208.78906  -4033567.75246  21654214.90646
   2096450.64806  22081323.86706   1623733.80147  22081328.77747
   7773086.59305  24147355.71905   5963871.69746  24147365.26246
 18  5 30  0 59 55.0000000  0  9  3 14 16 22 23 26 27 31 32
   2463486.05205  24297302.96905   1724945.09645  24297309.98045
   4775587.36706  21601565.39106   3683256.01947  21601571.70747
    190776.34307  20754072.76607    150968.06847  20754077.57047
   3588856.32204  24407491.44504   2796508.79745  24407495.26645
  -6145812.14006  23367700.75006  -4587094.51946  23367704.04346
   3269292.13108  21340932.57808   2539676.68148  21340941.21948
  -5375075.78106  21651866.21106  -4043160.71946  21651872.23446
   2103295.45806  22082626.53106   1629067.41447  22082631.39547
   7793641.58806  24151267.50806   5979888.55046  24151277.27346
 18  5 30  1  0  0.0000000  0  9  3 14 16 22 23 26 27 31 32
   2472300.85606  24298980.46906   1731813.75645  24298986.41045
   4790609.63107  21604424.18007   3694961.67047  21604430.21547
    194496.86507  20754780.48407    153867.17447  20754785.13747
   3599284.08204  24409475.93004   2804634.30845  24409479.56345
  -6158033.02307  23365375.52307  -4596617.27646  23365378.95746
   3279187.78108  21342815.68008   2547387.57148  21342824.29748
  -5387372.38506  21649526.12506  -4052742.48746  21649532.19546
   2110149.16606  22083930.66406   1634407.95947  22083935.57447
   7814204.51706  24155180.45306   5995911.60045  24155189.69145
 18  5 30  1  0  5.0000000  0  9  3 14 16 22 23 26 27 31 32
   2481127.28706  24300660.26606   1738691.53245  24300667.21945
   4805647.45207  21607285.85207   3706679.44347  21607291.89847
    198230.71407  20755491.33607    156776.67147  20755496.07047
   3609718.39304  24411461.21904   2812764.92045  24411467.53545
  -6170242.15806  23363051.98406  -4606130.87446  23363055.45346
   3289091.53608  21344700.36708   2555104.78048  21344708.97348
  -5399654.98006  21647188.64106  -4062313.34346  21647194.51246
   2117011.41106  22085236.40606   1639755.16247  22085241.23447
   7834775.03106  24159094.36706   6011940.54646  24159103.47746
 18  5 30  1  0 10.0000000  0  9  3 14 16 22 23 26 27 31 32
   2489965.54606  24302341.94506   1745578.49045  24302348.23845
   4820701.09007  21610150.06307   3718409.53947  21610156.10947
    201978.15207  20756204.39107    159696.75247  20756209.11347
   3620159.46203  24413447.61703   2820900.81545  24413452.91445
  -6182439.22406  23360730.96106  -4615635.08146  23360734.71146
   3299003.68108  21346586.80508   2562828.52648  21346595.34048
  -5411923.29906  21644853.75006  -4071873.06346  21644859.80946
   2123882.59206  22086543.98406   1645109.32947  22086548.90647
   7855353.37706  24163010.78906   6027975.58746  24163020.02746
 18  5 30  1  0 15.0000000  0  9  3 14 16 22 23 26 27 31 32
   2498816.04005  24304026.21905   1752474.96045  24304032.19545
   4835770.88607  21613017.99207   3730152.23047  21613024.03947
    205739.48407  20756920.21107    162627.65247  20756925.15647
   3630607.73804  24415436.93004   2829042.33545  24415441.77045
  -6194623.89106  23358412.17206  -4625129.61246  23358415.86346
   3308924.55708  21348474.59408   2570559.07648  21348483.15248
  -5424176.90006  21642521.93006  -4081421.31146  21642527.76646
   2130762.96806  22087853.43806   1650470.66147  22087858.34847
   7875939.91706  24166928.05506   6044017.03246  24166937.87946
 18  5 30  1  0 20.0000000  0  9  3 14 16 22 23 26 27 31 32
   2507678.15505  24305712.75805   1759380.51045  24305719.72345
   4850856.32707  21615888.78107   3741907.11147  21615894.74647
    209514.27707  20757638.39107    165569.03447  20757643.31347
   3641062.65304  24417426.61704   2837189.00745  24417432.88745
  -6206796.74506  23356095.53906  -4634614.93946  23356098.90246
   3318853.59908  21350363.99208   2578295.99148  21350372.52748
  -5436416.35906  21640193.27306  -4090958.54446  21640199.59046
   2137651.94506  22089164.24206   1655838.69147  22089169.22347
   7896534.08906  24170847.33606   6060064.40746  24170856.87946
 18  5 30  1  0 25.0000000  0  9  3 14 16 22 23 26 27 31 32
   2516551.85205  24307401.38305   1766295.07145  24307408.12145
   4865957.32007  21618762.44507   3753674.11147  21618768.30547
    213302.43007  20758359.46107    168520.83147  20758364.41847
   3651524.13504  24419417.59404   2845340.81145  24419421.89545
  -6218957.78006  23353781.55506  -4644091.07346  23353785.11746
   3328790.77408  21352254.87508   2586039.24348  21352263.41048
  -5448641.71106  21637866.72706  -4100484.79146  21637872.68046
   2144549.51906  22090476.88306   1661213.41847  22090481.92247
   7917135.83506  24174767.57806   6076117.68946  24174777.46146
 18  5 30  1  0 30.0000000  0  9  3 14 16 22 23 26 27 31 32
   2525436.68406  24309091.76606   1773218.31545  24309099.32845
   4881073.43607  21621638.97707   3765452.89347  21621644.75447
    217103.47607  20759082.53907    171482.67447  20759087.55547
   3661991.72904  24421408.32804   2853497.36145  24421413.83645
  -6231107.41306  23351469.60206  -4653558.33046  23351473.12946
   3338735.62608  21354147.06308   2593788.47748  21354155.59848
  -5460853.38306  21635543.39106  -4110000.37946  21635549.28546
   2151455.26006  22091791.07806   1666594.50747  22091796.25847
   7937744.70105  24178689.43005   6092176.53246  24178698.46946
 18  5 30  1  0 35.0000000  0  9  3 14 16 22 23 26 27 31 32
   2534333.01106  24310785.00006   1780150.51145  24310793.69945
   4896204.99607  21624518.43007   3777243.71047  21624524.06647
    220917.81507  20759808.58607    174454.88547  20759813.60247
   3672465.81904  24423401.21104   2861658.99745  24423407.83245
  -6243245.13706  23349160.09406  -4663016.30346  23349163.79746
   3348688.52508  21356041.26608   2601543.97948  21356049.83648
  -5473050.96006  21633222.07006  -4119504.97946  21633228.15246
   2158369.52906  22093106.84406   1671982.24847  22093111.94147
   7958361.03506  24182612.75806   6108241.17446  24182622.73446
 18  5 30  1  0 40.0000000  0  9  3 14 16 22 23 26 27 31 32
   2543241.37806  24312479.90606   1787092.08046  24312487.60946
   4911352.59807  21627400.84407   3789047.02847  21627406.57447
    224745.91807  20760537.00807    177437.83647  20760542.15247
   3682946.88004  24425396.40604   2869826.02645  24425402.75845
  -6255370.53907  23346852.44507  -4672464.67946  23346856.17246
   3358650.00608  21357936.96108   2609306.17248  21357945.63748
  -5485233.92306  21630903.52306  -4128998.20146  21630909.69946
   2165292.91806  22094424.23406   1677377.08947  22094429.43847
   7978985.41306  24186537.18006   6124312.09746  24186546.78146
