     2.10           OBSERVATION DATA    GPS(GPS)            RINEX VERSION / TYPE
cnvtToRINEX 3.07.0  convertToRINEX OPR  19-May-20 12:29 UTC PGM / RUN BY / DATE 
----------------------------------------------------------- COMMENT             
GG07                                                        MARKER NAME         
GG07                                                        MARKER NUMBER       
GNSS Observer       Trimble                                 OBSERVER / AGENCY   
0220247377          5700                2.32                REC # / TYPE / VERS 
                    UNKNOWN EXT                             ANT # / TYPE        
 -3050080.7210  4928159.6222  2654053.5916                  APPROX POSITION XYZ 
        0.0000        0.0000        0.0000                  ANTENNA: DELTA H/E/N
     1     1     0                                          WAVELENGTH FACT L1/2
     4    C1    L1    L2    P2                              # / TYPES OF OBSERV 
  2020     5    16     0    35   25.0000000     GPS         TIME OF FIRST OBS   
  2020     5    16     1    35   13.0000000     GPS         TIME OF LAST OBS    
     0                                                      RCV CLOCK OFFS APPL 
    18                                                      LEAP SECONDS        
    10                                                      # OF SATELLITES     
   G04  3564  3564  3564  3564                              PRN / # OF OBS      
   G08  3589  3589  3589  3589                              PRN / # OF OBS      
   G09  2955  2946  2950  2950                              PRN / # OF OBS      
   G11  1884  1884  1884  1884                              PRN / # OF OBS      
   G14  1623  1623  1623  1623                              PRN / # OF OBS      
   G16  3564  3564  3564  3564                              PRN / # OF OBS      
   G21  2103  2103  2103  2103                              PRN / # OF OBS      
   G26  3589  3589  3589  3589                              PRN / # OF OBS      
   G27  3589  3589  3589  3589                              PRN / # OF OBS      
   G31  3589  3589  3589  3589                              PRN / # OF OBS      
CARRIER PHASE MEASUREMENTS: PHASE SHIFTS REMOVED            COMMENT             
                                                            END OF HEADER       
 20  5 16  0 35 25.0000000  0  4G08G26G27G31                        -0.000409859
  22423912.96915   -242987.94515    -94350.00459  22423915.29359
  21513979.52316    -71850.82816    -34853.29359  21513980.58259
  20471265.74217   -194151.00017    -94917.24659  20471266.31659
  22000275.22717    -83832.41417    -40238.23858  22000272.90258
 20  5 16  0 35 26.0000000  0  4G08G26G27G31                        -0.000412233
  22422570.406 5   -250041.910 5    -99846.59849  22422572.77349
  21513582.258 6    -73937.863 6    -36479.55549  21513583.75049
  20470190.367 7   -199801.590 7    -99320.30149  20470191.13349
  21999813.422 7    -86257.105 7    -42127.60948  21999811.74648
 20  5 16  0 35 27.0000000  0  4G08G26G27G31                        -0.000414608
  22421227.844 5   -257096.813 5   -105343.93049  22421230.03949
  21513184.539 6    -76026.078 6    -38106.73849  21513186.23049
  20469114.836 7   -205452.848 7   -103723.88749  20469115.63749
  21999351.820 6    -88682.820 6    -44017.77348  21999350.02348
 20  5 16  0 35 28.0000000  0  4G08G26G27G31                        -0.000416985
  22419885.117 5   -264152.715 5   -110842.03549  22419887.49649
  21512786.750 6    -78115.523 6    -39734.87549  21512788.71949
  20468039.734 7   -211104.766 7   -108127.98049  20468040.17649
  21998890.242 6    -91109.516 6    -45908.70748  21998888.44948
 20  5 16  0 35 29.0000000  0  4G08G26G27G31                        -0.000419363
  22418542.094 5   -271209.516 5   -116340.83649  22418544.71949
  21512388.961 6    -80206.148 6    -41363.93849  21512390.59449
  20466963.797 7   -216757.328 7   -112532.57049  20466964.31349
  21998428.102 6    -93537.203 6    -47800.41848  21998426.39548
 20  5 16  0 35 30.0000000  0  4G08G26G27G31                        -0.000421740
  22417199.109 5   -278267.176 5   -121840.30949  22417201.34049
  21511991.125 6    -82297.898 6    -42993.87549  21511992.90249
  20465888.094 7   -222410.469 7   -116937.61749  20465888.99649
  21997966.180 6    -95965.793 6    -49692.82448  21997964.25848
 20  5 16  0 35 31.0000000  0  4G08G26G27G31                        -0.000424118
  22415856.180 5   -285325.582 5   -127340.36349  22415858.05149
  21511593.133 6    -84390.637 6    -44624.58249  21511594.51249
  20464812.328 7   -228064.051 7   -121343.00449  20464812.51649
  21997503.578 6    -98395.180 6    -51585.85248  21997501.87548
 20  5 16  0 35 32.0000000  0  4G08G26G27G31                        -0.000426498
  22414512.695 5   -292384.781 5   -132841.03549  22414515.07049
  21511194.211 6    -86484.379 6    -46256.06649  21511196.19149
  20463736.617 7   -233718.148 7   -125748.79749  20463737.09849
  21997041.133 6   -100825.387 6    -53479.52748  21997038.95748
 20  5 16  0 35 33.0000000  0  4G08G26G27G31                        -0.000428877
  22413169.477 5   -299444.762 5   -138342.32449  22413171.30949
  21510795.875 6    -88579.211 6    -47888.40649  21510797.72349
  20462660.320 7   -239372.727 7   -130154.95349  20462660.81349
  21996578.508 6   -103256.426 6    -55373.84448  21996576.77048
 20  5 16  0 35 34.0000000  0  4G08G26G27G31                        -0.000431257
  22411825.820 5   -306505.480 5   -143844.18449  22411827.39849
  21510397.141 6    -90674.969 6    -49521.46949  21510398.91849
  20461584.102 7   -245027.719 7   -134561.44149  20461585.02749
  21996115.617 7   -105688.195 7    -57268.73448  21996114.16048
 20  5 16  0 35 35.0000000  0  4G08G26G27G31                        -0.000433640
  22410482.063 5   -313566.926 5   -149346.60949  22410483.82849
  21509998.352 6    -92771.758 6    -51155.32849  21510000.03949
  20460507.938 7   -250683.152 7   -138968.27749  20460508.93049
  21995652.805 7   -108120.766 7    -59164.24248  21995650.94948
 20  5 16  0 35 36.0000000  0  4G08G26G27G31                        -0.000436022
  22409138.109 5   -320629.082 5   -154849.59049  22409140.04349
  21509599.039 6    -94869.434 6    -52789.88749  21509600.72749
  20459431.617 7   -256339.008 7   -143375.43849  20459432.25449
  21995189.563 7   -110554.070 7    -61060.32448  21995187.93048
 20  5 16  0 35 37.0000000  0  4G08G26G27G31                        -0.000438404
  22407794.313 5   -327691.910 5   -160353.09449  22407796.10249
  21509199.188 6    -96968.129 6    -54425.23849  21509201.13749
  20458355.281 7   -261995.281 7   -147782.93049  20458356.14549
  21994726.641 6   -112988.145 6    -62957.01248  21994724.78948
 20  5 16  0 35 38.0000000  0  4G08G26G27G31                        -0.000440786
  22406449.922 5   -334755.422 5   -165857.12549  22406451.82049
  21508799.805 6    -99067.734 6    -56061.29749  21508801.74649
  20457278.922 7   -267651.949 7   -152190.71549  20457279.86749
  21994263.344 6   -115422.941 6    -64854.25048  21994261.39148
 20  5 16  0 35 39.0000000  0  4G08G26G27G31                        -0.000443171
  22405105.500 5   -341819.645 5   -171361.71549  22405107.87149
  21508400.789 6   -101168.297 6    -57698.10249  21508401.98049
  20456202.492 7   -273309.008 7   -156598.81649  20456203.16449
  21993799.992 6   -117858.461 6    -66752.05948  21993798.41048
 20  5 16  0 35 40.0000000  0  4G08G26G27G31                        -0.000445555
  22403761.383 5   -348884.520 5   -176866.81649  22403763.39149
  21508000.594 6   -103269.758 6    -59335.60549  21508002.18449
  20455125.531 7   -278966.445 7   -161007.20749  20455126.46949
  21993336.477 6   -120294.691 6    -68650.42248  21993334.55548
 20  5 16  0 35 41.0000000  0  4G08G26G27G31                        -0.000447939
  22402416.961 5   -355949.906 5   -182372.30949  22402418.83249
  21507600.289 6   -105372.008 6    -60973.72349  21507602.39849
  20454049.367 7   -284624.098 7   -165415.77049  20454049.96149
  21992872.695 6   -122731.480 6    -70549.21548  21992870.88748
 20  5 16  0 35 42.0000000  0  4G08G26G27G31                        -0.000450325
  22401072.266 5   -363015.914 5   -187878.28949  22401073.83649
  21507199.953 6   -107475.121 6    -62612.51649  21507202.07849
  20452972.680 7   -290282.102 7   -169824.60249  20452973.15249
  21992408.625 6   -125168.938 6    -72448.53948  21992406.69148
 20  5 16  0 35 43.0000000  0  4G08G26G27G31                        -0.000452711
  22399727.344 5   -370082.469 5   -193384.69949  22399729.56349
  21506799.539 6   -109579.074 6    -64251.95349  21506801.27749
  20451895.633 7   -295940.387 7   -174233.65649  20451896.46949
  21991945.039 6   -127607.039 6    -74348.35948  21991943.07848
 20  5 16  0 35 44.0000000  0  4G08G26G27G31                        -0.000455097
  22398382.672 5   -377149.605 5   -198891.55949  22398384.31349
  21506399.242 6   -111683.813 6    -65892.01649  21506401.14549
  20450819.281 7   -301598.941 7   -178642.91849  20450819.67649
  21991480.656 6   -130045.734 6    -76248.64148  21991479.26248
 20  5 16  0 35 45.0000000  0  4G08G26G27G31                        -0.000457485
  22397037.867 5   -384217.355 5   -204398.89849  22397039.42249
  21505998.750 6   -113789.449 6    -67532.77349  21506000.62149
  20449742.289 7   -307257.777 7   -183052.40249  20449743.02049
  21991016.625 6   -132485.051 6    -78149.40648  21991014.59048
 20  5 16  0 35 46.0000000  0  4G08G26G27G31                        -0.000459873
  22395692.344 5   -391285.730 5   -209906.71949  22395694.54349
  21505597.484 6   -115895.922 6    -69174.18049  21505599.19949
  20448665.266 7   -312916.988 7   -187462.17249  20448665.92249
  21990552.188 6   -134925.059 6    -80050.71548  21990550.38748
 20  5 16  0 35 47.0000000  0  4G08G26G27G31                        -0.000462261
  22394347.773 5   -398354.727 5   -215415.02749  22394349.75449
  21505196.914 6   -118003.273 6    -70816.27349  21505198.69149
  20447588.383 7   -318576.500 7   -191872.18849  20447588.74649
  21990087.945 6   -137365.711 6    -81952.52748  21990085.87148
 20  5 16  0 35 48.0000000  0  4G08G26G27G31                        -0.000464649
  22393001.773 5   -405424.297 5   -220923.78149  22393004.32049
  21504795.758 6   -120111.484 6    -72459.03149  21504797.32049
  20446511.281 7   -324236.320 7   -196282.44149  20446511.98849
  21989623.453 6   -139807.012 6    -83854.83648  21989621.47348
 20  5 16  0 35 49.0000000  0  4G08G26G27G31                        -0.000467039
  22391656.594 5   -412494.340 5   -226432.90649  22391658.73449
  21504393.813 6   -122220.430 6    -74102.37549  21504395.73049
  20445434.453 7   -329896.336 7   -200692.83649  20445434.73449
  21989158.516 6   -142248.859 6    -85757.57448  21989157.10248
 20  5 16  0 35 50.0000000  0  7G04G08G14G16G26G27G31               -0.000469425
  21784252.75016   -147839.52316   -102192.38758  21784251.45358
  22390311.172 5   -419564.965 5   -231942.48849  22390313.33649
  22871619.85215     -8355.80515     -4389.75857  22871618.92257
  20622345.65616    -83963.20716    -55935.64858  20622343.37158
  21503992.719 6   -124330.133 6    -75746.30149  21503994.35949
  20444356.938 7   -335556.574 7   -205103.41049  20444357.95349
  21988693.586 6   -144691.246 6    -87660.73448  21988691.87148
 20  5 16  0 35 51.0000000  0  7G04G08G14G16G26G27G31               -0.000471817
  21783184.773 6   -153449.594 6   -106563.87948  21783183.47348
  22388965.586 5   -426636.043 5   -237452.41849  22388967.36749
  22871557.016 5     -8685.785 5     -4646.87547  22871556.08247
  20621749.430 6    -87096.230 6    -58376.96548  20621747.61348
  21503590.852 6   -126440.637 6    -77390.85249  21503592.82049
  20443279.875 7   -341217.035 7   -209514.16449  20443280.55549
  21988228.805 6   -147134.180 6    -89564.32048  21988227.08248
 20  5 16  0 35 52.0000000  0  7G04G08G14G16G26G27G31               -0.000474207
  21782116.648 6   -159060.059 6   -110935.67248  21782115.70348
  22387620.094 5   -433707.703 5   -242962.79349  22387621.37949
  22871494.711 5     -9016.410 5     -4904.50047  22871493.50047
  20621152.797 6    -90229.895 6    -60818.78548  20621150.92648
  21503189.211 6   -128551.945 6    -79036.02749  21503191.04749
  20442202.758 7   -346877.773 7   -213925.12549  20442203.34449
  21987764.055 6   -149577.730 6    -91468.39148  21987761.95748
 20  5 16  0 35 53.0000000  0  7G04G08G14G16G26G27G31               -0.000476599
  21781049.273 6   -164670.750 6   -115307.63748  21781048.47348
  22386273.938 6   -440779.859 6   -248473.55949  22386276.12549
  22871430.891 5     -9347.637 5     -5162.59447  22871430.18847
  20620557.000 6    -93364.063 6    -63260.99648  20620554.75448
  21502787.633 6   -130663.992 6    -80681.77349  21502788.96149
  20441125.281 7   -352538.719 7   -218336.25049  20441125.89149
  21987299.188 7   -152021.813 7    -93372.88748  21987296.76648
 20  5 16  0 35 54.0000000  0  7G04G08G14G16G26G27G31               -0.000478991
  21779981.461 6   -170281.688 6   -119679.79748  21779980.14548
  22384928.578 5   -447852.469 5   -253984.68849  22384930.17249
  22871368.352 5     -9679.418 5     -5421.13747  22871367.01247
  20619960.180 6    -96498.777 6    -65703.63348  20619958.34848
  21502385.805 6   -132776.762 6    -82328.08649  21502387.44549
  20440047.844 7   -358199.844 7   -222747.51649  20440048.98049
  21986833.555 6   -154466.426 6    -95277.78148  21986831.90248
 20  5 16  0 35 55.0000000  0  7G04G08G14G16G26G27G31               -0.000481384
  21778913.547 6   -175892.891 6   -124052.16048  21778912.72748
  22383582.398 5   -454925.566 5   -259496.18849  22383584.02349
  22871304.570 5    -10011.809 5     -5680.14547  22871303.96547
  20619364.063 6    -99634.035 6    -68146.68848  20619361.94148
  21501983.313 6   -134890.273 6    -83974.98049  21501985.22749
  20438970.617 7   -363861.141 7   -227158.91849  20438971.52049
  21986368.555 6   -156911.551 6    -97183.05948  21986366.65248
 20  5 16  0 35 56.0000000  0  7G04G08G14G16G26G27G31               -0.000483776
  21777845.641 6   -181504.410 6   -128424.76648  21777844.83648
  22382236.820 6   -461999.188 6   -265008.10249  22382238.20349
  22871241.852 5    -10344.816 5     -5939.63347  22871240.44547
  20618767.234 6   -102769.891 6    -70590.21148  20618764.90648
  21501581.289 6   -137004.559 6    -85622.48049  21501582.98049
  20437893.391 7   -369522.703 7   -231570.52749  20437894.02349
  21985902.922 6   -159357.266 6    -99088.80948  21985901.19148
 20  5 16  0 35 57.0000000  0  7G04G08G14G16G26G27G31               -0.000486170
  21776777.875 6   -187116.238 6   -132797.60948  21776777.03948
  22380890.477 6   -469073.348 6   -270520.43849  22380891.84849
  22871178.320 5    -10678.477 5     -6199.62947  22871177.46947
  20618170.508 6   -105906.320 6    -73034.18448  20618167.76248
  21501178.516 6   -139119.668 6    -87270.61749  21501180.10949
  20436816.094 7   -375184.512 7   -235982.32449  20436816.49249
  21985437.531 6   -161803.570 6   -100995.02348  21985435.34048
 20  5 16  0 35 58.0000000  0  7G04G08G14G16G26G27G31               -0.000488565
  21775710.406 6   -192728.367 6   -137170.69948  21775709.16048
  22379544.063 5   -476148.031 5   -276033.18849  22379545.62149
  22871114.000 5    -11012.766 5     -6460.13347  22871113.55947
  20617573.125 6   -109043.359 6    -75478.62948  20617570.98848
  21500775.781 6   -141235.527 6    -88919.33649  21500777.67249
  20435738.703 7   -380846.539 7   -240394.29749  20435739.20349
  21984971.844 6   -164250.422 6   -102901.66848  21984969.91048
 20  5 16  0 35 59.0000000  0  7G04G08G14G16G26G27G31               -0.000490959
  21774642.281 6   -198340.727 6   -141543.96548  21774640.70748
  22378197.609 5   -483223.164 5   -281546.28949  22378199.55549
  22871050.781 5    -11347.555 5     -6721.01647  22871049.97747
  20616976.242 6   -112180.875 6    -77923.44948  20616973.56348
  21500373.203 6   -143352.113 6    -90568.61749  21500375.23449
  20434661.281 7   -386508.742 7   -244806.40649  20434661.81649
  21984506.172 6   -166697.781 6   -104808.70348  21984504.11348
 20  5 16  0 36  0.0000000  0  7G04G08G14G16G26G27G31               -0.000493355
  21773573.953 6   -203953.266 6   -145917.37948  21773573.10948
  22376850.930 5   -490298.719 5   -287059.70349  22376852.75049
  22870987.586 5    -11682.914 5     -6982.33647  22870986.27747
  20616379.438 6   -115318.906 6    -80368.67248  20616376.64148
  21499970.133 6   -145469.387 6    -92218.44549  21499972.05149
  20433583.703 7   -392171.074 7   -249218.61349  20433584.11749
  21984040.516 6   -169145.617 6   -106716.11348  21984038.67248
 20  5 16  0 36  1.0000000  0  7G04G08G14G16G26G27G31               -0.000495750
  21772505.703 6   -209566.117 6   -150291.03148  21772504.60248
  22375504.414 5   -497374.797 5   -292573.52749  22375506.34849
  22870923.328 5    -12018.883 5     -7244.13746  22870922.29346
  20615781.984 6   -118457.480 6    -82814.32048  20615779.66848
  21499566.820 6   -147587.406 6    -93868.85249  21499568.89549
  20432506.211 7   -397833.645 7   -253631.00449  20432506.56349
  21983574.383 6   -171594.008 6   -108623.94548  21983572.47348
 20  5 16  0 36  2.0000000  0  7G04G08G14G16G26G27G31               -0.000498146
  21771438.023 6   -215179.242 6   -154664.90248  21771436.81648
  22374157.633 5   -504451.398 5   -298087.75849  22374159.78949
  22870858.922 5    -12355.449 5     -7506.39847  22870857.87947
  20615184.750 6   -121596.656 6    -85260.42248  20615182.14848
  21499163.773 6   -149706.199 6    -95519.85549  21499165.27749
  20431428.703 7   -403496.422 7   -258043.56349  20431429.29349
  21983108.430 6   -174042.965 6   -110532.23448  21983106.48848
 20  5 16  0 36  3.0000000  0  7G04G08G14G16G26G27G31               -0.000500542
  21770369.453 6   -220792.578 6   -159038.92648  21770368.82048
  22372811.086 6   -511528.430 6   -303602.33249  22372813.33649
  22870795.094 5    -12692.570 5     -7769.08247  22870793.63747
  20614587.086 6   -124736.301 6    -87706.90248  20614584.78948
  21498760.570 6   -151825.703 6    -97171.41049  21498762.36349
  20430350.891 7   -409159.367 7   -262456.24249  20430351.41849
  21982641.961 6   -176492.387 6   -112440.87148  21982640.62148
 20  5 16  0 36  3.9990000  0  7G04G08G14G16G26G27G31                0.000497063
  21769302.831 6   -226400.504 6   -163408.74248  21769301.02648
  22371465.573 6   -518598.824 6   -309111.74249  22371467.13249
  22870731.042 5    -13029.781 5     -8031.84047  22870729.87047
  20613990.081 6   -127873.309 6    -90151.32448  20613987.77648
  21498357.714 6   -153943.777 6    -98821.87149  21498358.97649
  20429274.464 7   -414816.785 7   -266864.61749  20429275.11649
  21982176.362 6   -178939.855 6   -114347.98048  21982174.58148
 20  5 16  0 36  4.9990000  0  7G04G08G14G16G26G27G31                0.000494665
  21768233.761 6   -232014.301 6   -167783.13748  21768232.56948
  22370119.081 6   -525676.770 6   -314627.01249  22370120.24549
  22870666.683 5    -13367.965 5     -8295.40247  22870665.09747
  20613392.409 6   -131013.988 6    -92598.60948  20613389.81948
  21497954.120 6   -156064.707 6   -100474.54749  21497955.40949
  20428196.628 6   -420480.027 6   -271277.52349  20428197.04649
  21981710.120 6   -181390.223 6   -116257.36348  21981708.40948
 20  5 16  0 36  5.9990000  0  7G04G08G14G16G26G27G31                0.000492268
  21767165.745 6   -237628.203 6   -172157.61348  21767164.60848
  22368772.284 6   -532755.023 6   -320142.54349  22368773.56549
  22870601.487 4    -13706.574 4     -8559.28147  22870600.62047
  20612794.667 6   -134155.039 6    -95046.17248  20612792.25748
  21497550.370 6   -158186.172 6   -102127.62549  21497552.68349
  20427118.597 6   -426143.313 6   -275690.47349  20427119.73349
  21981243.737 6   -183841.016 6   -118167.07048  21981242.02648
 20  5 16  0 36  6.9990000  0  7G04G08G14G16G26G27G31                0.000489868
  21766097.065 6   -243242.273 6   -176532.21148  21766096.51548
  22367424.862 6   -539833.711 6   -325658.41049  22367426.62449
  22870537.214 5    -14045.695 5     -8823.54347  22870536.52647
  20612196.987 6   -137296.590 6    -97494.12948  20612193.85548
  21497146.253 6   -160308.328 6   -103781.24649  21497147.96449
  20426041.386 7   -431806.738 7   -280103.53549  20426041.69049
  21980777.183 6   -186292.309 6   -120077.16848  21980775.42148
 20  5 16  0 36  7.9990000  0  7G04G08G14G16G26G27G31                0.000487469
  21765028.933 6   -248856.594 6   -180907.00048  21765027.89448
  22366078.206 6   -546912.836 6   -331174.60549  22366079.66349
  22870473.050 5    -14385.355 5     -9088.22347  22870471.67947
  20611598.987 6   -140438.645 6    -99942.47348  20611596.12448
  21496742.394 6   -162431.223 6   -105435.45349  21496743.98349
  20424963.550 6   -437470.320 6   -284516.71949  20424963.96049
  21980310.886 6   -188744.055 6   -121987.62548  21980308.80848
 20  5 16  0 36  8.9990000  0  7G04G08G14G16G26G27G31                0.000485069
  21763960.636 6   -254471.082 6   -185281.91848  21763959.55848
  22364730.722 6   -553992.336 6   -336691.09849  22364732.16349
  22870408.315 5    -14725.551 5     -9353.30147  22870406.79247
  20611000.878 6   -143581.145 6   -102391.17648  20610998.08548
  21496337.753 6   -164554.773 6   -107090.16049  21496340.11649
  20423885.698 6   -443134.031 6   -288930.00449  20423886.35149
  21979844.003 6   -191196.285 6   -123898.45348  21979842.31548
 20  5 16  0 36  9.9990000  0  7G04G08G14G16G26G27G31                0.000482670
  21762892.323 6   -260085.742 6   -189656.97747  21762891.08147
  22363383.487 6   -561072.242 6   -342207.91049  22363385.06249
  22870343.706 5    -15066.227 5     -9618.75847  22870342.30047
  20610402.636 6   -146724.113 6   -104840.24248  20610400.25348
  21495934.011 6   -166678.953 6   -108745.35949  21495935.73749
  20422808.370 6   -448797.809 6   -293343.33249  20422808.71449
  21979377.370 6   -193648.934 6   -125809.61348  21979375.75348
 20  5 16  0 36 10.9990000  0  7G04G08G14G16G26G27G31                0.000480270
  21761823.683 6   -265700.527 6   -194032.13347  21761822.50747
  22362036.073 6   -568152.492 6   -347724.98449  22362037.41349
  22870278.933 5    -15407.387 5     -9884.58647  22870277.31547
  20609804.644 6   -149867.484 6   -107289.62148  20609801.81948
  21495529.339 6   -168803.754 6   -110401.04349  21495531.52249
  20421730.237 7   -454461.727 7   -297756.77749  20421730.92949
  21978910.612 6   -196102.016 6   -127721.10948  21978908.96448
 20  5 16  0 36 11.9990000  0  7G04G08G14G16G26G27G31                0.000477869
  21760755.526 6   -271315.477 6   -198407.43448  21760754.15548
  22360688.808 6   -575233.184 6   -353242.41849  22360690.01149
  22870213.339 5    -15749.043 5    -10150.80147  22870212.17147
  20609206.261 7   -153011.316 7   -109739.37948  20609203.44848
  21495125.245 6   -170929.203 6   -112057.25049  21495126.86249
  20420652.573 7   -460125.719 7   -302170.27749  20420652.89749
  21978444.026 6   -198555.570 6   -129632.96948  21978442.08148
 20  5 16  0 36 12.9990000  0  7G04G08G14G16G26G27G31                0.000475468
  21759687.526 6   -276930.676 6   -202782.91048  21759685.65948
  22359341.730 6   -582314.352 6   -358760.20349  22359343.00349
  22870147.964 5    -16091.309 5    -10417.46947  22870146.84747
  20608607.894 6   -156155.680 6   -112189.55948  20608605.22248
  21494720.714 6   -173055.375 6   -113714.03949  21494722.58149
  20419574.417 7   -465789.883 7   -306583.92249  20419575.25749
  21977976.597 7   -201009.637 7   -131545.22748  21977975.01948
 20  5 16  0 36 13.9990000  0  7G04G08G14G16G26G27G31                0.000473066
  21758618.487 6   -282546.141 6   -207158.59048  21758616.77248
  22357993.925 6   -589395.973 6   -364278.34449  22357994.99549
  22870083.003 5    -16434.031 5    -10684.50447  22870081.76547
  20608009.558 6   -159300.594 6   -114640.13748  20608007.34348
  21494315.487 6   -175182.285 6   -115371.37549  21494318.05449
  20418496.550 7   -471454.234 7   -310997.69949  20418497.31249
  21977509.644 7   -203464.180 7   -133457.86348  21977508.10148
 20  5 16  0 36 14.9990000  0  7G04G08G14G16G26G27G31                0.000470665
  21757549.573 6   -288161.816 6   -211534.44148  21757548.39048
  22356645.558 5   -596478.031 5   -369796.82449  22356647.43349
  22870017.956 5    -16777.340 5    -10952.02747  22870016.96847
  20607411.394 6   -162445.977 6   -117091.08248  20607408.73048
  21493911.144 6   -177309.930 6   -117029.27349  21493912.89049
  20417418.690 7   -477118.719 7   -315411.59049  20417419.31549
  21977042.769 6   -205919.211 6   -135370.88348  21977040.74948
 20  5 16  0 36 15.9990000  0  7G04G08G14G16G26G27G31                0.000468262
  21756481.339 6   -293777.613 6   -215910.39548  21756480.09748
  22355298.144 5   -603560.473 5   -375315.60949  22355299.76949
  22869952.511 5    -17121.105 5    -11219.91447  22869951.17547
  20606812.550 6   -165591.809 6   -119542.37548  20606810.01148
  21493506.065 6   -179438.129 6   -118687.60549  21493508.39449
  20416340.714 7   -482783.254 7   -319825.51649  20416341.31249
  21976575.120 6   -208374.645 6   -137284.21148  21976573.58948
 20  5 16  0 36 16.9990000  0  7G04G08G14G16G26G27G31                0.000465858
  21755412.597 6   -299393.531 6   -220286.43448  21755411.00348
  22353950.417 5   -610643.207 5   -380834.62149  22353952.22249
  22869887.003 5    -17465.305 5    -11488.13747  22869885.77247
  20606213.683 6   -168738.020 6   -121993.96948  20606211.48748
  21493100.753 6   -181566.961 6   -120346.42249  21493102.94849
  20415262.761 7   -488447.867 7   -324239.49249  20415263.57749
  21976108.214 7   -210830.484 7   -139197.85248  21976106.27248
 20  5 16  0 36 17.9990000  0  7G04G08G14G16G26G27G31                0.000463453
  21754343.550 6   -305009.605 6   -224662.58248  21754342.80048
  22352602.276 5   -617726.324 5   -386353.93449  22352604.34749
  22869821.769 5    -17810.008 5    -11756.75447  22869820.32747
  20605614.870 6   -171884.668 6   -124445.89548  20605612.46048
  21492695.065 6   -183696.434 6   -122005.75049  21492697.48749
  20414184.745 7   -494112.566 7   -328653.54749  20414185.31549
  21975640.456 6   -213286.727 6   -141111.80948  21975638.90148
 20  5 16  0 36 18.9990000  0  7G04G08G14G16G26G27G31                0.000461050
  21753274.940 6   -310625.797 6   -229038.84848  21753273.96848
  22351254.183 5   -624809.844 5   -391873.55949  22351256.21449
  22869755.573 5    -18155.180 5    -12025.71547  22869754.50747
  20605016.503 6   -175031.758 6   -126898.17248  20605014.16348
  21492290.323 6   -185826.516 6   -123665.56349  21492292.21849
  20413106.870 6   -499777.348 6   -333067.66849  20413107.24549
  21975172.870 6   -215743.395 6   -143026.09448  21975171.31948
 20  5 16  0 36 19.9990000  0  7G04G08G14G16G26G27G31                0.000458645
  21752206.042 6   -316242.129 6   -233415.22348  21752204.96048
  22349906.495 5   -631893.672 5   -397393.43049  22349908.44049
  22869689.956 5    -18500.777 5    -12295.00847  22869688.62447
  20604417.292 6   -178179.242 6   -129350.75848  20604414.92148
  21491884.917 6   -187957.219 6   -125325.85549  21491886.97249
  20412028.878 6   -505442.199 6   -337481.83249  20412029.68749
  21974705.542 6   -218200.453 6   -144940.69148  21974703.74948
 20  5 16  0 36 20.9990000  0  7G04G08G14G16G26G27G31                0.000456242
  21751137.901 6   -321858.629 6   -237791.71548  21751136.14048
  22348557.980 5   -638977.875 5   -402913.59049  22348560.07749
  22869623.940 5    -18846.836 5    -12564.65647  22869622.76947
  20603818.073 6   -181327.160 6   -131803.67648  20603815.85148
  21491479.089 6   -190088.547 6   -126986.63349  21491481.22649
  20410951.097 6   -511107.129 6   -341896.06349  20410951.73049
  21974237.636 6   -220657.938 6   -146855.61348  21974236.11648
 20  5 16  0 36 21.9990000  0  7G04G08G14G16G26G27G31                0.000453836
  21750068.519 6   -327475.238 6   -242168.29348  21750067.22648
  22347210.120 5   -646062.465 5   -408434.05549  22347212.00349
  22869558.378 5    -19193.383 5    -12834.68447  22869556.75347
  20603218.948 6   -184475.492 6   -134256.92248  20603216.78048
  21491073.503 6   -192220.484 6   -128647.88349  21491075.49149
  20409873.097 7   -516772.129 7   -346310.35549  20409873.40549
  21973770.089 6   -223115.805 6   -148770.84048  21973768.53448
 20  5 16  0 36 22.9990000  0  7G04G08G14G16G26G27G31                0.000451429
  21748999.933 6   -333092.000 6   -246544.98848  21748998.48748
  22345861.925 5   -653147.395 5   -413954.78149  22345863.56949
  22869492.128 5    -19540.367 5    -13105.06647  22869490.69847
  20602619.730 6   -187624.273 6   -136710.52048  20602617.69448
  21490667.769 6   -194353.047 6   -130309.62149  21490669.66349
  20408795.050 7   -522437.203 7   -350724.69949  20408795.32349
  21973302.605 6   -225574.078 6   -150686.37548  21973300.55048
 20  5 16  0 36 23.9990000  0  7G04G08G14G16G26G27G31                0.000449024
  21747930.690 6   -338708.898 6   -250921.78948  21747929.98048
  22344513.776 5   -660232.715 5   -419475.80949  22344515.44449
  22869426.378 5    -19887.840 5    -13375.83247  22869424.55047
  20602021.089 6   -190773.484 6   -139164.44948  20602018.01148
  21490261.636 6   -196486.262 6   -131971.85949  21490263.67149
  20407716.808 7   -528102.379 7   -355139.11749  20407717.71049
  21972834.605 6   -228032.797 6   -152602.26248  21972832.76548
 20  5 16  0 36 24.9990000  0  7G04G08G14G16G26G27G31                0.000446617
  21746862.112 6   -344325.965 6   -255298.73048  21746860.99948
  22343165.128 5   -667318.426 5   -424997.12949  22343167.39449
  22869359.706 5    -20235.777 5    -13646.96547  22869358.50747
  20601421.558 6   -193923.102 6   -141618.69548  20601419.17148
  21489855.409 6   -198620.063 6   -133634.56349  21489857.87049
  20406638.675 7   -533767.594 7   -359553.57449  20406639.10549
  21972366.917 6   -230491.949 6   -154518.48448  21972364.56248
 20  5 16  0 36 25.9990000  0  7G04G08G14G16G26G27G31                0.000444210
  21745793.339 6   -349943.184 6   -259675.78547  21745791.93347
  22341817.011 6   -674404.535 6   -430518.77049  22341819.02249
  22869292.808 5    -20584.234 5    -13918.51647  22869292.01147
  20600821.378 6   -197073.172 6   -144073.29748  20600819.48748
  21489449.573 6   -200754.547 6   -135297.79349  21489451.62849
  20405560.433 7   -539432.957 7   -363968.15649  20405561.07349
  21971898.440 6   -232951.512 6   -156435.02048  21971896.78048
 20  5 16  0 36 26.9990000  0  7G04G08G14G16G26G27G31                0.000441803
  21744723.831 5   -355560.535 5   -264052.91447  21744723.01147
  22340468.714 5   -681491.000 5   -436040.67649  22340470.57349
  22869227.276 5    -20933.156 5    -14190.42247  22869225.63247
  20600221.698 6   -200223.664 6   -146528.22748  20600220.30048
  21489042.808 6   -202889.645 6   -136961.50849  21489045.15549
  20404482.487 7   -545098.387 7   -368382.77349  20404483.52649
  21971430.308 6   -235411.531 6   -158351.91048  21971428.76948
 20  5 16  0 36 27.9990000  0  7G04G08G14G16G26G27G31                0.000439394
  21743654.917 5   -361178.039 5   -268430.16447  21743653.60847
  22339119.753 6   -688577.813 6   -441562.86749  22339121.62449
  22869160.581 6    -21282.520 6    -14462.65647  22869159.31547
  20599621.878 6   -203374.637 6   -148983.53948  20599620.53448
  21488636.480 6   -205025.391 6   -138625.72749  21488638.86649
  20403404.409 7   -550763.871 7   -372797.43449  20403405.40149
  21970962.315 6   -237871.910 6   -160269.10248  21970960.38248
 20  5 16  0 36 28.9990000  0  7G04G08G14G16G26G27G31                0.000436987
  21742586.628 6   -366795.566 6   -272807.46547  21742584.62847
  22337771.120 6   -695664.930 6   -447085.30949  22337773.00749
  22869093.987 5    -21632.293 5    -14735.20347  22869092.80047
  20599022.526 6   -206525.941 6   -151439.10248  20599020.96448
  21488229.800 6   -207161.695 6   -140290.37949  21488232.31549
  20402326.323 7   -556429.359 7   -377212.10549  20402326.85549
  21970493.675 6   -240332.648 6   -162186.56348  21970491.77648
 20  5 16  0 36 29.9990000  0  7G04G08G14G16G26G27G31                0.000434578
  21741517.308 5   -372413.258 5   -277184.88347  21741516.03447
  22336422.589 5   -702752.449 5   -452608.04749  22336424.20649
  22869027.440 5    -21982.547 5    -15008.12147  22869025.84347
  20598423.097 6   -209677.652 6   -153894.97748  20598420.88648
  21487823.190 6   -209298.590 6   -141955.49649  21487825.96849
  20401248.378 7   -562094.969 7   -381626.86349  20401249.13649
  21970025.597 6   -242793.816 6   -164104.36348  21970023.83148
 20  5 16  0 36 30.9990000  0  7G04G08G14G16G26G27G31                0.000432169
  21740448.276 5   -378031.141 5   -281562.43047  21740446.85147
  22335074.167 5   -709840.348 5   -458131.08249  22335075.91349
  22868960.362 5    -22333.258 5    -15281.42247  22868959.19447
  20597823.339 6   -212829.809 6   -156351.21148  20597821.54248
  21487416.753 6   -211436.176 6   -143621.15249  21487418.94049
  20400169.839 7   -567760.633 7   -386041.65649  20400170.53849
  21969557.222 7   -245255.422 7   -166022.50048  21969555.55448
 20  5 16  0 36 31.9990000  0  7G04G08G14G16G26G27G31                0.000429758
  21739379.276 5   -383649.008 5   -285939.98847  21739377.71447
  22333725.050 5   -716928.492 5   -463654.31649  22333726.92549
  22868893.565 5    -22684.371 5    -15555.03147  22868892.39047
  20597223.698 6   -215982.336 6   -158807.73848  20597221.35148
  21487009.964 6   -213574.246 6   -145287.18049  21487012.24149
  20399092.237 7   -573426.285 7   -390456.44549  20399092.70649
  21969088.558 7   -247717.332 7   -167940.87548  21969086.76548
 20  5 16  0 36 32.9990000  0  7G04G08G14G16G26G27G31                0.000427349
  21738310.097 5   -389267.125 5   -290317.74247  21738308.75747
  22332375.784 6   -724017.047 6   -469177.86349  22332377.76149
  22868826.769 5    -23036.008 5    -15829.03947  22868825.55847
  20596623.487 6   -219135.305 6   -161264.59848  20596621.06948
  21486603.323 6   -215713.016 6   -146953.75449  21486605.51149
  20398013.730 7   -579092.074 7   -394871.34849  20398014.15149
  21968619.964 7   -250179.734 7   -169859.62948  21968618.35148
 20  5 16  0 36 33.9990000  0  7G04G08G14G16G26G27G31                0.000424938
  21737241.433 5   -394885.391 5   -294695.60547  21737239.78047
  22331026.940 5   -731105.980 5   -474701.70349  22331029.19849
  22868760.222 5    -23388.109 5    -16103.38347  22868758.69047
  20596023.355 6   -222288.680 6   -163721.77748  20596021.36248
  21486195.534 6   -217852.383 6   -148620.79349  21486197.76549
  20396935.495 6   -584757.938 6   -399286.30549  20396935.71049
  21968151.284 7   -252642.516 7   -171778.67648  21968149.62448
 20  5 16  0 36 34.9990000  0  7G04G08G14G16G26G27G31                0.000422527
  21736171.362 5   -400503.773 5   -299073.56347  21736170.65547
  22329677.636 5   -738195.285 5   -480225.83649  22329679.97649
  22868692.761 5    -23740.695 5    -16378.09847  22868691.19447
  20595423.003 6   -225442.520 6   -166179.31648  20595421.35148
  21485788.534 6   -219992.406 6   -150288.34449  21485790.16749
  20395857.448 7   -590423.891 7   -403701.32449  20395858.23349
  21967682.737 7   -255105.738 7   -173698.07048  21967681.15548
 20  5 16  0 36 35.9990000  0  7G04G08G14G16G26G27G31                0.000420116
  21735102.683 5   -406122.277 5   -303451.62146  21735101.28446
  22328329.230 6   -745284.879 6   -485750.19149  22328330.69849
  22868625.831 5    -24093.633 5    -16653.11347  22868624.23347
  20594822.878 6   -228596.742 6   -168637.14548  20594820.93348
  21485381.167 6   -222132.992 6   -151956.33249  21485382.83549
  20394779.261 7   -596089.863 7   -408116.37949  20394779.56249
  21967213.831 7   -257569.293 7   -175617.72348  21967212.08548
 20  5 16  0 36 36.9990000  0  7G04G08G14G16G26G27G31                0.000417706
  21734033.136 5   -411740.977 5   -307829.82047  21734032.21047
  22326979.511 6   -752374.953 6   -491274.92249  22326981.74549
  22868558.683 6    -24447.148 6    -16928.58247  22868557.08947
  20594223.034 6   -231751.453 6   -171095.36748  20594220.69048
  21484974.167 6   -224274.266 6   -153624.85949  21484975.49149
  20393701.269 7   -601755.965 7   -412531.52049  20393701.55049
  21966744.737 6   -260033.352 6   -177537.76648  21966743.40948
 20  5 16  0 36 37.9990000  0  7G04G08G14G16G26G27G31                0.000415293
  21732964.401 5   -417359.723 5   -312208.06646  21732962.78046
  22325630.394 6   -759465.238 6   -496799.81349  22325632.67149
  22868490.722 5    -24801.023 5    -17204.34847  22868489.57347
  20593622.550 6   -234906.461 6   -173553.81348  20593620.25348
  21484566.472 6   -226416.063 6   -155293.79349  21484567.56549
  20392622.964 7   -607422.039 7   -416946.64549  20392623.67549
  21966275.878 6   -262497.699 6   -179458.03948  21966273.95248
 20  5 16  0 36 38.9990000  0  7G04G08G14G16G26G27G31                0.000412880
  21731895.315 5   -422978.500 5   -316586.34447  21731893.40547
  22324281.003 6   -766555.867 6   -502324.98049  22324283.03849
  22868423.464 5    -25155.316 5    -17480.43447  22868422.33547
  20593021.675 6   -238061.895 6   -176012.59848  20593019.76548
  21484159.261 6   -228558.465 6   -156963.19949  21484160.64049
  20391544.800 7   -613088.176 7   -421361.81649  20391545.38649
  21965806.964 7   -264962.445 7   -181378.62148  21965805.30048
 20  5 16  0 36 39.9990000  0  7G04G08G14G16G26G27G31                0.000410467
  21730826.034 5   -428597.395 5   -320964.69146  21730824.57346
  22322931.769 6   -773646.734 6   -507850.33649  22322933.83949
  22868356.011 5    -25510.023 5    -17756.84047  22868354.53447
  20592421.425 6   -241217.664 6   -178471.63348  20592419.85848
  21483751.128 6   -230701.418 6   -158633.03549  21483752.21449
  20390466.589 7   -618754.285 7   -425776.96549  20390467.13649
  21965337.581 6   -267427.512 6   -183299.45748  21965336.12848
 20  5 16  0 36 40.9990000  0  7G04G08G14G16G26G27G31                0.000408054
  21729756.706 5   -434216.465 5   -325343.19947  21729755.32747
  22321582.284 6   -780738.035 6   -513376.02349  22321584.05049
  22868288.636 5    -25865.211 5    -18033.60947  22868287.49547
  20591820.339 6   -244373.867 6   -180931.01248  20591818.57748
  21483343.151 6   -232845.012 6   -160303.36749  21483344.61249
  20389388.464 7   -624420.527 7   -430192.22349  20389388.78049
  21964868.362 6   -269893.031 6   -185220.64148  21964866.92548
 20  5 16  0 36 41.9990000  0  7G04G08G14G16G26G27G31                0.000405640
  21728687.019 5   -439835.621 5   -329721.75047  21728685.94047
  22320232.706 5   -787829.680 5   -518901.97749  22320235.10149
  22868220.940 5    -26220.867 5    -18310.73847  22868219.54247
  20591220.253 6   -247530.539 6   -183390.75448  20591217.94848
  21482934.800 6   -234989.215 6   -161974.17649  21482936.46049
  20388309.847 7   -630086.816 7   -434607.51649  20388310.47249
  21964399.362 6   -272358.934 6   -187142.12548  21964397.86248
 20  5 16  0 36 42.9990000  0  7G04G08G14G16G26G27G31                0.000403225
  21727617.800 5   -445454.973 5   -334100.46547  21727616.58947
  22318883.722 5   -794921.707 5   -524428.23449  22318885.10149
  22868153.237 5    -26577.000 5    -18588.24647  22868151.87847
  20590619.144 6   -250687.625 6   -185850.82448  20590616.85548
  21482526.675 6   -237134.043 6   -163645.46949  21482528.05049
  20387231.683 7   -635753.191 7   -439022.86349  20387232.52649
  21963930.089 6   -274825.270 6   -189063.94148  21963928.42948
 20  5 16  0 36 43.9990000  0  7G04G08G14G16G26G27G31                0.000400810
  21726549.276 5   -451074.367 5   -338479.21547  21726547.37847
  22317533.433 5   -802014.054 5   -529954.73349  22317535.66749
  22868085.198 6    -26933.531 6    -18866.07047  22868084.09347
  20590017.987 6   -253845.070 6   -188311.17248  20590016.01548
  21482118.386 6   -239279.441 6   -165317.20349  21482119.95249
  20386153.597 7   -641419.555 7   -443438.21549  20386153.97649
  21963460.808 6   -277291.957 6   -190986.03548  21963459.10548
 20  5 16  0 36 44.9990000  0  7G04G08G14G16G26G27G31                0.000398396
  21725479.050 5   -456693.859 5   -342858.03546  21725478.10546
  22316183.440 5   -809106.711 5   -535481.48049  22316185.81949
  22868017.308 6    -27290.492 6    -19144.21947  22868016.19847
  20589417.362 6   -257002.949 6   -190771.85548  20589415.48748
  21481710.120 6   -241425.465 6   -166989.43049  21481711.31249
  20385075.276 7   -647085.996 7   -447853.62149  20385075.69449
  21962990.925 6   -279759.039 6   -192908.44148  21962989.71048
 20  5 16  0 36 45.9990000  0  7G04G08G14G16G26G27G31                0.000395979
  21724409.761 5   -462313.504 5   -347236.98047  21724408.48747
  22314834.144 5   -816199.738 5   -541008.51649  22314836.55049
  22867949.230 5    -27647.895 5    -19422.72747  22867947.70647
  20588816.206 6   -260161.207 6   -193232.83648  20588814.58548
  21481301.464 6   -243572.074 6   -168662.12149  21481303.05049
  20383996.690 7   -652752.480 7   -452269.06349  20383997.44049
  21962521.628 6   -282226.488 6   -194831.12948  21962519.93748
 20  5 16  0 36 46.9990000  0  7G04G08G14G16G26G27G31                0.000393564
  21723340.698 5   -467933.266 5   -351616.02347  21723339.57347
  22313484.136 6   -823293.129 6   -546535.82849  22313486.27249
  22867881.042 5    -28005.793 5    -19701.60947  22867880.15947
  20588215.511 6   -263319.898 6   -195694.15248  20588213.50348
  21480893.034 6   -245719.293 6   -170335.28149  21480894.27249
  20382918.276 7   -658419.035 7   -456684.56649  20382918.97249
  21962051.901 6   -284694.367 6   -196754.15648  21962050.36648
 20  5 16  0 36 47.9990000  0  7G04G08G14G16G26G27G31                0.000391148
  21722271.433 5   -473553.051 5   -355995.07846  21722269.84746
  22312134.636 6   -830386.738 6   -552063.31349  22312136.72649
  22867813.214 6    -28364.012 6    -19980.74647  22867811.92947
  20587614.081 6   -266478.902 6   -198155.71148  20587611.92548
  21480484.683 6   -247867.012 6   -172008.83249  21480485.83149
  20381840.253 7   -664085.547 7   -461100.03149  20381840.95649
  21961582.394 6   -287162.520 6   -198677.39548  21961580.70248
 20  5 16  0 36 48.9990000  0  7G04G08G14G16G26G27G31                0.000388731
  21721201.956 5   -479172.945 5   -360374.21547  21721200.33947
  22310785.065 5   -837480.672 5   -557591.05149  22310786.73349
  22867745.261 6    -28722.652 6    -20260.20347  22867743.73347
  20587012.784 6   -269638.277 6   -200617.56348  20587010.44848
  21480076.058 6   -250015.324 6   -173682.84049  21480076.98049
  20380761.839 7   -669752.078 7   -465515.51249  20380762.54249
  21961112.550 6   -289631.055 6   -200600.92648  21961111.24548
 20  5 16  0 36 49.9990000  0  7G04G08G14G16G26G27G31                0.000386314
  21720132.276 5   -484792.895 5   -364753.39547  21720130.98747
  22309434.526 5   -844574.914 5   -563119.03549  22309436.48349
  22867676.534 5    -29081.770 5    -20540.03947  22867675.18747
  20586411.417 6   -272798.039 6   -203079.72348  20586409.87848
  21479667.144 6   -252164.230 6   -175357.31649  21479667.90549
  20379683.605 7   -675418.664 7   -469931.03549  20379683.92949
  21960642.534 6   -292099.961 6   -202524.75448  21960641.38248
 20  5 16  0 36 50.9990000  0  7G04G08G14G16G26G27G31                0.000383896
  21719062.808 5   -490413.031 5   -369132.73047  21719061.87447
  22308084.355 6   -851669.582 6   -568647.34449  22308086.46049
  22867608.237 5    -29441.313 5    -20820.20347  22867606.53047
  20585810.253 6   -275958.258 6   -205542.22748  20585808.18348
  21479258.308 6   -254313.766 6   -177032.28149  21479259.06549
  20378605.323 7   -681085.316 7   -474346.60549  20378606.10149
  21960172.855 6   -294569.293 6   -204448.90648  21960171.42148
 20  5 16  0 36 51.9990000  0  7G04G08G14G16G26G27G31                0.000381477
  21717993.386 5   -496033.320 5   -373512.17646  21717991.96446
  22306734.355 6   -858764.598 6   -574175.92649  22306736.28449
  22867539.261 5    -29801.367 5    -21100.77047  22867538.48347
  20585208.987 6   -279118.949 6   -208005.10948  20585206.81248
  21478848.589 6   -256463.949 6   -178707.74249  21478849.61249
  20377526.870 7   -686752.074 7   -478762.26249  20377527.62049
  21959703.175 6   -297039.066 6   -206373.41048  21959701.58548
 20  5 16  0 36 52.9990000  0  7G04G08G14G16G26G27G31                0.000379061
  21716923.628 5   -501653.699 5   -377891.69547  21716922.37447
  22305384.300 6   -865859.930 6   -579704.75849  22305386.06249
  22867471.276 5    -30161.816 5    -21381.64147  22867469.76547
  20584607.378 6   -282279.980 6   -210468.25048  20584605.31948
  21478438.987 6   -258614.680 6   -180383.64149  21478440.85549
  20376448.378 7   -692418.848 7   -483177.93449  20376448.94449
  21959233.050 6   -299509.184 6   -208298.17248  21959231.14048
 20  5 16  0 36 53.9990000  0  7G04G08G14G16G26G27G31                0.000376640
  21715854.753 5   -507274.109 5   -382271.26647  21715852.84747
  22304033.980 6   -872955.551 6   -585233.82449  22304035.93749
  22867402.136 6    -30522.668 6    -21662.83647  22867400.73047
  20584005.706 6   -285441.344 6   -212931.64548  20584003.67548
  21478029.690 6   -260765.961 6   -182059.96149  21478031.44849
  20375370.026 7   -698085.617 7   -487593.60249  20375370.74549
  21958762.917 6   -301979.602 6   -210223.18848  21958761.54648
 20  5 16  0 36 54.9990000  0  7G04G08G14G16G26G27G31                0.000374222
  21714784.440 5   -512894.563 5   -386650.84447  21714783.19447
  22302683.987 5   -880051.422 5   -590763.06649  22302685.62449
  22867333.862 6    -30883.938 6    -21944.32046  22867332.16746
  20583403.987 6   -288603.047 6   -215395.29748  20583401.88648
  21477620.167 6   -262917.785 6   -183736.70749  21477621.68349
  20374291.784 6   -703752.367 6   -492009.25049  20374292.54649
  21958292.347 6   -304450.367 6   -212148.46948  21958291.06248
 20  5 16  0 36 55.9990000  0  7G04G08G14G16G26G27G31                0.000371801
  21713714.909 5   -518515.207 5   -391030.55946  21713713.98346
  22301333.144 5   -887147.738 5   -596292.66049  22301335.08549
  22867264.706 6    -31245.684 6    -22226.15246  22867263.47246
  20582802.276 6   -291765.258 6   -217859.35548  20582800.49148
  21477210.519 6   -265070.301 6   -185413.98849  21477211.99549
  20373213.378 7   -709419.250 7   -496425.00449  20373214.03049
  21957822.308 6   -306921.609 6   -214074.11748  21957820.57348
 20  5 16  0 36 56.9990000  0  7G04G08G14G16G26G27G31                0.000369383
  21712645.245 5   -524135.992 5   -395410.40247  21712644.08547
  22299982.644 5   -894244.367 5   -601822.50449  22299984.74149
  22867196.347 5    -31607.910 5    -22508.41846  22867194.56946
  20582200.511 6   -294927.848 6   -220323.71148  20582198.46048
  21476801.136 6   -267223.398 6   -187091.72749  21476802.20649
  20372135.073 7   -715086.180 7   -500840.79349  20372135.87449
  21957351.776 6   -309393.230 6   -216000.05948  21957350.22648
 20  5 16  0 36 57.9990000  0  7G04G08G14G16G26G27G31                0.000366962
  21711575.300 5   -529756.938 5   -399790.37947  21711574.64747
  22298632.089 5   -901341.402 5   -607352.66049  22298634.03449
  22867126.933 5    -31970.629 5    -22791.08646  22867125.60546
  20581598.480 6   -298090.941 6   -222788.46948  20581596.32348
  21476390.800 6   -269377.172 6   -188769.99649  21476392.58549
  20371056.480 7   -720753.219 7   -505256.65649  20371057.36649
  21956881.245 6   -311865.313 6   -217926.34848  21956879.90548
 20  5 16  0 36 58.9990000  0  7G04G08G14G16G26G27G31                0.000364540
  21710505.823 5   -535377.859 5   -404170.31647  21710504.91747
  22297281.651 5   -908438.625 5   -612882.96149  22297283.33549
  22867057.175 5    -32333.641 5    -23073.96546  22867056.14046
  20580996.823 6   -301254.258 6   -225253.39848  20580994.64448
  21475981.222 6   -271531.391 6   -190448.61349  21475982.53849
  20369978.472 6   -726420.172 6   -509672.46149  20369978.90149
  21956410.800 6   -314337.621 6   -219852.81648  21956409.49948
 20  5 16  0 36 59.9990000  0  7G04G08G14G16G26G27G31                0.000362120
  21709436.073 5   -540998.902 5   -408550.34847  21709435.30847
  22295931.190 6   -915536.168 6   -618413.51249  22295933.22249
  22866988.183 5    -32697.082 5    -23357.17246  22866987.09346
  20580394.355 6   -304418.000 6   -227718.65648  20580392.75748
  21475571.003 6   -273686.195 6   -192127.68449  21475572.60549
  20368899.948 7   -732087.145 7   -514088.28549  20368900.68749
  21955940.495 6   -316810.297 6   -221779.57848  21955938.88248
 20  5 16  0 37  0.9990000  0  7G04G08G14G16G26G27G31                0.000359697
  21708366.612 5   -546619.953 5   -412930.39846  21708365.91346
  22294580.894 5   -922633.992 5   -623944.29349  22294582.28049
  22866919.448 5    -33060.910 5    -23640.66846  22866918.02646
  20579792.433 6   -307582.066 6   -230184.16448  20579790.59348
  21475160.878 6   -275841.547 6   -193807.18049  21475162.58549
  20367821.558 7   -737754.125 7   -518504.12149  20367822.33949
  21955470.011 6   -319283.328 6   -223706.62148  21955468.70248
 20  5 16  0 37  1.9990000  0  7G04G08G14G16G26G27G31                0.000357275
  21707296.894 5   -552241.117 5   -417310.51646  21707296.16746
  22293229.605 5   -929732.121 5   -629475.30549  22293231.70649
  22866849.558 5    -33425.145 5    -23924.48846  22866848.65546
  20579190.308 6   -310746.496 6   -232649.95748  20579188.16348
  21474750.839 6   -277997.453 6   -195487.10549  21474752.22649
  20366743.026 7   -743421.098 7   -522919.94549  20366743.81949
  21954999.565 6   -321756.668 6   -225633.90248  21954997.87448
 20  5 16  0 37  2.9990000  0  7G04G08G14G16G26G27G31                0.000354855
  21706227.378 5   -557862.426 5   -421690.75846  21706226.65546
  22291879.339 5   -936830.637 5   -635006.61349  22291880.56549
  22866780.534 5    -33789.918 5    -24208.75046  22866779.20246
  20578588.159 6   -313911.383 6   -235116.10248  20578585.40548
  21474340.722 6   -280154.035 6   -197167.56349  21474342.04649
  20365664.730 7   -749088.188 7   -527335.86349  20365665.48749
  21954528.433 6   -324230.477 6   -227561.54748  21954526.78448
 20  5 16  0 37  3.9990000  0  7G04G08G14G16G26G27G31                0.000352430
  21705157.589 6   -563483.852 6   -426071.08647  21705156.85547
  22290527.683 5   -943929.504 5   -640538.19549  22290529.75349
  22866710.526 5    -34155.137 5    -24493.33646  22866709.42146
  20577986.019 6   -317076.703 6   -237582.58248  20577983.65548
  21473930.073 6   -282311.242 6   -198848.49649  21473931.13649
  20364586.237 7   -754755.324 7   -531751.81649  20364586.67949
  21954057.503 6   -326704.680 6   -229489.49648  21954056.14448
 20  5 16  0 37  4.9990000  0  7G04G08G14G16G26G27G31                0.000350008
  21704087.940 6   -569105.398 6   -430451.50847  21704087.13647
  22289177.206 5   -951028.680 5   -646070.02049  22289179.15549
  22866641.519 5    -34520.777 5    -24778.23846  22866639.99546
  20577383.503 6   -320242.398 6   -240049.35548  20577381.28448
  21473519.175 6   -284468.996 6   -200529.86749  21473520.66349
  20363507.753 7   -760422.492 7   -536167.78549  20363508.34749
  21953587.065 6   -329179.262 6   -231417.74248  21953585.25348
 20  5 16  0 37  5.9990000  0  7G04G08G14G16G26G27G31                0.000347584
  21703017.980 6   -574726.895 6   -434831.89147  21703017.34747
  22287825.823 5   -958128.047 5   -651601.99249  22287827.81549
  22866571.862 5    -34886.676 5    -25063.34046  22866570.53846
  20576780.940 6   -323408.359 6   -242516.34448  20576779.10548
  21473108.761 6   -286627.211 6   -202211.59049  21473110.15149
  20362429.112 7   -766089.570 7   -540583.69149  20362430.33549
  21953115.722 6   -331654.070 6   -233346.16848  21953114.27248
 20  5 16  0 37  6.9990000  0  7G04G08G14G16G26G27G31                0.000345160
  21701948.667 6   -580348.473 6   -439212.33647  21701947.68747
  22286474.995 5   -965227.738 5   -657134.22349  22286476.92549
  22866501.480 5    -35253.039 5    -25348.81346  22866500.58946
  20576178.526 6   -326574.680 6   -244983.61348  20576176.18748
  21472697.534 6   -288786.012 6   -203893.77349  21472699.07349
  20361351.026 7   -771756.660 7   -544999.60949  20361351.61649
  21952645.105 6   -334129.258 6   -235274.88348  21952643.39448
 20  5 16  0 37  7.9990000  0  7G04G08G14G16G26G27G31                0.000342735
  21700878.394 6   -585970.148 6   -443592.87547  21700878.08947
  22285124.276 5   -972327.707 5   -662666.67249  22285126.14749
  22866431.901 5    -35619.785 5    -25634.59446  22866431.15546
  20575576.144 6   -329741.387 6   -247451.18048  20575573.85148
  21472286.784 6   -290945.387 6   -205576.40649  21472288.37449
  20360272.448 7   -777423.793 7   -549415.55549  20360273.09349
  21952174.026 6   -336604.770 6   -237203.85548  21952172.16748
 20  5 16  0 37  8.9990000  0  7G04G08G14G16G26G27G31                0.000340311
  21699808.667 6   -591591.902 6   -447973.46547  21699808.17547
  22283772.909 5   -979427.992 5   -668199.36349  22283774.74949
  22866361.995 5    -35986.977 5    -25920.73047  22866360.65147
  20574972.956 6   -332908.488 6   -249919.05148  20574970.98048
  21471875.730 6   -293105.320 6   -207259.46949  21471877.50349
  20359194.292 7   -783090.930 7   -553831.50849  20359194.75349
  21951702.495 6   -339080.668 6   -239133.13348  21951701.10148
 20  5 16  0 37  9.9990000  0  7G04G08G14G16G26G27G31                0.000337885
  21698738.769 6   -597213.734 6   -452354.12147  21698738.27647
  22282421.128 5   -986528.602 5   -673732.31349  22282423.80449
  22866292.980 5    -36354.602 5    -26207.18846  22866291.37846
  20574370.190 6   -336075.961 6   -252387.20348  20574368.21448
  21471464.433 6   -295265.848 6   -208943.00049  21471466.10849
  20358115.690 7   -788758.109 7   -558247.48849  20358116.45649
  21951231.315 6   -341556.957 6   -241062.71148  21951229.63648
 20  5 16  0 37 10.9990000  0  7G04G08G14G16G26G27G31                0.000335459
  21697669.190 6   -602835.699 6   -456734.86747  21697668.35547
  22281070.761 5   -993629.563 5   -679265.52749  22281072.23749
  22866222.214 5    -36722.691 5    -26494.02746  22866220.95646
  20573767.534 6   -339243.832 6   -254855.67248  20573765.75348
  21471053.401 6   -297426.961 6   -210626.98449  21471055.10549
  20357037.237 7   -794425.320 7   -562663.50449  20357037.98049
  21950760.151 6   -344033.598 6   -242992.55548  21950758.40948
 20  5 16  0 37 11.9990000  0  7G04G08G14G16G26G27G31                0.000333033
  21696599.378 6   -608457.715 6   -461115.66447  21696598.68747
  22279719.581 5  -1000730.801 5   -684798.96549  22279720.78049
  22866152.698 5    -37091.199 5    -26781.17246  22866150.97246
  20573164.636 6   -342412.090 6   -257324.44548  20573162.62048
  21470642.097 6   -299588.660 6   -212311.42649  21470643.67549
  20355958.855 7   -800092.555 7   -567079.53149  20355959.73049
  21950288.722 6   -346510.586 6   -244922.68048  21950286.92948
 20  5 16  0 37 12.9990000  0  7G04G08G14G16G26G27G31                0.000330606
  21695529.503 6   -614079.820 6   -465496.52347  21695528.75347
  22278368.339 6  -1007832.340 6   -690332.62949  22278369.46449
  22866082.089 5    -37460.109 5    -27068.61346  22866080.86246
  20572561.526 6   -345580.746 6   -259793.53548  20572559.48748
  21470230.808 6   -301750.957 6   -213996.33649  21470232.24549
  20354880.659 7   -805759.813 7   -571495.57449  20354881.12849
  21949817.323 6   -348987.984 6   -246853.11748  21949815.90548
 20  5 16  0 37 13.9990000  0  7G04G08G14G16G26G27G31                0.000328180
  21694459.675 6   -619702.066 6   -469877.50448  21694458.72248
  22277016.667 5  -1014934.195 5   -695866.55549  22277017.47249
  22866011.644 5    -37829.469 5    -27356.44547  22866010.35147
  20571958.612 6   -348749.809 6   -262262.91848  20571956.72648
  21469818.862 6   -303913.891 6   -215681.73049  21469820.74149
  20353801.823 7   -811427.121 7   -575911.66049  20353802.68349
  21949345.730 6   -351465.738 6   -248783.83248  21949344.06248
 20  5 16  0 37 14.9990000  0  7G04G08G14G16G26G27G31                0.000325752
  21693389.690 6   -625324.328 6   -474258.50048  21693389.08548
  22275664.980 6  -1022036.352 6   -701400.71549  22275665.87449
  22865941.597 5    -38199.211 5    -27644.57447  22865940.24547
  20571355.058 6   -351919.184 6   -264732.57048  20571353.16348
  21469407.198 6   -306077.258 6   -217367.47749  21469409.01549
  20352723.550 7   -817094.406 7   -580327.72749  20352723.96049
  21948874.683 6   -353943.813 6   -250714.78948  21948872.67148
 20  5 16  0 37 15.9990000  0  7G04G08G14G16G26G27G31                0.000323324
  21692320.019 6   -630946.754 6   -478639.61348  21692319.01148
  22274313.769 6  -1029138.863 6   -706935.14549  22274314.40149
  22865871.011 5    -38569.445 5    -27933.07447  22865870.03847
  20570752.394 6   -355088.988 6   -267202.55948  20570750.06948
  21468995.589 6   -308241.305 6   -219053.74649  21468997.61649
  20351645.495 7   -822761.758 7   -584743.84849  20351645.95649
  21948402.831 6   -356422.316 6   -252646.07848  21948401.03048
 20  5 16  0 37 16.9990000  0  7G04G08G14G16G26G27G31                0.000320896
  21691250.433 6   -636569.250 6   -483020.77348  21691249.20648
  22272961.542 5  -1036241.746 5   -712469.86349  22272962.79249
  22865800.558 5    -38940.043 5    -28221.86347  22865799.09747
  20570149.089 6   -358259.184 6   -269672.84448  20570146.78848
  21468584.058 6   -310405.906 6   -220740.45749  21468585.40549
  20350566.636 7   -828429.156 7   -589160.00449  20350567.19849
  21947931.237 6   -358901.176 6   -254577.66048  21947929.55848
 20  5 16  0 37 17.9990000  0  7G04G08G14G16G26G27G31                0.000318468
  21690180.128 6   -642191.758 6   -487401.93848  21690179.19848
  22271610.261 6  -1043344.809 6   -718004.71549  22271611.29649
  22865730.253 5    -39311.016 5    -28510.93447  22865728.62447
  20569545.417 6   -361429.699 6   -272143.36748  20569543.34348
  21468171.948 6   -312571.016 6   -222427.55949  21468173.44849
  20349488.167 7   -834096.508 7   -593576.12149  20349488.52649
  21947459.315 6   -361380.305 6   -256509.45748  21947457.86648
 20  5 16  0 37 18.9990000  0  7G04G08G14G16G26G27G31                0.000316040
  21689110.026 6   -647814.277 6   -491783.12148  21689109.13648
  22270258.269 6  -1050448.102 6   -723539.73849  22270259.53049
  22865658.925 5    -39682.352 5    -28800.28547  22865657.81547
  20568942.573 6   -364600.441 6   -274614.07848  20568940.24548
  21467759.480 6   -314736.633 6   -224115.05149  21467761.44849
  20348410.073 7   -839763.793 7   -597992.18849  20348410.17149
  21946987.589 6   -363859.719 6   -258441.47348  21946985.81548
 20  5 16  0 37 19.9990000  0  7G04G08G14G16G26G27G31                0.000313610
  21688040.339 6   -653436.891 6   -496164.37548  21688039.41748
  22268906.839 5  -1057551.703 5   -729075.01249  22268907.23349
  22865588.909 5    -40054.074 5    -29089.93447  22865587.37447
  20568338.878 6   -367771.598 6   -277085.10948  20568336.51148
  21467347.089 6   -316902.801 6   -225802.97349  21467349.42949
  20347331.198 7   -845431.066 7   -602408.24249  20347331.31949
  21946515.534 6   -366339.496 6   -260373.77048  21946513.96848
 20  5 16  0 37 20.9990000  0  7G04G08G14G16G26G27G31                0.000311180
  21686970.394 6   -659059.508 6   -500545.64148  21686969.17548
  22267554.519 5  -1064655.566 5   -734610.49249  22267555.44049
  22865517.534 5    -40426.168 5    -29379.87547  22865516.19447
  20567735.550 6   -370943.102 6   -279556.41848  20567733.20248
  21466934.503 6   -319069.523 6   -227491.33249  21466937.07749
  20346252.612 7   -851098.352 7   -606824.30949  20346253.11649
  21946043.722 6   -368819.578 6   -262306.30948  21946041.83148
 20  5 16  0 37 21.9990000  0  7G04G08G14G16G26G27G31                0.000308750
  21685900.026 6   -664682.223 6   -504926.98048  21685899.38248
  22266202.503 5  -1071759.723 5   -740146.19549  22266203.89049
  22865447.417 5    -40798.668 5    -29670.14147  22865445.64447
  20567131.940 6   -374114.949 6   -282027.98448  20567129.74148
  21466522.300 6   -321236.789 6   -229180.10549  21466524.44449
  20345174.378 7   -856765.629 7   -611240.37149  20345175.02249
  21945571.706 6   -371300.027 6   -264239.11748  21945569.92148
 20  5 16  0 37 22.9990000  0  7G04G08G14G16G26G27G31                0.000306320
  21684830.261 6   -670305.008 6   -509308.37148  21684829.51148
  22264850.980 5  -1078864.199 5   -745682.15249  22264852.46849
  22865375.956 5    -41171.605 5    -29960.73847  22865374.73747
  20566528.144 6   -377287.195 6   -284499.85948  20566526.25748
  21466110.253 6   -323404.629 6   -230869.32849  21466112.02649
  20344095.901 7   -862432.918 7   -615656.43849  20344096.36249
  21945099.378 6   -373780.820 6   -266172.20348  21945098.06948
 20  5 16  0 37 23.9990000  0  7G04G08G14G16G26G27G31                0.000303890
  21683760.503 6   -675927.867 6   -513689.82048  21683759.39748
  22263499.144 6  -1085968.969 6   -751218.32849  22263500.17149
  22865304.761 5    -41544.906 5    -30251.63347  22865302.99147
  20565924.550 6   -380459.770 6   -286972.00048  20565922.36248
  21465697.464 6   -325573.012 6   -232558.97349  21465699.58949
  20343017.730 7   -868100.223 7   -620072.52349  20343017.95649
  21944627.315 6   -376261.938 6   -268105.53948  21944625.75748
 20  5 16  0 37 24.9990000  0  7G04G08G14G16G26G27G31                0.000301458
  21682690.550 6   -681550.770 6   -518071.30148  21682689.60148
  22262147.347 6  -1093073.984 6   -756754.70749  22262148.24549
  22865233.347 5    -41918.641 5    -30542.85947  22865232.31247
  20565320.651 6   -383632.723 6   -289444.43048  20565318.34748
  21465284.800 6   -327741.957 6   -234249.06349  21465286.90549
  20341938.995 7   -873767.504 7   -624488.59049  20341939.68349
  21944155.386 6   -378743.379 6   -270039.13348  21944153.44848
 20  5 16  0 37 25.9990000  0  7G04G08G14G16G26G27G31                0.000299026
  21681620.745 6   -687173.746 6   -522452.84848  21681619.40948
  22260795.003 6  -1100179.305 6   -762291.32849  22260795.88249
  22865162.323 5    -42292.750 5    -30834.38747  22865161.16747
  20564716.792 6   -386806.039 6   -291917.14548  20564714.59748
  21464871.409 6   -329911.438 6   -235939.57049  21464874.01549
  20340860.683 7   -879434.789 7   -628904.65649  20340860.92149
  21943682.730 6   -381225.176 6   -271973.00848  21943681.73048
 20  5 16  0 37 26.9990000  0  7G04G08G14G16G26G27G31                0.000296595
  21680550.558 6   -692796.797 6   -526834.44548  21680549.65148
  22259442.972 6  -1107284.953 6   -767828.19949  22259444.08549
  22865091.230 5    -42667.277 5    -31126.23447  22865090.00747
  20564112.526 6   -389979.734 6   -294390.15248  20564110.75748
  21464458.909 6   -332081.492 6   -237630.52349  21464460.93349
  20339782.190 7   -885102.098 7   -633320.74249  20339782.51149
  21943210.690 6   -383707.332 6   -273907.16048  21943208.91348
 20  5 16  0 37 27.9990000  0  7G04G08G14G16G26G27G31                0.000294163
  21679480.128 6   -698419.930 6   -531216.10248  21679479.15548
  22258090.855 6  -1114390.871 6   -773365.27349  22258092.03049
  22865019.761 5    -43042.211 5    -31418.38347  22865018.55847
  20563508.792 6   -393153.770 6   -296863.43448  20563506.60148
  21464045.784 6   -334252.137 6   -239321.93849  21464047.99149
  20338703.800 7   -890769.434 7   -637736.85249  20338704.23049
  21942738.159 6   -386189.855 6   -275841.59048  21942736.50348
 20  5 16  0 37 28.9990000  0  7G04G08G14G16G26G27G31                0.000291731
  21678410.300 6   -704043.125 6   -535597.81348  21678408.86248
  22256738.339 6  -1121497.105 6   -778902.60249  22256739.26149
  22864948.995 5    -43417.563 5    -31710.85947  22864947.24147
  20562904.542 6   -396328.184 6   -299336.99648  20562902.88648
  21463632.722 6   -336423.320 6   -241013.76649  21463634.69849
  20337625.214 7   -896436.773 7   -642152.95349  20337625.91349
  21942265.714 6   -388672.676 6   -277776.25448  21942264.16748
 20  5 16  0 37 29.9990000  0  7G04G08G14G16G26G27G31                0.000289297
  21677340.167 6   -709666.449 6   -539979.62948  21677339.29248
  22255385.839 6  -1128603.668 6   -784440.18449  22255386.99949
  22864876.823 5    -43793.387 5    -32003.70347  22864875.67147
  20562300.730 6   -399503.023 6   -301810.90248  20562298.88248
  21463219.261 6   -338595.129 6   -242706.08649  21463221.41349
  20336546.987 7   -902104.148 7   -646569.09449  20336547.19049
  21941792.940 6   -391155.945 6   -279711.27348  21941791.56248
 20  5 16  0 37 30.9990000  0  7G04G08G14G16G26G27G31                0.000286863
  21676269.667 6   -715289.902 6   -544361.54348  21676268.66348
  22254033.815 6  -1135710.598 6   -789978.04749  22254034.83149
  22864805.503 5    -44169.680 5    -32296.91847  22864803.76547
  20561696.308 6   -402678.301 6   -304285.14548  20561694.56248
  21462806.183 6   -340767.563 6   -244398.88749  21462807.85549
  20335468.503 7   -907771.621 7   -650985.30949  20335468.70249
  21941320.464 6   -393639.582 6   -281646.57048  21941318.89748
 20  5 16  0 37 31.9990000  0  7G04G08G14G16G26G27G31                0.000284430
  21675199.855 6   -720913.418 6   -548743.50448  21675198.76948
  22252680.417 6  -1142817.824 6   -795516.14549  22252681.91749
  22864733.503 5    -44546.344 5    -32590.42647  22864732.15147
  20561091.995 6   -405853.918 6   -306759.64848  20561090.09348
  21462392.558 6   -342940.559 6   -246092.13349  21462394.15949
  20334389.909 7   -913439.063 7   -655401.49249  20334390.19049
  21940847.620 6   -396123.594 6   -283582.16448  21940846.20648
 20  5 16  0 37 32.9990000  0  7G04G08G14G16G26G27G31                0.000281996
  21674129.831 6   -726537.027 6   -553125.53948  21674128.71848
  22251328.495 6  -1149925.309 6   -801054.44949  22251329.48349
  22864662.190 5    -44923.457 5    -32884.27747  22864660.80847
  20560487.886 6   -409029.910 6   -309234.44948  20560485.37048
  21461979.112 6   -345114.094 6   -247785.79749  21461980.55049
  20333311.089 7   -919106.527 7   -659817.69949  20333311.60549
  21940375.073 6   -398607.934 6   -285518.01648  21940373.24148
 20  5 16  0 37 33.9990000  0  7G04G08G14G16G26G27G31                0.000279560
  21673059.815 6   -732160.582 6   -557507.52048  21673058.59748
  22249975.972 6  -1157033.008 6   -806592.92249  22249977.29249
  22864590.003 5    -45300.836 5    -33178.34447  22864588.90147
  20559883.167 6   -412206.168 6   -311709.45348  20559881.19448
  21461564.925 6   -347288.082 6   -249479.81649  21461567.26549
  20332232.714 7   -924773.910 7   -664233.84449  20332233.42149
  21939902.245 6   -401092.527 6   -287454.05948  21939900.67948
 20  5 16  0 37 34.9990000  0  7G04G08G14G16G26G27G31                0.000277124
  21671989.909 6   -737784.133 6   -561889.50448  21671988.78848
  22248622.909 5  -1164140.949 5   -812131.57849  22248624.80049
  22864518.401 5    -45678.566 5    -33472.68447  22864517.30847
  20559278.862 6   -415382.711 6   -314184.68048  20559276.49548
  21461151.331 6   -349462.602 6   -251174.24649  21461153.28849
  20331154.315 7   -930441.242 7   -668649.94549  20331154.58549
  21939429.487 6   -403577.402 6   -289390.32848  21939427.90548
 20  5 16  0 37 35.9990000  0  7G04G08G14G16G26G27G31                0.000274691
  21670919.714 6   -743407.762 6   -566271.56348  21670918.55448
  22247270.394 5  -1171249.172 5   -817670.46149  22247271.69049
  22864446.659 5    -46056.727 5    -33767.35547  22864444.70247
  20558674.136 6   -418559.652 6   -316660.22348  20558671.91348
  21460737.940 6   -351637.680 6   -252869.10549  21460739.55049
  20330075.987 7   -936108.559 7   -673066.03549  20330076.39749
  21938956.683 6   -406062.602 6   -291326.85248  21938955.09348
 20  5 16  0 37 36.9990000  0  7G04G08G14G16G26G27G31                0.000272255
  21669849.394 6   -749031.539 6   -570653.73048  21669848.30448
  22245917.901 6  -1178357.727 6   -823209.59449  22245918.82349
  22864374.253 5    -46435.336 5    -34062.38747  22864372.99147
  20558069.409 6   -421737.000 6   -319136.07448  20558067.73348
  21460323.644 6   -353813.359 6   -254564.44949  21460325.32349
  20328997.464 7   -941775.941 7   -677482.17249  20328997.52649
  21938483.394 6   -408548.227 6   -293263.70348  21938481.82348
 20  5 16  0 37 37.9990000  0  7G04G08G14G16G26G27G31                0.000269817
  21668779.300 6   -754655.273 6   -575035.86348  21668778.07348
  22244565.011 5  -1185466.480 5   -828748.88349  22244566.13649
  22864302.261 5    -46814.254 5    -34357.64547  22864300.96847
  20557464.933 6   -424914.613 6   -321612.13748  20557462.57348
  21459909.737 6   -355989.531 6   -256260.16849  21459911.12849
  20327919.214 7   -947443.246 7   -681898.26249  20327919.56949
  21938010.534 6   -411034.117 6   -295200.76648  21938009.01148
 20  5 16  0 37 38.9990000  0  7G04G08G14G16G26G27G31                0.000267382
  21667708.901 6   -760279.102 6   -579418.06348  21667708.23048
  22243212.105 5  -1192575.605 5   -834288.46149  22243213.09349
  22864230.034 5    -47193.602 5    -34653.24247  22864228.61247
  20556860.394 6   -428092.617 6   -324088.50048  20556857.99948
  21459495.394 6   -358166.250 6   -257956.31649  21459496.76549
  20326840.370 7   -953110.570 7   -686314.35549  20326840.81549
  21937537.487 6   -413520.348 6   -297138.09448  21937535.96048
 20  5 16  0 37 39.9990000  0  7G04G08G14G16G26G27G31                0.000264944
  21666638.745 6   -765903.016 6   -583800.33248  21666638.17948
  22241859.558 5  -1199684.984 5   -839828.23449  22241860.57349
  22864157.769 5    -47573.391 5    -34949.18047  22864156.23347
  20556255.409 6   -431271.004 6   -326565.17248  20556253.21048
  21459080.995 6   -360343.570 6   -259652.92649  21459082.78049
  20325762.448 7   -958777.902 7   -690730.46549  20325762.48749
  21937064.190 6   -416006.957 6   -299075.70748  21937062.52248
 20  5 16  0 37 40.9990000  0  7G04G08G14G16G26G27G31                0.000262506
  21665568.558 6   -771527.004 6   -588182.66048  21665567.69048
  22240506.589 6  -1206794.680 6   -845368.25849  22240507.86249
  22864085.425 5    -47953.586 5    -35245.43047  22864083.65947
  20555650.386 6   -434449.766 6   -329042.12948  20555648.48348
  21458666.401 6   -362521.449 6   -261349.97749  21458668.25349
  20324684.167 7   -964445.262 7   -695146.59049  20324684.10549
  21936590.831 6   -418493.906 6   -301013.59448  21936589.31248
 20  5 16  0 37 41.9990000  0  7G04G08G14G16G26G27G31                0.000260069
  21664498.276 6   -777151.063 6   -592565.04348  21664497.32748
  22239153.651 6  -1213904.660 6   -850908.50049  22239154.47649
  22864012.894 5    -48334.172 5    -35541.99647  22864011.29647
  20555045.128 6   -437628.910 6   -331519.38748  20555043.23348
  21458251.901 6   -364699.906 6   -263047.47749  21458253.53049
  20323605.487 7   -970112.637 7   -699562.73049  20323605.67149
  21936117.261 6   -420981.203 6   -302951.74648  21936115.83548
 20  5 16  0 37 42.9990000  0  7G04G08G14G16G26G27G31                0.000257631
  21663427.909 6   -782775.117 6   -596947.41848  21663427.15548
  22237800.792 6  -1221014.840 6   -856448.90249  22237801.60149
  22863940.620 5    -48715.113 5    -35838.83647  22863939.18347
  20554440.480 6   -440808.336 6   -333996.86348  20554438.49948
  21457837.417 6   -366878.824 6   -264745.33249  21457838.83949
  20322527.026 7   -975779.922 7   -703978.79349  20322527.43749
  21935644.386 6   -423468.789 6   -304890.12548  21935642.71048
 20  5 16  0 37 43.9990000  0  7G04G08G14G16G26G27G31                0.000255192
  21662357.526 6   -788399.238 6   -601329.85548  21662356.78048
  22236447.511 6  -1228125.301 6   -861989.51649  22236448.49549
  22863867.933 5    -49096.465 5    -36135.99647  22863866.61647
  20553835.542 6   -443988.133 6   -336474.62948  20553833.23748
  21457422.362 6   -369058.340 6   -266443.66049  21457424.31949
  20321448.534 7   -981447.246 7   -708394.89149  20321448.82349
  21935170.776 6   -425956.711 6   -306828.76648  21935169.24148
 20  5 16  0 37 44.9990000  0  7G04G08G14G16G26G27G31                0.000252754
  21661287.659 6   -794023.445 6   -605712.35548  21661286.59748
  22235094.651 6  -1235236.086 6   -867530.38349  22235095.56949
  22863795.269 5    -49478.227 5    -36433.48447  22863794.01147
  20553229.995 6   -447168.301 6   -338952.68848  20553228.09348
  21457007.667 6   -371238.395 6   -268142.39849  21457009.07349
  20320369.862 7   -987114.570 7   -712810.98449  20320370.00749
  21934697.089 6   -428445.000 6   -308767.69148  21934695.37048
 20  5 16  0 37 45.9990000  0  7G04G08G14G16G26G27G31                0.000250315
  21660217.245 6   -799647.703 6   -610094.89848  21660215.79648
  22233740.909 6  -1242347.164 6   -873071.48049  22233742.27649
  22863722.003 5    -49860.375 5    -36731.26647  22863721.04647
  20552624.948 6   -450348.809 6   -341430.99648  20552622.67548
  21456592.815 6   -373418.980 6   -269841.55949  21456594.21049
  20319291.448 7   -992781.863 7   -717227.05549  20319291.53049
  21934223.558 6   -430933.586 6   -310706.84848  21934221.67548
 20  5 16  0 37 46.9990000  0  7G04G08G14G16G26G27G31                0.000247873
  21659147.112 6   -805271.934 6   -614477.41848  21659146.06248
  22232388.034 6  -1249458.414 6   -878612.71549  22232389.11249
  22863649.659 5    -50242.895 5    -37029.34447  22863648.55047
  20552019.433 6   -453529.617 6   -343909.55148  20552017.40548
  21456177.628 6   -375600.094 6   -271541.13349  21456179.13249
  20318213.120 7   -998449.113 7   -721643.09849  20318213.61249
  21933750.198 6   -433422.461 6   -312646.23448  21933748.34748
 20  5 16  0 37 47.9990000  0  7G04G08G14G16G26G27G31                0.000245434
  21658076.730 6   -810896.332 6   -618860.07448  21658075.42948
  22231034.995 6  -1256570.055 6   -884154.25049  22231035.55449
  22863576.730 5    -50625.863 5    -37327.76247  22863575.55847
  20551414.269 6   -456710.875 6   -346388.45348  20551412.58148
  21455762.440 6   -377781.816 6   -273241.18049  21455764.03449
  20317134.503 7  -1004116.434 7   -726059.19549  20317134.87049
  21933276.284 6   -435911.773 6   -314585.96148  21933274.87448
 20  5 16  0 37 48.9990000  0  7G04G08G14G16G26G27G31                0.000242994
  21657006.573 6   -816520.766 6   -623242.74648  21657005.13248
  22229681.472 6  -1263681.965 6   -889695.99649  22229682.24549
  22863503.534 5    -51009.203 5    -37626.46547  22863502.93347
  20550808.894 6   -459892.449 6   -348867.59848  20550806.66348
  21455347.190 6   -379964.098 6   -274941.66449  21455348.71849
  20316055.870 7  -1009783.727 7   -730475.26649  20316055.99949
  21932802.526 6   -438401.371 6   -316525.90648  21932800.85848
 20  5 16  0 37 49.9990000  0  7G04G08G14G16G26G27G31                0.000240553
  21655936.230 6   -822145.133 6   -627625.37148  21655935.24548
  22228328.019 6  -1270794.047 6   -895237.88349  22228328.75749
  22863430.745 5    -51392.840 5    -37925.41047  22863429.78047
  20550203.339 6   -463074.270 6   -351346.94148  20550201.44448
  21454932.058 6   -382146.773 6   -276642.45349  21454933.03849
  20314977.776 7  -1015450.902 7   -734891.25049  20314978.03049
  21932328.894 6   -440891.195 6   -318466.03148  21932326.90548
 20  5 16  0 37 50.9990000  0  7G04G08G14G16G26G27G31                0.000238111
  21654865.698 6   -827769.652 6   -632008.11748  21654864.97648
  22226974.792 6  -1277906.512 6   -900780.06649  22226975.05049
  22863358.222 5    -51776.953 5    -38224.71947  22863356.62047
  20549597.667 6   -466256.535 6   -353826.63348  20549595.96448
  21454516.503 6   -384330.121 6   -278343.76249  21454517.63249
  20313898.909 7  -1021118.160 7   -739307.29349  20313899.55449
  21931854.589 6   -443381.449 6   -320406.49248  21931852.99548
 20  5 16  0 37 51.9990000  0  7G04G08G14G16G26G27G31                0.000235670
  21653795.597 6   -833394.313 6   -636390.96548  21653794.45248
  22225620.831 6  -1285019.336 6   -906322.52749  22225622.04649
  22863284.839 5    -52161.555 5    -38524.42247  22863283.35547
  20548992.105 6   -469439.254 6   -356306.67248  20548990.24548
  21454100.190 6   -386514.098 6   -280045.55949  21454102.07349
  20312820.753 7  -1026785.520 7   -743723.42249  20312821.06549
  21931381.112 6   -445872.117 6   -322347.27048  21931379.01548
 20  5 16  0 37 52.9990000  0  7G04G08G14G16G26G27G31                0.000233229
  21652725.190 6   -839018.906 6   -640773.76248  21652724.14748
  22224267.073 6  -1292132.313 6   -911865.11749  22224268.40549
  22863211.269 5    -52546.441 5    -38824.34047  22863210.06247
  20548386.300 6   -472622.203 6   -358786.89548  20548384.41348
  21453684.831 6   -388698.512 6   -281747.69949  21453687.06549
  20311742.331 7  -1032452.723 7   -748139.42249  20311742.42549
  21930907.206 6   -448362.996 6   -324288.21548  21930905.17148
 20  5 16  0 37 53.9990000  0  7G04G08G14G16G26G27G31                0.000230785
  21651654.847 6   -844643.500 6   -645156.56348  21651654.00348
  22222914.183 6  -1299245.488 6   -917407.84849  22222914.94049
  22863138.276 5    -52931.664 5    -39124.51647  22863136.83147
  20547780.753 6   -475805.434 6   -361267.33648  20547778.69048
  21453269.323 6   -390883.395 6   -283450.20749  21453270.93749
  20310664.159 7  -1038119.836 7   -752555.35949  20310664.30049
  21930433.097 6   -450854.137 6   -326229.36748  21930431.13248
 20  5 16  0 37 54.9990000  0  7G04G08G14G16G26G27G31                0.000228344
  21650584.323 6   -850268.133 6   -649539.39848  21650583.39448
  22221560.378 6  -1306358.949 6   -922950.80149  22221561.36649
  22863064.839 5    -53317.293 5    -39425.00847  22863063.39047
  20547175.065 6   -478989.031 6   -363748.06348  20547172.91348
  21452853.831 6   -393068.820 6   -285153.14149  21452855.11649
  20309585.534 7  -1043786.973 7   -756971.30549  20309585.95649
  21929959.026 6   -453345.625 6   -328170.78948  21929957.00748
 20  5 16  0 37 55.9990000  0  7G04G08G14G16G26G27G31                0.000225901
  21649513.808 6   -855892.844 6   -653922.28548  21649513.27648
  22220206.667 6  -1313472.676 6   -928493.95749  22220207.15149
  22862991.456 5    -53703.324 5    -39725.81347  22862990.20647
  20546569.409 6   -482172.988 6   -366229.06348  20546567.26148
  21452437.878 6   -395254.820 6   -286856.52349  21452439.14049
  20308507.144 7  -1049454.117 7   -761387.26649  20308507.45649
  21929484.815 6   -455837.465 6   -330112.48448  21929482.83548
 20  5 16  0 37 56.9990000  0  7G04G08G14G16G26G27G31                0.000223457
  21648443.745 6   -861517.605 6   -658305.21148  21648442.65948
  22218853.042 6  -1320586.672 6   -934037.33249  22218853.46449
  22862918.065 5    -54089.719 5    -40026.89847  22862916.59347
  20545963.058 6   -485357.270 6   -368710.32048  20545961.26548
  21452021.495 6   -397441.355 6   -288560.31349  21452022.98349
  20307428.605 7  -1055121.211 7   -765803.18049  20307428.75349
  21929010.651 6   -458329.590 6   -332054.39548  21929008.63648
 20  5 16  0 37 57.9990000  0  7G04G08G14G16G26G27G31                0.000221012
  21647373.948 6   -867142.359 6   -662688.14148  21647372.53048
  22217498.995 6  -1327700.906 6   -939580.89849  22217499.74949
  22862844.276 5    -54476.508 5    -40328.29747  22862842.79647
  20545356.925 6   -488541.883 6   -371191.84448  20545355.13648
  21451604.894 6   -399628.398 6   -290264.50849  21451606.79649
  20306350.347 7  -1060788.297 7   -770219.09049  20306350.58149
  21928536.175 6   -460822.039 6   -333996.57048  21928534.36648
 20  5 16  0 37 58.9990000  0  7G04G08G14G16G26G27G31                0.000218569
  21646303.261 6   -872767.215 6   -667071.14848  21646301.80848
  22216145.222 6  -1334815.461 6   -945124.70349  22216146.08149
  22862770.401 5    -54863.715 5    -40630.02047  22862769.31947
  20544750.808 6   -491726.871 6   -373673.64848  20544749.02648
  21451188.620 6   -401816.031 6   -291969.14849  21451190.48749
  20305271.659 7  -1066455.375 7   -774635.00049  20305271.91349
  21928061.737 6   -463314.824 6   -335938.99248  21928059.86648
 20  5 16  0 37 59.9990000  0  7G04G08G14G16G26G27G31                0.000216124
  21645232.589 6   -878392.152 6   -671454.21548  21645231.53448
  22214791.433 6  -1341930.336 6   -950668.75849  22214792.05049
  22862696.526 5    -55251.355 5    -40932.08247  22862694.98347
  20544144.784 6   -494912.242 6   -376155.75848  20544142.63248
  21450771.964 6   -404004.234 6   -293674.24249  21450773.85549
  20304193.105 7  -1072122.496 7   -779050.93849  20304193.75749
  21927587.386 6   -465807.996 6   -337881.73048  21927585.60848
 20  5 16  0 38  0.9990000  0  7G04G08G14G16G26G27G31                0.000213678
  21644162.394 6   -884017.133 6   -675837.32448  21644161.01948
  22213437.456 6  -1349045.477 6   -956213.02749  22213437.61649
  22862622.917 5    -55639.363 5    -41234.42647  22862621.08147
  20543538.534 6   -498097.957 6   -378638.12948  20543536.53048
  21450356.065 6   -406192.965 6   -295379.75049  21450357.54649
  20303114.964 7  -1077789.609 7   -783466.86749  20303115.25349
  21927113.144 6   -468301.469 6   -339824.69548  21927111.01548
 20  5 16  0 38  1.9990000  0  7G04G08G14G16G26G27G31                0.000211233
  21643092.190 6   -889642.137 6   -680220.44148  21643090.90148
  22212083.151 6  -1356160.879 6   -961757.49649  22212084.17149
  22862549.065 5    -56027.742 5    -41537.06347  22862547.38647
  20542932.378 6   -501283.996 6   -381120.76248  20542930.53848
  21449939.800 6   -408382.242 6   -297085.67649  21449941.05049
  20302036.589 7  -1083456.641 7   -787882.73849  20302036.71849
  21926638.300 6   -470795.273 6   -341767.91848  21926636.38248
 20  5 16  0 38  2.9990000  0  7G04G08G14G16G26G27G31                0.000208788
  21642021.784 6   -895267.176 6   -684603.59048  21642020.53848
  22210729.065 6  -1363276.520 6   -967302.15249  22210730.01549
  22862475.011 5    -56416.535 5    -41840.02347  22862473.48347
  20542326.081 6   -504470.383 6   -383603.66048  20542323.87048
  21449522.792 6   -410572.016 6   -298791.99649  21449524.17149
  20300958.292 7  -1089123.668 7   -792298.60249  20300958.41349
  21926163.706 6   -473289.355 6   -343711.36748  21926161.89448
 20  5 16  0 38  3.9990000  0  7G04G08G14G16G26G27G31                0.000206343
  21640951.558 6   -900892.258 6   -688986.77048  21640949.75348
  22209375.323 6  -1370392.402 6   -972847.00049  22209375.56249
  22862401.300 5    -56805.672 5    -42143.25447  22862399.15947
  20541719.526 6   -507657.102 6   -386086.81348  20541717.67948
  21449106.065 6   -412762.348 6   -300498.75049  21449107.15149
  20299879.917 7  -1094790.691 7   -796714.46549  20299879.96849
  21925688.956 6   -475783.773 6   -345655.06648  21925687.15548
 20  5 16  0 38  4.9990000  0  7G04G08G14G16G26G27G31                0.000203896
  21639880.308 6   -906517.371 6   -693369.97748  21639879.33148
  22208020.784 6  -1377508.570 6   -978392.06649  22208021.92949
  22862326.612 5    -57195.203 5    -42446.78947  22862325.01547
  20541112.940 6   -510844.148 6   -388570.22748  20541111.49148
  21448689.206 6   -414953.172 6   -302205.89149  21448690.22249
  20298801.605 7  -1100457.660 7   -801130.28549  20298801.64449
  21925214.558 6   -478278.504 6   -347599.01648  21925212.27648
 20  5 16  0 38  5.9990000  0  7G04G08G14G16G26G27G31                0.000201448
  21638809.815 6   -912142.523 6   -697753.20748  21638809.21448
  22206666.565 6  -1384624.984 6   -983937.32049  22206667.59749
  22862252.690 5    -57585.117 5    -42750.61747  22862251.18747
  20540506.089 6   -514031.523 6   -391053.89548  20540504.94448
  21448272.300 6   -417144.566 6   -303913.47349  21448273.25349
  20297723.034 7  -1106124.617 7   -805546.09849  20297723.30049
  21924739.722 6   -480773.547 6   -349543.20348  21924737.59748
 20  5 16  0 38  6.9990000  0  7G04G08G14G16G26G27G31                0.000199001
  21637739.706 6   -917767.672 6   -702136.44148  21637738.69448
  22205312.753 6  -1391741.617 6   -989482.75449  22205313.12449
  22862178.480 5    -57975.371 5    -43054.71147  22862176.98347
  20539899.737 6   -517219.195 6   -393537.79348  20539898.26548
  21447854.948 6   -419336.438 6   -305621.43049  21447856.25749
  20296644.605 7  -1111791.484 7   -809961.84049  20296645.04249
  21924264.839 6   -483268.871 6   -351487.60948  21924262.65948
 20  5 16  0 38  7.9990000  0  7G04G08G14G16G26G27G31                0.000196554
  21636669.292 6   -923392.969 6   -706519.79348  21636668.28048
  22203958.144 6  -1398858.629 6   -995028.47349  22203958.98749
  22862103.917 5    -58366.105 5    -43359.17647  22862102.35847
  20539293.190 6   -520407.336 6   -396022.05548  20539291.60148
  21447437.683 6   -421528.969 6   -307329.89149  21447438.86649
  20295566.456 7  -1117458.465 7   -814377.66849  20295566.28449
  21923789.409 6   -485764.617 6   -353432.34848  21923787.71048
 20  5 16  0 38  8.9990000  0  7G04G08G14G16G26G27G31                0.000194105
  21635598.894 6   -929018.273 6   -710903.14548  21635597.82348
  22202604.120 6  -1405975.879 6  -1000574.38349  22202604.45649
  22862029.425 5    -58757.188 5    -43663.91847  22862028.08547
  20538686.362 6   -523595.762 6   -398506.55148  20538684.72248
  21447020.933 6   -423721.996 6   -309038.74249  21447021.60549
  20294487.956 7  -1123125.371 7   -818793.44149  20294488.17949
  21923314.815 6   -488260.641 6   -355377.30548  21923313.03448
 20  5 16  0 38  9.9990000  0  7G04G08G14G16G26G27G31                0.000191658
  21634528.315 6   -934643.613 6   -715286.52748  21634526.89048
  22201249.425 6  -1413093.367 6  -1006120.48849  22201250.19449
  22861955.378 5    -59148.652 5    -43968.95747  22861953.42147
  20538079.605 6   -526784.523 6   -400991.29748  20538077.40948
  21446603.511 6   -425915.551 6   -310748.00849  21446604.19849
  20293409.433 7  -1128792.246 7   -823209.18849  20293409.48349
  21922840.034 6   -490756.984 6   -357322.50448  21922838.33548
 20  5 16  0 38 10.9990000  0  7G04G08G14G16G26G27G31                0.000189209
  21633457.878 6   -940269.102 6   -719670.02748  21633456.95248
  22199894.995 6  -1420211.230 6  -1011666.87549  22199895.73349
  22861880.495 5    -59540.617 5    -44274.38347  22861879.01947
  20537472.573 6   -529973.762 6   -403476.42648  20537470.74948
  21446186.003 6   -428109.730 6   -312457.75849  21446187.15949
  20292331.065 7  -1134459.219 7   -827625.01249  20292331.48049
  21922364.800 6   -493253.730 6   -359268.02348  21922362.96448
 20  5 16  0 38 11.9990000  0  7G04G08G14G16G26G27G31                0.000186760
  21632387.315 6   -945894.500 6   -724053.44948  21632386.66348
  22198540.659 6  -1427329.230 6  -1017213.37149  22198541.37849
  22861805.503 5    -59932.852 5    -44580.02747  22861804.60847
  20536866.026 6   -533163.199 6   -405961.70348  20536863.85848
  21445767.964 6   -430304.340 6   -314167.84049  21445769.01549
  20291252.526 7  -1140126.043 7   -832040.71949  20291253.06949
  21921889.667 6   -495750.703 6   -361213.71148  21921887.61248
 20  5 16  0 38 12.9990000  0  7G04G08G14G16G26G27G31                0.000184311
  21631317.058 6   -951519.867 6   -728436.85248  21631316.08148
  22197186.034 5  -1434447.469 5  -1022760.04349  22197186.98049
  22861730.940 5    -60325.422 5    -44885.93447  22861729.85147
  20536258.917 6   -536352.914 6   -408447.19548  20536256.96048
  21445350.159 6   -432499.461 6   -315878.32049  21445351.18749
  20290173.886 7  -1145792.785 7   -836456.36749  20290174.32749
  21921414.214 6   -498247.938 6   -363159.60948  21921412.63648
 20  5 16  0 38 13.9990000  0  7G04G08G14G16G26G27G31                0.000181860
  21630246.667 6   -957145.305 6   -732820.31348  21630245.66348
  22195831.183 6  -1441565.918 6  -1028306.89149  22195832.09749
  22861656.409 5    -60718.316 5    -45192.09047  22861654.73347
  20535651.808 6   -539543.008 6   -410932.98448  20535649.75748
  21444932.433 6   -434695.039 6   -317589.16049  21444933.78449
  20289095.753 7  -1151459.500 7   -840871.98449  20289096.14749
  21920939.214 6   -500745.465 6   -365105.74248  21920937.17548
 20  5 16  0 38 14.9990000  0  7G04G08G14G16G26G27G31                0.000179411
  21629176.065 6   -962770.762 6   -737203.79348  21629175.21448
  22194476.925 6  -1448684.668 6  -1033853.96149  22194477.64449
  22861581.964 5    -61111.652 5    -45498.58647  22861579.83547
  20535044.425 6   -542733.402 6   -413419.00048  20535042.92148
  21444514.339 6   -436891.207 6   -319300.46149  21444515.58549
  20288017.519 7  -1157126.188 7   -845287.59049  20288018.00749
  21920463.776 6   -503243.320 6   -367052.12948  21920461.51948
 20  5 16  0 38 15.9990000  0  7G04G08G14G16G26G27G31                0.000176960
  21628105.417 6   -968396.266 6   -741587.30548  21628104.72648
  22193122.401 6  -1455803.672 6  -1039401.23849  22193122.90949
  22861506.542 5    -61505.355 5    -45805.37947  22861505.42947
  20534437.605 6   -545924.145 6   -415905.28948  20534435.69448
  21444096.565 6   -439087.883 6   -321012.15649  21444097.85549
  20286939.308 7  -1162792.887 7   -849703.19949  20286939.55449
  21919988.151 6   -505741.500 6   -368998.75848  21919986.41748
 20  5 16  0 38 16.9990000  0  7G04G08G14G16G26G27G31                0.000174509
  21627034.776 6   -974021.770 6   -745970.80948  21627034.08148
  22191767.237 6  -1462922.918 6  -1044948.69949  22191768.00749
  22861431.308 5    -61899.402 5    -46112.43447  22861430.41347
  20533830.190 6   -549115.199 6   -418391.83248  20533828.55048
  21443678.011 6   -441285.070 6   -322724.25049  21443679.70249
  20285861.151 7  -1168459.465 7   -854118.71549  20285861.16749
  21919512.745 6   -508239.949 6   -370945.60248  21919510.96448
 20  5 16  0 38 17.9990000  0  7G04G08G14G16G26G27G31                0.000172056
  21625964.347 6   -979647.344 6   -750354.37548  21625963.41348
  22190412.534 6  -1470042.410 6  -1050496.35949  22190413.24949
  22861356.753 5    -62293.891 5    -46419.82447  22861355.40147
  20533222.730 6   -552306.637 6   -420878.66048  20533221.35148
  21443259.870 6   -443482.852 6   -324436.81349  21443261.28449
  20284782.784 7  -1174126.102 7   -858534.27749  20284782.84349
  21919037.456 6   -510738.762 6   -372892.73448  21919035.47248
 20  5 16  0 38 18.9990000  0  7G04G08G14G16G26G27G31                0.000169605
  21624893.769 6   -985272.879 6   -754737.90248  21624893.22248
  22189057.253 6  -1477162.133 6  -1056044.18849  22189058.11249
  22861281.565 5    -62688.656 5    -46727.43447  22861280.45647
  20532615.597 6   -555498.301 6   -423365.67248  20532613.64048
  21442841.784 6   -445681.047 6   -326149.69149  21442843.09749
  20283704.534 7  -1179792.613 7   -862949.73849  20283704.78849
  21918561.917 6   -513237.809 6   -374840.04348  21918560.04248
 20  5 16  0 38 19.9990000  0  7G04G08G14G16G26G27G31                0.000167154
  21623823.409 6   -990898.418 6   -759121.44548  21623822.85848
  22187702.909 6  -1484282.059 6  -1061592.18449  22187703.55049
  22861206.198 5    -63083.781 5    -47035.32447  22861204.97647
  20532008.042 6   -558690.297 6   -425852.94548  20532006.34748
  21442423.440 6   -447879.750 6   -327862.96149  21442424.14749
  20282626.261 7  -1185459.063 7   -867365.15649  20282626.10549
  21918086.276 6   -515737.129 6   -376787.56648  21918084.64448
 20  5 16  0 38 20.9990000  0  7G04G08G14G16G26G27G31                0.000164701
  21622752.620 6   -996524.020 6   -763505.02748  21622751.98748
  22186348.081 6  -1491402.258 6  -1067140.39849  22186348.50749
  22861130.753 5    -63479.273 5    -47343.50447  22861129.96047
  20531400.487 6   -561882.609 6   -428340.46548  20531398.68748
  21442004.995 6   -450079.000 6   -329576.66449  21442006.65149
  20281548.019 7  -1191125.492 7   -871780.55949  20281548.34749
  21917610.769 6   -518236.762 6   -378735.33648  21917608.81248
 20  5 16  0 38 21.9990000  0  7G04G08G14G16G26G27G31                0.000162249
  21621681.847 6  -1002149.676 6   -767888.66048  21621681.54248
  22184992.722 6  -1498522.766 6  -1072688.84849  22184993.41349
  22861055.870 5    -63875.223 5    -47652.03547  22861053.93347
  20530792.964 6   -565075.348 6   -430828.31348  20530791.28048
  21441586.089 6   -452278.848 6   -331290.83249  21441587.69449
  20280469.550 7  -1196791.953 7   -876195.97749  20280469.97649
  21917134.808 6   -520736.777 6   -380683.39848  21917133.33148
 20  5 16  0 38 22.9990000  0  7G04G08G14G16G26G27G31                0.000159796
  21620611.745 6  -1007775.426 6   -772272.35548  21620610.81548
  22183638.159 6  -1505643.594 6  -1078237.54349  22183638.35549
  22860979.940 5    -64271.617 5    -47960.91447  22860978.76947
  20530185.347 6   -568268.445 6   -433316.44148  20530183.75348
  21441167.394 6   -454479.266 6   -333005.44149  21441169.25349
  20279391.339 7  -1202458.449 7   -880611.43049  20279391.68749
  21916658.925 6   -523237.145 6   -382631.74248  21916657.37048
 20  5 16  0 38 23.9990000  0  7G04G08G14G16G26G27G31                0.000157341
  21619541.198 6  -1013401.160 6   -776656.04348  21619540.62848
  22182282.698 6  -1512764.563 6  -1083786.35249  22182283.58949
  22860904.073 5    -64668.316 5    -48270.03947  22860903.26547
  20529577.972 6   -571461.828 6   -435804.78948  20529575.99148
  21440748.698 6   -456680.152 6   -334720.42249  21440750.27649
  20278313.112 7  -1208124.840 7   -885026.80149  20278313.38249
  21916183.276 6   -525737.773 6   -384580.28548  21916181.31948
 20  5 16  0 38 24.9990000  0  7G04G08G14G16G26G27G31                0.000154888
  21618470.784 6  -1019026.961 6   -781039.78548  21618469.89048
  22180927.019 6  -1519885.879 6  -1089335.42649  22180928.14049
  22860829.112 5    -65065.461 5    -48579.50047  22860827.72647
  20528970.065 6   -574655.609 6   -438293.45348  20528968.48048
  21440329.698 6   -458881.605 6   -336435.84449  21440331.11649
  20277234.628 7  -1213791.254 7   -889442.18849  20277235.00749
  21915707.401 6   -528238.762 6   -386529.10548  21915705.81548
 20  5 16  0 38 25.9990000  0  7G04G08G14G16G26G27G31                0.000152433
  21617400.183 6  -1024652.793 6   -785423.54748  21617399.47648
  22179571.980 6  -1527007.441 6  -1094884.69549  22179572.84749
  22860753.394 5    -65462.973 5    -48889.25447  22860751.85547
  20528362.480 6   -577849.727 6   -440782.37548  20528360.17548
  21439910.706 6   -461083.633 6   -338151.70749  21439911.98049
  20276156.550 7  -1219457.645 7   -893857.55949  20276156.67949
  21915231.120 6   -530740.078 6   -388478.18448  21915229.30448
 20  5 16  0 38 26.9990000  0  7G04G08G14G16G26G27G31                0.000149979
  21616329.745 6  -1030278.586 6   -789807.28148  21616328.77248
  22178216.933 6  -1534129.184 6  -1100434.10249  22178217.89749
  22860677.370 5    -65860.773 5    -49199.22347  22860676.47247
  20527754.237 6   -581044.066 6   -443271.47348  20527752.31948
  21439491.628 6   -463286.047 6   -339867.87549  21439492.75349
  20275077.980 7  -1225123.910 7   -898272.83649  20275078.37449
  21914755.112 6   -533241.574 6   -390427.39848  21914753.41748
 20  5 16  0 38 27.9990000  0  7G04G08G14G16G26G27G31                0.000147524
  21615259.190 6  -1035904.445 6   -794191.07048  21615258.25748
  22176861.440 6  -1541251.223 6  -1105983.73849  22176862.29649
  22860601.956 5    -66259.004 5    -49509.52747  22860600.51947
  20527146.667 6   -584238.797 6   -445760.87148  20527144.87448
  21439072.526 6   -465489.063 6   -341584.51649  21439074.14749
  20273999.995 7  -1230790.191 7   -902688.11749  20274000.16349
  21914279.284 6   -535743.457 6   -392376.92648  21914277.53448
 20  5 16  0 38 28.9990000  0  7G04G08G14G16G26G27G31                0.000145069
  21614188.511 6  -1041530.402 6   -798574.93448  21614187.63648
  22175506.480 6  -1548373.582 6  -1111533.63349  22175507.21049
  22860526.206 5    -66657.676 5    -49820.18447  22860524.68747
  20526538.448 6   -587433.914 6   -448250.57448  20526536.84348
  21438653.245 6   -467692.656 6   -343301.60249  21438654.58949
  20272921.605 7  -1236456.484 7   -907103.41449  20272921.66749
  21913802.589 6   -538245.688 6   -394326.71948  21913800.96448
 20  5 16  0 38 29.9990000  0  7G04G08G14G16G26G27G31                0.000142612
  21613117.870 6  -1047156.359 6   -802958.79748  21613116.63648
  22174151.401 6  -1555496.121 6  -1117083.66449  22174151.78849
  22860449.972 5    -67056.727 5    -50131.13347  22860448.71447
  20525930.370 6   -590629.340 6   -450740.51248  20525928.53848
  21438233.659 6   -469896.766 6   -345019.08649  21438234.86649
  20271843.448 7  -1242122.738 7   -911518.67649  20271843.56949
  21913326.534 6   -540748.203 6   -396276.73048  21913325.23748
 20  5 16  0 38 30.9990000  0  7G04G08G14G16G26G27G31                0.000140156
  21612047.105 6  -1052782.406 6   -807342.73448  21612046.41748
  22172796.128 6  -1562618.992 6  -1122633.95349  22172796.32749
  22860374.605 5    -67456.176 5    -50442.40247  22860372.78047
  20525321.980 6   -593825.145 6   -453230.75448  20525320.14448
  21437814.495 6   -472101.438 6   -346737.01249  21437815.31949
  20270764.956 7  -1247789.016 7   -915933.95749  20270765.21449
  21912850.362 6   -543251.082 6   -398227.02348  21912848.90948
 20  5 16  0 38 31.9990000  0  7G04G08G14G16G26G27G31                0.000137699
  21610976.690 6  -1058408.379 6   -811726.60548  21610975.68348
  22171440.144 6  -1569741.980 6  -1128184.33649  22171440.76549
  22860298.550 5    -67855.902 5    -50753.87947  22860296.56547
  20524713.769 6   -597021.184 6   -455721.17648  20524712.28048
  21437394.628 6   -474306.535 6   -348455.27349  21437395.87449
  20269686.714 7  -1253455.148 7   -920349.12149  20269686.90949
  21912374.315 6   -545754.164 6   -400177.48048  21912372.49548
 20  5 16  0 38 32.9990000  0  7G04G08G14G16G26G27G31                0.000135242
  21609905.870 6  -1064034.402 6   -816110.52748  21609904.74148
  22170084.097 6  -1576865.270 6  -1133734.94949  22170085.38649
  22860221.940 5    -68256.035 5    -51065.67647  22860220.35147
  20524106.034 6   -600217.609 6   -458211.89548  20524104.15948
  21436974.862 6   -476512.211 6   -350173.97749  21436976.02249
  20268608.722 7  -1259121.277 7   -924764.29349  20268608.78049
  21911897.730 6   -548257.598 6   -402128.21148  21911896.08548
 20  5 16  0 38 33.9990000  0  7G04G08G14G16G26G27G31                0.000132786
  21608835.480 6  -1069660.445 6   -820494.45348  21608834.82348
  22168729.472 5  -1583988.793 5  -1139285.74649  22168730.01949
  22860145.917 5    -68656.523 5    -51377.74647  22860144.32347
  20523497.409 6   -603414.320 6   -460702.84048  20523495.68348
  21436555.245 6   -478718.391 6   -351893.07449  21436556.47249
  20267530.495 7  -1264787.379 7   -929179.43449  20267530.64449
  21911421.534 6   -550761.320 6   -404079.16848  21911419.38248
 20  5 16  0 38 34.9990000  0  7G04G08G14G16G26G27G31                0.000130329
  21607765.042 6  -1075286.477 6   -824878.37548  21607764.15548
  22167373.550 6  -1591112.539 6  -1144836.71949  22167374.44849
  22860069.065 5    -69057.375 5    -51690.09847  22860068.10147
  20522889.300 6   -606611.352 6   -463194.03148  20522887.35148
  21436135.237 6   -480925.051 6   -353612.55149  21436136.45649
  20266452.433 7  -1270453.383 7   -933594.50049  20266452.26149
  21910944.886 6   -553265.289 6   -406030.30548  21910943.21848
 20  5 16  0 38 35.9990000  0  7G04G08G14G16G26G27G31                0.000127871
  21606694.284 6  -1080912.531 6   -829262.31348  21606693.42548
  22166017.706 6  -1598236.496 6  -1150387.85549  22166018.44849
  22859992.917 5    -69458.594 5    -52002.73446  22859991.66746
  20522280.519 6   -609808.727 6   -465685.48448  20522278.93748
  21435715.190 6   -483132.223 6   -355332.42649  21435716.72249
  20265374.026 7  -1276119.352 7   -938009.54349  20265374.48349
  21910468.542 6   -555769.578 6   -407981.69948  21910466.59748
 20  5 16  0 38 36.9990000  0  7G04G08G14G16G26G27G31                0.000125412
  21605623.784 6  -1086538.617 6   -833646.27748  21605622.55048
  22164662.276 6  -1605360.691 6  -1155939.17649  22164662.80049
  22859916.597 5    -69860.176 5    -52315.65647  22859915.04647
  20521672.300 6   -613006.383 6   -468177.16848  20521670.42948
  21435294.737 6   -485339.957 6   -357052.73449  21435296.19849
  20264296.042 7  -1281785.289 7   -942424.55949  20264296.16749
  21909991.737 6   -558274.195 6   -409933.35248  21909989.93348
 20  5 16  0 38 37.9990000  0  7G04G08G14G16G26G27G31                0.000122953
  21604553.112 6  -1092164.668 6   -838030.20348  21604552.17948
  22163306.612 6  -1612485.156 6  -1161490.71149  22163307.25349
  22859840.190 5    -70262.105 5    -52628.84847  22859838.78447
  20521063.558 6   -616204.359 6   -470669.09848  20521061.92548
  21434874.620 6   -487548.152 6   -358773.41049  21434876.15149
  20263217.706 7  -1287451.137 7   -946839.50849  20263218.01149
  21909514.878 6   -560779.043 6   -411885.18848  21909513.14048
 20  5 16  0 38 38.9990000  0  7G04G08G14G16G26G27G31                0.000120495
  21603482.198 6  -1097790.758 6   -842414.18048  21603481.60848
  22161950.651 6  -1619609.820 6  -1167042.40249  22161951.23349
  22859763.886 5    -70664.367 5    -52942.29747  22859762.35547
  20520454.698 6   -619402.633 6   -473161.26648  20520453.13648
  21434454.347 6   -489756.855 6   -360494.47349  21434456.03449
  20262139.597 7  -1293116.949 7   -951254.42249  20262139.60549
  21909038.565 6   -563284.176 6   -413837.24248  21909036.70248
 20  5 16  0 38 39.9990000  0  7G04G08G14G16G26G27G31                0.000118034
  21602411.769 6  -1103416.898 6   -846798.18448  21602410.84748
  22160594.784 6  -1626734.758 6  -1172594.29349  22160595.90149
  22859686.995 5    -71067.078 5    -53256.09447  22859685.51547
  20519846.253 6   -622601.281 6   -475653.71948  20519844.68748
  21434033.964 6   -491966.109 6   -362215.96549  21434035.40949
  20261061.433 7  -1298782.758 7   -955669.34049  20261061.65149
  21908561.495 6   -565789.656 6   -415789.57448  21908559.78448
 20  5 16  0 38 40.9990000  0  7G04G08G14G16G26G27G31                0.000115576
  21601341.026 6  -1109043.078 6   -851182.21948  21601340.29248
  22159239.433 6  -1633859.973 6  -1178146.41049  22159239.82349
  22859610.487 5    -71470.156 5    -53570.18847  22859608.88647
  20519237.589 6   -625800.281 6   -478146.43848  20519235.62448
  21433613.628 6   -494175.898 6   -363937.88349  21433615.18349
  20259983.151 7  -1304448.508 7   -960084.21549  20259983.29249
  21908084.472 6   -568295.457 6   -417742.14548  21908082.96048
 20  5 16  0 38 41.9990000  0  7G04G08G14G16G26G27G31                0.000113115
  21600270.433 6  -1114669.258 6   -855566.25448  21600269.74548
  22157883.058 6  -1640985.441 6  -1183698.72749  22157884.21049
  22859533.823 5    -71873.625 5    -53884.58247  22859532.03047
  20518628.550 6   -628999.598 6   -480639.41048  20518626.76148
  21433192.464 6   -496386.238 6   -365660.22749  21433194.55449
  20258904.964 7  -1310114.281 7   -964499.10249  20258904.92949
  21907607.511 6   -570801.590 6   -419694.97748  21907605.76548
 20  5 16  0 38 42.9990000  0  7G04G08G14G16G26G27G31                0.000110655
  21599199.940 6  -1120295.418 6   -859950.28548  21599199.16348
  22156526.698 6  -1648111.086 6  -1189251.17649  22156527.80049
  22859457.011 5    -72277.395 5    -54199.20347  22859455.22647
  20518019.823 6   -632199.199 6   -483132.61748  20518018.44448
  21432772.151 6   -498597.008 6   -367382.91449  21432773.65949
  20257826.605 7  -1315779.930 7   -968913.89149  20257827.07349
  21907130.995 6   -573307.949 6   -421647.98848  21907129.19448
 20  5 16  0 38 43.9990000  0  7G04G08G14G16G26G27G31                0.000108194
  21598129.050 6  -1125921.637 6   -864334.35548  21598128.58948
  22155170.925 6  -1655237.008 6  -1194803.84849  22155172.07349
  22859379.855 5    -72681.547 5    -54514.11747  22859378.29647
  20517410.651 6   -635399.121 6   -485626.05948  20517409.08548
  21432351.472 6   -500808.324 6   -369106.02049  21432353.21449
  20256748.855 7  -1321445.547 7   -973328.66049  20256749.00349
  21906653.800 6   -575814.629 6   -423601.24248  21906652.39448
 20  5 16  0 38 44.9990000  0  7G04G08G14G16G26G27G31                0.000105732
  21597058.370 6  -1131547.801 6   -868718.38348  21597057.69448
  22153815.534 6  -1662363.109 6  -1200356.64849  22153815.95249
  22859302.651 5    -73086.031 5    -54829.30147  22859301.05447
  20516802.003 6   -638599.324 6   -488119.72348  20516800.37048
  21431930.706 6   -503020.125 6   -370829.50049  21431932.15149
  20255670.370 7  -1327111.051 7   -977743.34049  20255670.80449
  21906176.675 6   -578321.535 6   -425554.68048  21906174.87848
 20  5 16  0 38 45.9990000  0  7G04G08G14G16G26G27G31                0.000103271
  21595988.003 6  -1137174.051 6   -873102.46948  21595987.41348
  22152458.605 6  -1669489.484 6  -1205909.66849  22152460.00349
  22859225.995 5    -73490.922 5    -55144.80947  22859223.97247
  20516193.151 6   -641799.895 6   -490613.68048  20516191.45248
  21431509.651 6   -505232.488 6   -372553.41849  21431510.92949
  20254592.292 7  -1332776.586 7   -982158.04349  20254592.56949
  21905699.612 6   -580828.805 6   -427508.39848  21905697.59748
 20  5 16  0 38 46.9990000  0  7G04G08G14G16G26G27G31                0.000100809
  21594917.276 6  -1142800.320 6   -877486.57048  21594916.30848
  22151102.776 6  -1676616.141 6  -1211462.91049  22151103.94849
  22859148.526 5    -73896.191 5    -55460.62947  22859146.99147
  20515583.722 6   -645000.824 6   -493107.90648  20515581.92548
  21431088.761 6   -507445.367 6   -374277.74249  21431090.11649
  20253514.355 7  -1338442.105 7   -986572.73449  20253514.60849
  21905222.487 6   -583336.371 6   -429462.35248  21905220.58548
 20  5 16  0 38 47.9990000  0  7G04G08G14G16G26G27G31                0.000098347
  21593846.620 6  -1148426.629 6   -881870.70348  21593845.86648
  22149746.565 6  -1683743.008 6  -1217016.30549  22149747.58549
  22859071.776 5    -74301.867 5    -55776.74247  22859070.02647
  20514974.831 6   -648202.102 6   -495602.41448  20514972.85548
  21430666.972 6   -509658.781 6   -376002.47749  21430668.19849
  20252436.472 7  -1344107.590 7   -990987.39849  20252436.30849
  21904745.222 6   -585844.273 6   -431416.56648  21904743.65948
 20  5 16  0 38 48.9990000  0  7G04G08G14G16G26G27G31                0.000095884
  21592776.136 6  -1154052.957 6   -886254.86348  21592774.99948
  22148390.011 6  -1690870.180 6  -1222569.94149  22148391.06249
  22858994.245 5    -74707.887 5    -56093.12547  22858992.63247
  20514365.636 6   -651403.648 6   -498097.11748  20514363.45248
  21430245.690 6   -511872.703 6   -377727.61349  21430247.43749
  20251358.315 7  -1349773.000 7   -995401.99649  20251358.56249
  21904267.862 6   -588352.461 6   -433371.00048  21904266.08948
 20  5 16  0 38 49.9990000  0  7G04G08G14G16G26G27G31                0.000093420
  21591705.011 6  -1159679.266 6   -890638.99648  21591704.53848
  22147033.526 6  -1697997.531 6  -1228123.72349  22147034.90949
  22858917.011 5    -75114.258 5    -56409.77047  22858915.53047
  20513756.120 6   -654605.512 6   -500592.07848  20513754.20248
  21429824.573 6   -514087.137 6   -379453.14549  21429825.95649
  20250280.136 7  -1355438.348 7   -999816.55549  20250280.37849
  21903790.792 6   -590860.902 6   -435325.62548  21903788.69448
 20  5 16  0 38 50.9990000  0  7G04G08G14G16G26G27G31                0.000090958
  21590634.690 6  -1165305.523 6   -895023.09048  21590633.84748
  22145677.472 6  -1705125.039 6  -1233677.62949  22145678.53849
  22858839.612 5    -75520.953 5    -56726.67647  22858838.08147
  20513146.847 6   -657807.664 6   -503087.25848  20513144.76148
  21429403.159 6   -516302.016 6   -381179.02049  21429404.57349
  20249202.190 7  -1361103.590 7  -1004231.03549  20249202.26149
  21903313.167 6   -593369.590 6   -437280.45748  21903311.44848
 20  5 16  0 38 51.9990000  0  7G04G08G14G16G26G27G31                0.000088493
  21589564.003 6  -1170931.688 6   -899407.11748  21589563.12848
  22144321.230 6  -1712252.699 6  -1239231.64849  22144322.34349
  22858762.409 5    -75927.871 5    -57043.75447  22858760.83147
  20512537.097 6   -661009.992 6   -505582.57848  20512535.52648
  21428981.128 6   -518517.309 6   -382905.23049  21428982.68349
  20248124.300 7  -1366768.695 7  -1008645.40249  20248124.19449
  21902835.823 6   -595878.480 6   -439235.43048  21902833.94448
 20  5 16  0 38 52.9990000  0  7G04G08G14G16G26G27G31                0.000086031
  21588493.105 6  -1176558.105 6   -903791.34048  21588492.25348
  22142964.776 6  -1719380.773 6  -1244785.99649  22142965.75749
  22858684.214 5    -76335.359 5    -57361.28147  22858683.17947
  20511927.815 6   -664212.863 6   -508078.32048  20511925.71448
  21428559.612 6   -520733.301 6   -384631.97749  21428561.58149
  20247045.706 7  -1372433.930 7  -1013059.87149  20247046.05849
  21902358.292 6   -598387.879 6   -441190.80948  21902356.52248
 20  5 16  0 38 53.9990000  0  7G04G08G14G16G26G27G31                0.000083565
  21587422.667 6  -1182184.465 6   -908175.51648  21587422.01548
  22141607.839 6  -1726509.074 6  -1250340.51649  22141609.00349
  22858606.745 5    -76743.215 5    -57679.09847  22858605.40947
  20511318.081 6   -667416.035 6   -510574.30548  20511316.15948
  21428138.315 6   -522949.793 6   -386359.11749  21428139.39749
  20245968.058 7  -1378099.102 7  -1017474.28949  20245968.24949
  21901880.839 6   -600897.527 6   -443146.37948  21901878.88648
 20  5 16  0 38 54.9990000  0  7G04G08G14G16G26G27G31                0.000081100
  21586352.183 6  -1187810.848 6   -912559.71548  21586351.26548
  22140252.003 6  -1733637.570 6  -1255895.19149  22140252.81249
  22858528.753 5    -77151.402 5    -57997.16047  22858527.62847
  20510708.894 6   -670619.500 6   -513070.51248  20510706.88248
  21427716.245 6   -525166.793 6   -388086.64849  21427717.66349
  20244889.745 7  -1383764.219 7  -1021888.67249  20244889.86649
  21901402.925 6   -603407.461 6   -445102.17648  21901401.15948
 20  5 16  0 38 55.9990000  0  7G04G08G14G16G26G27G31                0.000078634
  21585281.417 6  -1193437.172 6   -916943.86748  21585280.71048
  22138895.362 6  -1740766.273 6  -1261450.02349  22138896.03849
  22858451.378 5    -77559.895 5    -58315.46147  22858449.99147
  20510099.214 6   -673823.215 6   -515566.91848  20510097.10848
  21427294.175 6   -527384.203 6   -389814.50449  21427295.55849
  20243812.003 7  -1389429.195 7  -1026302.94149  20243812.19849
  21900925.472 6   -605917.609 6   -447058.12948  21900923.69448
 20  5 16  0 38 56.9990000  0  7G04G08G14G16G26G27G31                0.000076170
  21584210.386 6  -1199063.531 6   -921328.04348  21584209.98748
  22137538.183 6  -1747895.250 6  -1267005.07049  22137539.55449
  22858373.745 5    -77968.762 5    -58634.07047  22858372.31547
  20509489.292 6   -677027.289 6   -518063.59448  20509487.62848
  21426872.050 6   -529602.180 6   -391542.80149  21426873.58549
  20242733.620 7  -1395094.164 7  -1030717.20349  20242734.06249
  21900447.800 6   -608428.082 6   -449014.34848  21900445.89048
 20  5 16  0 38 57.9990000  0  7G04G08G14G16G26G27G31                0.000073704
  21583139.612 6  -1204689.816 6   -925712.16048  21583139.35548
  22136182.011 6  -1755024.355 6  -1272560.21549  22136182.99949
  22858295.542 5    -78377.922 5    -58952.91047  22858294.37847
  20508879.800 6   -680231.566 6   -520560.43448  20508877.74548
  21426449.831 6   -531820.570 6   -393271.41849  21426451.40149
  20241655.769 7  -1400758.992 7  -1035131.35249  20241656.04649
  21899969.683 6   -610938.766 6   -450970.72348  21899967.87448
 20  5 16  0 38 58.9990000  0  7G04G08G14G16G26G27G31                0.000071238
  21582069.503 6  -1210316.133 6   -930096.30148  21582068.54648
  22134825.394 6  -1762153.711 6  -1278115.56349  22134826.45649
  22858217.730 5    -78787.469 5    -59272.04747  22858216.51947
  20508269.761 6   -683436.219 6   -523057.56648  20508267.78048
  21426027.440 6   -534039.508 6   -395000.45749  21426028.98049
  20240578.097 7  -1406423.797 7  -1039545.48849  20240578.06949
  21899491.948 6   -613449.758 6   -452927.34448  21899490.20248
 20  5 16  0 38 59.9990000  0  7G04G08G14G16G26G27G31                0.000068771
  21580998.823 6  -1215942.418 6   -934480.41448  21580998.18348
  22133468.355 6  -1769283.277 6  -1283671.06349  22133469.72649
  22858140.190 5    -79197.313 5    -59591.41047  22858138.62447
  20507659.862 6   -686641.113 6   -525554.88348  20507657.83548
  21425605.503 6   -536258.895 6   -396729.85249  21425606.58949
  20239499.964 7  -1412088.488 7  -1043959.53149  20239500.12449
  21899014.558 6   -615960.984 6   -454884.14148  21899012.77648
 20  5 16  0 39  0.9990000  0  7G04G08G14G16G26G27G31                0.000066305
  21579927.901 6  -1221568.629 6   -938864.48048  21579927.62848
  22132111.589 6  -1776412.992 6  -1289226.68849  22132113.18749
  22858061.940 5    -79607.469 5    -59911.00447  22858060.17547
  20507049.706 6   -689846.277 6   -528052.41448  20507048.09348
  21425183.120 6   -538478.734 6   -398459.60249  21425184.24149
  20238422.151 7  -1417753.086 7  -1048373.50449  20238422.18349
  21898536.269 6   -618472.449 6   -456841.12548  21898534.18748
 20  5 16  0 39  1.9990000  0  7G04G08G14G16G26G27G31                0.000063837
  21578857.612 6  -1227194.809 6   -943248.52048  21578856.82348
  22130755.198 5  -1783542.883 5  -1294782.44549  22130756.06549
  22857983.917 5    -80017.957 5    -60230.85547  22857982.33147
  20506440.058 6   -693051.699 6   -530550.14848  20506438.09348
  21424760.456 6   -540699.031 6   -400189.69949  21424761.88249
  20237343.878 7  -1423417.547 7  -1052787.37149  20237344.55049
  21898058.417 6   -620984.133 6   -458798.28148  21898056.21448
 20  5 16  0 39  2.9990000  0  7G04G08G14G16G26G27G31                0.000061369
  21577786.917 6  -1232821.027 6   -947632.58248  21577786.39748
  22129398.581 6  -1790673.039 6  -1300338.40649  22129399.41349
  22857906.034 5    -80428.809 5    -60551.00847  22857904.19847
  20505829.792 6   -696257.441 6   -533048.12948  20505827.96848
  21424338.245 6   -542919.863 6   -401920.21549  21424339.17549
  20236266.276 7  -1429081.996 7  -1057201.23049  20236266.45249
  21897580.315 6   -623496.129 6   -460755.69148  21897578.11248
 20  5 16  0 39  3.9990000  0  7G04G08G14G16G26G27G31                0.000058901
  21576716.183 6  -1238447.180 6   -952016.60248  21576715.17948
  22128041.409 5  -1797803.336 5  -1305894.48049  22128042.49949
  22857827.144 5    -80839.957 5    -60871.38347  22857825.90547
  20505219.745 6   -699463.465 6   -535546.33248  20505218.13648
  21423915.214 6   -545141.121 6   -403651.06649  21423917.12049
  20235188.222 7  -1434746.309 7  -1061614.97749  20235188.55849
  21897102.534 6   -626008.371 6   -462713.28148  21897100.49948
 20  5 16  0 39  4.9990000  0  7G04G08G14G16G26G27G31                0.000056433
  21575645.683 6  -1244073.359 6   -956400.63748  21575644.89748
  22126684.440 6  -1804933.914 6  -1311450.77349  22126685.71849
  22857749.230 5    -81251.480 5    -61192.03947  22857747.50347
  20504609.690 6   -702669.785 6   -538044.75848  20504607.72648
  21423492.472 6   -547362.941 6   -405382.35949  21423494.02649
  20234110.433 7  -1440410.598 7  -1066028.71149  20234110.70649
  21896623.980 6   -628520.895 6   -464671.08248  21896622.07348
 20  5 16  0 39  5.9990000  0  7G04G08G14G16G26G27G31                0.000053965
  21574575.026 6  -1249699.504 6   -960784.63348  21574574.47248
  22125327.511 6  -1812064.598 6  -1317007.14849  22125328.62849
  22857670.534 5    -81663.293 5    -61512.92647  22857669.50347
  20503999.737 6   -705876.398 6   -540543.41848  20503997.80448
  21423069.667 6   -549585.184 6   -407113.98049  21423071.21449
  20233032.870 7  -1446074.777 7  -1070442.35549  20233033.06549
  21896145.964 6   -631033.664 6   -466629.08248  21896144.34748
 20  5 16  0 39  6.9990000  0  7G04G08G14G16G26G27G31                0.000051497
  21573504.644 6  -1255325.645 6   -965168.64548  21573503.65948
  22123970.870 6  -1819195.574 6  -1322563.76249  22123971.68749
  22857592.511 5    -82075.500 5    -61834.11747  22857590.69447
  20503389.355 6   -709083.316 6   -543042.32048  20503387.64748
  21422646.565 6   -551807.941 6   -408846.00049  21422648.26149
  20231954.698 7  -1451738.898 7  -1074855.95349  20231955.21449
  21895667.706 6   -633546.719 6   -468587.30948  21895666.00748
 20  5 16  0 39  7.9990000  0  7G04G08G14G16G26G27G31                0.000049026
  21572433.667 6  -1260951.813 6   -969552.66448  21572433.17148
  22122613.753 6  -1826326.781 6  -1328120.53949  22122614.82749
  22857513.706 5    -82488.070 5    -62155.60547  22857512.32747
  20502779.058 6   -712290.563 6   -545541.46948  20502777.09348
  21422223.628 6   -554031.219 6   -410578.41849  21422225.21049
  20230876.862 7  -1457402.973 7  -1079269.51649  20230876.90149
  21895189.417 6   -636060.094 6   -470545.78548  21895187.65948
 20  5 16  0 39  8.9990000  0  7G04G08G14G16G26G27G31                0.000046556
  21571363.112 6  -1266577.945 6   -973936.67248  21571362.27648
  22121256.605 6  -1833458.188 6  -1333677.47749  22121257.96849
  22857435.503 5    -82900.969 5    -62477.37547  22857433.79247
  20502168.589 6   -715498.090 6   -548040.84448  20502166.70648
  21421800.206 6   -556254.973 6   -412311.21549  21421801.61649
  20229799.011 7  -1463066.973 7  -1083683.02349  20229799.13249
  21894711.034 6   -638573.688 6   -472504.43848  21894709.21848
 20  5 16  0 39  9.9990000  0  7G04G08G14G16G26G27G31                0.000044086
  21570292.487 6  -1272204.082 6   -978320.67648  21570291.62448
  22119899.636 6  -1840589.785 6  -1339234.55549  22119900.69049
  22857356.401 5    -83314.207 5    -62799.39847  22857355.55447
  20501557.909 6   -718705.902 6   -550540.44148  20501556.31948
  21421377.050 6   -558479.219 6   -414044.39149  21421378.65949
  20228721.362 7  -1468730.906 7  -1088096.47349  20228721.44049
  21894232.980 6   -641087.574 6   -474463.31648  21894230.51948
 20  5 16  0 39 10.9990000  0  7G04G08G14G16G26G27G31                0.000041616
  21569221.894 6  -1277830.281 6   -982704.73448  21569221.31948
  22118542.433 6  -1847721.660 6  -1344791.86349  22118543.34349
  22857277.925 5    -83727.879 5    -63121.75447  22857276.78847
  20500947.987 6   -721914.137 6   -553040.36348  20500945.44848
  21420953.300 6   -560704.059 6   -415778.03549  21420954.98749
  20227643.683 7  -1474394.836 7  -1092509.93049  20227643.69449
  21893754.519 6   -643601.824 6   -476422.48448  21893752.24548
 20  5 16  0 39 11.9990000  0  7G04G08G14G16G26G27G31                0.000039146
  21568151.370 6  -1283456.547 6   -987088.83648  21568150.26948
  22117185.167 6  -1854853.820 6  -1350349.39149  22117186.45649
  22857198.933 5    -84141.988 5    -63444.44147  22857197.66747
  20500337.112 6   -725122.727 6   -555540.56648  20500335.01148
  21420530.300 6   -562929.465 6   -417512.12149  21420531.89049
  20226565.683 7  -1480058.770 7  -1096923.38749  20226565.65549
  21893276.058 6   -646116.410 6   -478381.89848  21893274.14448
 20  5 16  0 39 12.9990000  0  7G04G08G14G16G26G27G31                0.000036674
  21567081.003 6  -1289082.742 6   -991472.87948  21567080.03448
  22115828.167 6  -1861986.172 6  -1355907.06649  22115829.37849
  22857120.175 5    -84556.336 5    -63767.30547  22857118.76547
  20499726.534 6   -728331.570 6   -558040.96548  20499724.57348
  21420106.831 6   -565155.277 6   -419246.52049  21420108.04649
  20225488.245 7  -1485722.605 7  -1101336.76249  20225488.15149
  21892797.433 6   -648631.230 6   -480341.50048  21892795.67148
 20  5 16  0 39 13.9990000  0  7G04G08G14G16G26G27G31                0.000034204
  21566009.839 6  -1294708.887 6   -995856.89148  21566009.27648
  22114470.940 6  -1869118.652 6  -1361464.84849  22114471.78449
  22857041.073 5    -84971.027 5    -64090.44547  22857040.09347
  20499116.003 6   -731540.613 6   -560541.52348  20499113.65948
  21419682.940 6   -567381.543 6   -420981.27749  21419684.28049
  20224410.409 7  -1491386.258 7  -1105750.00449  20224410.49949
  21892318.737 6   -651146.234 6   -482301.24248  21892316.90548
 20  5 16  0 39 14.9990000  0  7G04G08G14G16G26G27G31                0.000031731
  21564939.761 6  -1300334.926 6  -1000240.81648  21564938.68348
  22113113.386 6  -1876251.270 6  -1367022.73449  22113114.62049
  22856962.198 5    -85385.969 5    -64413.78147  22856960.83947
  20498505.175 6   -734749.906 6   -563042.27048  20498502.75748
  21419259.003 6   -569608.223 6   -422716.35549  21419260.75349
  20223332.565 7  -1497049.797 7  -1110163.14849  20223332.48349
  21891840.362 6   -653661.465 6   -484261.16848  21891838.09748
 20  5 16  0 39 15.9990000  0  7G04G08G14G16G26G27G31                0.000029261
  21563869.050 6  -1305960.938 6  -1004624.71548  21563868.18748
  22111756.128 6  -1883384.047 6  -1372580.74249  22111757.51949
  22856883.292 5    -85801.223 5    -64737.35947  22856882.14047
  20497894.620 6   -737959.465 6   -565543.22348  20497892.49548
  21418835.589 6   -571835.375 6   -424451.79749  21418836.92949
  20222254.511 7  -1502713.230 7  -1114576.21149  20222254.85149
  21891361.323 6   -656176.891 6   -486221.23048  21891359.35848
 20  5 16  0 39 16.9990000  0  7G04G08G14G16G26G27G31                0.000026787
  21562798.378 6  -1311586.883 6  -1009008.57048  21562797.78448
  22110398.683 6  -1890516.988 6  -1378138.87149  22110400.20649
  22856804.120 5    -86216.730 5    -65061.12547  22856802.80447
  20497283.605 6   -741169.250 6   -568044.35248  20497281.70248
  21418411.940 6   -574062.957 6   -426187.57049  21418412.95249
  20221177.144 7  -1508376.535 7  -1118989.17649  20221177.08949
  21890883.034 6   -658692.563 6   -488181.50048  21890880.90148
 20  5 16  0 39 17.9990000  0  7G04G08G14G16G26G27G31                0.000024315
  21561727.901 6  -1317212.816 6  -1013392.41448  21561726.79248
  22109041.440 6  -1897650.152 6  -1383697.18449  22109042.82349
  22856724.917 5    -86632.621 5    -65385.19947  22856723.86647
  20496672.456 6   -744379.348 6   -570545.73048  20496670.56948
  21417987.370 6   -576291.023 6   -427923.73049  21417988.85549
  20220099.089 7  -1514039.762 7  -1123402.08249  20220099.44049
  21890403.839 6   -661208.496 6   -490141.97348  21890402.08148
 20  5 16  0 39 18.9990000  0  7G04G08G14G16G26G27G31                0.000021843
  21560657.183 6  -1322838.789 6  -1017776.29348  21560656.16348
  22107684.120 6  -1904783.543 6  -1389255.67249  22107685.23049
  22856646.081 5    -87048.887 5    -65709.56647  22856644.96847
  20496061.925 6   -747589.789 6   -573047.37548  20496059.89448
  21417563.620 6   -578519.621 6   -429660.29749  21417564.61249
  20219021.253 7  -1519702.949 7  -1127814.95749  20219021.45249
  21889925.464 6   -663724.734 6   -492102.68048  21889923.06248
 20  5 16  0 39 19.9990000  0  7G04G08G14G16G26G27G31                0.000019369
  21559586.589 6  -1328464.707 6  -1022160.12548  21559585.45648
  22106326.519 6  -1911917.160 6  -1394814.33249  22106327.94849
  22856566.667 5    -87465.492 5    -66034.19547  22856565.64447
  20495451.183 6   -750800.500 6   -575549.22348  20495448.92948
  21417139.753 6   -580748.707 6   -431397.25049  21417140.92949
  20217943.784 7  -1525366.055 7  -1132227.77049  20217943.98049
  21889446.605 6   -666241.211 6   -494063.57048  21889444.62848
 20  5 16  0 39 20.9990000  0  7G04G08G14G16G26G27G31                0.000016895
  21558515.862 6  -1334090.723 6  -1026544.03148  21558515.07748
  22104969.362 6  -1919051.074 6  -1400373.22349  22104970.30849
  22856487.011 5    -87882.516 5    -66359.15247  22856485.83547
  20494839.776 6   -754011.605 6   -578051.38348  20494837.99148
  21416715.472 6   -582978.359 6   -433134.64149  21416716.35849
  20216866.503 7  -1531029.176 7  -1136640.59049  20216866.47249
  21888967.269 6   -668758.066 6   -496024.75848  21888965.45248
 20  5 16  0 39 21.9990000  0  7G04G08G14G16G26G27G31                0.000014421
  21557445.433 6  -1339716.695 6  -1030927.91048  21557444.37448
  22103611.331 6  -1926185.180 6  -1405932.26649  22103612.69849
  22856407.472 5    -88299.879 5    -66684.37547  22856406.61647
  20494228.620 6   -757223.000 6   -580553.77348  20494226.66748
  21416290.534 6   -585208.512 6   -434872.41849  21416291.96849
  20215788.651 7  -1536692.223 7  -1141053.35549  20215789.21049
  21888488.065 6   -671275.195 6   -497986.15248  21888486.36648
 20  5 16  0 39 22.9990000  0  7G04G08G14G16G26G27G31                0.000011946
  21556375.058 6  -1345342.551 6  -1035311.69548  21556373.64448
  22102253.230 6  -1933319.406 6  -1411491.40649  22102254.95649
  22856328.081 5    -88717.492 5    -67009.78947  22856327.23347
  20493617.776 6   -760434.578 6   -583056.29748  20493615.64448
  21415866.034 6   -587439.000 6   -436610.45749  21415867.40949
  20214710.995 7  -1542355.074 7  -1145465.96549  20214711.18349
  21888009.597 6   -673792.445 6   -499947.65248  21888007.44048
 20  5 16  0 39 23.9990000  0  7G04G08G14G16G26G27G31                0.000009472
  21555304.558 6  -1350968.305 6  -1039695.39848  21555303.29248
  22100895.940 6  -1940453.719 6  -1417050.61349  22100897.35849
  22856248.808 5    -89135.324 5    -67335.37547  22856247.82747
  20493006.605 6   -763646.359 6   -585558.98448  20493004.37848
  21415441.511 6   -589669.918 6   -438348.83649  21415442.83949
  20213633.730 7  -1548017.742 7  -1149878.43049  20213633.69049
  21887530.003 6   -676309.879 6   -501909.28948  21887528.20648
 20  5 16  0 39 24.9990000  0  7G04G08G14G16G26G27G31                0.000006996
  21554233.589 6  -1356594.035 6  -1044079.08648  21554232.80048
  22099538.151 6  -1947588.227 6  -1422609.96549  22099539.79649
  22856168.956 5    -89553.512 5    -67661.23847  22856167.79247
  20492395.284 6   -766858.426 6   -588061.89148  20492393.13648
  21415016.909 6   -591901.301 6   -440087.57849  21415018.60849
  20212556.128 7  -1553680.328 7  -1154290.83649  20212556.13249
  21887051.190 6   -678827.574 6   -503871.12948  21887049.36248
 20  5 16  0 39 25.9990000  0  7G04G08G14G16G26G27G31                0.000004520
  21553163.331 6  -1362219.746 6  -1048462.75448  21553162.37848
  22098180.269 6  -1954722.961 6  -1428169.49649  22098181.68349
  22856089.667 5    -89972.020 5    -67987.34847  22856088.33547
  20491783.948 6   -770070.797 6   -590565.04348  20491781.81548
  21414592.331 6   -594133.176 6   -441826.69949  21414593.52649
  20211478.573 7  -1559342.844 7  -1158703.19149  20211478.45649
  21886571.761 6   -681345.555 6   -505833.19548  21886570.17548
 20  5 16  0 39 26.9990000  0  7G04G08G14G16G26G27G31                0.000002047
  21552092.581 6  -1367845.555 6  -1052846.50848  21552092.08148
  22096822.612 6  -1961857.965 6  -1433729.23849  22096824.41349
  22856009.878 5    -90390.996 5    -68313.82447  22856008.99547
  20491172.245 6   -773283.563 6   -593068.49648  20491170.37848
  21414167.222 6   -596365.645 6   -443566.28549  21414169.03849
  20210401.105 7  -1565005.406 7  -1163115.57449  20210400.98049
  21886092.581 6   -683863.891 6   -507795.53148  21886090.99148
 20  5 16  0 39 27.9990000  0  7G04G08G14G16G26G27G31               -0.000000431
  21551021.964 6  -1373471.324 6  -1057230.21548  21551021.05448
  22095464.886 6  -1968993.172 6  -1439289.13749  22095466.72649
  22855930.308 5    -90810.305 5    -68640.56347  22855929.08947
  20490560.847 6   -776496.605 6   -595572.16448  20490558.93748
  21413742.323 6   -598598.586 6   -445306.24249  21413743.89449
  20209323.417 7  -1570667.852 7  -1167527.87149  20209323.57749
  21885613.448 6   -686382.473 6   -509758.06648  21885611.38648
 20  5 16  0 39 28.9990000  0  7G04G08G14G16G26G27G31               -0.000002907
  21549951.581 6  -1379097.023 6  -1061613.87948  21549950.83548
  22094107.237 6  -1976128.527 6  -1444849.15649  22094108.74949
  22855850.011 5    -91229.859 5    -68967.49247  22855849.42947
  20489949.526 6   -779709.895 6   -598076.02748  20489947.26948
  21413317.183 6   -600831.965 6   -447046.53549  21413318.93749
  20208245.964 7  -1576330.172 7  -1171940.06649  20208245.87449
  21885134.245 6   -688901.270 6   -511720.76248  21885132.26148
 20  5 16  0 39 29.9990000  0  7G04G08G14G16G26G27G31               -0.000005384
  21548881.495 6  -1384722.605 6  -1065997.44948  21548880.02648
  22092749.870 6  -1983264.008 6  -1450409.27049  22092750.96449
  22855770.136 5    -91649.703 5    -69294.64847  22855768.97647
  20489337.855 6   -782923.355 6   -600580.02048  20489336.19448
  21412892.276 6   -603065.723 6   -448787.12949  21412893.63649
  20207168.315 7  -1581992.297 7  -1176352.11749  20207168.44449
  21884655.292 6   -691420.227 6   -513683.59048  21884652.88648
 20  5 16  0 39 30.9990000  0  7G04G08G14G16G26G27G31               -0.000007860
  21547810.909 6  -1390348.199 6  -1070381.03148  21547809.57348
  22091391.651 6  -1990399.699 6  -1455969.55149  22091392.96849
  22855690.597 5    -92069.883 5    -69622.06347  22855689.06947
  20488726.448 6   -786137.156 6   -603084.28148  20488724.50748
  21412467.019 6   -605299.973 6   -450528.10249  21412468.71449
  20206090.870 7  -1587654.367 7  -1180764.12149  20206090.95649
  21884175.300 6   -693939.453 6   -515646.62548  21884173.32748
 20  5 16  0 39 31.9990000  0  7G04G08G14G16G26G27G31               -0.000010338
  21546740.097 6  -1395973.754 6  -1074764.58248  21546739.53448
  22090033.933 6  -1997535.551 6  -1461529.95749  22090035.13249
  22855610.050 5    -92490.375 5    -69949.72347  22855609.02247
  20488114.776 6   -789351.203 6   -605588.72748  20488112.98048
  21412041.784 6   -607534.734 6   -452269.48049  21412043.21449
  20205013.097 7  -1593316.348 7  -1185176.05149  20205013.42949
  21883695.909 6   -696458.953 6   -517609.87148  21883693.98348
 20  5 16  0 39 32.9990000  0  7G04G08G14G16G26G27G31               -0.000012815
  21545669.847 6  -1401599.219 6  -1079148.06348  21545668.83948
  22088675.589 6  -2004671.555 6  -1467090.47749  22088677.16749
  22855530.386 5    -92911.168 5    -70277.62147  22855529.48747
  20487503.167 6   -792565.504 6   -608093.38348  20487501.52648
  21411616.573 6   -609769.875 6   -454011.14549  21411617.99549
  20203935.901 7  -1598978.172 7  -1189587.86749  20203936.14449
  21883216.690 6   -698978.648 6   -519573.27348  21883214.66748
 20  5 16  0 39 33.9990000  0  7G04G08G14G16G26G27G31               -0.000015293
  21544599.401 6  -1407224.605 6  -1083531.47348  21544598.53448
  22087317.675 6  -2011807.715 6  -1472651.12149  22087319.85549
  22855450.698 5    -93332.273 5    -70605.75447  22855449.34747
  20486891.284 6   -795780.039 6   -610598.21148  20486889.56948
  21411191.589 6   -612005.480 6   -455753.18049  21411192.64049
  20202858.480 7  -1604639.879 7  -1193999.58249  20202858.73049
  21882737.159 6   -701498.543 6   -521536.82848  21882735.29648
 20  5 16  0 39 34.9990000  0  7G04G08G14G16G26G27G31               -0.000017773
  21543528.558 6  -1412850.012 6  -1087914.90648  21543527.67148
  22085959.542 6  -2018944.070 6  -1478211.93049  22085961.66349
  22855369.683 5    -93753.668 5    -70934.10947  22855368.73347
  20486279.620 6   -798994.883 6   -613103.28548  20486277.68348
  21410766.073 6   -614241.551 6   -457495.56649  21410767.09349
  20201781.464 7  -1610301.523 7  -1198411.25849  20201781.08949
  21882257.495 6   -704018.707 6   -523500.58648  21882255.58148
 20  5 16  0 39 35.9990000  0  7G04G08G14G16G26G27G31               -0.000020250
  21542458.276 6  -1418475.336 6  -1092298.27748  21542457.17948
  22084601.464 6  -2026080.594 6  -1483772.86749  22084603.69849
  22855289.995 5    -94175.379 5    -71262.70347  22855288.64047
  20485667.948 6   -802209.980 6   -615608.55948  20485665.95648
  21410340.737 6   -616478.074 6   -459238.31349  21410341.68749
  20200704.003 7  -1615963.027 7  -1202822.82449  20200704.36249
  21881777.769 6   -706539.102 6   -525464.52748  21881775.81948
 20  5 16  0 39 36.9990000  0  7G04G08G14G16G26G27G31               -0.000022730
  21541387.651 6  -1424100.629 6  -1096681.62548  21541386.98748
  22083243.425 6  -2033217.305 6  -1489333.94549  22083245.43349
  22855209.745 5    -94597.480 5    -71591.61347  22855208.17147
  20485055.995 6   -805425.340 6   -618114.03548  20485054.15948
  21409914.722 6   -618715.094 6   -460981.44549  21409915.67949
  20199626.573 7  -1621624.457 7  -1207234.32849  20199626.84349
  21881298.175 6   -709059.750 6   -527428.67248  21881296.14748
 20  5 16  0 39 37.9990000  0  7G04G08G14G16G26G27G31               -0.000025209
  21540317.081 6  -1429725.922 6  -1101064.97348  21540316.15948
  22081885.581 6  -2040354.223 6  -1494895.17649  22081887.48349
  22855129.456 5    -95019.848 5    -71920.73847  22855127.93347
  20484444.261 6   -808640.992 6   -620619.73048  20484441.98348
  21409488.894 6   -620952.570 6   -462724.93449  21409490.60149
  20198549.433 7  -1627285.797 7  -1211645.76249  20198549.65149
  21880818.394 6   -711580.645 6   -529393.00448  21880816.46448
 20  5 16  0 39 38.9990000  0  7G04G08G14G16G26G27G31               -0.000027689
  21539246.784 6  -1435351.094 6  -1105448.22348  21539245.77648
  22080527.394 6  -2047491.285 6  -1500456.51649  22080529.08549
  22855048.448 5    -95442.484 5    -72250.07047  22855047.63247
  20483832.237 6   -811856.871 6   -623125.61748  20483830.30848
  21409062.980 6   -623190.473 6   -464468.75849  21409064.13249
  20197472.050 7  -1632946.973 7  -1216057.07049  20197472.28449
  21880338.847 6   -714101.734 6   -531357.49648  21880337.10548
 20  5 16  0 39 39.9990000  0  7G04G08G14G16G26G27G31               -0.000030169
  21538176.167 6  -1440976.219 6  -1109831.43848  21538175.23348
  22079168.972 6  -2054628.496 6  -1506017.97349  22079171.21849
  22854968.362 5    -95865.438 5    -72579.65647  22854966.68347
  20483220.003 6   -815073.008 6   -625631.68848  20483218.52648
  21408637.081 6   -625428.813 6   -466212.91849  21408638.41749
  20196394.995 7  -1638608.016 7  -1220468.27049  20196395.19849
  21879859.112 6   -716623.035 6   -533322.14548  21879857.01948
 20  5 16  0 39 40.9990000  0  7G04G08G14G16G26G27G31               -0.000032648
  21537106.112 6  -1446601.266 6  -1114214.58648  21537105.03448
  22077810.456 6  -2061765.887 6  -1511579.57449  22077812.88649
  22854887.730 5    -96288.660 5    -72909.44147  22854886.16747
  20482608.378 6   -818289.363 6   -628137.94548  20482606.43748
  21408210.761 6   -627667.578 6   -467957.41049  21408212.30449
  20195317.433 7  -1644268.934 7  -1224879.37549  20195317.90949
  21879379.409 6   -719144.551 6   -535286.96548  21879377.04248
 20  5 16  0 39 41.9990000  0  7G04G08G14G16G26G27G31               -0.000035130
  21536035.581 6  -1452226.254 6  -1118597.69548  21536034.89048
  22076452.394 5  -2068903.445 5  -1517141.30149  22076454.56249
  22854807.128 5    -96712.219 5    -73239.48847  22854805.89447
  20481996.206 6   -821505.988 6   -630644.40648  20481994.09748
  21407785.128 6   -629906.809 6   -469702.26249  21407786.21449
  20194240.167 7  -1649929.750 7  -1229290.40249  20194240.55849
  21878899.589 6   -721666.297 6   -537251.96948  21878897.08948
 20  5 16  0 39 42.9990000  0  7G04G08G14G16G26G27G31               -0.000037609
  21534964.823 6  -1457851.199 6  -1122980.77048  21534964.06548
  22075094.456 6  -2076041.129 6  -1522703.12949  22075096.17149
  22854726.167 5    -97136.059 5    -73569.75447  22854724.90947
  20481384.269 6   -824722.891 6   -633151.07848  20481382.22648
  21407359.081 6   -632146.477 6   -471447.45749  21407359.67549
  20193163.183 7  -1655590.441 7  -1233701.33249  20193163.66749
  21878419.683 6   -724188.270 6   -539217.14548  21878417.37848
 20  5 16  0 39 43.9990000  0  7G04G08G14G16G26G27G31               -0.000040091
  21533894.690 6  -1463476.031 6  -1127363.75848  21533893.90948
  22073735.948 6  -2083178.945 6  -1528265.05549  22073737.95249
  22854646.112 5    -97560.148 5    -73900.21147  22854644.41347
  20480771.620 6   -827939.980 6   -635657.90248  20480770.07748
  21406932.331 6   -634386.559 6   -473192.97349  21406933.53049
  20192086.151 7  -1661250.965 7  -1238112.12949  20192086.32349
  21877939.542 6   -726710.410 6   -541182.44948  21877937.78848
 20  5 16  0 39 44.9990000  0  7G04G08G14G16G26G27G31               -0.000042572
  21532824.581 6  -1469100.871 6  -1131746.75448  21532823.51948
  22072377.776 6  -2090316.973 6  -1533827.16449  22072379.87849
  22854565.011 5    -97984.586 5    -74230.94147  22854563.20247
  20480159.378 6   -831157.379 6   -638164.97348  20480157.51948
  21406505.909 6   -636627.121 6   -474938.85949  21406507.21449
  20191008.714 7  -1666911.418 7  -1242522.86749  20191009.14749
  21877459.237 6   -729232.785 6   -543147.93848  21877457.49148
 20  5 16  0 39 45.9990000  0  7G04G08G14G16G26G27G31               -0.000045053
  21531754.097 6  -1474725.555 6  -1136129.62548  21531752.96048
  22071019.394 6  -2097455.078 6  -1539389.31649  22071021.27649
  22854484.011 5    -98409.281 5    -74561.87547  22854482.98747
  20479547.167 6   -834374.945 6   -640672.16048  20479545.58548
  21406079.542 6   -638868.063 6   -476685.05149  21406080.86249
  20189931.917 7  -1672571.648 7  -1246933.44149  20189932.11649
  21876979.190 6   -731755.320 6   -545113.54348  21876977.56248
 20  5 16  0 39 46.9990000  0  7G04G08G14G16G26G27G31               -0.000047537
  21530683.972 6  -1480350.328 6  -1140512.56648  21530683.00348
  22069661.073 6  -2104593.449 6  -1544951.69149  22069663.02249
  22854402.550 5    -98834.383 5    -74893.12947  22854401.84347
  20478934.542 6   -837592.898 6   -643179.65648  20478932.84348
  21405653.081 6   -641109.563 6   -478431.68049  21405654.29249
  20188854.605 7  -1678231.922 7  -1251344.05549  20188854.54249
  21876499.183 6   -734278.219 6   -547079.44148  21876497.31948
 20  5 16  0 39 47.9990000  0  7G04G08G14G16G26G27G31               -0.000050018
  21529613.159 6  -1485975.125 6  -1144895.52048  21529612.56948
  22068302.690 6  -2111732.117 6  -1550514.28949  22068304.40149
  22854322.034 5    -99259.918 5    -75224.71147  22854320.69447
  20478322.214 6   -840811.207 6   -645687.42648  20478320.90948
  21405226.636 6   -643351.609 6   -480178.73449  21405227.89049
  20187777.636 7  -1683892.152 7  -1255754.62149  20187777.49949
  21876019.190 6   -736801.426 6   -549045.58248  21876017.28448
 20  5 16  0 39 48.9990000  0  7G04G08G14G16G26G27G31               -0.000052502
  21528542.745 6  -1491599.832 6  -1149278.41048  21528542.26948
  22066944.151 6  -2118870.926 6  -1556077.00049  22066945.91349
  22854241.089 5    -99685.691 5    -75556.48847  22854239.65147
  20477709.847 6   -844029.734 6   -648195.36748  20477708.16348
  21404799.753 6   -645594.074 6   -481926.10949  21404801.31249
  20186700.394 7  -1689552.234 7  -1260165.07449  20186700.88649
  21875538.769 6   -739324.836 6   -551011.87548  21875536.51148
 20  5 16  0 39 49.9990000  0  7G04G08G14G16G26G27G31               -0.000054985
  21527472.573 6  -1497224.379 6  -1153661.17648  21527471.83148
  22065586.034 6  -2126009.770 6  -1561639.73449  22065587.53449
  22854159.753 5   -100111.672 5    -75888.42647  22854158.42547
  20477097.331 6   -847248.430 6   -650703.44948  20477095.64048
  21404372.784 6   -647836.906 6   -483673.77349  21404374.30049
  20185623.644 7  -1695212.098 7  -1264575.35549  20185623.12849
  21875058.589 6   -741848.371 6   -552978.27348  21875056.65148
 20  5 16  0 39 50.9990000  0  7G04G08G14G16G26G27G31               -0.000057468
  21526402.565 6  -1502848.891 6  -1158043.91048  21526401.65148
  22064227.284 6  -2133148.789 6  -1567202.60549  22064228.52649
  22854078.714 5   -100537.961 5    -76220.59447  22854077.26147
  20476484.644 6   -850467.367 6   -653211.71148  20476483.04248
  21403945.948 6   -650080.172 6   -485421.77049  21403947.06249
  20184546.433 7  -1700871.852 7  -1268985.55149  20184546.64749
  21874578.519 6   -744372.137 6   -554944.84048  21874576.72248
 20  5 16  0 39 51.9990000  0  7G04G08G14G16G26G27G31               -0.000059952
  21525332.065 6  -1508473.293 6  -1162426.55948  21525330.94848
  22062868.464 6  -2140287.945 6  -1572765.58249  22062870.61249
  22853997.995 5   -100964.539 5    -76553.00447  22853996.05047
  20475872.394 6   -853686.555 6   -655720.16848  20475870.31548
  21403518.878 6   -652323.871 6   -487170.10949  21403520.13249
  20183469.456 7  -1706531.465 7  -1273395.63349  20183469.45649
  21874098.073 6   -746896.090 6   -556911.56348  21874096.58148
 20  5 16  0 39 52.9990000  0  7G04G08G14G16G26G27G31               -0.000062435
  21524261.940 6  -1514097.648 6  -1166809.17648  21524260.98348
  22061509.722 6  -2147427.246 6  -1578328.67249  22061511.98049
  22853916.198 5   -101391.414 5    -76885.63747  22853915.15947
  20475259.714 6   -856905.973 6   -658228.80148  20475257.94048
  21403091.956 6   -654568.000 6   -488918.77349  21403093.85549
  20182392.620 7  -1712190.941 7  -1277805.61749  20182392.56949
  21873617.706 6   -749420.293 6   -558878.47348  21873615.83948
 20  5 16  0 39 53.9990000  0  7G04G08G14G16G26G27G31               -0.000064920
  21523192.081 6  -1519721.906 6  -1171191.72348  21523190.89048
  22060151.011 6  -2154566.688 6  -1583891.87549  22060152.91349
  22853835.237 5   -101818.531 5    -77218.46547  22853833.49547
  20474647.019 6   -860125.633 6   -660737.62948  20474645.42548
  21402664.690 6   -656812.547 6   -490667.77349  21402666.32349
  20181315.472 7  -1717850.254 7  -1282215.47749  20181315.50349
  21873137.245 6   -751944.664 6   -560845.51648  21873135.35848
 20  5 16  0 39 54.9990000  0  7G04G08G14G16G26G27G31               -0.000067406
  21522121.370 6  -1525346.168 6  -1175574.26248  21522121.06948
  22058793.105 6  -2161706.359 6  -1589455.25449  22058794.40949
  22853753.706 5   -102246.051 5    -77551.58647  22853752.35147
  20474034.097 6   -863345.574 6   -663246.67648  20474032.15148
  21402237.667 6   -659057.609 6   -492417.17249  21402239.07749
  20180238.612 7  -1723509.531 7  -1286625.29749  20180238.68349
  21872657.050 6   -754469.328 6   -562812.78948  21872655.24548
 20  5 16  0 39 55.9990000  0  7G04G08G14G16G26G27G31               -0.000069891
  21521051.300 6  -1530970.301 6  -1179956.70348  21521050.31248
  22057434.237 6  -2168846.125 6  -1595018.70349  22057436.30849
  22853672.714 5   -102673.797 5    -77884.89147  22853670.89047
  20473421.425 6   -866565.754 6   -665755.90248  20473419.60848
  21401810.269 6   -661303.043 6   -494166.85949  21401811.98349
  20179161.722 7  -1729168.598 7  -1291034.96149  20179161.80449
  21872176.284 6   -756994.152 6   -564780.18848  21872174.70248
 20  5 16  0 39 56.9990000  0  7G04G08G14G16G26G27G31               -0.000072376
  21519980.644 6  -1536594.320 6  -1184339.05948  21519980.15148
  22056075.659 6  -2175986.016 6  -1600582.25849  22056077.76149
  22853590.511 5   -103101.770 5    -78218.37147  22853589.48347
  20472808.800 6   -869786.121 6   -668265.28548  20472807.10848
  21401382.862 6   -663548.867 6   -495916.85249  21401384.33549
  20178085.034 7  -1734827.520 7  -1295444.50849  20178085.00349
  21871695.815 6   -759519.156 6   -566747.72748  21871694.21048
 20  5 16  0 39 57.9990000  0  7G04G08G14G16G26G27G31               -0.000074862
  21518911.011 6  -1542218.281 6  -1188721.35948  21518910.05848
  22054716.792 6  -2183126.023 6  -1606145.90249  22054718.84749
  22853510.284 5   -103530.055 5    -78552.10247  22853508.09347
  20472195.901 6   -873006.719 6   -670774.84048  20472194.24948
  21400955.565 6   -665795.172 6   -497667.22349  21400957.16349
  20177007.980 7  -1740486.297 7  -1299853.94949  20177007.88649
  21871215.394 6   -762044.375 6   -568715.42648  21871213.43348
 20  5 16  0 39 58.9990000  0  7G04G08G14G16G26G27G31               -0.000077347
  21517839.972 6  -1547842.195 6  -1193103.62548  21517839.74548
  22053357.769 6  -2190266.207 6  -1611709.68449  22053360.01549
  22853427.980 5   -103958.660 5    -78886.08246  22853426.56246
  20471582.964 6   -876227.582 6   -673284.60948  20471581.37448
  21400527.964 6   -668041.898 6   -499417.91849  21400529.46849
  20175931.112 7  -1746144.977 7  -1304263.31649  20175931.26149
  21870735.105 6   -764569.824 6   -570683.30948  21870733.28848
 20  5 16  0 39 59.9990000  0  7G04G08G14G16G26G27G31               -0.000079832
  21516770.355 6  -1553466.008 6  -1197485.82448  21516769.69048
  22051999.433 6  -2197406.500 6  -1617273.55149  22052000.91349
  22853346.105 5   -104387.543 5    -79220.28147  22853344.72647
  20470969.847 6   -879448.656 6   -675794.53948  20470968.40148
  21400099.917 6   -670289.027 6   -501168.93449  21400101.83549
  20174854.417 7  -1751803.461 7  -1308672.52749  20174854.55049
  21870254.472 6   -767095.434 6   -572651.31648  21870252.58548
 20  5 16  0 40  0.9990000  0  7G04G08G14G16G26G27G31               -0.000082319
  21515700.073 6  -1559089.754 6  -1201867.96148  21515699.37448
  22050640.331 6  -2204546.988 6  -1622837.56649  22050642.71849
  22853265.089 5   -104816.734 5    -79554.72347  22853263.41347
  20470357.128 6   -882670.020 6   -678304.69148  20470355.09748
  21399672.511 6   -672536.633 6   -502920.31649  21399674.16749
  20173777.745 7  -1757461.875 7  -1313081.67649  20173777.66749
  21869773.870 6   -769621.313 6   -574619.53548  21869771.70248
 20  5 16  0 40  1.9990000  0  7G04G08G14G16G26G27G31               -0.000084806
  21514630.003 6  -1564713.441 6  -1206250.05548  21514629.01948
  22049281.675 5  -2211687.605 5  -1628401.68449  22049283.70249
  22853182.519 5   -105246.176 5    -79889.35547  22853181.28847
  20469743.917 6   -885891.586 6   -680815.00448  20469742.30848
  21399244.636 6   -674784.637 6   -504672.00849  21399246.12849
  20172700.956 7  -1763120.117 7  -1317490.69549  20172700.82349
  21869292.831 6   -772147.371 6   -576587.89548  21869290.98048
 20  5 16  0 40  2.9990000  0  7G04G08G14G16G26G27G31               -0.000087294
  21513560.167 6  -1570337.148 6  -1210632.16848  21513559.32348
  22047922.698 6  -2218828.500 6  -1633966.01249  22047924.43349
  22853101.261 5   -105676.027 5    -80224.30147  22853099.56947
  20469130.612 6   -889113.539 6   -683325.62148  20469128.68748
  21398817.112 6   -677033.211 6   -506424.14549  21398818.71049
  20171624.300 7  -1768778.348 7  -1321899.70349  20171624.22249
  21868812.159 6   -774673.762 6   -578556.51248  21868810.20648
 20  5 16  0 40  3.9990000  0  7G04G08G14G16G26G27G31               -0.000089781
  21512489.675 6  -1575960.773 6  -1215014.21548  21512488.96448
  22046564.401 6  -2225969.547 6  -1639530.46549  22046565.64449
  22853019.394 5   -106106.195 5    -80559.50047  22853018.03847
  20468517.620 6   -892335.688 6   -685836.38748  20468515.73048
  21398388.987 6   -679282.176 6   -508176.58249  21398390.47649
  20170547.706 7  -1774436.402 7  -1326308.57849  20170547.84349
  21868331.605 6   -777200.328 6   -580525.27048  21868329.48748
 20  5 16  0 40  4.9990000  0  7G04G08G14G16G26G27G31               -0.000092268
  21511419.417 6  -1581584.316 6  -1219396.19548  21511418.71448
  22045205.019 6  -2233110.672 6  -1645094.96949  22045206.61249
  22852937.230 5   -106536.574 5    -80894.86347  22852935.76147
  20467904.448 6   -895558.074 6   -688347.32848  20467902.31248
  21397960.581 6   -681531.586 6   -509929.37549  21397962.41349
  20169470.862 7  -1780094.316 7  -1330717.34049  20169471.09349
  21867850.784 6   -779727.105 6   -582494.18448  21867848.61248
 20  5 16  0 40  5.9990000  0  7G04G08G14G16G26G27G31               -0.000094757
  21510349.448 6  -1587207.703 6  -1223778.05548  21510348.56248
  22043846.206 6  -2240251.895 6  -1650659.56349  22043847.83949
  22852854.956 5   -106967.219 5    -81230.42247  22852853.82747
  20467291.511 6   -898780.645 6   -690858.42248  20467289.68348
  21397532.886 6   -683781.344 6   -511682.43049  21397534.32749
  20168394.355 7  -1785752.051 7  -1335125.97349  20168394.24549
  21867370.112 6   -782254.035 6   -584463.22348  21867367.93748
 20  5 16  0 40  6.9990000  0  7G04G08G14G16G26G27G31               -0.000097244
  21509279.003 6  -1592831.004 6  -1228159.84448  21509278.38648
  22042487.433 6  -2247393.203 6  -1656224.22349  22042488.69449
  22852773.526 5   -107398.082 5    -81566.16047  22852772.17547
  20466677.940 6   -902003.402 6   -693369.66448  20466676.28048
  21397104.753 6   -686031.500 6   -513435.80149  21397105.91749
  20167317.464 7  -1791409.590 7  -1339534.44549  20167317.76149
  21866888.933 6   -784781.117 6   -586432.37548  21866886.88648
 20  5 16  0 40  7.9990000  0  7G04G08G14G16G26G27G31               -0.000099733
  21508209.034 6  -1598454.047 6  -1232541.44548  21508208.56548
  22041128.050 6  -2254534.539 6  -1661788.90249  22041130.06249
  22852691.909 5   -107829.102 5    -81902.02747  22852690.20247
  20466064.628 6   -905226.242 6   -695880.96548  20466062.69848
  21396676.276 6   -688281.934 6   -515189.38349  21396678.05049
  20166241.105 7  -1797066.832 7  -1343942.68449  20166241.26149
  21866408.245 6   -787308.266 6   -588401.58648  21866405.91348
 20  5 16  0 40  8.9990000  0  7G04G08G14G16G26G27G31               -0.000102222
  21507139.042 6  -1604076.988 6  -1236922.95348  21507138.72648
  22039769.308 6  -2261675.953 6  -1667353.64149  22039770.82349
  22852609.440 5   -108260.375 5    -82238.08247  22852607.96047
  20465451.331 6   -908449.320 6   -698392.46148  20465449.35848
  21396247.940 6   -690532.766 6   -516943.28149  21396249.15949
  20165164.597 7  -1802723.918 7  -1348350.80949  20165164.90549
  21865927.159 6   -789835.578 6   -590370.91848  21865924.84348
 20  5 16  0 40  9.9990000  0  7G04G08G14G16G26G27G31               -0.000104712
  21506069.261 6  -1609699.840 6  -1241304.40248  21506068.94048
  22038410.331 6  -2268817.500 6  -1672918.48049  22038411.51949
  22852527.308 5   -108691.934 5    -82574.36347  22852525.80447
  20464837.667 6   -911672.613 6   -700904.12148  20464836.23048
  21395819.620 6   -692784.055 6   -518697.52749  21395820.89749
  20164088.409 7  -1808380.855 7  -1352758.81349  20164088.56249
  21865446.058 6   -792363.090 6   -592340.41048  21865444.29248
 20  5 16  0 40 10.9990000  0  7G04G08G14G16G26G27G31               -0.000107201
  21504999.073 6  -1615322.609 6  -1245685.78148  21504998.59748
  22037051.394 6  -2275959.172 6  -1678483.41449  22037052.64749
  22852444.644 5   -109123.754 5    -82910.85247  22852443.82747
  20464224.597 6   -914896.109 6   -703415.93048  20464222.58948
  21395390.995 6   -695035.703 6   -520452.05949  21395392.49549
  20163011.706 7  -1814037.645 7  -1357166.69549  20163011.62049
  21864965.347 6   -794890.785 6   -594310.04348  21864962.92548
 20  5 16  0 40 11.9990000  0  7G04G08G14G16G26G27G31               -0.000109690
  21503929.347 6  -1620945.348 6  -1250067.13348  21503928.69448
  22035692.097 6  -2283101.012 6  -1684048.48049  22035693.98049
  22852362.542 5   -109555.895 5    -83247.59447  22852361.38247
  20463610.917 6   -918119.910 6   -705927.98048  20463609.01948
  21394962.894 6   -697287.844 6   -522206.97749  21394964.35549
  20161935.276 7  -1819694.328 7  -1361574.50449  20161935.49949
  21864483.933 6   -797418.738 6   -596279.87948  21864482.23748
 20  5 16  0 40 12.9990000  0  7G04G08G14G16G26G27G31               -0.000112181
  21502859.815 6  -1626568.039 6  -1254448.45348  21502858.69048
  22034333.401 6  -2290243.090 6  -1689613.74249  22034334.71849
  22852280.628 5   -109988.414 5    -83584.62147  22852279.15547
  20462997.589 6   -921343.996 6   -708440.26248  20462995.58948
  21394534.112 6   -699540.484 6   -523962.28149  21394535.70249
  20160858.901 7  -1825350.906 7  -1365982.22749  20160859.13249
  21864003.089 6   -799946.945 6   -598249.91048  21864001.23748
 20  5 16  0 40 13.9990000  0  7G04G08G14G16G26G27G31               -0.000114672
  21501789.698 6  -1632190.617 6  -1258829.68448  21501788.73348
  22032973.550 6  -2297385.258 6  -1695179.06649  22032975.86649
  22852198.581 5   -110421.148 5    -83921.82447  22852196.82747
  20462384.214 6   -924568.285 6   -710952.69548  20462382.27648
  21394105.089 6   -701793.504 6   -525717.87549  21394106.68749
  20159782.456 7  -1831007.344 7  -1370389.84049  20159782.66349
  21863522.261 6   -802475.320 6   -600220.07448  21863519.84748
 20  5 16  0 40 14.9990000  0  7G04G08G14G16G26G27G31               -0.000117161
  21500719.558 6  -1637813.125 6  -1263210.85548  21500718.99948
  22031615.097 6  -2304527.551 6  -1700744.48849  22031616.61249
  22852116.136 5   -110854.195 5    -84259.26247  22852114.49547
  20461770.042 6   -927792.813 6   -713465.30948  20461768.23048
  21393676.292 6   -704046.949 6   -527473.80949  21393677.71449
  20158706.097 7  -1836663.625 7  -1374797.32849  20158706.14749
  21863040.823 6   -805003.914 6   -602190.40248  21863038.73048
 20  5 16  0 40 15.9990000  0  7G04G08G14G16G26G27G31               -0.000119652
  21499649.378 6  -1643435.395 6  -1267591.84448  21499648.80848
  22030255.847 6  -2311669.832 6  -1706309.90249  22030257.44049
  22852033.636 5   -111287.344 5    -84596.78547  22852032.21447
  20461156.612 6   -931017.418 6   -715977.99648  20461154.65548
  21393247.456 6   -706300.660 6   -529229.94949  21393249.09749
  20157629.839 7  -1842319.578 7  -1379204.56649  20157629.85549
  21862559.401 6   -807532.527 6   -604160.75448  21862557.39448
 20  5 16  0 40 16.9990000  0  7G04G08G14G16G26G27G31               -0.000122143
  21498579.917 6  -1649057.555 6  -1271972.74248  21498579.30848
  22028896.472 5  -2318812.238 5  -1711875.41449  22028898.49149
  22851951.276 5   -111720.777 5    -84934.53147  22851949.81947
  20460543.065 6   -934242.238 6   -718490.84048  20460541.52648
  21392818.878 6   -708554.781 6   -530986.40649  21392819.79649
  20156553.315 7  -1847975.398 7  -1383611.70349  20156553.72249
  21862078.151 6   -810061.340 6   -606131.26248  21862076.44048
 20  5 16  0 40 17.9990000  0  7G04G08G14G16G26G27G31               -0.000124636
  21497509.753 6  -1654679.688 6  -1276353.62548  21497509.26148
  22027537.565 6  -2325954.805 6  -1717441.04749  22027539.44449
  22851868.276 5   -112154.520 5    -85272.50446  22851867.08546
  20459929.222 6   -937467.336 6   -721003.90648  20459927.50348
  21392390.019 6   -710809.375 6   -532743.23449  21392390.90949
  20155477.237 7  -1853631.121 7  -1388018.76249  20155477.58149
  21861596.745 6   -812590.398 6   -608101.96148  21861594.99148
 20  5 16  0 40 18.9990000  0  7G04G08G14G16G26G27G31               -0.000127127
  21496439.776 6  -1660301.742 6  -1280734.44948  21496439.42948
  22026178.323 5  -2333097.496 5  -1723006.78149  22026180.17949
  22851785.886 5   -112588.551 5    -85610.70746  22851784.38646
  20459315.956 6   -940692.664 6   -723517.14548  20459313.89048
  21391960.456 6   -713064.391 6   -534500.39549  21391961.73049
  20154401.151 7  -1859286.695 7  -1392425.69949  20154401.02649
  21861115.565 6   -815119.660 6   -610072.81648  21861113.82748
 20  5 16  0 40 19.9990000  0  7G04G08G14G16G26G27G31               -0.000129620
  21495370.058 6  -1665923.559 6  -1285115.09448  21495369.44848
  22024819.058 5  -2340240.223 5  -1728572.53949  22024820.98049
  22851703.198 5   -113022.758 5    -85949.05147  22851701.76147
  20458702.081 6   -943918.102 6   -726030.48048  20458699.85548
  21391531.003 6   -715319.703 6   -536257.77749  21391532.76949
  20153324.925 7  -1864941.969 7  -1396832.40649  20153324.87049
  21860634.245 6   -817648.984 6   -612043.71948  21860632.50348
 20  5 16  0 40 20.9990000  0  7G04G08G14G16G26G27G31               -0.000132111
  21494300.292 6  -1671545.332 6  -1289495.69548  21494299.89448
  22023459.714 5  -2347383.109 5  -1734138.42649  22023461.99549
  22851620.815 5   -113457.223 5    -86287.59447  22851619.16347
  20458088.222 6   -947143.789 6   -728543.99648  20458086.24948
  21391101.800 6   -717575.477 6   -538015.52349  21391103.53049
  20152248.651 7  -1870597.148 7  -1401239.03949  20152248.98049
  21860152.792 6   -820178.531 6   -614014.79348  21860150.89048
 20  5 16  0 40 21.9990000  0  7G04G08G14G16G26G27G31               -0.000134604
  21493230.464 6  -1677166.953 6  -1293876.17648  21493230.25748
  22022100.706 6  -2354526.055 6  -1739704.35549  22022102.40549
  22851537.620 5   -113891.938 5    -86626.34447  22851536.56247
  20457474.276 6   -950369.641 6   -731057.65248  20457472.20248
  21390672.347 6   -719831.602 6   -539773.54349  21390674.04249
  20151172.495 7  -1876252.117 7  -1405645.50849  20151172.65949
  21859671.339 6   -822708.223 6   -615985.98048  21859669.69048
 20  5 16  0 40 22.9990000  0  7G04G08G14G16G26G27G31               -0.000137096
  21492161.151 6  -1682788.492 6  -1298256.59848  21492160.11248
  22020741.355 6  -2361669.109 6  -1745270.36749  22020742.76949
  22851454.940 5   -114326.910 5    -86965.29347  22851453.49547
  20456860.230 6   -953595.719 6   -733571.47748  20456858.76948
  21390242.823 6   -722088.117 6   -541531.86749  21390244.56949
  20150096.722 7  -1881906.918 7  -1410051.84849  20150096.48349
  21859190.261 6   -825238.098 6   -617957.31348  21859188.25348
 20  5 16  0 40 23.9990000  0  7G04G08G14G16G26G27G31               -0.000139589
  21491091.589 6  -1688409.844 6  -1302636.87548  21491090.98748
  22019382.097 6  -2368812.254 6  -1750836.45749  22019383.74549
  22851372.206 5   -114762.113 5    -87304.41047  22851370.55047
  20456246.128 6   -956821.988 6   -736085.44548  20456244.39748
  21389813.644 6   -724345.023 6   -543290.50049  21389815.16349
  20149020.683 7  -1887561.516 7  -1414458.02749  20149020.37849
  21858709.065 6   -827768.102 6   -619928.74648  21858706.71048
 20  5 16  0 40 24.9990000  0  7G04G08G14G16G26G27G31               -0.000142082
  21490021.409 6  -1694031.148 6  -1307017.10548  21490020.94448
  22018022.761 6  -2375955.504 6  -1756402.62549  22018024.56549
  22851289.136 5   -115197.582 5    -87643.74247  22851287.85147
  20455632.136 6   -960048.449 6   -738599.57048  20455630.49948
  21389384.026 6   -726602.309 6   -545049.42249  21389385.81249
  20147944.464 7  -1893215.949 7  -1418864.07849  20147944.49949
  21858227.378 6   -830298.301 6   -621900.33248  21858225.37848
 20  5 16  0 40 25.9990000  0  7G04G08G14G16G26G27G31               -0.000144577
  21488951.394 6  -1699652.367 6  -1311397.28148  21488951.64748
  22016663.198 6  -2383098.965 6  -1761968.95349  22016664.90149
  22851206.175 5   -115633.391 5    -87983.34047  22851204.86647
  20455018.081 6   -963275.199 6   -741113.92248  20455016.40548
  21388954.714 6   -728860.098 6   -546808.73849  21388956.28449
  20146868.300 7  -1898870.285 7  -1423270.06349  20146868.73349
  21857745.722 6   -832828.730 6   -623872.10248  21857744.10148
 20  5 16  0 40 26.9990000  0  7G04G08G14G16G26G27G31               -0.000147072
  21487881.730 6  -1705273.445 6  -1315777.34048  21487881.49148
  22015304.136 6  -2390242.465 6  -1767535.32049  22015305.51949
  22851123.058 5   -116069.375 5    -88323.07047  22851122.04247
  20454404.284 6   -966502.094 6   -743628.39148  20454402.02248
  21388524.815 6   -731118.215 6   -548568.31349  21388526.62849
  20145792.425 7  -1904524.398 7  -1427675.86749  20145792.72649
  21857264.011 6   -835359.289 6   -625843.96548  21857262.40948
 20  5 16  0 40 27.9990000  0  7G04G08G14G16G26G27G31               -0.000149565
  21486812.847 6  -1710894.328 6  -1320157.24648  21486811.89748
  22013944.472 6  -2397385.992 6  -1773101.70749  22013945.87049
  22851040.097 5   -116505.578 5    -88662.96947  22851038.90147
  20453790.355 6   -969729.117 6   -746142.95348  20453788.48048
  21388095.347 6   -733376.645 6   -550328.12949  21388096.64449
  20144716.730 7  -1910178.234 7  -1432081.44949  20144716.89749
  21856782.480 6   -837889.926 6   -627815.89148  21856780.57348
 20  5 16  0 40 28.9990000  0  7G04G08G14G16G26G27G31               -0.000152060
  21485743.151 6  -1716515.105 6  -1324537.07848  21485741.95248
  22012584.862 6  -2404529.656 6  -1778668.19949  22012587.15949
  22850957.542 5   -116942.020 5    -89003.04747  22850956.13247
  20453175.894 6   -972956.371 6   -748657.69948  20453173.98748
  21387665.628 6   -735635.496 6   -552088.27349  21387666.84749
  20143640.784 7  -1915831.930 7  -1436486.92649  20143641.06549
  21856300.823 6   -840420.785 6   -629787.98448  21856299.46848
 20  5 16  0 40 29.9990000  0  7G04G08G14G16G26G27G31               -0.000154554
  21484673.378 6  -1722135.805 6  -1328916.83648  21484672.51548
  22011225.511 6  -2411673.430 6  -1784234.77349  22011227.37449
  22850873.956 5   -117378.746 5    -89343.35947  22850872.80847
  20452561.675 6   -976183.852 6   -751172.61348  20452559.56548
  21387235.745 6   -737894.773 6   -553848.75449  21387236.84749
  20142564.972 7  -1921485.465 7  -1440892.27749  20142565.13649
  21855819.315 6   -842951.828 6   -631760.22748  21855817.09748
 20  5 16  0 40 30.9990000  0  7G04G08G14G16G26G27G31               -0.000157051
  21483604.105 6  -1727756.430 6  -1333296.55148  21483603.12048
  22009866.261 6  -2418817.352 6  -1789801.46149  22009867.88649
  22850790.589 5   -117815.770 5    -89683.90647  22850789.88647
  20451947.737 6   -979411.578 6   -753687.73048  20451945.42548
  21386805.409 6   -740154.480 6   -555609.56349  21386806.72649
  20141489.323 7  -1927138.891 7  -1445297.54749  20141489.30449
  21855337.714 6   -845483.098 6   -633732.65248  21855335.58548
 20  5 16  0 40 31.9990000  0  7G04G08G14G16G26G27G31               -0.000159546
  21482534.300 6  -1733377.023 6  -1337676.23448  21482533.51148
  22008507.034 6  -2425961.438 6  -1795368.28149  22008508.45649
  22850707.706 5   -118253.117 5    -90024.69947  22850706.59347
  20451333.206 6   -982639.582 6   -756203.05548  20451330.99948
  21386375.355 6   -742414.676 6   -557370.74649  21386376.78449
  20140413.636 7  -1932792.215 7  -1449702.74249  20140413.75349
  21854856.175 6   -848014.582 6   -635705.23048  21854854.19848
 20  5 16  0 40 32.9990000  0  7G04G08G14G16G26G27G31               -0.000162041
  21481464.339 6  -1738997.480 6  -1342055.81648  21481463.71848
  22007147.198 6  -2433105.641 6  -1800935.19149  22007149.19449
  22850624.339 5   -118690.730 5    -90365.69547  22850623.62047
  20450718.831 6   -985867.777 6   -758718.53548  20450716.93348
  21385944.980 6   -744675.234 6   -559132.21949  21385946.73049
  20139337.628 7  -1938445.316 7  -1454107.75049  20139337.67549
  21854374.050 6   -850546.230 6   -637677.94548  21854372.24148
 20  5 16  0 40 33.9990000  0  7G04G08G14G16G26G27G31               -0.000164537
  21480395.394 6  -1744617.805 6  -1346435.28948  21480394.51548
  22005788.065 6  -2440249.906 6  -1806502.14849  22005789.85549
  22850541.565 5   -119128.566 5    -90706.86747  22850540.10547
  20450104.995 6   -989096.145 6   -761234.14548  20450102.48348
  21385514.995 6   -746936.164 6   -560893.98449  21385516.11649
  20138262.042 7  -1944098.273 7  -1458512.65249  20138262.17149
  21853892.144 6   -853078.059 6   -639650.79748  21853890.33548
 20  5 16  0 40 34.9990000  0  7G04G08G14G16G26G27G31               -0.000167034
  21479325.659 6  -1750238.000 6  -1350814.65648  21479325.10148
  22004427.987 6  -2447394.270 6  -1812069.18449  22004430.06549
  22850458.073 5   -119566.656 5    -91048.24647  22850457.12447
  20449490.464 6   -992324.730 6   -763749.92248  20449488.47648
  21385084.347 6   -749197.484 6   -562656.05549  21385086.08949
  20137186.433 7  -1949751.000 7  -1462917.37949  20137186.42149
  21853410.628 6   -855610.000 6   -641623.74248  21853408.71448
 20  5 16  0 40 35.9990000  0  7G04G08G14G16G26G27G31               -0.000169531
  21478256.480 6  -1755858.020 6  -1355193.89848  21478255.68748
  22003068.737 6  -2454538.680 6  -1817636.25449  22003070.74149
  22850374.612 5   -120004.910 5    -91389.74247  22850373.69447
  20448875.980 6   -995553.418 6   -766265.78548  20448874.13648
  21384654.230 6   -751459.129 6   -564418.37949  21384655.24149
  20136110.706 7  -1955403.496 7  -1467321.91849  20136110.58949
  21852928.800 6   -858142.070 6   -643596.78948  21852926.89048
 20  5 16  0 40 36.9990000  0  7G04G08G14G16G26G27G31               -0.000172028
  21477186.870 6  -1761477.898 6  -1359573.02748  21477186.26948
  22001709.261 6  -2461683.145 6  -1823203.37149  22001710.95249
  22850290.940 5   -120443.406 5    -91731.43447  22850290.17947
  20448261.808 6   -998782.348 6   -768781.83248  20448259.47648
  21384223.347 6   -753721.172 6   -566181.00849  21384225.28849
  20135035.034 7  -1961055.801 7  -1471726.31649  20135035.08549
  21852447.214 6   -860674.277 6   -645569.93848  21852445.03448
 20  5 16  0 40 37.9990000  0  7G04G08G14G16G26G27G31               -0.000174524
  21476117.651 6  -1767097.617 6  -1363952.03148  21476116.76148
  22000349.690 6  -2468827.676 6  -1828770.53949  22000351.28049
  22850207.628 5   -120882.078 5    -92073.25847  22850206.80847
  20447647.331 6  -1002011.379 6   -771297.96148  20447645.08548
  21383792.886 6   -755983.543 6   -567943.89849  21383794.87449
  20133959.620 7  -1966707.863 7  -1476130.52049  20133959.58949
  21851965.237 6   -863206.613 6   -647543.18848  21851963.53848
 20  5 16  0 40 38.9990000  0  7G04G08G14G16G26G27G31               -0.000177021
  21475048.237 6  -1772717.176 6  -1368330.90248  21475047.43748
  21998990.464 6  -2475972.270 6  -1834337.75449  21998991.57349
  22850123.909 5   -121321.000 5    -92415.27747  22850123.60847
  20447032.651 6  -1005240.570 6   -773814.21948  20447030.67148
  21383362.425 6   -758246.262 6   -569707.05549  21383363.87849
  20132883.917 7  -1972359.711 7  -1480534.55949  20132884.20249
  21851483.284 6   -865739.066 6   -649516.52748  21851481.39748
 20  5 16  0 40 39.9990000  0  7G04G08G14G16G26G27G31               -0.000179520
  21473979.128 6  -1778336.617 6  -1372709.68848  21473978.43748
  21997630.417 6  -2483117.000 6  -1839905.07449  21997632.11649
  22850040.339 5   -121760.141 5    -92757.48047  22850039.57747
  20446418.308 6  -1008470.012 6   -776330.66048  20446415.95248
  21382931.823 6   -760509.391 6   -571470.53149  21382933.34749
  20131808.675 7  -1978011.395 7  -1484938.46949  20131808.65549
  21851001.347 6   -868271.691 6   -651490.00048  21850999.20648
 20  5 16  0 40 40.9990000  0  7G04G08G14G16G26G27G31               -0.000182016
  21472909.636 6  -1783955.906 6  -1377088.35548  21472908.69048
  21996270.995 6  -2490261.785 6  -1845472.43849  21996272.96049
  22849957.136 5   -122199.551 5    -93099.87547  22849956.15947
  20445803.651 6  -1011699.598 6   -778847.22348  20445801.41348
  21382501.261 6   -762772.863 6   -573234.28149  21382502.35849
  20130733.300 7  -1983662.863 7  -1489342.21149  20130733.35149
  21850519.206 6   -870804.457 6   -653463.58648  21850517.80448
 20  5 16  0 40 41.9990000  0  7G04G08G14G16G26G27G31               -0.000184515
  21471840.214 6  -1789575.039 6  -1381466.90248  21471839.75348
  21994911.487 6  -2497406.637 6  -1851039.87149  21994913.31249
  22849873.815 5   -122639.129 5    -93442.41047  22849872.48047
  20445188.784 6  -1014929.344 6   -781363.90248  20445186.95648
  21382070.792 6   -765036.691 6   -574998.29749  21382072.06949
  20129657.644 7  -1989314.117 7  -1493745.78149  20129657.75349
  21850037.417 6   -873337.344 6   -655437.27048  21850035.55848
 20  5 16  0 40 42.9990000  0  7G04G08G14G16G26G27G31               -0.000187014
  21470770.722 6  -1795194.016 6  -1385845.32448  21470770.19848
  21993551.409 6  -2504551.535 6  -1856607.32849  21993553.89449
  22849789.722 5   -123078.969 5    -93785.13747  22849788.75747
  20444574.394 6  -1018159.238 6   -783880.71148  20444571.99948
  21381639.612 6   -767300.871 6   -576762.58649  21381640.97249
  20128582.503 7  -1994965.137 7  -1498149.17249  20128582.53049
  21849555.042 6   -875870.348 6   -657411.03948  21849553.85148
 20  5 16  0 40 43.9990000  0  7G04G08G14G16G26G27G31               -0.000189512
  21469701.800 6  -1800812.984 6  -1390223.74248  21469700.80448
  21992191.800 6  -2511696.660 6  -1862174.95349  21992193.94049
  22849705.894 5   -123519.121 5    -94128.12147  22849704.88247
  20443959.690 6  -1021389.445 6   -786397.75848  20443957.26148
  21381208.964 6   -769565.551 6   -578527.27349  21381209.91349
  20127507.105 7  -2000616.090 7  -1502552.51249  20127506.97249
  21849073.448 6   -878403.641 6   -659385.03548  21849071.41348
 20  5 16  0 40 44.9990000  0  7G04G08G14G16G26G27G31               -0.000192011
  21468632.315 6  -1806431.672 6  -1394601.94548  21468631.81248
  21990832.440 6  -2518841.684 6  -1867742.50449  21990833.96449
  22849622.362 5   -123959.387 5    -94471.18847  22849621.28447
  20443344.870 6  -1024619.715 6   -788914.84848  20443342.68748
  21380777.972 6   -771830.461 6   -580292.13749  21380778.90549
  20126431.776 7  -2006266.703 7  -1506955.58249  20126431.51949
  21848591.284 6   -880936.934 6   -661359.02348  21848589.33948
 20  5 16  0 40 45.9990000  0  7G04G08G14G16G26G27G31               -0.000194510
  21467563.190 6  -1812050.215 6  -1398980.03548  21467562.52248
  21989472.487 6  -2525986.773 6  -1873310.10249  21989474.27249
  22849538.120 5   -124399.844 5    -94814.40247  22849537.37847
  20442730.120 6  -1027850.141 6   -791432.05948  20442728.04248
  21380346.753 6   -774095.742 6   -582057.29749  21380348.02649
  20125356.597 7  -2011917.105 7  -1511358.49649  20125356.37849
  21848109.144 6   -883470.363 6   -663333.12948  21848107.45648
 20  5 16  0 40 46.9990000  0  7G04G08G14G16G26G27G31               -0.000197010
  21466494.347 6  -1817668.629 6  -1403358.01248  21466493.63648
  21988112.972 6  -2533131.953 6  -1878877.77349  21988114.21849
  22849454.401 5   -124840.570 5    -95157.83647  22849453.32347
  20442115.409 6  -1031080.766 6   -793949.43048  20442113.11248
  21379915.675 6   -776361.426 6   -583822.76649  21379916.63649
  20124281.378 7  -2017567.328 7  -1515761.27749  20124281.24149
  21847626.862 6   -886003.949 6   -665307.34848  21847624.95248
 20  5 16  0 40 47.9990000  0  7G04G08G14G16G26G27G31               -0.000199509
  21465425.026 6  -1823286.871 6  -1407735.85548  21465424.76548
  21986753.534 6  -2540277.215 6  -1884445.51249  21986754.79249
  22849370.464 5   -125281.527 5    -95501.44147  22849369.55847
  20441500.737 6  -1034311.563 6   -796466.93848  20441498.45648
  21379484.065 6   -778627.434 6   -585588.48449  21379485.48749
  20123206.198 7  -2023217.316 7  -1520163.86349  20123206.24149
  21847144.573 6   -888537.660 6   -667281.67248  21847142.87848
 20  5 16  0 40 48.9990000  0  7G04G08G14G16G26G27G31               -0.000202009
  21464355.698 6  -1828905.051 6  -1412113.65648  21464355.24148
  21985393.612 6  -2547422.605 6  -1890013.34449  21985395.09349
  22849286.667 5   -125722.770 5    -95845.27047  22849285.58947
  20440885.292 6  -1037542.605 6   -798984.63348  20440883.65548
  21379052.612 6   -780893.887 6   -587354.55949  21379054.26149
  20122130.612 7  -2028867.180 7  -1524566.36349  20122131.26149
  21846662.605 6   -891071.574 6   -669256.14848  21846660.82348
 20  5 16  0 40 49.9990000  0  7G04G08G14G16G26G27G31               -0.000204510
  21463286.940 6  -1834523.145 6  -1416491.38748  21463285.77648
  21984033.925 6  -2554568.152 6  -1895581.30549  21984035.42949
  22849202.745 5   -126164.273 5    -96189.30947  22849201.29647
  20440270.815 6  -1040773.863 6   -801502.50048  20440268.55848
  21378621.198 6   -783160.762 6   -589120.94949  21378623.16749
  20121055.964 7  -2034516.906 7  -1528968.73849  20121055.79649
  21846180.448 6   -893605.719 6   -671230.81348  21846178.55448
 20  5 16  0 40 50.9990000  0  7G04G08G14G16G26G27G31               -0.000207010
  21462217.464 6  -1840141.121 6  -1420869.03548  21462216.84348
  21982674.159 6  -2561713.813 6  -1901149.34449  21982675.32349
  22849118.370 5   -126606.039 5    -96533.53147  22849117.60147
  20439655.940 6  -1044005.340 6   -804020.53548  20439653.87048
  21378189.526 6   -785428.020 6   -590887.64149  21378191.00749
  20119981.011 7  -2040166.430 7  -1533370.96949  20119980.66749
  21845698.120 6   -896139.996 6   -673205.57848  21845696.44448
 20  5 16  0 40 51.9990000  0  7G04G08G14G16G26G27G31               -0.000209511
  21461148.433 6  -1845758.906 6  -1425246.53148  21461147.97648
  21981314.089 6  -2568859.516 6  -1906717.42649  21981315.80049
  22849034.315 5   -127048.000 5    -96877.91447  22849033.11647
  20439041.097 6  -1047236.953 6   -806538.67648  20439039.14048
  21377758.519 6   -787695.633 6   -592654.60549  21377759.90949
  20118905.925 7  -2045815.715 7  -1537773.01249  20118905.78049
  21845215.690 6   -898674.402 6   -675180.44148  21845214.03048
 20  5 16  0 40 52.9990000  0  7G04G08G14G16G26G27G31               -0.000212013
  21460079.769 6  -1851376.555 6  -1429623.92248  21460079.04248
  21979954.730 6  -2576005.281 6  -1912285.55549  21979956.13249
  22848949.894 5   -127490.184 5    -97222.48047  22848949.37847
  20438425.987 6  -1050468.750 6   -809056.96148  20438424.04648
  21377326.534 6   -789963.594 6   -594421.85549  21377328.39449
  20117831.026 7  -2051464.797 7  -1542174.89149  20117830.52649
  21844733.401 6   -901208.918 6   -677155.39148  21844731.74948
 20  5 16  0 40 53.9990000  0  7G04G08G14G16G26G27G31               -0.000214514
  21459011.073 6  -1856994.012 6  -1434001.16048  21459010.42948
  21978594.714 6  -2583151.090 6  -1917853.71949  21978596.56249
  22848865.901 5   -127932.543 5    -97567.18847  22848865.28847
  20437811.105 6  -1053700.680 6   -811575.34048  20437809.21848
  21376895.417 6   -792231.879 6   -596189.35549  21376896.51949
  20116756.175 7  -2057113.645 7  -1546576.59849  20116755.98049
  21844251.175 6   -903743.551 6   -679130.42648  21844249.28448
 20  5 16  0 40 54.9990000  0  7G04G08G14G16G26G27G31               -0.000217014
  21457942.042 6  -1862611.227 6  -1438378.21548  21457941.00348
  21977234.737 6  -2590296.863 6  -1923421.85949  21977236.53449
  22848781.792 5   -128375.055 5    -97912.00447  22848780.88247
  20437195.956 6  -1056932.699 6   -814093.79348  20437193.73048
  21376463.628 6   -794500.445 6   -597957.07449  21376465.10849
  20115681.300 7  -2062762.160 7  -1550978.03949  20115681.18749
  21843768.972 6   -906278.223 6   -681105.50048  21843767.05048
 20  5 16  0 40 55.9990000  0  7G04G08G14G16G26G27G31               -0.000219517
  21456873.065 6  -1868228.273 6  -1442755.13748  21456872.01148
  21975874.776 6  -2597442.695 6  -1928990.03949  21975876.92149
  22848697.987 5   -128817.770 5    -98256.98447  22848696.31547
  20436580.683 6  -1060164.828 6   -816612.33648  20436578.95248
  21376031.800 6   -796769.355 6   -599725.05949  21376033.34349
  20114606.214 7  -2068410.469 7  -1555379.32049  20114606.07749
  21843286.487 6   -908812.996 6   -683080.64148  21843284.97648
 20  5 16  0 40 56.9990000  0  7G04G08G14G16G26G27G31               -0.000222019
  21455804.253 6  -1873845.133 6  -1447131.90648  21455803.46048
  21974515.370 6  -2604588.539 6  -1934558.23049  21974516.98049
  22848613.651 5   -129260.641 5    -98602.07047  22848612.23347
  20435965.542 6  -1063397.109 6   -819130.99248  20435963.96048
  21375599.948 6   -799038.559 6   -601493.27049  21375601.36649
  20113531.565 7  -2074058.520 7  -1559780.39549  20113531.73049
  21842803.737 6   -911347.883 6   -685055.88348  21842802.29648
 20  5 16  0 40 57.9990000  0  7G04G08G14G16G26G27G31               -0.000224522
  21454735.558 6  -1879461.883 6  -1451508.59448  21454734.79248
  21973155.401 6  -2611734.516 6  -1940126.51649  21973157.15549
  22848528.964 5   -129703.773 5    -98947.37547  22848528.28047
  20435350.823 6  -1066629.605 6   -821649.82848  20435348.43348
  21375168.315 6   -801308.223 6   -603261.83649  21375169.52649
  20112456.620 7  -2079706.402 7  -1564181.34449  20112457.13649
  21842321.667 6   -913882.930 6   -687031.24648  21842320.11648
 20  5 16  0 40 58.9990000  0  7G04G08G14G16G26G27G31               -0.000227024
  21453666.198 6  -1885078.566 6  -1455885.23448  21453665.81548
  21971795.034 6  -2618880.625 6  -1945694.91449  21971797.22249
  22848444.417 5   -130147.254 5    -99292.94547  22848443.85847
  20434735.440 6  -1069862.375 6   -824168.87148  20434733.29648
  21374735.972 6   -803578.289 6   -605030.72349  21374737.75349
  20111381.831 7  -2085354.168 7  -1568582.19149  20111381.94449
  21841839.456 6   -916418.223 6   -689006.80148  21841837.45248
 20  5 16  0 40 59.9990000  0  7G04G08G14G16G26G27G31               -0.000229527
  21452597.425 6  -1890695.082 6  -1460261.74248  21452596.78848
  21970435.519 6  -2626026.766 6  -1951263.34049  21970437.30049
  22848360.206 5   -130590.918 5    -99638.66447  22848359.13647
  20434120.440 6  -1073095.266 6   -826688.00048  20434118.54648
  21374304.089 6   -805848.711 6   -606799.88749  21374305.31549
  20110307.128 7  -2091001.680 7  -1572982.85549  20110307.37049
  21841356.964 6   -918953.629 6   -690982.44148  21841355.14048
 20  5 16  0 41  0.9990000  0  7G04G08G14G16G26G27G31               -0.000232031
  21451528.839 6  -1896311.441 6  -1464638.12548  21451528.31248
  21969075.730 6  -2633173.000 6  -1956831.83249  21969077.77649
  22848275.753 5   -131034.789 5    -99984.53947  22848274.59347
  20433505.276 6  -1076328.328 6   -829207.27048  20433503.17948
  21373872.034 6   -808119.500 6   -608569.33249  21373873.49949
  20109232.628 7  -2096649.000 7  -1577383.36349  20109232.57349
  21840874.503 6   -921489.156 6   -692958.18048  21840872.76948
 20  5 16  0 41  1.9990000  0  7G04G08G14G16G26G27G31               -0.000234533
  21450460.206 6  -1901927.574 6  -1469014.32848  21450459.77648
  21967715.698 6  -2640319.207 6  -1962400.30549  21967717.58149
  22848191.058 5   -131478.828 5   -100330.54347  22848189.96847
  20432889.886 6  -1079561.504 6   -831726.63348  20432888.00348
  21373440.050 6   -810390.563 6   -610338.99649  21373441.31549
  20108157.901 7  -2102296.027 7  -1581783.64849  20108157.96849
  21840392.112 6   -924024.754 6   -694933.96948  21840389.99948
 20  5 16  0 41  2.9990000  0  7G04G08G14G16G26G27G31               -0.000237038
  21449391.659 6  -1907543.434 6  -1473390.32048  21449390.80848
  21966356.097 6  -2647465.402 6  -1967968.77049  21966358.01549
  22848106.605 5   -131922.941 5   -100676.61347  22848105.76947
  20432274.519 6  -1082794.723 6   -834246.02348  20432272.54648
  21373008.019 6   -812661.875 6   -612108.84849  21373008.71849
  20107083.355 7  -2107942.711 7  -1586183.66049  20107083.49549
  21839909.308 6   -926560.344 6   -696909.75448  21839907.28048
 20  5 16  0 41  3.9990000  0  7G04G08G14G16G26G27G31               -0.000239540
  21448322.964 6  -1913159.129 6  -1477766.19548  21448322.16348
  21964995.292 6  -2654611.605 6  -1973537.24249  21964998.06549
  22848022.581 5   -132367.309 5   -101022.87547  22848021.40147
  20431659.261 6  -1086028.125 6   -836765.55948  20431657.40548
  21372575.308 6   -814933.543 6   -613878.96949  21372576.76949
  20106008.995 7  -2113589.203 7  -1590583.52049  20106009.00349
  21839426.628 6   -929096.090 6   -698885.66448  21839425.15948
 20  5 16  0 41  4.9990000  0  7G04G08G14G16G26G27G31               -0.000242044
  21447253.933 6  -1918774.723 6  -1482141.98448  21447253.46048
  21963636.245 6  -2661757.910 6  -1979105.78549  21963638.38249
  22847938.081 5   -132811.891 5   -101369.30147  22847936.90147
  20431044.292 6  -1089261.688 6   -839285.21948  20431041.89748
  21372143.315 6   -817205.590 6   -615649.39849  21372144.28849
  20104934.917 7  -2119235.469 7  -1594983.20749  20104934.48049
  21838943.855 6   -931631.992 6   -700861.69148  21838942.14748
 20  5 16  0 41  5.9990000  0  7G04G08G14G16G26G27G31               -0.000244549
  21446185.362 6  -1924390.176 6  -1486517.66448  21446184.81248
  21962276.065 6  -2668904.320 6  -1984674.42649  21962277.97649
  22847853.198 5   -133256.734 5   -101715.93847  22847851.95647
  20430428.925 6  -1092495.465 6   -841805.04348  20430426.71448
  21371710.550 6   -819478.063 6   -617420.14849  21371711.67949
  20103860.253 7  -2124881.559 7  -1599382.76249  20103860.29249
  21838461.519 6   -934168.043 6   -702837.83248  21838459.57348
 20  5 16  0 41  6.9990000  0  7G04G08G14G16G26G27G31               -0.000247055
  21445116.659 6  -1930005.422 6  -1490893.18048  21445116.51148
  21960916.667 6  -2676050.715 6  -1990243.03549  21960918.19449
  22847767.823 5   -133701.746 5   -102062.69947  22847767.49547
  20429813.190 6  -1095729.375 6   -844324.96548  20429811.43748
  21371278.026 6   -821750.781 6   -619191.09449  21371279.38249
  20102785.597 7  -2130527.402 7  -1603782.12149  20102785.85549
  21837978.800 6   -936704.180 6   -704814.04348  21837977.27648
 20  5 16  0 41  7.9990000  0  7G04G08G14G16G26G27G31               -0.000249559
  21444048.784 6  -1935620.559 6  -1495268.60548  21444048.01948
  21959556.370 6  -2683197.242 6  -1995811.75849  21959558.03449
  22847683.628 5   -134147.004 5   -102409.64847  22847682.52647
  20429197.667 6  -1098963.465 6   -846845.03948  20429195.89448
  21370845.737 6   -824023.930 6   -620962.37949  21370846.91349
  20101711.573 7  -2136173.043 7  -1608181.32449  20101711.53449
  21837496.386 6   -939240.516 6   -706790.40648  21837495.04248
 20  5 16  0 41  8.9990000  0  7G04G08G14G16G26G27G31               -0.000252064
  21442980.097 6  -1941235.543 6  -1499643.91448  21442979.70648
  21958196.862 6  -2690343.813 6  -2001380.51249  21958198.06949
  22847599.190 5   -134592.500 5   -102756.78947  22847597.55047
  20428582.042 6  -1102197.758 6   -849365.26648  20428580.68348
  21370412.948 6   -826297.445 6   -622733.95749  21370413.95649
  20100636.972 7  -2141818.508 7  -1612580.38749  20100637.22249
  21837013.745 6   -941776.934 6   -708766.84048  21837011.78848
 20  5 16  0 41  9.9990000  0  7G04G08G14G16G26G27G31               -0.000254570
  21441911.714 6  -1946850.387 6  -1504019.11748  21441910.77248
  21956836.800 6  -2697490.438 6  -2006949.30549  21956838.40949
  22847514.019 5   -135038.191 5   -103104.08247  22847512.99147
  20427966.776 6  -1105432.207 6   -851885.61748  20427964.91348
  21369980.300 6   -828571.328 6   -624505.81649  21369981.71849
  20099563.120 7  -2147463.730 7  -1616979.26649  20099563.11249
  21836530.956 6   -944313.516 6   -710743.39848  21836529.32348
 20  5 16  0 41 10.9990000  0  7G04G08G14G16G26G27G31               -0.000257074
  21440843.058 6  -1952465.105 6  -1508394.22748  21440842.68748
  21955476.425 6  -2704637.168 6  -2012518.18849  21955478.35849
  22847429.003 5   -135484.203 5   -103451.62547  22847427.92947
  20427351.230 6  -1108666.875 6   -854406.13748  20427349.42948
  21369547.237 6   -830845.602 6   -626277.97749  21369548.85849
  20098488.644 7  -2153108.813 7  -1621378.02749  20098488.73049
  21836048.034 6   -946850.281 6   -712720.10248  21836046.42148
 20  5 16  0 41 11.9990000  0  7G04G08G14G16G26G27G31               -0.000259581
  21439774.823 6  -1958079.645 6  -1512769.18848  21439774.05848
  21954116.026 6  -2711783.977 6  -2018087.13349  21954118.18349
  22847344.136 5   -135930.375 5   -103799.29747  22847343.12447
  20426735.425 6  -1111901.684 6   -856926.76648  20426733.69448
  21369114.581 6   -833120.199 6   -628050.38749  21369115.70249
  20097414.347 7  -2158753.621 7  -1625776.57849  20097414.49949
  21835565.659 6   -949387.137 6   -714696.87548  21835563.92148
 20  5 16  0 41 12.9990000  0  7G04G08G14G16G26G27G31               -0.000262087
  21438706.284 6  -1963693.965 6  -1517143.98448  21438705.71848
  21952756.605 6  -2718930.750 6  -2023656.04349  21952758.15149
  22847259.362 5   -136376.719 5   -104147.10247  22847258.10847
  20426119.933 6  -1115136.621 6   -859447.50048  20426118.52648
  21368681.487 6   -835395.109 6   -629823.04749  21368682.96049
  20096340.534 7  -2164398.160 7  -1630174.92649  20096340.51549
  21835082.706 6   -951924.059 6   -716673.69148  21835081.10148
 20  5 16  0 41 13.9990000  0  7G04G08G14G16G26G27G31               -0.000264593
  21437637.901 6  -1969308.004 6  -1521518.56648  21437637.56548
  21951396.722 6  -2726077.473 6  -2029224.92249  21951398.03849
  22847174.112 5   -136823.137 5   -104494.95347  22847173.29247
  20425504.409 6  -1118371.555 6   -861968.22748  20425502.60548
  21368248.425 6   -837670.238 6   -631595.87549  21368250.15549
  20095266.315 7  -2170042.348 7  -1634572.99649  20095266.57749
  21834600.183 6   -954460.980 6   -718650.51648  21834598.57348
 20  5 16  0 41 14.9990000  0  7G04G08G14G16G26G27G31               -0.000267099
  21436569.956 6  -1974921.859 6  -1525892.99648  21436569.19048
  21950036.894 6  -2733224.250 6  -2034793.84049  21950038.17149
  22847089.034 5   -137269.758 5   -104842.98047  22847088.14747
  20424888.706 6  -1121606.672 6   -864489.09448  20424886.92948
  21367815.519 6   -839945.707 6   -633368.97349  21367817.28849
  20094192.175 7  -2175686.320 7  -1638970.89549  20094192.13649
  21834116.901 6   -956998.008 6   -720627.41848  21834115.24148
 20  5 16  0 41 15.9990000  0  7G04G08G14G16G26G27G31               -0.000269608
  21435501.870 6  -1980535.578 6  -1530267.32448  21435500.67548
  21948676.448 6  -2740371.117 6  -2040362.82849  21948678.09749
  22847004.456 5   -137716.594 5   -105191.17247  22847003.01947
  20424273.159 6  -1124841.945 6   -867010.09048  20424271.31948
  21367382.722 6   -842221.563 6   -635142.36749  21367384.24949
  20093118.245 7  -2181330.063 7  -1643368.61749  20093118.49549
  21833634.151 6   -959535.199 6   -722604.44948  21833632.59748
 20  5 16  0 41 16.9990000  0  7G04G08G14G16G26G27G31               -0.000272114
  21434433.245 6  -1986149.145 6  -1534641.53948  21434432.44048
  21947316.464 6  -2747518.008 6  -2045931.83249  21947317.80049
  22846919.308 5   -138163.684 5   -105539.55947  22846918.21847
  20423657.542 6  -1128077.395 6   -869531.21948  20423655.51948
  21366949.480 6   -844497.730 6   -636916.00849  21366950.82349
  20092044.386 7  -2186973.582 7  -1647766.16849  20092044.39749
  21833151.714 6   -962072.480 6   -724581.55548  21833149.95248
 20  5 16  0 41 17.9990000  0  7G04G08G14G16G26G27G31               -0.000274622
  21433365.214 6  -1991762.535 6  -1539015.60548  21433364.65948
  21945956.526 6  -2754664.984 6  -2051500.91049  21945957.79649
  22846833.815 5   -138610.973 5   -105888.10247  22846833.10147
  20423041.628 6  -1131313.023 6   -872052.48848  20423040.03848
  21366516.065 6   -846774.301 6   -638689.96149  21366517.76549
  20090970.503 7  -2192616.914 7  -1652163.57049  20090970.39049
  21832668.683 6   -964609.918 6   -726558.78148  21832666.97648
 20  5 16  0 41 18.9990000  0  7G04G08G14G16G26G27G31               -0.000277128
  21432296.761 6  -1997375.781 6  -1543389.56648  21432296.67148
  21944596.745 6  -2761811.992 6  -2057070.00449  21944597.73049
  22846748.675 5   -139058.465 5   -106236.80147  22846747.70647
  20422426.058 6  -1134548.820 6   -874573.89548  20422424.13648
  21366083.214 6   -849051.176 6   -640464.15649  21366084.53449
  20089896.698 7  -2198259.992 7  -1656560.77749  20089896.73049
  21832185.956 6   -967147.469 6   -728536.09048  21832184.37448
 20  5 16  0 41 19.9990000  0  7G04G08G14G16G26G27G31               -0.000279636
  21431228.862 6  -2002988.859 6  -1547763.39848  21431228.48048
  21943236.495 6  -2768959.051 6  -2062639.14549  21943237.79249
  22846663.433 5   -139506.180 5   -106585.66847  22846662.51547
  20421810.214 6  -1137784.758 6   -877095.40248  20421808.14048
  21365649.347 6   -851328.453 6   -642238.65249  21365651.21049
  20088822.745 7  -2203902.863 7  -1660957.82049  20088822.78449
  21831703.112 6   -969685.137 6   -730513.49248  21831701.28848
 20  5 16  0 41 20.9990000  0  7G04G08G14G16G26G27G31               -0.000282145
  21430160.753 6  -2008601.734 6  -1552137.06348  21430160.39748
  21941876.534 6  -2776106.141 6  -2068208.30549  21941877.64449
  22846578.644 5   -139954.086 5   -106934.68047  22846577.52247
  20421194.269 6  -1141020.832 6   -879617.01648  20421192.48348
  21365216.300 6   -853606.039 6   -644013.39149  21365217.51149
  20087749.214 7  -2209545.473 7  -1665354.65249  20087749.17149
  21831219.769 6   -972222.918 6   -732490.98848  21831218.45248
 20  5 16  0 41 21.9990000  0  7G04G08G14G16G26G27G31               -0.000284653
  21429092.862 6  -2014214.406 6  -1556510.56648  21429092.49548
  21940516.339 6  -2783253.277 6  -2073777.50449  21940517.60549
  22846492.901 5   -140402.148 5   -107283.82447  22846492.55047
  20420578.745 6  -1144257.031 6   -882138.72748  20420576.65948
  21364783.136 6   -855883.918 6   -645788.36349  21364784.03849
  20086675.339 7  -2215187.820 7  -1669751.29749  20086675.34349
  21830737.230 6   -974760.789 6   -734468.55148  21830735.15948
 20  5 16  0 41 22.9990000  0  7G04G08G14G16G26G27G31               -0.000287161
  21428024.714 6  -2019826.871 6  -1560883.91848  21428024.11248
  21939156.190 6  -2790400.398 6  -2079346.68849  21939157.89749
  22846408.065 5   -140850.383 5   -107633.10947  22846406.85147
  20419962.901 6  -1147493.324 6   -884660.52048  20419961.06248
  21364349.026 6   -858162.105 6   -647563.57849  21364350.65949
  20085601.909 7  -2220829.902 7  -1674147.71949  20085602.10849
  21830254.050 6   -977298.703 6   -736446.15248  21830252.03048
 20  5 16  0 41 23.9990000  0  7G04G08G14G16G26G27G31               -0.000289671
  21426956.823 6  -2025439.152 6  -1565257.12148  21426955.83548
  21937796.378 6  -2797547.570 6  -2084915.90649  21937797.54249
  22846322.667 5   -141298.828 5   -107982.54347  22846321.56947
  20419346.870 6  -1150729.777 6   -887182.43048  20419345.26548
  21363916.058 6   -860440.621 6   -649339.04349  21363917.27649
  20084528.081 7  -2226471.715 7  -1678543.93849  20084528.30849
  21829771.581 6   -979836.738 6   -738423.84048  21829769.51548
 20  5 16  0 41 24.9990000  0  7G04G08G14G16G26G27G31               -0.000292179
  21425888.769 6  -2031051.234 6  -1569630.18048  21425887.96048
  21936435.964 6  -2804694.773 6  -2090485.16049  21936437.49949
  22846237.573 5   -141747.430 5   -108332.11347  22846236.57747
  20418730.644 6  -1153966.355 6   -889704.43848  20418729.35848
  21363481.792 6   -862719.473 6   -651114.77049  21363483.44049
  20083454.730 7  -2232113.301 7  -1682939.98049  20083454.67149
  21829287.964 6   -982374.855 6   -740401.59848  21829286.40548
 20  5 16  0 41 25.9990000  0  7G04G08G14G16G26G27G31               -0.000294689
  21424820.792 6  -2036663.145 6  -1574003.09448  21424820.15948
  21935076.253 6  -2811841.980 6  -2096054.41449  21935077.33149
  22846151.761 5   -142196.254 5   -108681.84447  22846150.85847
  20418115.026 6  -1157203.063 6   -892226.54348  20418113.34348
  21363048.151 6   -864998.664 6   -652890.76649  21363049.98349
  20082381.190 7  -2237754.629 7  -1687335.82449  20082381.38249
  21828805.214 6   -984913.082 6   -742379.43448  21828803.37848
 20  5 16  0 41 26.9990000  0  7G04G08G14G16G26G27G31               -0.000297197
  21423753.042 6  -2042274.879 6  -1578375.87948  21423752.65548
  21933715.878 6  -2818989.262 6  -2101623.72749  21933717.52649
  22846066.120 5   -142645.289 5   -109031.74247  22846065.35147
  20417499.167 6  -1160439.977 6   -894748.82048  20417497.28848
  21362614.394 6   -867278.188 6   -654667.01649  21362616.12849
  20081307.808 7  -2243395.734 7  -1691731.49249  20081307.75349
  21828322.222 6   -987451.438 6   -744357.37948  21828320.30448
 20  5 16  0 41 27.9990000  0  7G04G08G14G16G26G27G31               -0.000299707
  21422685.386 6  -2047886.418 6  -1582748.51248  21422684.67148
  21932355.651 6  -2826136.566 6  -2107193.05549  21932357.66749
  22845980.480 5   -143094.484 5   -109381.76247  22845979.84747
  20416883.284 6  -1163676.957 6   -897271.14148  20416881.24948
  21362180.690 6   -869558.012 6   -656443.50449  21362182.55849
  20080234.089 7  -2249036.578 7  -1696126.95349  20080233.96449
  21827839.167 6   -989989.844 6   -746335.35948  21827837.33148
 20  5 16  0 41 28.9990000  0  7G04G08G14G16G26G27G31               -0.000302217
  21421617.269 6  -2053497.813 6  -1587121.02748  21421617.05048
  21930995.722 6  -2833283.918 6  -2112762.41849  21930997.45249
  22845895.370 5   -143543.898 5   -109731.96947  22845894.40947
  20416267.284 6  -1166914.133 6   -899793.61748  20416265.24948
  21361746.730 6   -871838.211 6   -658220.28949  21361748.06949
  20079160.878 7  -2254677.199 7  -1700522.24649  20079160.90149
  21827355.948 6   -992528.406 6   -748313.46148  21827354.32348
 20  5 16  0 41 29.9990000  0  7G04G08G14G16G26G27G31               -0.000304728
  21420550.097 6  -2059109.004 6  -1591493.37948  21420549.03048
  21929635.737 6  -2840431.281 6  -2118331.78549  21929637.42549
  22845809.534 5   -143993.465 5   -110082.27747  22845808.61647
  20415651.120 6  -1170151.449 6   -902316.19948  20415648.90148
  21361312.362 6   -874118.723 6   -659997.31349  21361314.49949
  20078087.659 7  -2260317.563 7  -1704917.33649  20078087.36649
  21826873.269 6   -995067.059 6   -750291.62948  21826871.15548
 20  5 16  0 41 30.9990000  0  7G04G08G14G16G26G27G31               -0.000307238
  21419482.292 6  -2064719.965 6  -1595865.55148  21419481.71848
  21928275.487 6  -2847578.672 6  -2123901.18049  21928277.29649
  22845724.386 5   -144443.250 5   -110432.76247  22845723.05447
  20415035.276 6  -1173388.855 6   -904838.85548  20415033.31948
  21360878.644 6   -876399.559 6   -661774.59049  21360880.23349
  20077014.120 7  -2265957.672 7  -1709312.22349  20077014.08549
  21826389.589 6   -997605.785 6   -752269.85948  21826387.97648
 20  5 16  0 41 31.9990000  0  7G04G08G14G16G26G27G31               -0.000309750
  21418413.987 6  -2070330.832 6  -1600237.65648  21418413.48748
  21926915.519 6  -2854726.164 6  -2129470.65649  21926916.89749
  22845638.245 5   -144893.293 5   -110783.44147  22845637.51147
  20414419.323 6  -1176626.504 6   -907361.69948  20414417.47248
  21360444.589 6   -878680.789 6   -663552.17249  21360446.40949
  20075941.003 7  -2271597.590 7  -1713706.96949  20075941.01549
  21825906.612 6  -1000144.707 6   -754248.24248  21825904.94848
 20  5 16  0 41 32.9990000  0  7G04G08G14G16G26G27G31               -0.000312260
  21417346.472 6  -2075941.535 6  -1604609.63348  21417346.24548
  21925555.323 6  -2861873.699 6  -2135040.16449  21925556.79649
  22845552.995 5   -145343.547 5   -111134.29747  22845552.09347
  20413802.964 6  -1179864.305 6   -909884.66048  20413800.98748
  21360010.909 6   -880962.371 6   -665330.02749  21360011.88649
  20074867.925 7  -2277237.293 7  -1718101.53949  20074867.83549
  21825423.714 6  -1002683.730 6   -756226.70348  21825421.65948
 20  5 16  0 41 33.9990000  0  7G04G08G14G16G26G27G31               -0.000314772
  21416278.558 6  -2081552.074 6  -1608981.48448  21416278.18748
  21924195.347 6  -2869021.289 6  -2140609.71549  21924196.89449
  22845467.370 5   -145794.012 5   -111485.31347  22845466.26147
  20413186.948 6  -1183102.270 6   -912407.75048  20413184.92548
  21359576.409 6   -883244.293 6   -667108.14849  21359577.48049
  20073795.003 7  -2282876.766 7  -1722495.93849  20073794.94849
  21824940.409 6  -1005222.852 6   -758205.24648  21824938.65948
 20  5 16  0 41 34.9990000  0  7G04G08G14G16G26G27G31               -0.000317284
  21415210.855 6  -2087162.289 6  -1613353.07848  21415210.85148
  21922835.206 6  -2876168.777 6  -2146179.18849  21922836.69849
  22845381.440 5   -146244.512 5   -111836.35947  22845380.75347
  20412570.792 6  -1186340.234 6   -914930.83648  20412568.28048
  21359142.034 6   -885526.414 6   -668886.42649  21359143.69849
  20072721.784 7  -2288515.859 7  -1726890.03949  20072721.67949
  21824457.386 6  -1007761.992 6   -760183.79348  21824455.16348
 20  5 16  0 41 35.9990000  0  7G04G08G14G16G26G27G31               -0.000319796
  21414143.480 6  -2092772.242 6  -1617724.46948  21414143.05048
  21921474.917 6  -2883316.227 6  -2151748.62549  21921476.19849
  22845295.245 5   -146695.176 5   -112187.52747  22845294.95647
  20411954.026 6  -1189578.266 6   -917453.97748  20411952.43348
  21358707.894 6   -887808.781 6   -670664.89549  21358709.07349
  20071648.597 7  -2294154.625 7  -1731283.87949  20071648.48749
  21823974.089 6  -1010301.121 6   -762162.34048  21823972.10848
 20  5 16  0 41 36.9990000  0  7G04G08G14G16G26G27G31               -0.000322306
  21413076.440 6  -2098382.020 6  -1622095.72748  21413075.83948
  21920114.620 6  -2890463.738 6  -2157318.11349  21920116.23049
  22845209.198 4   -147146.020 4   -112538.83247  22845208.97247
  20411338.214 6  -1192816.445 6   -919977.23848  20411336.10148
  21358273.440 6   -890091.516 6   -672443.64849  21358275.00749
  20070575.581 7  -2299793.180 7  -1735677.55949  20070575.61649
  21823490.995 6  -1012840.383 6   -764140.98448  21823489.00348
 20  5 16  0 41 37.9990000  0  7G04G08G14G16G26G27G31               -0.000324820
  21412008.909 6  -2103991.617 6  -1626466.83648  21412008.12448
  21918754.534 6  -2897611.242 6  -2162887.59849  21918756.33949
  22845123.292 5   -147597.051 5   -112890.29347  22845123.19047
  20410722.011 6  -1196054.785 6   -922500.62548  20410719.59348
  21357838.823 6   -892374.586 6   -674222.66449  21357840.42549
  20069502.909 7  -2305431.469 7  -1740071.02749  20069502.52649
  21823007.808 6  -1015379.750 6   -766119.71148  21823005.67948
 20  5 16  0 41 38.9990000  0  7G04G08G14G16G26G27G31               -0.000327332
  21410941.183 6  -2109601.027 6  -1630837.80148  21410940.64048
  21917394.605 6  -2904758.793 6  -2168457.10549  21917395.86649
  22845038.081 5   -148048.285 5   -113241.91047  22845037.38247
  20410105.659 6  -1199293.254 6   -925024.10948  20410103.61648
  21357404.253 6   -894657.945 6   -676001.91049  21357405.84349
  20068429.855 7  -2311069.523 7  -1744464.32449  20068429.64749
  21822524.245 6  -1017919.188 6   -768098.49648  21822522.60148
 20  5 16  0 41 39.9990000  0  7G04G08G14G16G26G27G31               -0.000329844
  21409874.144 6  -2115210.215 6  -1635208.60548  21409873.47248
  21916034.683 6  -2911906.340 6  -2174026.62549  21916035.79649
  22844952.659 5   -148499.672 5   -113593.63747  22844951.42147
  20409489.526 6  -1202531.832 6   -927547.67248  20409487.14448
  21356969.620 6   -896941.660 6   -677781.42249  21356971.26549
  20067356.972 7  -2316707.285 7  -1748857.37949  20067357.16749
  21822041.284 6  -1020458.719 6   -770077.35548  21822039.37848
 20  5 16  0 41 40.9990000  0  7G04G08G14G16G26G27G31               -0.000332355
  21408806.792 6  -2120819.254 6  -1639579.28148  21408806.04648
  21914674.339 6  -2919053.977 6  -2179596.21149  21914675.98349
  22844866.237 5   -148951.273 5   -113945.53146  22844865.45246
  20408873.128 6  -1205770.555 6   -930071.35548  20408871.05848
  21356535.144 6   -899225.691 6   -679561.18849  21356536.88249
  20066284.144 7  -2322344.828 7  -1753250.26649  20066284.31549
  21821557.964 6  -1022998.375 6   -772056.30948  21821555.81948
 20  5 16  0 41 41.9990000  0  7G04G08G14G16G26G27G31               -0.000334869
  21407739.480 6  -2126428.082 6  -1643949.79348  21407738.80848
  21913314.300 6  -2926201.594 6  -2185165.78949  21913315.14449
  22844779.987 4   -149403.074 4   -114297.58647  22844779.93747
  20408256.964 6  -1209009.445 6   -932595.16048  20408254.48748
  21356100.401 6   -901510.066 6   -681341.22349  21356101.94049
  20065211.737 7  -2327982.109 7  -1757642.96149  20065211.75349
  21821074.519 6  -1025538.125 6   -774035.33248  21821072.64748
 20  5 16  0 41 42.9990000  0  7G04G08G14G16G26G27G31               -0.000337383
  21406671.933 6  -2132036.750 6  -1648320.18848  21406671.40148
  21911953.487 6  -2933349.297 6  -2190735.42649  21911955.36649
  22844694.511 4   -149855.066 4   -114649.78546  22844693.45246
  20407640.565 6  -1212248.473 6   -935119.08648  20407638.39748
  21355665.519 6   -903794.758 6   -683121.50049  21355667.35849
  20064138.769 7  -2333619.160 7  -1762035.47349  20064138.78849
  21820591.331 6  -1028077.992 6   -776014.45348  21820589.16348
 20  5 16  0 41 43.9990000  0  7G04G08G14G16G26G27G31               -0.000339897
  21405604.519 6  -2137645.215 6  -1652690.42648  21405603.77248
  21910593.683 6  -2940496.965 6  -2196305.03549  21910595.15949
  22844607.972 4   -150307.301 4   -115002.17146  22844607.44846
  20407024.269 6  -1215487.637 6   -937643.10548  20407022.15148
  21355230.831 6   -906079.766 6   -684902.02749  21355232.30449
  20063066.065 7  -2339255.965 7  -1766427.79349  20063066.28849
  21820107.605 6  -1030617.926 6   -777993.62548  21820105.67948
 20  5 16  0 41 44.9990000  0  7G04G08G14G16G26G27G31               -0.000342411
  21404537.573 6  -2143253.469 6  -1657060.49648  21404536.93748
  21909233.698 6  -2947644.676 6  -2201874.68449  21909234.62049
  22844521.925 4   -150759.652 4   -115354.65246  22844521.55846
  20406407.495 6  -1218726.938 6   -940167.22748  20406405.78848
  21354795.980 6   -908365.148 6   -686682.85249  21354797.56549
  20061993.331 7  -2344892.512 7  -1770819.90249  20061993.32749
  21819624.480 6  -1033158.000 6   -779972.90248  21819622.67548
 20  5 16  0 41 45.9990000  0  7G04G08G14G16G26G27G31               -0.000344925
  21403470.659 6  -2148861.566 6  -1661430.44548  21403469.71448
  21907873.480 6  -2954792.395 6  -2207444.32849  21907874.69449
  22844435.651 4   -151212.223 4   -115707.31647  22844435.07347
  20405791.136 6  -1221966.383 6   -942691.47348  20405788.87048
  21354360.558 6   -910650.824 6   -688463.89149  21354362.49549
  20060920.636 7  -2350528.801 7  -1775211.82049  20060921.15549
  21819141.315 6  -1035698.152 6   -781952.24248  21819139.49548
 20  5 16  0 41 46.9990000  0  7G04G08G14G16G26G27G31               -0.000347439
  21402403.050 6  -2154469.457 6  -1665800.22748  21402402.51948
  21906513.190 6  -2961940.176 6  -2213014.03149  21906514.34349
  22844349.714 4   -151664.984 4   -116060.12146  22844349.05046
  20405174.800 6  -1225205.965 6   -945215.82448  20405172.48748
  21353925.315 6   -912936.820 6   -690245.19149  21353927.68749
  20059848.550 7  -2356164.855 7  -1779603.54349  20059848.54649
  21818657.886 6  -1038238.383 6   -783931.64548  21818655.77648
 20  5 16  0 41 47.9990000  0  7G04G08G14G16G26G27G31               -0.000349953
  21401335.792 6  -2160077.168 6  -1670169.86748  21401335.35548
  21905152.933 6  -2969087.988 6  -2218583.75449  21905154.14449
  22844262.808 4   -152117.906 4   -116413.05546  22844262.71446
  20404557.722 6  -1228445.664 6   -947740.26248  20404555.76948
  21353490.433 6   -915223.148 6   -692026.74649  21353492.33149
  20058775.925 7  -2361800.625 7  -1783995.05149  20058776.20649
  21818174.315 6  -1040778.711 6   -785911.12548  21818172.43748
 20  5 16  0 41 48.9990000  0  7G04G08G14G16G26G27G31               -0.000352468
  21400268.800 6  -2165684.613 6  -1674539.30948  21400268.38648
  21903792.831 6  -2976235.789 6  -2224153.47749  21903794.11249
  22844177.276 4   -152571.035 4   -116766.14546  22844176.61646
  20403941.745 6  -1231685.492 6   -950264.81348  20403939.51548
  21353055.558 6   -917509.793 6   -693808.54349  21353057.51949
  20057703.597 7  -2367436.148 7  -1788386.37549  20057703.90149
  21817690.917 6  -1043319.129 6   -787890.66848  21817689.25748
 20  5 16  0 41 49.9990000  0  7G04G08G14G16G26G27G31               -0.000354982
  21399202.222 6  -2171291.941 6  -1678908.65648  21399201.39448
  21902432.628 6  -2983383.664 6  -2229723.24649  21902433.88649
  22844090.933 4   -153024.363 4   -117119.38746  22844089.96846
  20403324.800 6  -1234925.469 6   -952789.46548  20403322.80048
  21352620.362 6   -919796.742 6   -695590.58249  21352621.67949
  20056631.331 7  -2373071.441 7  -1792777.50849  20056631.40149
  21817207.526 6  -1045859.629 6   -789870.28148  21817205.70248
 20  5 16  0 41 50.9990000  0  7G04G08G14G16G26G27G31               -0.000357498
  21398134.753 6  -2176899.203 6  -1683277.94148  21398134.33548
  21901072.542 6  -2990531.656 6  -2235293.10949  21901073.96849
  22844004.472 5   -153478.000 5   -117472.87946  22844003.88246
  20402708.417 6  -1238165.727 6   -955314.34048  20402706.28448
  21352185.222 6   -922084.184 6   -697373.00849  21352186.83149
  20055559.050 7  -2378706.605 7  -1797168.53949  20055559.18749
  21816724.183 6  -1048400.383 6   -791850.09048  21816722.24548
 20  5 16  0 41 51.9990000  0  7G04G08G14G16G26G27G31               -0.000360014
  21397067.972 6  -2182506.137 6  -1687646.98448  21397067.26148
  21899712.761 6  -2997679.594 6  -2240862.93449  21899713.71049
  22843918.269 4   -153931.746 4   -117826.44946  22843917.36246
  20402091.589 6  -1241406.000 6   -957839.23448  20402089.64748
  21351749.792 6   -924371.832 6   -699155.59049  21351751.79649
  20054486.698 7  -2384341.387 7  -1801559.28149  20054486.40549
  21816240.550 6  -1050941.117 6   -793829.88348  21816238.80848
 20  5 16  0 41 52.9990000  0  7G04G08G14G16G26G27G31               -0.000362530
  21396001.214 6  -2188112.891 6  -1692015.88348  21396000.41348
  21898351.823 6  -3004827.512 6  -2246432.73449  21898353.75749
  22843832.183 5   -154385.629 5   -118180.13747  22843831.08947
  20401475.073 6  -1244646.410 6   -960364.23048  20401473.06248
  21351314.339 6   -926659.789 6   -700938.41049  21351316.03049
  20053414.706 7  -2389975.926 7  -1805949.83249  20053414.35149
  21815757.003 6  -1053481.918 6   -795809.72748  21815755.01148
 20  5 16  0 41 53.9990000  0  7G04G08G14G16G26G27G31               -0.000365046
  21394934.323 6  -2193719.379 6  -1696384.57848  21394933.65948
  21896992.292 6  -3011975.367 6  -2252002.49249  21896993.43349
  22843745.706 5   -154839.625 5   -118533.90246  22843744.67146
  20400858.323 6  -1247886.848 6   -962889.23848  20400856.52248
  21350879.519 6   -928947.996 6   -702721.43449  21350880.78049
  20052342.144 7  -2395610.125 7  -1810340.11749  20052341.98049
  21815273.151 6  -1056022.750 6   -797789.59448  21815271.53848
 20  5 16  0 41 54.9990000  0  7G04G08G14G16G26G27G31               -0.000367561
  21393867.339 6  -2199325.660 6  -1700753.10948  21393866.69448
  21895631.620 6  -3019123.281 6  -2257572.30149  21895632.93349
  22843659.495 5   -155293.855 5   -118887.84847  22843658.32347
  20400241.886 6  -1251127.473 6   -965414.40648  20400239.85848
  21350443.815 6   -931236.559 6   -704504.72749  21350445.39749
  20051270.073 7  -2401244.098 7  -1814730.22749  20051270.20249
  21814790.128 6  -1058563.699 6   -799769.54748  21814788.26948
 20  5 16  0 41 55.9990000  0  7G04G08G14G16G26G27G31               -0.000370077
  21392800.198 6  -2204931.770 6  -1705121.50448  21392799.98748
  21894271.433 6  -3026271.207 6  -2263142.11749  21894272.80449
  22843572.573 5   -155748.211 5   -119241.88347  22843571.81947
  20399625.019 6  -1254368.191 6   -967939.64148  20399623.11648
  21350008.222 6   -933525.418 6   -706288.25849  21350009.71849
  20050198.144 7  -2406877.797 7  -1819120.11749  20050197.80449
  21814306.472 6  -1061104.723 6   -801749.57048  21814304.43748
 20  5 16  0 41 56.9990000  0  7G04G08G14G16G26G27G31               -0.000372593
  21391733.620 6  -2210537.617 6  -1709489.69948  21391733.38248
  21892911.026 6  -3033419.160 6  -2268711.94949  21892912.31949
  22843485.761 5   -156202.801 5   -119596.10947  22843485.08547
  20399008.628 6  -1257609.043 6   -970464.98048  20399006.49148
  21349572.519 6   -935814.578 6   -708072.02349  21349573.87449
  20049126.159 7  -2412511.219 7  -1823509.80149  20049126.20649
  21813822.933 6  -1063645.816 6   -803729.64548  21813820.67948
 20  5 16  0 41 57.9990000  0  7G04G08G14G16G26G27G31               -0.000375111
  21390666.847 6  -2216143.270 6  -1713857.73848  21390666.53848
  21891551.276 6  -3040567.098 6  -2274281.77049  21891552.34349
  22843399.901 5   -156657.484 5   -119950.41847  22843399.07347
  20398391.940 6  -1260849.977 6   -972990.38748  20398389.55848
  21349136.737 6   -938104.023 6   -709856.00849  21349138.24949
  20048054.128 7  -2418144.336 7  -1827899.24249  20048054.37449
  21813339.526 6  -1066186.965 6   -805709.76648  21813337.23748
 20  5 16  0 41 58.9990000  0  7G04G08G14G16G26G27G31               -0.000377628
  21389600.659 6  -2221748.660 6  -1718225.57448  21389599.99548
  21890191.019 6  -3047714.992 6  -2279851.55549  21890192.37449
  22843313.308 5   -157112.336 5   -120304.84847  22843312.32747
  20397775.261 6  -1264091.027 6   -975515.87948  20397772.67548
  21348701.230 6   -940393.750 6   -711640.21149  21348702.37449
  20046982.011 7  -2423777.168 7  -1832288.46949  20046982.38249
  21812855.347 6  -1068728.160 6   -807689.91448  21812853.48048
 20  5 16  0 41 59.9990000  0  7G04G08G14G16G26G27G31               -0.000380144
  21388533.425 6  -2227353.930 6  -1722593.31648  21388532.95648
  21888830.542 6  -3054862.977 6  -2285421.41849  21888831.66749
  22843226.605 5   -157567.445 5   -120659.49247  22843225.65547
  20397158.175 6  -1267332.234 6   -978041.49648  20397156.20248
  21348265.690 6   -942683.859 6   -713424.70749  21348266.95249
  20045910.526 7  -2429409.781 7  -1836677.51249  20045910.46049
  21812372.362 6  -1071269.492 6   -809670.17648  21812370.25348
 20  5 16  0 42  0.9990000  0  7G04G08G14G16G26G27G31               -0.000382662
  21387466.855 6  -2232959.004 6  -1726960.91048  21387466.47248
  21887470.409 6  -3062010.953 6  -2290991.26649  21887471.83949
  22843139.558 5   -158022.699 5   -121014.24247  22843139.08147
  20396541.308 6  -1270573.594 6   -980567.23448  20396539.17548
  21347829.784 6   -944974.281 6   -715209.45749  21347830.87849
  20044838.456 7  -2435042.137 7  -1841066.35949  20044838.69849
  21811888.745 6  -1073810.938 6   -811650.52348  21811886.87848
 20  5 16  0 42  1.9990000  0  7G04G08G14G16G26G27G31               -0.000385180
  21386400.573 6  -2238563.793 6  -1731328.28548  21386399.93348
  21886110.355 6  -3069158.906 6  -2296561.09849  21886111.69449
  22843053.401 5   -158478.105 5   -121369.10547  22843052.27647
  20395924.620 6  -1273815.031 6   -983093.02748  20395922.40548
  21347393.565 6   -947264.984 6   -716994.42649  21347395.26949
  20043766.714 7  -2440674.191 7  -1845454.97749  20043766.69449
  21811405.198 6  -1076352.387 6   -813630.87548  21811403.06248
 20  5 16  0 42  2.9990000  0  7G04G08G14G16G26G27G31               -0.000387697
  21385333.620 6  -2244168.395 6  -1735695.50448  21385333.55448
  21884749.917 6  -3076306.828 6  -2302130.90649  21884750.97249
  22842967.003 5   -158933.684 5   -121724.09847  22842965.57347
  20395308.105 6  -1277056.574 6   -985618.90248  20395305.71848
  21346957.175 6   -949555.941 6   -718779.59449  21346959.36249
  20042695.034 7  -2446305.957 7  -1849843.37149  20042695.05049
  21810921.167 6  -1078893.941 6   -815611.31648  21810919.06548
 20  5 16  0 42  3.9990000  0  7G04G08G14G16G26G27G31               -0.000390217
  21384267.433 6  -2249772.789 6  -1740062.56648  21384267.13648
  21883389.565 6  -3083454.789 6  -2307700.74649  21883390.89449
  22842880.144 5   -159389.438 5   -122079.22747  22842879.17147
  20394691.105 6  -1280298.254 6   -988144.89148  20394688.74948
  21346521.620 6   -951847.250 6   -720565.02749  21346523.17149
  20041623.565 7  -2451937.473 7  -1854231.56349  20041623.40149
  21810437.792 6  -1081435.551 6   -817591.78948  21810435.82348
 20  5 16  0 42  4.9990000  0  7G04G08G14G16G26G27G31               -0.000392735
  21383201.175 6  -2255376.945 6  -1744429.43848  21383200.53048
  21882029.495 6  -3090602.707 6  -2313270.55149  21882030.69849
  22842793.464 5   -159845.359 5   -122434.48047  22842792.28847
  20394073.792 6  -1283540.027 6   -990670.94548  20394071.87848
  21346085.425 6   -954138.863 6   -722350.69949  21346087.15149
  20040551.565 7  -2457568.699 7  -1858619.53149  20040551.74149
  21809954.190 6  -1083977.234 6   -819572.31648  21809952.16748
 20  5 16  0 42  5.9990000  0  7G04G08G14G16G26G27G31               -0.000395252
  21382134.886 6  -2260980.934 6  -1748796.18848  21382133.89048
  21880669.730 6  -3097750.695 6  -2318840.41849  21880670.58949
  22842706.472 5   -160301.477 5   -122789.90247  22842705.50347
  20393457.237 6  -1286781.961 6   -993197.13348  20393454.89048
  21345649.245 6   -956430.797 6   -724136.62149  21345651.52249
  20039480.269 7  -2463199.691 7  -1863007.31349  20039480.31949
  21809470.409 6  -1086519.043 6   -821552.94948  21809468.86648
 20  5 16  0 42  6.9990000  0  7G04G08G14G16G26G27G31               -0.000397772
  21381068.425 6  -2266584.688 6  -1753162.74248  21381067.95248
  21879309.097 6  -3104898.699 6  -2324410.29349  21879310.19049
  22842619.386 5   -160757.758 5   -123145.46147  22842619.03847
  20392840.409 6  -1290024.004 6   -995723.39548  20392837.91748
  21345212.815 6   -958723.043 6   -725922.78949  21345214.80049
  20038408.964 7  -2468830.387 7  -1867394.87149  20038408.88249
  21808986.409 6  -1089060.910 6   -823533.62948  21808984.42548
 20  5 16  0 42  7.9990000  0  7G04G08G14G16G26G27G31               -0.000400291
  21380002.276 6  -2272188.223 6  -1757529.12948  21380001.44448
  21877948.573 6  -3112046.668 6  -2329980.14149  21877950.23049
  22842532.464 5   -161214.188 5   -123501.12947  22842531.89747
  20392223.347 6  -1293266.133 6   -998249.73048  20392221.13248
  21344776.722 6   -961015.559 6   -727709.16449  21344778.34349
  20037337.698 7  -2474460.801 7  -1871782.20749  20037337.42549
  21808502.909 6  -1091602.816 6   -825514.33648  21808501.01148
 20  5 16  0 42  8.9990000  0  7G04G08G14G16G26G27G31               -0.000402809
  21378935.737 6  -2277791.492 6  -1761895.32048  21378935.07348
  21876588.347 6  -3119194.574 6  -2335549.93449  21876590.18349
  22842446.276 5   -161670.746 5   -123856.89847  22842445.11247
  20391606.292 6  -1296508.328 6  -1000776.11348  20391603.96448
  21344340.206 6   -963308.344 6   -729495.75049  21344341.78449
  20036266.019 7  -2480090.895 7  -1876169.28949  20036265.95649
  21808019.175 6  -1094144.770 6   -827495.07448  21808017.24948
 20  5 16  0 42  9.9990000  0  7G04G08G14G16G26G27G31               -0.000405329
  21377869.597 6  -2283394.555 6  -1766261.34048  21377868.96848
  21875228.120 6  -3126342.531 6  -2341119.76649  21875229.82349
  22842358.425 5   -162127.488 5   -124212.79747  22842358.54647
  20390989.323 6  -1299750.664 6  -1003302.61348  20390987.10148
  21343904.394 6   -965601.438 6   -731282.58249  21343906.10149
  20035194.519 7  -2485720.715 7  -1880556.16849  20035194.76549
  21807535.362 6  -1096686.801 6   -829475.87548  21807533.67148
 20  5 16  0 42 10.9990000  0  7G04G08G14G16G26G27G31               -0.000407848
  21376803.284 6  -2288997.355 6  -1770627.16448  21376802.78848
  21873868.019 6  -3133490.391 6  -2346689.52349  21873869.61249
  22842271.948 5   -162584.355 5   -124568.80147  22842271.41747
  20390372.315 6  -1302993.063 6  -1005829.16048  20390370.22648
  21343467.456 6   -967894.785 6   -733069.60249  21343469.41749
  20034123.386 7  -2491350.227 7  -1884942.80549  20034123.37849
  21807051.495 6  -1099228.836 6   -831456.68448  21807049.54648
 20  5 16  0 42 11.9990000  0  7G04G08G14G16G26G27G31               -0.000410370
  21375737.495 6  -2294599.941 6  -1774992.81348  21375736.71048
  21872507.933 6  -3140638.273 6  -2352259.30549  21872509.19849
  22842185.026 5   -163041.375 5   -124924.92647  22842184.58947
  20389755.183 6  -1306235.582 6  -1008355.79348  20389753.20248
  21343031.214 6   -970188.441 6   -734856.87149  21343032.57749
  20033052.058 7  -2496979.441 7  -1889329.19949  20033052.37849
  21806568.065 6  -1101770.965 6   -833437.56648  21806565.87448
 20  5 16  0 42 12.9990000  0  7G04G08G14G16G26G27G31               -0.000412889
  21374670.901 6  -2300202.402 6  -1779358.36748  21374670.50748
  21871147.769 6  -3147786.258 6  -2357829.16449  21871148.87449
  22842098.315 5   -163498.676 5   -125281.27347  22842097.82747
  20389138.151 6  -1309478.320 6  -1010882.60248  20389136.08948
  21342594.909 6   -972482.492 6   -736644.44549  21342596.24149
  20031981.261 7  -2502608.492 7  -1893715.47749  20031981.41349
  21806084.425 6  -1104313.289 6   -835418.59848  21806082.17148
 20  5 16  0 42 13.9990000  0  7G04G08G14G16G26G27G31               -0.000415409
  21373604.948 6  -2305804.672 6  -1783723.76648  21373604.15548
  21869787.698 6  -3154934.258 6  -2363399.03549  21869788.85849
  22842010.972 5   -163956.145 5   -125637.74247  22842010.80047
  20388520.886 6  -1312721.172 6  -1013409.49648  20388518.98748
  21342157.894 6   -974776.871 6   -738432.27049  21342159.85849
  20030910.026 7  -2508237.273 7  -1898101.53949  20030910.01549
  21805600.128 6  -1106855.648 6   -837399.66048  21805598.69848
 20  5 16  0 42 14.9990000  0  7G04G08G14G16G26G27G31               -0.000417931
  21372539.089 6  -2311406.637 6  -1788088.93048  21372538.48348
  21868427.448 6  -3162082.191 6  -2368968.85249  21868428.25349
  22841923.933 5   -164413.738 5   -125994.31347  22841923.43747
  20387904.120 6  -1315964.070 6  -1015936.43848  20387901.51948
  21341721.339 6   -977071.477 6   -740220.27049  21341723.49949
  20029839.105 7  -2513865.703 7  -1902487.33249  20029838.71849
  21805116.362 6  -1109398.027 6   -839380.73448  21805114.89048
 20  5 16  0 42 15.9990000  0  7G04G08G14G16G26G27G31               -0.000420450
  21371472.831 6  -2317008.430 6  -1792453.96548  21371472.29648
  21867067.519 6  -3169230.125 6  -2374538.67249  21867068.74549
  22841836.730 5   -164871.531 5   -126351.02347  22841836.17547
  20387287.112 6  -1319207.117 6  -1018463.48048  20387284.83148
  21341284.651 6   -979366.391 6   -742008.52349  21341286.61249
  20028768.042 7  -2519493.871 7  -1906872.91449  20028768.08549
  21804632.339 6  -1111940.500 6   -841361.88748  21804631.12048
 20  5 16  0 42 16.9990000  0  7G04G08G14G16G26G27G31               -0.000422972
  21370407.120 6  -2322609.953 6  -1796818.78548  21370406.60548
  21865706.933 6  -3176378.043 6  -2380108.47349  21865707.93349
  22841749.519 5   -165329.391 5   -126707.79147  22841749.58547
  20386669.698 6  -1322450.219 6  -1020990.57848  20386667.71448
  21340847.917 6   -981661.594 6   -743796.99249  21340849.58149
  20027696.862 7  -2525121.742 7  -1911258.27049  20027697.18749
  21804148.894 6  -1114483.035 6   -843343.08248  21804147.09748
 20  5 16  0 42 17.9990000  0  7G04G08G14G16G26G27G31               -0.000425493
  21369340.737 6  -2328211.281 6  -1801183.45748  21369340.98348
  21864346.472 6  -3183525.965 6  -2385678.28549  21864347.64049
  22841662.480 5   -165787.461 5   -127064.73447  22841662.30047
  20386052.628 6  -1325693.484 6  -1023517.80148  20386050.24948
  21340410.870 6   -983957.109 6   -745585.71149  21340412.90949
  20026625.940 7  -2530749.340 7  -1915643.41449  20026626.33149
  21803664.784 6  -1117025.613 6   -845324.30948  21803663.23748
 20  5 16  0 42 18.9990000  0  7G04G08G14G16G26G27G31               -0.000428015
  21368275.331 6  -2333812.426 6  -1805547.98448  21368274.81948
  21862986.667 6  -3190673.922 6  -2391248.12149  21862987.54649
  22841575.456 5   -166245.746 5   -127421.86347  22841575.02647
  20385435.261 6  -1328936.820 6  -1026045.07048  20385433.55848
  21339974.472 6   -986252.969 6   -747374.69149  21339976.42949
  20025555.300 7  -2536376.684 7  -1920028.35549  20025555.50749
  21803181.003 6  -1119568.305 6   -847305.62948  21803179.63248
 20  5 16  0 42 19.9990000  0  7G04G08G14G16G26G27G31               -0.000430536
  21367209.073 6  -2339413.336 6  -1809912.31648  21367209.06248
  21861626.159 6  -3197821.848 6  -2396817.92249  21861627.57349
  22841487.855 5   -166704.215 5   -127779.10547  22841487.73747
  20384818.112 6  -1332180.340 6  -1028572.48848  20384815.96848
  21339537.355 6   -988549.086 6   -749163.87149  21339539.19849
  20024484.276 7  -2542003.738 7  -1924413.07849  20024484.44049
  21802697.284 6  -1122111.074 6   -849287.01648  21802695.58948
 20  5 16  0 42 20.9990000  0  7G04G08G14G16G26G27G31               -0.000433058
  21366143.440 6  -2345014.004 6  -1814276.48848  21366142.95648
  21860265.745 5  -3204969.750 5  -2402387.70349  21860267.27649
  22841400.347 5   -167162.789 5   -128136.41847  22841400.37447
  20384200.987 6  -1335423.945 6  -1031099.96548  20384198.90948
  21339100.425 6   -990845.520 6   -750953.29349  21339102.15949
  20023413.261 7  -2547630.504 7  -1928797.57449  20023414.05449
  21802213.222 6  -1124653.887 6   -851268.43848  21802211.94048
 20  5 16  0 42 21.9990000  0  7G04G08G14G16G26G27G31               -0.000435581
  21365078.058 6  -2350614.613 6  -1818640.60548  21365077.53048
  21858905.683 5  -3212117.828 5  -2407957.62949  21858906.77249
  22841313.136 4   -167621.703 4   -128493.99647  22841313.24947
  20383583.800 6  -1338667.797 6  -1033627.63348  20383581.49548
  21338663.472 6   -993142.355 6   -752743.03549  21338665.14749
  20022342.886 7  -2553257.156 7  -1933181.98049  20022342.93749
  21801729.519 6  -1127196.930 6   -853250.02048  21801727.28848
 20  5 16  0 42 22.9990000  0  7G04G08G14G16G26G27G31               -0.000438103
  21364012.073 6  -2356215.020 6  -1823004.56348  21364011.59748
  21857545.503 5  -3219265.934 5  -2413527.59849  21857546.72649
  22841226.300 4   -168080.766 4   -128851.73047  22841225.80047
  20382966.487 6  -1341911.781 6  -1036155.41048  20382964.05048
  21338226.425 6   -995439.555 6   -754533.06649  21338228.12849
  20021272.151 7  -2558883.531 7  -1937566.17249  20021272.21849
  21801245.081 6  -1129740.063 6   -855231.67248  21801243.71848
 20  5 16  0 42 23.9990000  0  7G04G08G14G16G26G27G31               -0.000440626
  21362946.620 6  -2361815.086 6  -1827368.24648  21362946.01148
  21856185.456 6  -3226413.914 6  -2419097.48449  21856186.53449
  22841139.292 5   -168539.922 5   -129209.55147  22841138.56947
  20382349.269 6  -1345155.758 6  -1038683.18448  20382346.80448
  21337789.292 6   -997736.934 6   -756323.24649  21337790.82749
  20020201.776 7  -2564509.523 7  -1941950.06649  20020201.97649
  21800761.769 6  -1132283.145 6   -857213.28548  21800760.23048
 20  5 16  0 42 24.9990000  0  7G04G08G14G16G26G27G31               -0.000443148
  21361880.581 6  -2367414.871 6  -1831731.70748  21361880.38248
  21854825.206 6  -3233561.816 6  -2424667.29349  21854826.71449
  22841051.550 5   -168999.176 5   -129567.43447  22841050.91747
  20381732.144 6  -1348399.809 6  -1041211.02748  20381729.65548
  21337352.151 6  -1000034.563 6   -758113.60949  21337353.74949
  20019131.198 7  -2570135.184 7  -1946333.69549  20019131.11649
  21800277.495 6  -1134826.238 6   -859194.91448  21800276.24948
 20  5 16  0 42 25.9990000  0  7G04G08G14G16G26G27G31               -0.000445671
  21360815.409 6  -2373014.465 6  -1836095.02048  21360814.51548
  21853465.292 6  -3240709.793 6  -2430237.14849  21853466.42949
  22840964.112 4   -169458.660 4   -129925.49647  22840963.59747
  20381113.980 6  -1351643.988 6  -1043738.95748  20381112.00748
  21336914.487 6  -1002332.535 6   -759904.23449  21336916.62049
  20018060.761 7  -2575760.566 7  -1950717.11349  20018060.81549
  21799794.097 6  -1137369.430 6   -861176.62948  21799791.95248
 20  5 16  0 42 26.9990000  0  7G04G08G14G16G26G27G31               -0.000448195
  21359749.417 6  -2378613.980 6  -1840458.27347  21359749.68347
  21852104.909 6  -3247857.836 6  -2435807.05149  21852106.06549
  22840876.448 5   -169918.359 5   -130283.70347  22840876.34747
  20380497.198 6  -1354888.375 6  -1046267.05148  20380495.03848
  21336477.198 6  -1004630.883 6   -761695.15649  21336479.14749
  20016990.417 7  -2581385.793 7  -1955100.40249  20016990.61249
  21799309.980 6  -1139912.773 6   -863158.46148  21799307.87848
 20  5 16  0 42 27.9990000  0  7G04G08G14G16G26G27G31               -0.000450718
  21358683.675 5  -2384213.277 5  -1844821.34447  21358683.87047
  21850745.183 6  -3255005.895 6  -2441376.97749  21850746.12849
  22840788.644 5   -170378.305 5   -130642.09447  22840788.46047
  20379879.792 6  -1358132.852 6  -1048795.22348  20379877.71848
  21336039.573 6  -1006929.547 6   -763486.32849  21336041.80049
  20015919.737 7  -2587010.754 7  -1959483.48449  20015919.81249
  21798825.605 6  -1142456.238 6   -865140.39148  21798824.11648
 20  5 16  0 42 28.9990000  0  7G04G08G14G16G26G27G31               -0.000453241
  21357618.120 5  -2389812.293 5  -1849184.19547  21357618.96047
  21849384.737 6  -3262153.863 6  -2446946.82049  21849385.42549
  22840701.792 5   -170838.305 5   -131000.51247  22840701.23347
  20379262.276 6  -1361377.441 6  -1051323.48048  20379260.11248
  21335602.144 6  -1009228.469 6   -765277.70349  21335604.03849
  20014849.480 7  -2592635.371 7  -1963866.28149  20014850.01149
  21798341.940 6  -1144999.684 6   -867122.29348  21798340.29248
 20  5 16  0 42 29.9990000  0  7G04G08G14G16G26G27G31               -0.000455765
  21356553.503 5  -2395410.934 5  -1853546.75047  21356553.48047
  21848024.112 6  -3269301.691 6  -2452516.55549  21848025.03049
  22840613.839 5   -171298.379 5   -131358.99247  22840613.76547
  20378645.120 6  -1364621.996 6  -1053851.71148  20378643.09348
  21335165.136 6  -1011527.563 6   -767069.21149  21335167.06549
  20013779.136 7  -2598259.574 7  -1968248.77349  20013779.14749
  21797857.394 6  -1147543.098 6   -869104.17648  21797856.00748
 20  5 16  0 42 30.9990000  0  7G04G08G14G16G26G27G31               -0.000458290
  21355488.175 5  -2401009.391 5  -1857909.19147  21355488.00347
  21846664.433 6  -3276449.535 6  -2458086.30149  21846665.19849
  22840525.894 5   -171758.613 5   -131717.60546  22840525.90546
  20378027.612 6  -1367866.711 6  -1056380.05948  20378025.55448
  21334727.605 6  -1013826.977 6   -768860.96549  21334729.24949
  20012709.042 7  -2603883.520 7  -1972631.07449  20012709.22649
  21797373.862 6  -1150086.578 6   -871086.11348  21797372.28848
 20  5 16  0 42 31.9990000  0  7G04G08G14G16G26G27G31               -0.000460814
  21354422.401 5  -2406607.531 5  -1862271.38747  21354422.75347
  21845304.050 6  -3283597.313 6  -2463655.99649  21845304.60849
  22840439.011 5   -172218.949 5   -132076.32047  22840438.58947
  20377409.894 6  -1371111.465 6  -1058908.43848  20377407.93748
  21334289.823 6  -1016126.617 6   -770652.89149  21334291.96449
  20011638.909 7  -2609507.125 7  -1977013.10249  20011638.64449
  21796889.589 6  -1152630.090 6   -873068.07848  21796887.40948
 20  5 16  0 42 32.9990000  0  7G04G08G14G16G26G27G31               -0.000463339
  21353356.972 5  -2412205.438 5  -1866633.39847  21353357.63247
  21843943.722 6  -3290745.059 6  -2469225.66449  21843944.67149
  22840350.675 5   -172679.441 5   -132435.15847  22840350.71847
  20376792.464 6  -1374356.270 6  -1061436.85248  20376790.56548
  21333852.159 6  -1018426.543 6   -772445.03549  21333854.34749
  20010568.651 7  -2615130.398 7  -1981394.87949  20010569.00349
  21796405.503 6  -1155173.582 6   -875050.01648  21796404.08548
 20  5 16  0 42 33.9990000  0  7G04G08G14G16G26G27G31               -0.000465864
  21352291.659 5  -2417803.277 5  -1870995.36347  21352292.56247
  21842583.995 6  -3297892.949 6  -2474795.44949  21842584.57349
  22840263.464 5   -173140.219 5   -132794.21147  22840262.67947
  20376174.870 6  -1377601.363 6  -1063965.50048  20376173.27648
  21333414.034 6  -1020726.910 6   -774237.52749  21333416.26949
  20009498.784 7  -2620753.555 7  -1985776.56349  20009499.07749
  21795921.605 6  -1157717.348 6   -877032.16848  21795919.78848
 20  5 16  0 42 34.9990000  0  7G04G08G14G16G26G27G31               -0.000468388
  21351226.612 5  -2423400.902 5  -1875357.14147  21351227.34747
  21841223.503 6  -3305040.816 6  -2480365.21549  21841224.36649
  22840175.425 5   -173601.164 5   -133153.39847  22840174.94447
  20375557.605 6  -1380846.563 6  -1066494.22748  20375555.65948
  21332976.503 6  -1023027.566 6   -776030.24249  21332978.34349
  20008428.925 7  -2626376.434 7  -1990158.03149  20008429.03849
  21795437.472 6  -1160261.156 6   -879014.35248  21795435.82748
 20  5 16  0 42 35.9990000  0  7G04G08G14G16G26G27G31               -0.000470913
  21350161.628 5  -2428998.336 5  -1879718.78947  21350162.18347
  21839863.526 6  -3312188.770 6  -2485935.05149  21839864.01949
  22840088.058 5   -174062.359 5   -133512.79746  22840087.21846
  20374940.269 6  -1384091.926 6  -1069023.08248  20374938.26148
  21332538.097 6  -1025328.598 6   -777823.24649  21332540.62449
  20007358.964 7  -2631999.063 7  -1994539.29749  20007358.83949
  21794953.315 6  -1162805.078 6   -880996.62548  21794951.83148
 20  5 16  0 42 36.9990000  0  7G04G08G14G16G26G27G31               -0.000473438
  21349096.495 5  -2434595.504 5  -1884080.21947  21349096.96047
  21838503.315 6  -3319336.629 6  -2491504.81349  21838503.81249
  22840000.300 5   -174523.637 5   -133872.24647  22839999.62047
  20374322.073 6  -1387337.340 6  -1071551.97748  20374320.39448
  21332100.230 6  -1027629.844 6   -779616.42249  21332102.68349
  20006288.972 7  -2637621.352 7  -1998920.29749  20006288.88249
  21794469.151 6  -1165349.004 6   -882978.90248  21794467.35848
 20  5 16  0 42 37.9990000  0  7G04G08G14G16G26G27G31               -0.000475965
  21348031.823 5  -2440192.402 5  -1888441.44547  21348031.97647
  21837143.183 6  -3326484.457 6  -2497074.55949  21837143.74549
  22839912.394 5   -174985.055 5   -134231.79747  22839911.55447
  20373704.659 6  -1390582.867 6  -1074080.95748  20373702.58148
  21331662.519 6  -1029931.383 6   -781409.84049  21331664.39749
  20005219.237 7  -2643243.355 7  -2003301.07449  20005219.41349
  21793985.198 6  -1167893.000 6   -884961.23848  21793983.47648
 20  5 16  0 42 38.9990000  0  7G04G08G14G16G26G27G31               -0.000478491
  21346966.386 5  -2445788.949 5  -1892802.38747  21346966.81247
  21835782.940 6  -3333632.129 6  -2502644.17249  21835783.37449
  22839824.745 5   -175446.512 5   -134591.35947  22839824.09347
  20373087.190 6  -1393828.313 6  -1076609.87148  20373085.23048
  21331224.605 6  -1032233.043 6   -783203.34049  21331226.64749
  20004149.823 7  -2648864.898 7  -2007681.50449  20004149.66349
  21793500.964 6  -1170436.875 6   -886943.47348  21793499.38248
 20  5 16  0 42 39.9990000  0  7G04G08G14G16G26G27G31               -0.000481016
  21345901.433 5  -2451385.313 5  -1897163.19147  21345902.05047
  21834422.480 6  -3340779.824 6  -2508213.80549  21834423.63249
  22839736.675 5   -175908.164 5   -134951.07447  22839736.10147
  20372469.972 6  -1397073.930 6  -1079138.93048  20372467.61648
  21330786.519 6  -1034535.078 6   -784997.14149  21330788.27249
  20003079.940 7  -2654486.211 7  -2012061.73849  20003079.78449
  21793016.683 6  -1172980.875 6   -888925.81348  21793015.32748
 20  5 16  0 42 40.9990000  0  7G04G08G14G16G26G27G31               -0.000483543
  21344836.823 5  -2456981.500 5  -1901523.84047  21344837.01547
  21833062.292 6  -3347927.559 6  -2513783.46949  21833063.26949
  22839648.464 5   -176370.016 5   -135310.96147  22839648.03847
  20371851.659 6  -1400319.672 6  -1081668.08248  20371849.71448
  21330348.464 6  -1036837.426 6   -786791.18049  21330350.31949
  20002010.105 7  -2660107.293 7  -2016441.80549  20002010.01149
  21792532.808 6  -1175524.977 6   -890908.22748  21792530.96448
 20  5 16  0 42 41.9990000  0  7G04G08G14G16G26G27G31               -0.000486069
  21343771.870 5  -2462577.418 5  -1905884.29747  21343772.22247
  21831702.284 6  -3355075.293 6  -2519353.13349  21831703.15549
  22839560.542 5   -176832.008 5   -135670.95747  22839560.27647
  20371234.151 6  -1403565.543 6  -1084197.32448  20371232.33548
  21329910.214 6  -1039140.063 6   -788585.44149  21329912.39049
  20000940.237 7  -2665728.051 7  -2020821.61349  20000940.53449
  21792048.550 6  -1178069.141 6   -892890.69948  21792046.98048
 20  5 16  0 42 42.9990000  0  7G04G08G14G16G26G27G31               -0.000488596
  21342707.081 5  -2468173.141 5  -1910244.60247  21342707.36647
  21830342.269 6  -3362223.012 6  -2524922.78549  21830343.13249
  22839472.581 5   -177294.172 5   -136031.10247  22839472.42947
  20370616.683 6  -1406811.516 6  -1086726.65648  20370614.58148
  21329471.792 6  -1041443.012 6   -790379.94549  21329474.01149
  19999870.886 7  -2671348.563 7  -2025201.23849  19999870.92549
  21791564.440 6  -1180613.359 6   -894873.21148  21791563.05448
 20  5 16  0 42 43.9990000  0  7G04G08G14G16G26G27G31               -0.000491123
  21341642.190 5  -2473768.816 5  -1914604.86347  21341642.53847
  21828982.190 6  -3369370.895 6  -2530492.57049  21828983.01949
  22839384.401 5   -177756.711 5   -136391.54347  22839384.51947
  20369998.831 6  -1410057.758 6  -1089256.19948  20369996.76948
  21329033.019 5  -1043746.418 5   -792174.80949  21329035.54649
  19998801.362 7  -2676968.945 7  -2029580.76649  19998801.33949
  21791080.206 6  -1183157.820 6   -896855.91048  21791078.67948
 20  5 16  0 42 44.9990000  0  7G04G08G14G16G26G27G31               -0.000493650
  21340577.300 5  -2479364.227 5  -1918964.91447  21340577.49547
  21827621.253 6  -3376518.777 6  -2536062.34849  21827623.01149
  22839296.964 5   -178219.348 5   -136752.04747  22839296.68747
  20369380.878 6  -1413304.125 6  -1091785.83648  20369379.10148
  21328595.198 6  -1046050.102 6   -793969.89549  21328597.71449
  19997732.292 7  -2682589.000 7  -2033960.03149  19997732.03449
  21790596.230 6  -1185702.328 6   -898838.64848  21790594.51948
 20  5 16  0 42 45.9990000  0  7G04G08G14G16G26G27G31               -0.000496178
  21339512.026 4  -2484959.402 4  -1923324.79347  21339512.93347
  21826261.206 6  -3383666.621 6  -2541632.09049  21826262.59749
  22839208.839 5   -178682.172 5   -137112.66846  22839208.31246
  20368763.097 6  -1416550.555 6  -1094315.52348  20368761.23748
  21328156.909 5  -1048354.098 5   -795765.21549  21328158.56549
  19996662.690 7  -2688208.781 7  -2038339.07849  19996662.83149
  21790111.964 6  -1188246.879 6   -900821.41048  21790110.26148
 20  5 16  0 42 46.9990000  0  7G04G08G14G16G26G27G31               -0.000498705
  21338447.894 4  -2490554.375 4  -1927684.50447  21338448.05447
  21824901.597 6  -3390814.465 6  -2547201.84049  21824902.40149
  22839120.503 5   -179145.156 5   -137473.43446  22839120.39746
  20368145.362 6  -1419797.133 6  -1096845.32848  20368143.35148
  21327718.058 5  -1050658.367 5   -797560.74249  21327720.00349
  19995593.073 7  -2693828.285 7  -2042717.90649  19995593.10849
  21789627.495 6  -1190791.527 6   -902804.24648  21789625.87848
 20  5 16  0 42 47.9980000  0  7G04G08G14G16G26G27G31                0.000498768
  21337384.350 5  -2496143.437 5  -1932039.62147  21337384.52247
  21823542.553 6  -3397954.989 6  -2552765.88749  21823543.44749
  22839032.514 5   -179607.682 5   -137833.84647  22839032.09647
  20367528.100 6  -1423040.507 6  -1099372.63448  20367526.12348
  21327280.654 6  -1052960.559 6   -799354.66149  21327281.71349
  19994524.982 7  -2699441.772 7  -2047092.05149  19994525.09249
  21789143.936 6  -1193333.588 6   -904785.06848  21789142.21348
 20  5 16  0 42 48.9980000  0  7G04G08G14G16G26G27G31                0.000496243
  21336319.904 6  -2501737.766 6  -1936398.85547  21336319.48247
  21822182.147 6  -3405102.676 6  -2558335.48849  21822183.71349
  22838944.029 4   -180070.887 4   -138194.80147  22838943.77947
  20366910.365 6  -1426287.160 6  -1101902.48848  20366908.12348
  21326841.662 6  -1055265.309 6   -801150.55949  21326843.40049
  19993455.693 7  -2705060.492 7  -2051470.29749  19993456.13949
  21788660.006 6  -1195878.145 6   -906767.86348  21788657.89748
 20  5 16  0 42 49.9980000  0  7G04G08G14G16G26G27G31                0.000493713
  21335255.287 6  -2507331.906 6  -1940757.96947  21335254.88547
  21820822.295 6  -3412250.320 6  -2563905.04749  21820823.48649
  22838855.662 3   -180534.207 3   -138555.80547  22838855.92447
  20366292.365 6  -1429533.887 6  -1104432.40248  20366290.52248
  21326403.162 6  -1057570.320 6   -802946.66049  21326404.71349
  19992386.678 7  -2710678.977 7  -2055848.34049  19992386.95949
  21788175.795 6  -1198422.816 6   -908750.74648  21788173.50648
 20  5 16  0 42 50.9980000  0  7G04G08G14G16G26G27G31                0.000491184
  21334191.037 5  -2512925.840 5  -1945116.87947  21334190.73647
  21819462.154 6  -3419397.977 6  -2569474.66049  21819462.98649
  22838768.154 5   -180997.723 5   -138917.00847  22838767.70947
  20365674.600 6  -1432780.723 6  -1106962.40648  20365672.53348
  21325963.998 6  -1059875.594 6   -804742.98049  21325965.88149
  19991317.350 7  -2716297.215 7  -2060226.19149  19991317.12349
  21787691.576 6  -1200967.586 6   -910733.68448  21787689.77948
 20  5 16  0 42 51.9980000  0  7G04G08G14G16G26G27G31                0.000488657
  21333126.748 5  -2518519.512 5  -1949475.56347  21333126.38147
  21818101.865 6  -3426545.582 6  -2575044.25049  21818102.55749
  22838680.100 5   -181461.383 5   -139278.32447  22838679.33847
  20365057.037 6  -1436027.680 6  -1109492.49648  20365054.94348
  21325525.811 5  -1062181.230 5   -806539.58649  21325527.45149
  19990248.428 7  -2721915.133 7  -2064603.79749  19990248.51049
  21787207.147 6  -1203512.359 6   -912716.60548  21787205.28348
 20  5 16  0 42 52.9980000  0  7G04G08G14G16G26G27G31                0.000486128
  21332061.732 5  -2524112.891 5  -1953834.02047  21332061.94747
  21816741.920 6  -3433693.160 6  -2580613.80949  21816742.95949
  22838591.865 5   -181925.121 5   -139639.70347  22838591.07647
  20364438.428 6  -1439274.734 6  -1112022.67648  20364436.69348
  21325086.654 6  -1064487.109 6   -808336.38349  21325089.11949
  19989179.412 7  -2727532.711 7  -2068981.12549  19989179.77249
  21786722.756 6  -1206057.172 6   -914699.56348  21786720.79948
 20  5 16  0 42 53.9980000  0  7G04G08G14G16G26G27G31                0.000483599
  21330997.584 5  -2529706.074 5  -1958192.35247  21330997.68247
  21815381.920 6  -3440840.711 6  -2586183.32849  21815382.48649
  22838503.514 5   -182389.070 5   -140001.23847  22838502.70947
  20363820.850 6  -1442521.820 6  -1114552.86748  20363818.86548
  21324648.131 6  -1066793.238 6   -810133.35949  21324649.97549
  19988110.545 7  -2733149.996 7  -2073358.23049  19988110.67849
  21786238.795 6  -1208602.012 6   -916682.55148  21786236.98248
 20  5 16  0 42 54.9980000  0  7G04G08G14G16G26G27G31                0.000481070
  21329933.451 4  -2535299.055 4  -1962550.50447  21329933.12347
  21814021.592 6  -3447988.285 6  -2591752.86749  21814022.59249
  22838414.592 5   -182853.270 5   -140362.93047  22838414.54947
  20363203.154 6  -1445769.082 6  -1117083.20348  20363200.83448
  21324209.451 5  -1069099.715 5   -811930.61749  21324210.68249
  19987041.615 7  -2738767.051 7  -2077735.14849  19987041.47149
  21785754.022 6  -1211146.996 6   -918665.65648  21785752.31848
 20  5 16  0 42 55.9980000  0  7G04G08G14G16G26G27G31                0.000478540
  21328868.834 4  -2540891.844 4  -1966908.51247  21328868.90447
  21812661.123 6  -3455135.840 6  -2597322.39549  21812662.82649
  22838326.357 5   -183317.551 5   -140724.64547  22838326.29147
  20362585.256 6  -1449016.465 6  -1119613.64148  20362582.91248
  21323770.897 5  -1071406.480 5   -813728.11349  21323771.78349
  19985972.998 7  -2744383.789 7  -2082111.82449  19985972.43949
  21785269.803 6  -1213692.000 6   -920648.78148  21785267.94748
 20  5 16  0 42 56.9980000  0  7G04G08G14G16G26G27G31                0.000476009
  21327804.795 4  -2546484.328 4  -1971266.28947  21327805.31147
  21811301.436 6  -3462283.348 6  -2602891.88749  21811302.74449
  22838238.639 5   -183781.969 5   -141086.49647  22838237.77947
  20361967.686 6  -1452263.926 6  -1122144.13348  20361964.95548
  21323330.943 5  -1073713.551 5   -815525.83649  21323333.04549
  19984904.068 7  -2750000.242 7  -2086488.27349  19984904.37749
  21784785.436 6  -1216237.082 6   -922631.96948  21784783.90848
 20  5 16  0 42 57.9980000  0  7G04G08G14G16G26G27G31                0.000473480
  21326740.576 5  -2552076.652 5  -1975623.93847  21326741.34647
  21809941.334 6  -3469430.898 6  -2608461.41049  21809942.70149
  22838149.443 5   -184246.629 5   -141448.57847  22838149.31147
  20361348.959 6  -1455511.570 6  -1124674.75448  20361346.68648
  21322892.045 6  -1076020.984 6   -817323.83249  21322894.49849
  19983835.357 7  -2755616.445 7  -2090864.53149  19983835.11549
  21784301.506 6  -1218782.277 6   -924615.23848  21784299.57248
 20  5 16  0 42 58.9980000  0  7G04G08G14G16G26G27G31                0.000470949
  21325676.701 5  -2557668.766 5  -1979981.43847  21325677.22147
  21808580.975 6  -3476578.422 6  -2614030.90249  21808582.00249
  22838061.397 5   -184711.441 5   -141810.80547  22838060.92047
  20360731.022 6  -1458759.309 6  -1127205.45748  20360728.98648
  21322452.561 5  -1078328.668 5   -819122.02349  21322455.15049
  19982766.897 7  -2761232.375 7  -2095240.58649  19982766.77249
  21783816.982 6  -1221327.539 6   -926598.56348  21783815.17048
 20  5 16  0 42 59.9980000  0  7G04G08G14G16G26G27G31                0.000468420
  21324612.022 5  -2563260.547 5  -1984338.68047  21324613.10447
  21807220.951 6  -3483725.906 6  -2619600.36749  21807221.85449
  22837972.881 5   -185176.355 5   -142173.10947  22837972.41247
  20360113.201 6  -1462007.094 6  -1129736.20348  20360110.81848
  21322013.154 5  -1080636.613 5   -820920.41849  21322015.34649
  19981698.193 7  -2766847.930 7  -2099616.35949  19981698.24849
  21783332.623 6  -1223872.801 6   -928581.87948  21783330.83848
 20  5 16  0 43  0.9980000  0  7G04G08G14G16G26G27G31                0.000465889
  21323548.154 5  -2568852.016 5  -1988695.67647  21323549.02547
  21805860.779 6  -3490873.215 6  -2625169.69949  21805862.00249
  22837884.748 5   -185641.293 5   -142535.42247  22837884.08047
  20359494.943 6  -1465254.840 6  -1132266.91448  20359492.59248
  21321574.365 5  -1082944.711 5   -822718.93849  21321576.32649
  19980629.756 7  -2772463.086 7  -2103991.80149  19980629.90849
  21782848.279 6  -1226417.988 6   -930565.13748  21782846.19348
 20  5 16  0 43  1.9980000  0  7G04G08G14G16G26G27G31                0.000463358
  21322483.943 5  -2574443.309 5  -1993052.52347  21322484.73647
  21804500.740 6  -3498020.586 6  -2630739.07849  21804501.67449
  22837796.482 5   -186106.484 5   -142897.91847  22837795.15447
  20358877.365 6  -1468502.746 6  -1134797.75048  20358874.98648
  21321135.428 5  -1085253.121 5   -824517.69549  21321137.39349
  19979561.037 7  -2778077.984 7  -2108367.05149  19979560.81849
  21782363.443 6  -1228963.250 6   -932548.45748  21782362.11548
 20  5 16  0 43  2.9980000  0  7G04G08G14G16G26G27G31                0.000460827
  21321420.170 4  -2580034.336 4  -1997409.16447  21321420.90847
  21803140.717 6  -3505167.941 6  -2636308.44149  21803142.01849
  22837707.357 5   -186571.840 5   -143260.49246  22837706.82646
  20358259.326 6  -1471750.730 6  -1137328.64848  20358257.13148
  21320695.709 5  -1087561.840 5   -826316.70349  21320697.35749
  19978492.678 7  -2783692.582 7  -2112742.05949  19978492.54149
  21781879.639 6  -1231508.605 6   -934531.84848  21781877.79148
 20  5 16  0 43  3.9980000  0  7G04G08G14G16G26G27G31                0.000458296
  21320356.342 4  -2585625.063 4  -2001765.57447  21320357.30747
  21801780.279 6  -3512315.258 6  -2641877.77749  21801781.84649
  22837618.404 5   -187037.301 5   -143623.12547  22837618.13547
  20357641.045 6  -1474998.805 6  -1139859.62548  20357638.46748
  21320256.623 5  -1089870.828 5   -828115.92649  21320257.83049
  19977424.365 7  -2789306.879 7  -2117116.81649  19977423.99449
  21781394.889 6  -1234053.980 6   -936515.26648  21781393.26448
 20  5 16  0 43  4.9980000  0  7G04G08G14G16G26G27G31                0.000455765
  21319292.553 4  -2591215.664 4  -2006121.87946  21319293.88146
  21800420.084 6  -3519462.527 6  -2647447.07449  21800421.45549
  22837530.615 5   -187502.938 5   -143985.94146  22837529.61146
  20357022.897 6  -1478247.027 6  -1142390.71148  20357020.64348
  21319817.756 5  -1092180.129 5   -829915.39549  21319818.67449
  19976356.100 7  -2794920.879 7  -2121491.34449  19976355.85449
  21780910.451 6  -1236599.422 6   -938498.73048  21780908.81848
 20  5 16  0 43  5.9980000  0  7G04G08G14G16G26G27G31                0.000453234
  21318228.740 4  -2596806.047 4  -2010478.02346  21318229.91246
  21799060.451 6  -3526609.875 6  -2653016.44149  21799061.40849
  22837442.068 4   -187968.785 4   -144348.94546  22837441.42846
  20356405.084 6  -1481495.422 6  -1144921.92648  20356402.29148
  21319377.834 5  -1094489.750 5   -831715.09848  21319379.11948
  19975287.865 7  -2800534.645 7  -2125865.69949  19975287.51049
  21780426.107 6  -1239145.004 6   -940482.30548  21780424.56448
 20  5 16  0 43  6.9980000  0  7G04G08G14G16G26G27G31                0.000450701
  21317164.850 4  -2602396.324 4  -2014834.07047  21317166.50247
  21797700.365 6  -3533757.309 6  -2658585.87149  21797701.24849
  22837353.225 5   -188434.895 5   -144712.16046  22837352.66646
  20355786.561 6  -1484744.012 6  -1147453.29348  20355784.14348
  21318938.178 5  -1096799.824 5   -833515.15649  21318939.39749
  19974219.342 7  -2806148.258 7  -2130239.95349  19974219.25249
  21779941.725 6  -1241690.734 6   -942465.99648  21779940.49048
 20  5 16  0 43  7.9980000  0  7G04G08G14G16G26G27G31                0.000448170
  21316100.670 4  -2607986.234 4  -2019189.84047  21316102.51447
  21796339.740 6  -3540904.629 6  -2664155.21149  21796341.24849
  22837263.615 4   -188901.125 4   -145075.47746  22837263.83846
  20355168.561 6  -1487992.617 6  -1149984.67248  20355166.38548
  21318498.967 5  -1099110.078 5   -835315.35249  21318499.80749
  19973151.186 7  -2811761.445 7  -2134613.87149  19973151.13949
  21779457.412 6  -1244236.457 6   -944449.67648  21779455.80748
 20  5 16  0 43  8.9980000  0  7G04G08G14G16G26G27G31                0.000445637
  21315037.412 4  -2613575.945 4  -2023545.45746  21315038.81146
  21794979.834 6  -3548051.914 6  -2669724.52349  21794980.98249
  22837175.186 4   -189367.492 4   -145438.88346  22837175.18246
  20354550.201 6  -1491241.332 6  -1152516.13748  20354547.90048
  21318059.076 5  -1101420.637 5   -837115.78549  21318059.96349
  19972083.061 7  -2817374.387 7  -2138987.59849  19972083.13549
  21778972.787 6  -1246782.230 6   -946433.39848  21778971.26048
 20  5 16  0 43  9.9980000  0  7G04G08G14G16G26G27G31                0.000443104
  21313974.272 5  -2619165.238 5  -2027900.75847  21313976.07647
  21793619.826 6  -3555199.027 6  -2675293.69949  21793621.03349
  22837086.420 5   -189833.820 5   -145802.26646  22837086.20546
  20353931.639 6  -1494490.012 6  -1155047.57848  20353929.70548
  21317619.162 6  -1103731.348 6   -838916.33249  21317620.23649
  19971015.131 7  -2822986.859 7  -2143360.95749  19971015.29549
  21778488.482 6  -1249327.906 6   -948417.03548  21778486.86948
 20  5 16  0 43 10.9980000  0  7G04G08G14G16G26G27G31                0.000440573
  21312910.537 5  -2624754.434 5  -2032255.98047  21312912.32647
  21792260.107 6  -3562346.234 6  -2680862.95349  21792261.07649
  22836997.920 5   -190300.398 5   -146165.86747  22836997.44747
  20353313.568 6  -1497738.906 6  -1157579.18048  20353311.48648
  21317179.639 6  -1106042.441 6   -840717.18049  21317180.87749
  19969947.514 7  -2828599.160 7  -2147734.19549  19969947.80349
  21778004.217 6  -1251873.738 6   -950400.80148  21778002.57248
 20  5 16  0 43 11.9980000  0  7G04G08G14G16G26G27G31                0.000438038
  21311846.490 5  -2630343.395 5  -2036611.02047  21311848.11947
  21790899.881 6  -3569493.484 6  -2686432.24649  21790900.77249
  22836909.240 5   -190767.273 5   -146529.70747  22836908.56847
  20352695.232 6  -1500987.910 6  -1160110.87548  20352693.33848
  21316739.818 6  -1108353.852 6   -842518.27049  21316740.81849
  19968879.561 7  -2834211.191 7  -2152107.21149  19968879.61149
  21777519.389 6  -1254419.668 6   -952384.63748  21777518.02548
 20  5 16  0 43 12.9980000  0  7G04G08G14G16G26G27G31                0.000435505
  21310782.873 5  -2635932.078 5  -2040965.84847  21310784.62347
  21789540.068 6  -3576640.637 6  -2692001.44949  21789540.83449
  22836820.350 5   -191234.137 5   -146893.50447  22836819.54947
  20352076.748 6  -1504237.000 6  -1162642.62948  20352074.92448
  21316299.467 6  -1110665.516 6   -844319.56349  21316301.28349
  19967811.365 7  -2839822.871 7  -2156479.95349  19967811.55349
  21777035.420 6  -1256965.594 6   -954368.47348  21777033.60048
 20  5 16  0 43 13.9980000  0  7G04G08G14G16G26G27G31                0.000432972
  21309719.592 5  -2641520.473 5  -2045320.45347  21309721.11547
  21788179.967 6  -3583787.688 6  -2697570.57849  21788181.09249
  22836731.506 5   -191701.121 5   -147257.41047  22836731.44347
  20351458.600 6  -1507486.109 6  -1165174.41048  20351456.38548
  21315859.537 6  -1112977.379 6   -846121.00849  21315861.48249
  19966743.764 7  -2845434.184 7  -2160852.39549  19966743.58449
  21776550.826 6  -1259511.496 6   -956352.29748  21776549.35748
 20  5 16  0 43 14.9980000  0  7G04G08G14G16G26G27G31                0.000430439
  21308656.107 5  -2647108.617 5  -2049674.85947  21308657.07647
  21786819.709 6  -3590934.742 6  -2703139.70749  21786821.37349
  22836642.693 5   -192168.309 5   -147621.47347  22836642.13947
  20350840.397 6  -1510735.293 6  -1167706.24648  20350838.38148
  21315419.381 5  -1115289.523 5   -847922.68449  21315421.20549
  19965675.951 7  -2851045.180 7  -2165224.59849  19965676.00249
  21776066.443 6  -1262057.449 6   -958336.17248  21776064.72948
 20  5 16  0 43 15.9980000  0  7G04G08G14G16G26G27G31                0.000427906
  21307592.779 5  -2652696.496 5  -2054029.05547  21307593.42847
  21785459.615 6  -3598081.715 6  -2708708.77749  21785460.75249
  22836553.982 5   -192635.582 5   -147985.57847  22836553.12347
  20350221.943 6  -1513984.570 6  -1170238.14848  20350219.95948
  21314978.959 5  -1117601.941 5   -849724.57049  21314980.98249
  19964608.037 7  -2856655.871 7  -2169596.56349  19964608.39349
  21775581.803 6  -1264603.457 6   -960320.07848  21775580.08848
 20  5 16  0 43 16.9980000  0  7G04G08G14G16G26G27G31                0.000425371
  21306530.475 5  -2658284.105 5  -2058383.02747  21306530.52547
  21784099.600 6  -3605228.617 6  -2714277.79349  21784100.87349
  22836465.170 5   -193102.980 5   -148349.80147  22836463.86947
  20349603.498 6  -1517233.895 6  -1172770.09848  20349601.70548
  21314539.279 5  -1119914.602 5   -851526.64549  21314541.77949
  19963540.607 7  -2862266.203 7  -2173968.25849  19963540.65449
  21775097.303 6  -1267149.441 6   -962303.96548  21775095.48648
 20  5 16  0 43 17.9980000  0  7G04G08G14G16G26G27G31                0.000422838
  21305466.357 5  -2663871.445 5  -2062736.78947  21305467.11947
  21782739.537 6  -3612375.508 6  -2719846.79749  21782740.80749
  22836376.709 5   -193570.508 5   -148714.11747  22836375.27947
  20348985.139 6  -1520483.313 6  -1175302.10248  20348982.97148
  21314099.014 6  -1122227.512 6   -853328.90649  21314101.18249
  19962473.037 7  -2867876.211 7  -2178339.69549  19962473.16249
  21774612.811 6  -1269695.457 6   -964287.87948  21774611.06448
 20  5 16  0 43 18.9980000  0  7G04G08G14G16G26G27G31                0.000420303
  21304403.186 5  -2669458.535 5  -2067090.36347  21304403.57247
  21781379.451 6  -3619522.371 6  -2725415.78149  21781381.01049
  22836286.764 5   -194038.223 5   -149078.57847  22836285.99847
  20348366.967 6  -1523732.824 6  -1177834.19148  20348364.69348
  21313659.451 6  -1124540.715 6   -855131.40249  21313660.70949
  19961405.381 7  -2873485.953 7  -2182710.93849  19961405.91249
  21774128.545 6  -1272241.543 6   -966271.85248  21774126.72948
 20  5 16  0 43 19.9980000  0  7G04G08G14G16G26G27G31                0.000417768
  21303340.748 5  -2675045.434 5  -2071443.79347  21303340.69747
  21780019.357 6  -3626669.234 6  -2730984.76249  21780020.77549
  22836197.928 5   -194506.094 5   -149443.16847  22836196.84647
  20347748.475 6  -1526982.484 6  -1180366.39548  20347746.66648
  21313218.334 6  -1126854.258 6   -856934.16449  21313220.71749
  19960338.123 7  -2879095.410 7  -2187081.94149  19960338.47549
  21773643.779 6  -1274787.715 6   -968255.87548  21773642.02948
 20  5 16  0 43 20.9980000  0  7G04G08G14G16G26G27G31                0.000415234
  21302277.217 5  -2680632.082 5  -2075797.02347  21302277.06447
  21778659.584 6  -3633816.063 6  -2736553.71949  21778660.99049
  22836109.482 5   -194974.164 5   -149807.89847  22836108.08047
  20347130.420 6  -1530232.223 6  -1182898.66048  20347128.33048
  21312778.576 6  -1129168.047 6   -858737.11749  21312780.32249
  19959270.951 7  -2884704.574 7  -2191452.71149  19959271.08849
  21773159.350 6  -1277333.938 6   -970239.95348  21773157.35448
 20  5 16  0 43 21.9980000  0  7G04G08G14G16G26G27G31                0.000412699
  21301213.990 5  -2686218.500 5  -2080150.07447  21301214.24447
  21777299.912 6  -3640962.871 6  -2742122.65649  21777301.26049
  22836020.170 5   -195442.363 5   -150172.71547  22836018.59647
  20346511.803 6  -1533482.027 6  -1185430.97348  20346509.52948
  21312338.490 6  -1131482.109 6   -860540.29349  21312340.15449
  19958203.303 7  -2890313.402 7  -2195823.22349  19958203.43949
  21772674.865 6  -1279880.176 6   -972224.02748  21772673.19348
 20  5 16  0 43 22.9980000  0  7G04G08G14G16G26G27G31                0.000410164
  21300151.404 5  -2691804.664 5  -2084502.92647  21300151.15447
  21775939.506 6  -3648109.641 6  -2747691.56649  21775941.25249
  22835930.522 5   -195910.703 5   -150537.64847  22835929.46747
  20345893.232 6  -1536731.973 6  -1187963.39548  20345891.20948
  21311898.154 6  -1133796.480 6   -862343.70349  21311899.66649
  19957136.045 7  -2895921.945 7  -2200193.52049  19957136.40449
  21772190.193 6  -1282426.480 6   -974208.16448  21772188.18648
 20  5 16  0 43 23.9980000  0  7G04G08G14G16G26G27G31                0.000407629
  21299088.397 5  -2697390.594 5  -2088855.59047  21299088.15847
  21774579.967 6  -3655256.395 6  -2753260.46549  21774580.95149
  22835841.756 5   -196379.258 5   -150902.76247  22835840.22547
  20345274.826 6  -1539982.000 6  -1190495.88748  20345272.44748
  21311456.928 6  -1136111.148 6   -864147.34449  21311459.16249
  19956068.732 7  -2901530.207 7  -2204563.59449  19956068.79149
  21771705.701 6  -1284972.855 6   -976192.35248  21771703.90448
 20  5 16  0 43 24.9980000  0  7G04G08G14G16G26G27G31                0.000405094
  21298025.850 5  -2702976.391 5  -2093208.16847  21298025.70947
  21773219.975 6  -3662403.281 6  -2758829.46549  21773220.80349
  22835752.178 5   -196848.105 5   -151268.07447  22835751.42847
  20344656.303 6  -1543232.270 6  -1193028.57048  20344654.06448
  21311016.607 5  -1138426.219 5   -865951.29749  21311018.76449
  19955001.561 7  -2907138.285 7  -2208933.52349  19955001.42049
  21771221.014 6  -1287519.406 6   -978176.68048  21771219.55348
 20  5 16  0 43 25.9980000  0  7G04G08G14G16G26G27G31                0.000402557
  21296962.139 4  -2708562.039 4  -2097560.63747  21296962.71347
  21771859.779 6  -3669550.164 6  -2764398.46149  21771861.21349
  22835662.897 5   -197317.117 5   -151633.48047  22835662.26447
  20344038.147 6  -1546482.641 6  -1195561.32448  20344035.71348
  21310576.701 5  -1140741.574 5   -867755.48049  21310578.23249
  19953934.662 7  -2912746.109 7  -2213303.25449  19953934.45149
  21770736.482 6  -1290066.047 6   -980161.07448  21770734.71348
 20  5 16  0 43 26.9980000  0  7G04G08G14G16G26G27G31                0.000400023
  21295899.022 4  -2714147.320 4  -2101912.81347  21295899.85447
  21770499.975 6  -3676696.902 6  -2769967.35249  21770501.72149
  22835573.826 5   -197786.164 5   -151998.91047  22835572.62347
  20343419.639 6  -1549733.047 6  -1198094.11348  20343417.45148
  21310135.779 5  -1143057.148 5   -869559.84449  21310137.20149
  19952867.686 7  -2918353.520 7  -2217672.66449  19952867.62349
  21770251.772 6  -1292612.629 6   -982145.41848  21770250.33848
 20  5 16  0 43 27.9980000  0  7G04G08G14G16G26G27G31                0.000397486
  21294836.990 5  -2719732.301 5  -2106264.73847  21294837.35747
  21769139.115 6  -3683843.523 6  -2775536.15649  21769140.69749
  22835484.311 5   -198255.207 5   -152364.40647  22835484.04947
  20342800.451 6  -1552983.535 6  -1200626.96148  20342798.57648
  21309695.373 6  -1145372.973 6   -871364.37549  21309697.08449
  19951800.850 7  -2923960.563 7  -2222041.78949  19951800.61149
  21769767.248 6  -1295159.180 6   -984129.74248  21769765.79548
 20  5 16  0 43 28.9980000  0  7G04G08G14G16G26G27G31                0.000394949
  21293773.982 6  -2725316.945 6  -2110616.40247  21293774.29147
  21767779.897 6  -3690990.121 6  -2781104.92649  21767780.89349
  22835395.303 4   -198724.461 4   -152730.12947  22835394.66647
  20342182.131 6  -1556234.039 6  -1203159.80948  20342180.12348
  21309253.920 6  -1147689.039 6   -873169.08649  21309255.96749
  19950733.607 7  -2929567.250 7  -2226410.64849  19950733.82249
  21769282.654 6  -1297705.730 6   -986114.07048  21769280.96748
 20  5 16  0 43 29.9980000  0  7G04G08G14G16G26G27G31                0.000392412
  21292711.756 6  -2730901.387 6  -2114967.92648  21292711.27248
  21766419.100 6  -3698136.699 6  -2786673.66449  21766420.94349
  22835306.107 4   -199193.871 4   -153095.93047  22835305.05747
  20341563.834 6  -1559484.609 6  -1205692.72748  20341561.28348
  21308813.311 6  -1150005.352 6   -874973.98449  21308814.77249
  19949666.670 7  -2935173.660 7  -2230779.26649  19949667.02549
  21768797.865 6  -1300252.371 6   -988098.47348  21768796.41648
 20  5 16  0 43 30.9980000  0  7G04G08G14G16G26G27G31                0.000389875
  21291648.725 5  -2736485.594 5  -2119319.24647  21291648.97147
  21765059.256 6  -3705283.215 6  -2792242.36349  21765060.98649
  22835216.225 5   -199663.475 5   -153461.87847  22835215.65447
  20340945.147 6  -1562735.242 6  -1208225.68848  20340942.68248
  21308372.561 6  -1152321.977 6   -876779.13349  21308374.40849
  19948599.975 7  -2940779.781 7  -2235147.66849  19948599.81149
  21768313.217 6  -1302799.047 6   -990082.90248  21768311.54548
 20  5 16  0 43 31.9980000  0  7G04G08G14G16G26G27G31                0.000387339
  21290585.959 4  -2742069.504 4  -2123670.34047  21290586.29547
  21763699.553 6  -3712429.688 6  -2797811.06349  21763700.59649
  22835126.943 4   -200133.148 4   -153827.83646  22835126.59246
  20340327.576 6  -1565985.953 6  -1210758.70748  20340324.13948
  21307931.850 5  -1154638.773 5   -878584.44149  21307933.38149
  19947533.475 7  -2946385.547 7  -2239515.80549  19947533.29949
  21767828.631 6  -1305345.723 6   -992067.32048  21767827.25648
 20  5 16  0 43 32.9980000  0  7G04G08G14G16G26G27G31                0.000384802
  21289523.342 5  -2747653.168 5  -2128021.24247  21289524.11947
  21762339.522 6  -3719576.090 6  -2803379.70749  21762340.90449
  22835037.240 5   -200602.961 5   -154193.89146  22835037.49846
  20339708.607 6  -1569236.801 6  -1213291.82448  20339706.03348
  21307490.436 6  -1156955.910 6   -880390.02049  21307491.92849
  19946466.811 7  -2951990.973 7  -2243883.66449  19946466.20949
  21767343.912 6  -1307892.445 6   -994051.77748  21767342.72148
 20  5 16  0 43 33.9980000  0  7G04G08G14G16G26G27G31                0.000382265
  21288461.475 4  -2753236.570 4  -2132371.94147  21288461.87747
  21760979.623 6  -3726722.422 6  -2808948.28949  21760980.99049
  22834947.756 3   -201072.891 3   -154560.05146  22834948.11146
  20339089.240 6  -1572487.648 6  -1215824.94948  20339086.95948
  21307050.006 5  -1159273.270 5   -882195.76249  21307051.15049
  19945400.311 7  -2957596.074 7  -2248251.27749  19945399.61949
  21766859.818 6  -1310439.160 6   -996036.22748  21766857.80348
 20  5 16  0 43 34.9980000  0  7G04G08G14G16G26G27G31                0.000379726
  21287398.717 5  -2758819.660 5  -2136722.41447  21287400.04547
  21759620.264 6  -3733868.703 6  -2814516.81349  21759621.32249
  22834857.959 4   -201542.938 4   -154926.32846  22834858.15046
  20338470.553 6  -1575738.598 6  -1218358.15248  20338468.36948
  21306608.756 5  -1161590.883 5   -884001.69549  21306610.10449
  19944333.490 7  -2963200.844 7  -2252618.61749  19944333.09649
  21766375.201 6  -1312985.914 6   -998020.71948  21766373.24848
 20  5 16  0 43 35.9980000  0  7G04G08G14G16G26G27G31                0.000377190
  21286336.045 5  -2764402.500 5  -2141072.69147  21286337.54547
  21758260.256 6  -3741014.914 6  -2820085.27749  21758261.49849
  22834769.436 4   -202013.105 4   -155292.72346  22834768.95546
  20337852.225 6  -1578989.613 6  -1220891.41848  20337849.69748
  21306168.154 5  -1163908.773 5   -885807.83649  21306168.97949
  19943266.584 7  -2968805.277 7  -2256985.70749  19943266.40049
  21765890.022 6  -1315532.688 6  -1000005.22348  21765888.77248
 20  5 16  0 43 36.9980000  0  7G04G08G14G16G26G27G31                0.000374651
  21285273.920 5  -2769985.145 5  -2145422.80547  21285275.44347
  21756900.959 6  -3748161.160 6  -2825653.77749  21756901.30749
  22834679.725 4   -202483.551 4   -155659.31346  22834679.50646
  20337233.209 6  -1582240.789 6  -1223424.79748  20337231.00248
  21305726.498 5  -1166227.008 5   -887614.25049  21305727.97549
  19942200.561 7  -2974409.469 7  -2261352.61349  19942200.17449
  21765405.443 6  -1318079.555 6  -1001989.80148  21765404.11948
 20  5 16  0 43 37.9980000  0  7G04G08G14G16G26G27G31                0.000372112
  21284211.936 5  -2775567.457 5  -2149772.66447  21284213.43247
  21755540.975 6  -3755307.313 6  -2831222.20349  21755541.58049
  22834590.029 4   -202954.043 4   -156025.93446  22834589.62746
  20336614.639 6  -1585492.000 6  -1225958.21148  20336612.49848
  21305285.545 5  -1168545.449 5   -889420.82449  21305286.32649
  19941133.897 7  -2980013.309 7  -2265719.24649  19941133.72149
  21764921.037 6  -1320626.402 6  -1003974.35948  21764919.49448
 20  5 16  0 43 38.9980000  0  7G04G08G14G16G26G27G31                0.000369576
  21283149.584 5  -2781149.523 5  -2154122.32047  21283151.36547
  21754180.834 6  -3762453.414 6  -2836790.59449  21754181.62349
  22834500.857 4   -203424.652 4   -156392.63346  22834500.53346
  20335996.287 6  -1588743.289 6  -1228491.68848  20335993.70148
  21304844.365 5  -1170864.145 5   -891227.59849  21304845.11149
  19940067.975 7  -2985616.785 7  -2270085.59049  19940067.59249
  21764436.443 6  -1323173.285 6  -1005958.93848  21764434.91648
 20  5 16  0 43 39.9980000  0  7G04G08G14G16G26G27G31                0.000367037
  21282087.701 5  -2786731.352 5  -2158471.79747  21282089.10047
  21752820.943 6  -3769599.477 6  -2842358.96149  21752821.78749
  22834410.873 4   -203895.430 4   -156759.46146  22834410.67046
  20335377.201 6  -1591994.684 6  -1231025.24248  20335375.04948
  21304402.732 5  -1173183.133 5   -893034.60549  21304404.00649
  19939001.834 7  -2991219.980 7  -2274451.71549  19939001.06849
  21763951.725 6  -1325720.211 6  -1007943.55548  21763950.06448
 20  5 16  0 43 40.9980000  0  7G04G08G14G16G26G27G31                0.000364498
  21281025.967 5  -2792312.871 5  -2162821.03147  21281027.06147
  21751461.123 6  -3776745.434 6  -2847927.23849  21751462.15449
  22834321.045 4   -204366.297 4   -157126.37146  22834321.31446
  20334758.803 6  -1595246.105 6  -1233558.82048  20334756.48248
  21303962.092 5  -1175502.355 5   -894841.79349  21303962.69349
  19937935.529 7  -2996822.813 7  -2278817.56349  19937934.83449
  21763466.850 6  -1328267.152 6  -1009928.19148  21763465.35748
 20  5 16  0 43 41.9980000  0  7G04G08G14G16G26G27G31                0.000361959
  21279963.037 5  -2797894.117 5  -2167170.05547  21279965.25247
  21750101.506 6  -3783891.324 6  -2853495.47349  21750102.47949
  22834231.631 4   -204837.270 4   -157493.37146  22834231.74046
  20334139.857 6  -1598497.578 6  -1236092.43048  20334137.73648
  21303520.490 6  -1177821.805 6   -896649.15649  21303521.07649
  19936869.061 7  -3002425.309 7  -2283183.14149  19936869.11949
  21762982.787 6  -1330814.074 6  -1011912.81348  21762980.74448
 20  5 16  0 43 42.9980000  0  7G04G08G14G16G26G27G31                0.000359419
  21278900.928 5  -2803475.082 5  -2171518.85547  21278903.45947
  21748741.584 6  -3791037.195 6  -2859063.68049  21748742.56449
  22834141.732 4   -205308.410 4   -157860.50446  22834142.06846
  20333521.193 6  -1601749.160 6  -1238626.13748  20333518.83448
  21303079.318 6  -1180141.566 6   -898456.75849  21303079.88149
  19935803.217 7  -3008027.484 7  -2287548.47749  19935803.26449
  21762497.342 6  -1333361.035 6  -1013897.45748  21762496.47548
 20  5 16  0 43 43.9980000  0  7G04G08G14G16G26G27G31                0.000356880
  21277839.397 5  -2809055.816 5  -2175867.48047  21277841.49047
  21747381.764 6  -3798182.988 6  -2864631.83649  21747382.60449
  22834051.381 4   -205779.641 4   -158227.69946  22834052.77246
  20332901.990 6  -1605000.797 6  -1241159.87948  20332900.22148
  21302637.428 6  -1182461.531 6   -900264.52049  21302638.48249
  19934737.576 7  -3013629.340 7  -2291913.55949  19934736.92849
  21762012.951 6  -1335908.016 6  -1015882.12148  21762011.56448
 20  5 16  0 43 44.9980000  0  7G04G08G14G16G26G27G31                0.000354342
  21276777.686 5  -2814636.277 5  -2180215.90647  21276779.05747
  21746022.232 6  -3805328.758 6  -2870199.96949  21746023.08849
  22833961.803 4   -206251.063 4   -158595.05146  22833962.33846
  20332283.779 6  -1608252.531 6  -1243693.69548  20332281.89748
  21302195.693 6  -1184781.820 6   -902072.52749  21302196.81149
  19933671.420 7  -3019230.863 7  -2296278.38349  19933670.86149
  21761528.357 6  -1338455.059 6  -1017866.83248  21761526.90848
 20  5 16  0 43 45.9980000  0  7G04G08G14G16G26G27G31                0.000351801
  21275715.475 5  -2820216.441 5  -2184564.09447  21275717.83447
  21744661.936 6  -3812474.473 6  -2875768.05949  21744663.36149
  22833872.834 4   -206722.598 4   -158962.48846  22833872.94746
  20331664.607 6  -1611504.348 6  -1246227.58248  20331662.67448
  21301754.811 6  -1187102.348 6   -903880.73049  21301755.16249
  19932605.373 7  -3024832.063 7  -2300642.94949  19932605.21749
  21761043.873 6  -1341002.113 6  -1019851.54748  21761042.18948
 20  5 16  0 43 46.9980000  0  7G04G08G14G16G26G27G31                0.000349262
  21274653.553 5  -2825796.410 5  -2188912.11747  21274655.88947
  21743302.295 6  -3819620.156 6  -2881336.11749  21743303.30749
  22833782.592 4   -207194.273 4   -159330.03146  22833783.50646
  20331046.217 6  -1614756.242 6  -1248761.52348  20331044.05348
  21301312.678 6  -1189423.160 6   -905689.15249  21301313.72949
  19931539.912 7  -3030432.980 7  -2305007.30949  19931539.80749
  21760559.045 6  -1343549.211 6  -1021836.30148  21760557.46748
 20  5 16  0 43 47.9980000  0  7G04G08G14G16G26G27G31                0.000346722
  21273591.584 5  -2831376.066 5  -2193259.89847  21273594.01847
  21741942.248 6  -3826765.770 6  -2886904.13349  21741943.99049
  22833693.045 4   -207666.098 4   -159697.68046  22833693.38546
  20330427.217 6  -1618008.223 6  -1251295.53548  20330425.18248
  21300870.779 6  -1191744.227 6   -907497.77349  21300871.93249
  19930473.881 7  -3036033.559 7  -2309371.39849  19930474.24849
  21760074.201 6  -1346096.332 6  -1023821.07448  21760072.75648
 20  5 16  0 43 48.9980000  0  7G04G08G14G16G26G27G31                0.000344181
  21272530.068 5  -2836955.484 5  -2197607.49647  21272532.55747
  21740582.756 6  -3833911.355 6  -2892472.12549  21740583.67449
  22833602.959 4   -208138.048 4   -160065.44646  22833603.76446
  20329808.193 6  -1621260.281 6  -1253829.60548  20329806.08048
  21300428.732 6  -1194065.559 6   -909306.60949  21300430.12749
  19929408.037 7  -3041633.813 7  -2313735.22749  19929407.96349
  21759589.482 6  -1348643.496 6  -1025805.87548  21759587.86548
 20  5 16  0 43 49.9980000  0  7G04G08G14G16G26G27G31                0.000341640
  21271468.162 5  -2842534.637 5  -2201954.89847  21271470.69747
  21739222.998 6  -3841056.883 6  -2898040.07049  21739224.14349
  22833513.490 4   -208610.176 4   -160433.33646  22833514.11146
  20329189.311 6  -1624512.426 6  -1256363.75048  20329187.35048
  21299986.975 6  -1196387.160 6   -911115.64849  21299988.32249
  19928342.389 7  -3047233.746 7  -2318098.81649  19928342.31849
  21759105.037 6  -1351190.680 6  -1027790.69548  21759103.20148
 20  5 16  0 43 50.9980000  0  7G04G08G14G16G26G27G31                0.000339100
  21270406.607 5  -2848113.617 5  -2206302.15647  21270408.97547
  21737863.482 6  -3848202.469 6  -2903608.05549  21737864.26049
  22833423.826 4   -209082.516 4   -160801.39546  22833424.02546
  20328570.436 6  -1627764.734 6  -1258898.01648  20328568.36548
  21299545.279 6  -1198709.113 6   -912924.96549  21299546.90849
  19927277.061 7  -3052833.461 7  -2322462.22749  19927276.93649
  21758620.154 6  -1353737.969 6  -1029775.59848  21758618.45548
 20  5 16  0 43 51.9980000  0  7G04G08G14G16G26G27G31                0.000336559
  21269345.193 5  -2853692.176 5  -2210649.07847  21269347.18647
  21736503.639 6  -3855347.832 6  -2909175.87149  21736504.78349
  22833333.975 4   -209554.801 4   -161169.42646  22833334.16646
  20327951.748 6  -1631016.957 6  -1261432.21148  20327949.77948
  21299103.404 6  -1201031.176 6   -914734.36749  21299104.88549
  19926211.068 7  -3058432.672 7  -2326825.24649  19926211.42049
  21758135.568 6  -1356285.145 6  -1031760.41448  21758134.01848
 20  5 16  0 43 52.9980000  0  7G04G08G14G16G26G27G31                0.000334019
  21268283.193 5  -2859270.461 5  -2214995.80547  21268285.67047
  21735143.803 6  -3862493.141 6  -2914743.64549  21735145.32249
  22833243.873 4   -210027.266 4   -161537.58246  22833244.26446
  20327333.209 6  -1634269.266 6  -1263966.47748  20327330.58848
  21298661.451 6  -1203353.477 6   -916543.95349  21298662.72149
  19925145.732 7  -3064031.555 7  -2331188.00849  19925146.15849
  21757651.053 6  -1358832.344 6  -1033745.25048  21757649.14348
 20  5 16  0 43 53.9980000  0  7G04G08G14G16G26G27G31                0.000331476
  21267222.232 5  -2864848.473 5  -2219342.30547  21267224.43947
  21733783.928 6  -3869638.410 6  -2920311.38349  21733785.38149
  22833153.686 4   -210499.863 4   -161905.84446  22833154.06846
  20326714.068 6  -1637521.668 6  -1266500.81648  20326711.86948
  21298219.647 6  -1205676.098 6   -918353.79349  21298220.62349
  19924080.443 7  -3069630.117 7  -2335550.53149  19924080.46749
  21757166.131 6  -1361379.574 6  -1035730.10248  21757164.44348
 20  5 16  0 43 54.9980000  0  7G04G08G14G16G26G27G31                0.000328936
  21266160.928 5  -2870426.309 5  -2223688.67247  21266162.99047
  21732424.334 6  -3876783.707 6  -2925879.14549  21732426.01449
  22833063.998 4   -210972.672 4   -162274.27346  22833063.81846
  20326095.076 6  -1640774.215 6  -1269035.26648  20326092.86148
  21297777.748 6  -1207999.020 6   -920163.85949  21297779.05349
  19923015.365 7  -3075228.426 7  -2339912.84849  19923015.08849
  21756681.607 6  -1363926.898 6  -1037715.02348  21756679.83048
 20  5 16  0 43 55.9980000  0  7G04G08G14G16G26G27G31                0.000326395
  21265099.076 5  -2876003.926 5  -2228034.86347  21265101.31447
  21731064.834 6  -3883928.980 6  -2931446.89149  21731066.16649
  22832973.748 4   -211445.613 4   -162642.79746  22832974.13946
  20325475.600 6  -1644026.879 6  -1271569.81348  20325473.97148
  21297335.943 6  -1210322.262 6   -921974.18049  21297336.45149
  19921950.014 7  -3080826.492 7  -2344274.98049  19921949.68649
  21756196.482 6  -1366474.332 6  -1039700.03948  21756194.80748
 20  5 16  0 43 56.9980000  0  7G04G08G14G16G26G27G31                0.000323853
  21264038.045 5  -2881581.152 5  -2232380.76247  21264040.36947
  21729705.178 6  -3891074.105 6  -2937014.52049  21729706.15449
  22832884.647 4   -211918.629 4   -163011.37946  22832884.00646
  20324857.272 6  -1647279.512 6  -1274104.34048  20324855.10048
  21296893.100 6  -1212645.648 6   -923784.61349  21296894.69349
  19920884.740 7  -3086424.086 7  -2348636.74249  19920884.52249
  21755711.740 6  -1369021.637 6  -1041684.95748  21755710.15848
 20  5 16  0 43 57.9980000  0  7G04G08G14G16G26G27G31                0.000321310
  21262976.897 5  -2887158.086 5  -2236726.42647  21262979.33847
  21728345.748 6  -3898219.133 6  -2942582.07049  21728346.83049
  22832794.568 4   -212391.715 4   -163380.02346  22832794.34646
  20324237.975 6  -1650532.191 6  -1276638.89548  20324235.86948
  21296451.381 6  -1214969.242 6   -925595.20349  21296452.38549
  19919819.623 7  -3092021.316 7  -2352998.21949  19919819.17849
  21755227.154 6  -1371568.926 6  -1043669.86348  21755225.73648
 20  5 16  0 43 58.9980000  0  7G04G08G14G16G26G27G31                0.000318768
  21261915.553 5  -2892734.758 5  -2241071.88347  21261917.81147
  21726985.959 6  -3905364.086 6  -2948149.56649  21726987.21349
  22832703.397 4   -212864.965 4   -163748.79346  22832703.69746
  20323618.670 6  -1653784.938 6  -1279173.50048  20323617.17048
  21296009.022 6  -1217293.129 6   -927406.02749  21296010.25249
  19918754.420 7  -3097618.246 7  -2357359.46149  19918754.45549
  21754742.162 6  -1374116.281 6  -1045654.81648  21754740.92848
 20  5 16  0 43 59.9980000  0  7G04G08G14G16G26G27G31                0.000316225
  21260854.061 5  -2898311.121 5  -2245417.09447  21260856.85047
  21725626.186 6  -3912508.945 6  -2953716.98849  21725627.52249
  22832613.818 4   -213338.270 4   -164117.60246  22832613.69346
  20322999.662 6  -1657037.715 6  -1281708.12948  20322998.11548
  21295567.014 6  -1219617.223 6   -929217.01249  21295567.69349
  19917689.545 7  -3103214.785 7  -2361720.40649  19917689.57649
  21754257.147 6  -1376663.578 6  -1047639.71948  21754255.85748
 20  5 16  0 44  0.9980000  0  7G04G08G14G16G26G27G31                0.000313684
  21259793.756 5  -2903887.195 5  -2249762.08647  21259795.67447
  21724266.670 6  -3919653.789 6  -2959284.39549  21724268.18249
  22832524.092 4   -213811.727 4   -164486.53146  22832523.41646
  20322381.147 6  -1660290.574 6  -1284242.82048  20322378.97548
  21295124.803 6  -1221941.566 6   -931028.18449  21295125.71349
  19916624.857 7  -3108810.988 7  -2366081.08649  19916624.40449
  21753772.490 6  -1379210.910 6  -1049624.65248  21753770.98248
 20  5 16  0 44  1.9980000  0  7G04G08G14G16G26G27G31                0.000311140
  21258732.490 5  -2909462.996 5  -2254106.86347  21258734.15447
  21722906.795 6  -3926798.574 6  -2964851.76249  21722908.33049
  22832434.131 4   -214285.352 4   -164855.59846  22832433.40846
  20321761.748 6  -1663543.543 6  -1286777.60548  20321760.17448
  21294682.373 6  -1224266.195 6   -932839.59049  21294683.09249
  19915560.139 7  -3114406.883 7  -2370441.52349  19915560.04549
  21753287.904 6  -1381758.293 6  -1051609.62148  21753286.57648
 20  5 16  0 44  2.9980000  0  7G04G08G14G16G26G27G31                0.000308598
  21257671.147 6  -2915038.621 6  -2258451.51247  21257673.19747
  21721547.592 6  -3933943.375 6  -2970419.14149  21721548.26449
  22832343.014 5   -214759.118 5   -165224.77646  22832343.38146
  20321143.162 6  -1666796.648 6  -1289312.49648  20321141.64748
  21294239.678 6  -1226591.211 6   -934651.28949  21294240.75249
  19914495.170 7  -3120002.543 7  -2374801.78149  19914495.02549
  21752803.670 6  -1384305.770 6  -1053594.66848  21752802.15048
 20  5 16  0 44  3.9980000  0  7G04G08G14G16G26G27G31                0.000306055
  21256610.428 6  -2920613.922 6  -2262795.90248  21256611.48248
  21720187.990 6  -3941088.113 6  -2975986.45349  21720188.99849
  22832252.990 4   -215233.074 4   -165594.11746  22832253.18946
  20320523.772 6  -1670049.848 6  -1291847.46948  20320521.60448
  21293796.873 6  -1228916.457 6   -936463.16849  21293798.63949
  19913430.459 7  -3125597.828 7  -2379161.74649  19913430.34649
  21752318.717 6  -1386853.242 6  -1055579.70748  21752317.19348
 20  5 16  0 44  4.9980000  0  7G04G08G14G16G26G27G31                0.000303511
  21255549.350 6  -2926189.000 6  -2267140.12948  21255550.01048
  21718827.772 6  -3948232.781 6  -2981553.70749  21718829.22949
  22832163.514 5   -215707.109 5   -165963.51647  22832162.84247
  20319904.818 6  -1673303.086 6  -1294382.47748  20319902.69348
  21293354.951 6  -1231241.910 6   -938275.21549  21293356.05349
  19912365.475 7  -3131192.813 7  -2383521.46949  19912365.67049
  21751833.412 6  -1389400.727 6  -1057564.75048  21751831.83848
 20  5 16  0 44  5.9980000  0  7G04G08G14G16G26G27G31                0.000300968
  21254488.490 6  -2931763.633 6  -2271484.00848  21254488.95148
  21717468.772 6  -3955377.207 6  -2987120.78149  21717469.73649
  22832072.506 4   -216181.125 4   -166332.88747  22832072.68247
  20319285.850 6  -1676556.227 6  -1296917.38748  20319283.41648
  21292911.959 6  -1233567.469 6   -940087.34849  21292913.24849
  19911300.865 7  -3136787.277 7  -2387880.79749  19911301.08049
  21751348.928 6  -1391948.090 6  -1059549.69948  21751347.15048
 20  5 16  0 44  6.9980000  0  7G04G08G14G16G26G27G31                0.000298424
  21253428.068 6  -2937337.953 6  -2275827.63748  21253428.01048
  21716109.279 6  -3962521.527 6  -2992687.78949  21716110.44349
  22831983.178 5   -216655.234 5   -166702.34047  22831982.59647
  20318666.772 6  -1679809.391 6  -1299452.31648  20318664.01848
  21292469.592 6  -1235893.227 6   -941899.62549  21292470.88149
  19910236.584 7  -3142381.352 7  -2392239.82049  19910236.58049
  21750864.287 6  -1394495.398 6  -1061534.60948  21750862.45148
 20  5 16  0 44  7.9980000  0  7G04G08G14G16G26G27G31                0.000295881
  21252367.357 6  -2942911.973 6  -2280171.03148  21252367.03348
  21714749.701 6  -3969665.781 6  -2998254.75049  21714750.76849
  22831892.764 5   -217129.492 5   -167071.88747  22831892.33847
  20318047.365 6  -1683062.637 6  -1301987.30548  20318045.10048
  21292026.842 6  -1238219.234 6   -943712.09449  21292028.44349
  19909172.022 7  -3147975.102 7  -2396598.58249  19909171.93249
  21750379.748 6  -1397042.738 6  -1063519.55148  21750377.69348
 20  5 16  0 44  8.9980000  0  7G04G08G14G16G26G27G31                0.000293337
  21251306.576 6  -2948485.664 6  -2284514.16448  21251306.29548
  21713390.311 6  -3976809.922 6  -3003821.61749  21713391.15849
  22831802.256 5   -217603.793 5   -167441.46947  22831801.93247
  20317428.287 6  -1686315.867 6  -1304522.28148  20317426.34648
  21291584.264 6  -1240545.441 6   -945524.72349  21291585.40849
  19908107.553 7  -3153568.457 7  -2400957.04749  19908107.78749
  21749894.865 6  -1399590.035 6  -1065504.46148  21749893.16248
 20  5 16  0 44  9.9980000  0  7G04G08G14G16G26G27G31                0.000290792
  21250246.264 6  -2954059.090 6  -2288857.08648  21250245.72548
  21712030.475 6  -3983954.020 6  -3009388.44549  21712032.05749
  22831711.920 4   -218078.230 4   -167811.15647  22831711.54147
  20316809.514 6  -1689569.188 6  -1307057.33648  20316807.09248
  21291141.623 6  -1242871.914 6   -947337.56349  21291143.13549
  19907043.404 7  -3159161.473 7  -2405315.24249  19907043.50649
  21749409.975 6  -1402137.352 6  -1067489.38748  21749408.17448
 20  5 16  0 44 10.9980000  0  7G04G08G14G16G26G27G31                0.000288248
  21249185.498 6  -2959632.223 6  -2293199.78548  21249185.46748
  21710671.647 6  -3991098.035 6  -3014955.21949  21710672.68249
  22831621.342 4   -218552.758 4   -168180.91447  22831621.45147
  20316190.076 6  -1692822.543 6  -1309592.42648  20316187.83848
  21290698.709 6  -1245198.605 6   -949150.56649  21290700.01449
  19905979.123 7  -3164754.133 7  -2409673.15649  19905979.34649
  21748924.928 6  -1404684.652 6  -1069474.30148  21748923.44748
 20  5 16  0 44 11.9980000  0  7G04G08G14G16G26G27G31                0.000285704
  21248125.139 6  -2965205.125 6  -2297542.30948  21248124.63948
  21709312.186 6  -3998241.984 6  -3020521.92649  21709313.21749
  22831530.748 5   -219027.461 5   -168550.80947  22831531.17447
  20315571.162 6  -1696076.020 6  -1312127.60248  20315568.74448
  21290255.975 6  -1247525.629 6   -950963.83249  21290257.41649
  19904914.881 7  -3170346.512 7  -2414030.85249  19904915.26849
  21748440.311 6  -1407232.012 6  -1071459.25848  21748438.49448
 20  5 16  0 44 12.9980000  0  7G04G08G14G16G26G27G31                0.000283159
  21247064.217 6  -2970777.719 6  -2301884.59048  21247063.93248
  21707952.248 6  -4005385.910 6  -3026088.62149  21707953.70549
  22831440.975 4   -219502.273 4   -168920.80947  22831440.60747
  20314952.053 6  -1699329.551 6  -1314662.82848  20314949.70548
  21289813.061 6  -1249852.883 6   -952777.27749  21289814.48249
  19903850.897 7  -3175938.539 7  -2418388.28149  19903850.99849
  21747955.764 6  -1409779.391 6  -1073444.23048  21747953.96348
 20  5 16  0 44 13.9980000  0  7G04G08G14G16G26G27G31                0.000280615
  21246004.373 6  -2976349.996 6  -2306226.62548  21246003.92448
  21706592.826 6  -4012529.691 6  -3031655.20349  21706594.75249
  22831349.811 4   -219977.145 4   -169290.84047  22831349.98647
  20314332.998 6  -1702583.086 6  -1317198.04748  20314330.63948
  21289370.107 6  -1252180.316 6   -954590.86349  21289371.76449
  19902786.529 7  -3181530.172 7  -2422745.39849  19902786.85449
  21747470.881 6  -1412326.742 6  -1075429.18048  21747469.60748
 20  5 16  0 44 14.9980000  0  7G04G08G14G16G26G27G31                0.000278070
  21244944.107 6  -2981921.941 6  -2310568.40248  21244943.83848
  21705232.990 6  -4019673.367 6  -3037221.69949  21705234.59649
  22831260.748 4   -220452.199 4   -169661.01647  22831259.73647
  20313713.873 6  -1705836.668 6  -1319733.30948  20313711.48648
  21288927.193 6  -1254507.953 6   -956404.60949  21288928.61549
  19901722.857 7  -3187121.426 7  -2427102.21549  19901722.94349
  21746986.225 6  -1414874.051 6  -1077414.09448  21746984.69348
 20  5 16  0 44 15.9980000  0  7G04G08G14G16G26G27G31                0.000275524
  21243883.803 6  -2987493.574 6  -2314909.93448  21243883.20148
  21703874.084 6  -4026816.938 6  -3042788.11749  21703875.45949
  22831169.334 4   -220927.258 4   -170031.19547  22831169.57247
  20313095.006 6  -1709090.285 6  -1322268.59448  20313092.64748
  21288484.436 6  -1256835.844 6   -958218.55149  21288485.56149
  19900658.936 7  -3192712.313 7  -2431458.75049  19900658.99449
  21746501.748 6  -1417421.344 6  -1079399.00048  21746499.76848
 20  5 16  0 44 16.9980000  0  7G04G08G14G16G26G27G31                0.000272980
  21242823.467 6  -2993064.949 6  -2319251.27048  21242823.05748
  21702514.959 6  -4033960.438 6  -3048354.48049  21702516.35749
  22831078.811 4   -221402.453 4   -170401.47747  22831079.25247
  20312475.678 6  -1712343.969 6  -1324803.93048  20312473.55348
  21288041.490 6  -1259163.965 6   -960032.67249  21288042.86549
  19899594.639 7  -3198302.871 7  -2435815.03149  19899594.77549
  21746016.936 6  -1419968.660 6  -1081383.91848  21746015.02548
 20  5 16  0 44 17.9980000  0  7G04G08G14G16G26G27G31                0.000270433
  21241763.264 6  -2998636.035 6  -2323592.37548  21241763.02548
  21701155.451 6  -4041103.871 6  -3053920.79749  21701156.58049
  22830988.076 4   -221877.777 4   -170771.85947  22830988.69747
  20311856.428 6  -1715597.691 6  -1327339.29748  20311854.22148
  21287598.318 6  -1261492.352 6   -961847.00049  21287599.60749
  19898531.053 7  -3203893.066 7  -2440171.02749  19898531.29149
  21745531.982 6  -1422515.973 6  -1083368.83648  21745530.34248
 20  5 16  0 44 18.9980000  0  7G04G08G14G16G26G27G31                0.000267887
  21240703.045 6  -3004206.828 6  -2327933.25048  21240703.15848
  21699796.318 6  -4048247.238 6  -3059487.05149  21699797.50649
  22830899.193 4   -222353.223 4   -171142.34047  22830898.27547
  20311237.107 6  -1718851.504 6  -1329874.73848  20311234.93948
  21287155.084 6  -1263820.965 6   -963661.50049  21287156.31149
  19897467.490 7  -3209482.934 7  -2444526.76649  19897467.65849
  21745047.225 6  -1425063.297 6  -1085353.77048  21745045.54148
 20  5 16  0 44 19.9980000  0  7G04G08G14G16G26G27G31                0.000265341
  21239643.506 6  -3009777.434 6  -2332273.98048  21239643.29148
  21698436.998 6  -4055390.629 6  -3065053.32849  21698438.22549
  22830808.686 4   -222828.918 4   -171513.02747  22830807.56447
  20310617.826 6  -1722105.473 6  -1332410.29748  20310615.26048
  21286711.897 6  -1266149.953 6   -965476.29349  21286713.11549
  19896403.537 7  -3215072.566 7  -2448882.33249  19896403.97549
  21744562.670 6  -1427610.746 6  -1087338.79748  21744561.01448
 20  5 16  0 44 20.9980000  0  7G04G08G14G16G26G27G31                0.000262796
  21238583.123 6  -3015347.711 6  -2336614.45348  21238582.81448
  21697077.717 6  -4062533.883 6  -3070619.49249  21697078.96749
  22830717.529 4   -223304.621 4   -171883.71547  22830717.28747
  20309998.990 6  -1725359.434 6  -1334945.85248  20309996.20148
  21286268.818 6  -1268479.098 6   -967291.21549  21286269.83849
  19895340.201 7  -3220661.766 7  -2453237.54749  19895340.39749
  21744077.818 6  -1430158.129 6  -1089323.77048  21744075.86548
 20  5 16  0 44 21.9980000  0  7G04G08G14G16G26G27G31                0.000260250
  21237523.264 6  -3020917.691 6  -2340954.69548  21237522.74848
  21695718.006 6  -4069677.066 6  -3076185.60549  21695719.54949
  22830626.850 4   -223780.477 4   -172254.51647  22830626.87347
  20309379.482 6  -1728613.469 6  -1337481.46548  20309377.33848
  21285825.475 6  -1270808.488 6   -969106.32849  21285826.77549
  19894276.725 7  -3226250.664 7  -2457592.53549  19894276.74449
  21743592.740 6  -1432705.520 6  -1091308.75048  21743591.05748
 20  5 16  0 44 22.9980000  0  7G04G08G14G16G26G27G31                0.000257704
  21236463.193 6  -3026487.391 6  -2345294.71948  21236463.08048
  21694358.873 6  -4076820.164 6  -3081751.65249  21694360.23249
  22830536.389 4   -224256.438 4   -172625.39547  22830536.30747
  20308760.342 6  -1731867.559 6  -1340017.11348  20308757.95148
  21285382.092 6  -1273138.145 6   -970921.64149  21285383.63949
  19893213.365 7  -3231839.180 7  -2461947.21949  19893213.39349
  21743108.240 6  -1435252.906 6  -1093293.73048  21743106.61148
 20  5 16  0 44 23.9980000  0  7G04G08G14G16G26G27G31                0.000255156
  21235403.443 6  -3032056.813 6  -2349634.53548  21235403.38548
  21692999.912 6  -4083963.199 6  -3087317.65649  21693000.91649
  22830446.084 4   -224732.500 4   -172996.34846  22830445.65046
  20308141.147 6  -1735121.695 6  -1342552.80948  20308138.59248
  21284938.717 6  -1275468.059 6   -972737.15249  21284939.93649
  19892149.998 7  -3237427.371 7  -2466301.65249  19892150.22949
  21742623.311 6  -1437800.313 6  -1095278.72348  21742621.98648
 20  5 16  0 44 24.9980000  0  7G04G08G14G16G26G27G31                0.000252609
  21234343.631 6  -3037625.879 6  -2353974.07048  21234343.60748
  21691640.342 6  -4091106.102 6  -3092883.55949  21691641.60449
  22830355.295 4   -225208.684 4   -173367.40646  22830354.69346
  20307522.147 6  -1738375.883 6  -1345088.53548  20307519.44748
  21284495.428 6  -1277798.141 6   -974552.79749  21284496.24849
  19891086.326 7  -3243015.168 7  -2470655.77349  19891086.69349
  21742138.803 6  -1440347.691 6  -1097263.69548  21742137.01048
 20  5 16  0 44 25.9980000  0  7G04G08G14G16G26G27G31                0.000250063
  21233284.092 6  -3043194.625 6  -2358313.34848  21233283.77948
  21690281.436 6  -4098248.918 6  -3098449.38749  21690282.45149
  22830264.545 4   -225684.906 4   -173738.49647  22830263.89347
  20306903.006 6  -1741630.078 6  -1347624.27348  20306900.17848
  21284051.647 6  -1280128.438 6   -976368.61349  21284053.18249
  19890023.225 7  -3248602.551 7  -2475009.58249  19890023.15449
  21741654.053 6  -1442895.020 6  -1099248.62548  21741652.43248
 20  5 16  0 44 26.9980000  0  7G04G08G14G16G26G27G31                0.000247515
  21232224.678 6  -3048763.082 6  -2362652.40648  21232224.23248
  21688922.201 6  -4105391.617 6  -3104015.13349  21688923.45949
  22830174.147 4   -226161.238 4   -174109.67246  22830173.61546
  20306283.600 6  -1744884.309 6  -1350160.03548  20306281.08048
  21283608.264 6  -1282458.961 6   -978184.60549  21283609.73649
  19888960.193 7  -3254189.594 7  -2479363.12149  19888960.17449
  21741169.404 6  -1445442.355 6  -1101233.56648  21741167.94348
 20  5 16  0 44 27.9980000  0  7G04G08G14G16G26G27G31                0.000244968
  21231165.139 6  -3054331.172 6  -2366991.18048  21231164.59248
  21687562.553 6  -4112534.188 6  -3109580.77049  21687564.04149
  22830083.225 4   -226637.648 4   -174480.89547  22830082.65847
  20305664.076 6  -1748138.516 6  -1352695.78148  20305661.85748
  21283164.748 6  -1284789.656 6   -980000.73449  21283165.89349
  19887897.154 7  -3259776.227 7  -2483716.34849  19887897.27249
  21740684.857 6  -1447989.637 6  -1103218.46148  21740682.84648
 20  5 16  0 44 28.9980000  0  7G04G08G14G16G26G27G31                0.000242420
  21230105.725 6  -3059898.941 6  -2371329.69948  21230105.22548
  21686203.522 6  -4119676.668 6  -3115146.34449  21686204.99449
  22829992.857 4   -227114.149 4   -174852.19247  22829992.08447
  20305044.787 6  -1751392.781 6  -1355231.57448  20305042.55348
  21282721.420 6  -1287120.570 6   -981817.03149  21282722.21749
  19886834.107 7  -3265362.480 7  -2488069.27049  19886834.18649
  21740199.897 6  -1450536.875 6  -1105203.32048  21740198.12348
 20  5 16  0 44 29.9980000  0  7G04G08G14G16G26G27G31                0.000239874
  21229045.850 6  -3065466.383 6  -2375667.96548  21229045.84248
  21684844.217 6  -4126819.020 6  -3120711.81649  21684846.05749
  22829901.842 4   -227590.660 4   -175223.50847  22829901.79147
  20304425.811 6  -1754647.063 6  -1357767.37548  20304423.31448
  21282277.693 6  -1289451.711 6   -983633.50849  21282278.76049
  19885771.029 7  -3270948.332 7  -2492421.88349  19885771.22149
  21739715.225 6  -1453084.086 6  -1107188.15648  21739713.61948
 20  5 16  0 44 30.9980000  0  7G04G08G14G16G26G27G31                0.000237326
  21227986.178 6  -3071033.641 6  -2380006.08648  21227986.60748
  21683485.295 6  -4133961.395 6  -3126277.29749  21683486.60449
  22829811.303 4   -228067.441 4   -175595.03946  22829810.85046
  20303806.522 6  -1757901.488 6  -1360303.29348  20303804.02948
  21281834.232 6  -1291783.145 6   -985450.21149  21281835.40449
  19884708.240 7  -3276533.953 7  -2496774.31349  19884708.05349
  21739230.576 6  -1455631.391 6  -1109173.07448  21739228.70548
 20  5 16  0 44 31.9980000  0  7G04G08G14G16G26G27G31                0.000234777
  21226927.568 6  -3076600.656 6  -2384344.02048  21226926.78348
  21682126.068 6  -4141103.754 6  -3131842.77349  21682127.70549
  22829720.506 4   -228544.438 4   -175966.72346  22829719.94746
  20303187.131 6  -1761156.035 6  -1362839.30948  20303184.57248
  21281390.725 6  -1294114.922 6   -987267.18049  21281391.58449
  19883645.311 7  -3282119.289 7  -2501126.52749  19883645.41249
  21738745.537 6  -1458178.781 6  -1111158.05948  21738744.04148
 20  5 16  0 44 32.9980000  0  7G04G08G14G16G26G27G31                0.000232229
  21225867.404 6  -3082167.359 6  -2388681.71948  21225867.69748
  21680766.639 6  -4148246.012 6  -3137408.16449  21680768.60049
  22829629.811 5   -229021.480 5   -176338.44947  22829629.53747
  20302568.076 6  -1764410.621 6  -1365375.35248  20302565.19348
  21280946.607 6  -1296446.906 6   -989084.30949  21280947.80349
  19882582.365 7  -3287704.230 7  -2505478.42649  19882582.78749
  21738260.818 6  -1460726.133 6  -1113143.00448  21738259.14748
 20  5 16  0 44 33.9980000  0  7G04G08G14G16G26G27G31                0.000229681
  21224808.522 6  -3087733.613 6  -2393019.05548  21224808.40848
  21679407.826 6  -4155388.055 6  -3142973.39149  21679409.27249
  22829539.022 5   -229498.492 5   -176710.14546  22829538.44746
  20301948.162 6  -1767665.113 6  -1367911.32448  20301945.84648
  21280503.154 6  -1298778.992 6   -990901.52049  21280504.06149
  19881519.443 7  -3293288.688 7  -2509829.95749  19881519.87749
  21737776.561 6  -1463273.375 6  -1115127.86748  21737774.70148
 20  5 16  0 44 34.9980000  0  7G04G08G14G16G26G27G31                0.000227133
  21223749.490 5  -3093299.613 5  -2397356.20348  21223749.50648
  21678048.865 6  -4162530.008 6  -3148538.55149  21678050.24849
  22829448.147 5   -229975.711 5   -177081.99647  22829447.86147
  20301329.162 6  -1770919.668 6  -1370447.33648  20301326.93948
  21280059.701 6  -1301111.309 6   -992718.90649  21280060.15849
  19880456.732 7  -3298872.797 7  -2514181.20749  19880457.23649
  21737291.443 6  -1465820.586 6  -1117112.70348  21737289.65048
 20  5 16  0 44 35.9980000  0  7G04G08G14G16G26G27G31                0.000224583
  21222689.904 5  -3098865.223 5  -2401693.03947  21222690.27247
  21676689.732 6  -4169671.914 6  -3154103.67649  21676691.28349
  22829356.998 4   -230452.871 4   -177453.78947  22829356.74047
  20300709.342 6  -1774174.227 6  -1372983.34048  20300707.41248
  21279615.506 6  -1303443.867 6   -994536.49649  21279615.66249
  19879394.623 7  -3304456.559 7  -2518532.18449  19879395.03349
  21736806.920 6  -1468367.805 6  -1119097.57048  21736805.05748
 20  5 16  0 44 36.9980000  0  7G04G08G14G16G26G27G31                0.000222034
  21221631.467 4  -3104430.543 4  -2406029.66047  21221631.46747
  21675330.943 6  -4176813.664 6  -3159668.67249  21675331.83849
  22829266.147 3   -230930.234 3   -177825.71147  22829266.19747
  20300090.279 6  -1777428.836 6  -1375519.39148  20300087.92848
  21279171.014 6  -1305776.621 6   -996354.22749  21279171.70549
  19878332.123 7  -3310039.938 7  -2522882.85549  19878332.36549
  21736322.248 6  -1470914.973 6  -1121082.39148  21736320.61948
 20  5 16  0 44 37.9980000  0  7G04G08G14G16G26G27G31                0.000219486
  21220571.873 4  -3109995.570 4  -2410366.05947  21220572.80747
  21673971.881 6  -4183955.301 6  -3165233.58249  21673973.43249
  22829175.092 3   -231407.656 3   -178197.71947  22829175.52247
  20299471.115 6  -1780683.473 6  -1378055.46548  20299468.80348
  21278727.350 6  -1308109.570 6   -998172.11748  21278727.89348
  19877269.897 7  -3315622.918 7  -2527233.21549  19877269.45149
  21735837.514 6  -1473462.133 6  -1123067.20348  21735836.07648
 20  5 16  0 44 38.9980000  0  7G04G08G14G16G26G27G31                0.000216936
  21219512.881 4  -3115560.262 4  -2414702.19547  21219513.69747
  21672612.998 6  -4191096.824 6  -3170798.41449  21672614.41649
  22829083.912 3   -231885.145 3   -178569.80147  22829084.72547
  20298851.889 6  -1783938.145 6  -1380591.57048  20298849.50648
  21278283.193 5  -1310442.738 5   -999990.17648  21278283.39748
  19876207.381 7  -3321205.516 7  -2531583.28949  19876207.39349
  21735352.873 6  -1476009.242 6  -1125051.96548  21735351.49048
 20  5 16  0 44 39.9980000  0  7G04G08G14G16G26G27G31                0.000214388
  21218453.748 3  -3121124.672 3  -2419038.09847  21218455.51447
  21671253.982 6  -4198238.246 6  -3176363.16049  21671255.43649
  22828993.061 3   -232362.773 3   -178942.00847  22828993.51447
  20298232.467 6  -1787192.832 6  -1383127.69548  20298230.21348
  21277839.498 5  -1312776.172 5  -1001808.42248  21277839.42048
  19875145.240 7  -3326787.715 7  -2535933.05149  19875145.04149
  21734868.248 6  -1478556.352 6  -1127036.72748  21734866.54548
 20  5 16  0 44 40.9980000  0  7G04G08G14G16G26G27G31                0.000211838
  21217395.045 3  -3126688.746 3  -2423373.73447  21217397.00247
  21669895.162 6  -4205379.582 6  -3181927.84449  21669896.04549
  22828901.951 3   -232840.453 3   -179314.23847  22828902.75647
  20297613.006 6  -1790447.570 6  -1385663.85548  20297610.99848
  21277395.287 5  -1315109.770 5  -1003626.78948  21277395.63548
  19874083.115 7  -3332369.563 7  -2540282.55149  19874083.46349
  21734383.272 6  -1481103.426 6  -1129021.45348  21734382.19348
 20  5 16  0 44 41.9980000  0  7G04G08G14G16G26G27G31                0.000209288
  21216335.982 4  -3132252.551 4  -2427709.16047  21216338.29947
  21668536.029 6  -4212520.852 6  -3187492.46949  21668537.22949
  22828811.412 4   -233318.262 4   -179686.56347  22828812.23247
  20296994.217 6  -1793702.402 6  -1388200.09448  20296991.76848
  21276950.818 6  -1317443.672 6  -1005445.40248  21276950.88548
  19873020.732 7  -3337951.094 7  -2544631.79749  19873020.83449
  21733898.928 6  -1483650.539 6  -1131006.21948  21733897.22548
 20  5 16  0 44 42.9980000  0  7G04G08G14G16G26G27G31                0.000206738
  21215277.709 4  -3137816.145 4  -2432044.42647  21215279.48647
  21667177.029 6  -4219662.117 6  -3193057.09449  21667178.37749
  22828720.834 4   -233796.320 4   -180059.08647  22828720.87747
  20296374.561 6  -1796957.383 6  -1390736.44148  20296372.31848
  21276506.350 5  -1319777.879 5  -1007264.26248  21276506.99448
  19871958.865 7  -3343532.348 7  -2548980.83249  19871959.20549
  21733414.115 6  -1486197.754 6  -1132991.05948  21733412.74048
 20  5 16  0 44 43.9980000  0  7G04G08G14G16G26G27G31                0.000204187
  21214219.092 4  -3143379.406 4  -2436379.43847  21214221.09647
  21665818.365 6  -4226803.250 6  -3198621.60949  21665819.58849
  22828629.717 3   -234274.414 3   -180431.61746  22828630.02546
  20295754.904 6  -1800212.336 6  -1393272.76248  20295752.39348
  21276062.201 5  -1322112.297 5  -1009083.28548  21276062.72148
  19870896.748 7  -3349113.191 7  -2553329.54349  19870896.60749
  21732929.725 6  -1488744.887 6  -1134975.83648  21732927.82648
 20  5 16  0 44 44.9980000  0  7G04G08G14G16G26G27G31                0.000201637
  21213160.967 4  -3148942.352 4  -2440714.20347  21213162.27547
  21664459.326 6  -4233944.297 6  -3204186.06349  21664460.95549
  22828538.670 3   -234752.586 3   -180804.21547  22828538.64747
  20295135.076 6  -1803467.332 6  -1395809.12148  20295133.51048
  21275617.631 5  -1324446.906 5  -1010902.46948  21275618.51448
  19869834.717 7  -3354693.672 7  -2557677.96949  19869835.14749
  21732444.678 6  -1491292.023 6  -1136960.62548  21732443.32248
 20  5 16  0 44 45.9980000  0  7G04G08G14G16G26G27G31                0.000199087
  21212102.154 4  -3154504.895 4  -2445048.64847  21212103.88147
  21663100.584 6  -4241085.160 6  -3209750.37549  21663101.90849
  22828447.842 4   -235230.813 4   -181176.85947  22828447.90447
  20294515.936 6  -1806722.285 6  -1398345.44948  20294514.23248
  21275173.928 5  -1326781.652 5  -1012721.75448  21275174.36548
  19868772.873 7  -3360273.703 7  -2562026.04349  19868773.31449
  21731959.936 6  -1493839.039 6  -1138945.30948  21731958.66648
 20  5 16  0 44 46.9980000  0  7G04G08G14G16G26G27G31                0.000196537
  21211043.740 4  -3160067.102 4  -2449382.83247  21211045.08447
  21661741.467 6  -4248225.891 6  -3215314.57449  21661742.98649
  22828356.193 4   -235709.070 4   -181549.52747  22828356.99847
  20293896.561 6  -1809977.242 6  -1400881.77748  20293894.37748
  21274729.256 5  -1329116.570 5  -1014541.17648  21274730.08448
  19867710.873 7  -3365853.332 7  -2566373.80549  19867711.50249
  21731475.404 6  -1496386.023 6  -1140929.97348  21731473.60748
 20  5 16  0 44 47.9980000  0  7G04G08G14G16G26G27G31                0.000193987
  21209985.498 4  -3165628.988 4  -2453716.75847  21209987.17447
  21660382.686 6  -4255366.535 6  -3220878.71549  21660384.81849
  22828265.162 3   -236187.430 3   -181922.27747  22828266.32247
  20293277.045 6  -1813232.227 6  -1403418.12948  20293275.19748
  21274284.998 5  -1331451.730 5  -1016360.77748  21274285.59248
  19866649.451 7  -3371432.582 7  -2570721.26649  19866649.77949
  21730990.389 6  -1498932.988 6  -1142914.62948  21730988.99448
