     2.10           OBSERVATION DATA    Mixed(MIXED)        RINEX VERSION / TYPE
cnvtToRINEX 3.07.0  convertToRINEX OPR  19-May-20 12:31 UTC PGM / RUN BY / DATE 
----------------------------------------------------------- COMMENT             
GBA0                                                        MARKER NAME         
GBA0                                                        MARKER NUMBER       
GNSS Observer       Trimble                                 OBSERVER / AGENCY   
0440102809          5700                2.32                REC # / TYPE / VERS 
                    TRM39105.00                             ANT # / TYPE        
 -3050761.4151  4927685.9271  2654116.5852                  APPROX POSITION XYZ 
        0.0000        0.0000        0.0000                  ANTENNA: DELTA H/E/N
     1     1     0                                          WAVELENGTH FACT L1/2
     4    C1    L1    L2    P2                              # / TYPES OF OBSERV 
  2020     5    16     3    15    3.0000000     GPS         TIME OF FIRST OBS   
  2020     5    16     5     0   45.0000000     GPS         TIME OF LAST OBS    
     0                                                      RCV CLOCK OFFS APPL 
    18                                                      LEAP SECONDS        
    13                                                      # OF SATELLITES     
   G01  6343  6343  6343  6343                              PRN / # OF OBS      
   G03   834   790   809   809                              PRN / # OF OBS      
   G04   460   392   193   193                              PRN / # OF OBS      
   G07  6343  6343  6343  6343                              PRN / # OF OBS      
   G08  5402  5376  5376  5376                              PRN / # OF OBS      
   G09  3234  3194  3085  3085                              PRN / # OF OBS      
   G11  6343  6343  6343  6343                              PRN / # OF OBS      
   G16  4733  4704  4201  4201                              PRN / # OF OBS      
   G17   729   701   676   676                              PRN / # OF OBS      
   G22  1033   992   740   740                              PRN / # OF OBS      
   G27   525   398    34    34                              PRN / # OF OBS      
   G28  1604  1585  1274  1274                              PRN / # OF OBS      
   G30  5795  5781  5795  5795                              PRN / # OF OBS      
CARRIER PHASE MEASUREMENTS: PHASE SHIFTS REMOVED            COMMENT             
                                                            END OF HEADER       
 20  5 16  3 15  3.0000000  0  6G01G07G08G09G11G16                   0.000397833
  22564918.37516    -92153.72316    -32675.59859  22564918.82459
  22543775.09416    -61926.03116     -2086.00459  22543772.34859
  20785490.55517    -42392.10217    -24429.04759  20785490.34059
  23381817.83615    -24051.84415     -1678.21558  23381818.42258
  20663377.16416    -71089.77716    -22773.87558  20663374.45358
  23088321.54714     -9651.53114                
 20  5 16  3 15  4.0000000  0  6G01G07G08G09G11G16                   0.000395445
  22563543.219 6    -99376.289 6    -38303.57449  22563544.48849
  22542505.000 6    -68603.266 6     -7289.05949  22542501.81649
  20785006.961 7    -44934.180 7    -26409.88749  20785006.36749
  23381401.094 5    -26243.902 5     -3386.33248  23381401.37148
  20662383.453 6    -76310.148 6    -26841.68448  20662381.58248
  23087894.156 4    -11894.559 4                
 20  5 16  3 15  5.0000000  0  6G01G07G08G09G11G16                   0.000393053
  22562168.977 6   -106602.215 6    -43934.16449  22562170.50049
  22541233.094 6    -75283.770 6    -12494.62549  22541230.37549
  20784522.281 7    -47479.551 7    -28393.29349  20784521.92249
  23380983.406 5    -28439.203 5     -5096.95748  23380983.69948
  20661389.750 6    -81533.559 6    -30911.87148  20661387.25448
  23087466.977 4    -14141.035 4                
 20  5 16  3 15  6.0000000  0  6G01G07G08G09G11G16                   0.000390659
  22560792.898 6   -113831.262 6    -49567.18049  22560794.58249
  22539961.453 6    -81967.371 6    -17702.61149  22539958.47749
  20784037.406 7    -50027.980 7    -30379.08249  20784037.73849
  23380565.250 5    -30637.578 5     -6809.97348  23380565.46148
  20660395.203 6    -86759.809 6    -34984.27748  20660392.96148
  23087038.422 4    -16390.859 4                
 20  5 16  3 15  7.0000000  0  6G01G07G08G09G11G16                   0.000388262
  22559416.703 6   -121063.559 6    -55202.73449  22559418.05149
  22538689.180 6    -88654.145 6    -22913.12549  22538686.16049
  20783552.211 7    -52579.574 7    -32367.33649  20783551.49649
  23380146.008 5    -32839.117 5     -8525.46148  23380146.69148
  20659399.906 6    -91988.992 6    -39058.97348  20659397.93048
  23086609.781 4    -18644.039 4                
 20  5 16  3 15  8.0000000  0  6G01G07G08G09G11G16                   0.000385864
  22558039.656 6   -128298.875 6    -60840.63749  22558041.30949
  22537415.695 6    -95343.930 6    -28125.92249  22537413.19549
  20783065.953 7    -55134.141 7    -34357.91049  20783065.50049
  23379726.359 5    -35043.590 5    -10243.22748  23379727.17248
  20658404.516 6    -97220.949 6    -43135.82048  20658402.09448
  23086180.719 4    -20900.488 4      -987.33256  23086179.61756
 20  5 16  3 15  9.0000000  0  6G01G07G08G09G11G16                   0.000383471
  22556662.375 6   -135537.094 6    -66480.80549  22556664.08249
  22536142.664 6   -102036.555 6    -33340.94149  22536139.94549
  20782579.078 7    -57691.523 7    -36350.67249  20782578.53949
  23379306.570 5    -37250.883 5    -11963.20348  23379307.16448
  20657408.445 6   -102455.473 6    -47214.68048  20657406.33648
  23085750.672 4    -23159.910 4     -2747.90246  23085749.17646
 20  5 16  3 15 10.0000000  0  6G01G07G08G09G11G16                   0.000381069
  22555284.023 6   -142778.023 6    -72123.07849  22555285.77049
  22534867.672 6   -108731.777 6    -38557.99249  22534865.59049
  20782091.719 7    -60251.551 7    -38345.50849  20782091.71949
  23378885.883 5    -39460.793 5    -13685.20748  23378886.66848
  20656411.656 6   -107692.414 6    -51295.41848  20656409.39848
  23085319.641 4    -25422.234 4     -4510.75446  23085318.57446
 20  5 16  3 15 11.0000000  0  6G01G07G08G09G11G16                   0.000378666
  22553906.109 6   -150021.410 6    -77767.27049  22553907.85549
  22533593.813 6   -115429.465 6    -43776.97349  22533591.08649
  20781604.656 7    -62814.000 7    -40342.21949  20781604.17249
  23378464.969 5    -41673.090 5    -15409.07848  23378465.80948
  20655414.539 6   -112931.531 6    -55377.84448  20655412.60548
  23084888.313 3    -27687.234 3     -6275.69146  23084887.74246
 20  5 16  3 15 12.0000000  0  6G01G07G08G09G11G16                   0.000376261
  22552527.063 6   -157267.191 6    -83413.33649  22552528.87549
  22532318.430 6   -122129.477 6    -48997.75849  22532316.46949
  20781116.445 7    -65378.750 7    -42340.73449  20781115.82449
  23378043.227 5    -43887.688 5    -17134.75048  23378044.66848
  20654417.883 6   -118172.762 6    -59461.91848  20654415.02748
  23084457.555 4    -29954.746 4     -8042.59046  23084456.44946
 20  5 16  3 15 13.0000000  0  6G01G07G08G09G11G16                   0.000373854
  22551147.695 6   -164515.227 6    -89061.15249  22551149.49649
  22531043.234 6   -128831.691 6    -54220.26249  22531040.91449
  20780627.938 7    -67945.711 7    -44340.95349  20780627.40249
  23377621.844 5    -46104.488 5    -18862.13348  23377622.90648
  20653419.875 6   -123415.926 6    -63547.50048  20653417.59848
  23084024.992 4    -32224.641 4     -9811.34846  23084023.86346
 20  5 16  3 15 14.0000000  0  6G01G07G08G09G11G16                   0.000371445
  22549767.969 6   -171765.445 6    -94710.66448  22549769.56648
  22529767.633 6   -135536.047 6    -59444.43849  22529765.10549
  20780138.672 7    -70514.789 7    -46342.83649  20780138.64149
  23377199.773 5    -48323.383 5    -20591.14148  23377200.56348
  20652421.711 6   -128661.023 6    -67634.59048  20652419.38348
  23083592.859 4    -34496.957 4    -11581.98846  23083592.23846
 20  5 16  3 15 15.0000000  0  6G01G07G08G09G11G16                   0.000369036
  22548388.453 6   -179017.738 6   -100361.80149  22548389.67249
  22528491.430 6   -142242.434 6    -64670.19549  22528488.84449
  20779649.930 7    -73085.906 7    -48346.30549  20779649.39149
  23376776.531 5    -50544.281 5    -22321.71548  23376778.07848
  20651423.633 6   -133907.895 6    -71723.06348  20651421.28148
  23083160.250 4    -36771.500 4    -13354.36346  23083158.97346
 20  5 16  3 15 16.0000000  0  6G01G07G08G09G11G16                   0.000366623
  22547008.242 6   -186271.840 6   -106014.35549  22547009.38349
  22527214.438 6   -148950.582 6    -69897.32449  22527212.49649
  20779160.102 7    -75658.754 7    -50351.12549  20779159.72349
  23376353.945 5    -52766.918 5    -24053.64148  23376355.34848
  20650424.414 6   -139156.297 6    -75812.72348  20650422.32448
  23082726.836 4    -39048.054 4    -15128.30346  23082725.36746
 20  5 16  3 15 17.0000000  0  6G01G07G08G09G11G16                   0.000364212
  22545627.141 6   -193527.695 6   -111668.27049  22545628.55149
  22525938.039 6   -155660.441 6    -75125.78549  22525935.37149
  20778670.258 7    -78233.328 7    -52357.28549  20778669.72349
  23375930.438 5    -54991.246 5    -25786.88748  23375931.75048
  20649425.758 6   -144406.141 6    -79903.51248  20649423.25448
  23082293.375 4    -41326.441 4    -16903.65646  23082291.86346
 20  5 16  3 15 18.0000000  0  6G01G07G08G09G11G16                   0.000361797
  22544245.828 6   -200785.313 6   -117323.55949  22544247.81349
  22524661.070 6   -162371.988 6    -80355.55949  22524658.75049
  20778180.172 7    -80809.598 7    -54364.77049  20778179.54349
  23375506.711 5    -57217.211 5    -27521.41448  23375508.25848
  20648426.531 6   -149657.469 6    -83995.45348  20648423.76248
  23081859.594 4    -43606.883 4    -18680.61746  23081857.99646
 20  5 16  3 15 19.0000000  0  6G01G07G08G09G11G16                   0.000359379
  22542864.906 6   -208044.398 6   -122979.98049  22542866.34449
  22523382.930 6   -169084.953 6    -85586.44149  22523380.96549
  20777689.242 7    -83387.238 7    -56373.32049  20777689.00849
  23375083.008 5    -59444.598 5    -29257.04348  23375084.36348
  20647426.867 6   -154909.941 6    -88088.28948  20647424.16048
  23081425.703 4    -45888.824 4    -20458.75046  23081423.77346
 20  5 16  3 15 20.0000000  0  7G01G04G07G08G09G11G16                0.000356962
  22541482.906 6   -215304.809 6   -128637.44549  22541484.68449
  23531274.01614    -30686.61314    -11027.17656  23531274.19556
  22522105.563 6   -175799.219 6    -90818.33649  22522103.05549
  20777198.555 7    -85966.168 7    -58382.87949  20777198.58249
  23374659.211 5    -61673.223 5    -30993.63348  23374660.66848
  20646427.141 6   -160163.453 6    -92181.93848  20646424.33648
  23080990.844 4    -48172.305 4    -22238.09046  23080989.45346
 20  5 16  3 15 21.0000000  0  7G01G04G07G08G09G11G16                0.000354546
  22540101.266 6   -222566.336 6   -134295.77349  22540102.49249
  23531048.914 4    -31869.934 4    -11949.25446  23531049.41046
  22520827.578 6   -182514.539 6    -96051.05149  22520825.24249
  20776707.492 7    -88546.148 7    -60393.25449  20776707.64849
  23374234.477 5    -63902.938 5    -32731.07048  23374236.41848
  20645427.156 6   -165417.785 6    -96276.22348  20645424.68848
  23080556.953 4    -50457.035 4    -24018.40646  23080554.47746
 20  5 16  3 15 22.0000000  0  7G01G04G07G08G09G11G16                0.000352129
  22538718.836 6   -229829.133 6   -139955.08649  22538720.26249
  23530823.250 4    -33054.719 4    -12872.47346  23530823.55146
  22519549.648 6   -189231.035 6   -101284.68449  22519547.00449
  20776216.563 7    -91127.340 7    -62404.57049  20776216.01649
  23373810.156 5    -66133.777 5    -34469.39548  23373811.28148
  20644427.414 6   -170673.121 6   -100371.28548  20644424.75048
  23080121.242 4    -52743.223 4    -25799.85546  23080119.41046
 20  5 16  3 15 23.0000000  0  7G01G04G07G08G09G11G16                0.000349710
  22537337.117 6   -237093.000 6   -145615.23849  22537338.15249
  23530598.000 4    -34240.746 4    -13796.65246  23530597.87146
  22518271.172 6   -195948.605 6   -106519.14849  22518268.65249
  20775725.289 7    -93709.531 7    -64416.66849  20775725.07449
  23373386.250 5    -68365.648 5    -36208.53148  23373386.68448
  20643427.008 6   -175929.223 6   -104466.95348  20643424.48448
  23079685.680 4    -55030.691 4    -27582.31646  23079684.22346
 20  5 16  3 15 24.0000000  0  7G01G04G07G08G09G11G16                0.000347292
  22535954.453 6   -244357.965 6   -151276.25049  22535955.72349
  23530372.102 4    -35428.063 4    -14721.83246  23530372.14846
  22516992.656 6   -202667.184 6   -111754.39849  22516990.42649
  20775233.750 7    -96292.777 7    -66429.59049  20775233.82849
  23372960.523 5    -70598.523 5    -37948.43448  23372962.37148
  20642426.430 6   -181186.133 6   -108563.24648  20642423.89548
  23079250.219 4    -57319.383 4    -29365.71546  23079248.55146
 20  5 16  3 15 25.0000000  0  7G01G04G07G08G09G11G16                0.000344872
  22534571.609 6   -251623.934 6   -156938.04349  22534573.15249
  23530146.086 4    -36616.563 4    -15647.93446  23530146.08646
  22515713.914 6   -209386.730 6   -116990.41049  22515711.65249
  20774741.961 7    -98876.953 7    -68443.23849  20774741.85249
  23372536.094 5    -72832.340 5    -39689.07448  23372536.84048
  20641426.102 6   -186443.754 6   -112660.09048  20641423.85948
  23078814.477 4    -59609.246 4    -31150.02046  23078812.95346
 20  5 16  3 15 26.0000000  0  7G01G04G07G08G09G11G16                0.000342451
  22533188.945 6   -258890.820 6   -162600.55549  22533190.42649
  23529919.805 4    -37806.215 4    -16574.93046  23529919.62946
  22514434.875 6   -216107.168 6   -122227.11749  22514432.79749
  20774249.883 7   -101461.984 7    -70457.54749  20774249.41049
  23372110.703 5    -75067.004 5    -41430.37148  23372111.53148
  20640425.609 6   -191701.996 6   -116757.42248  20640422.93848
  23078378.297 4    -61900.215 4    -32935.19146  23078377.12946
 20  5 16  3 15 27.0000000  0  7G01G04G07G08G09G11G16                0.000340029
  22531806.180 6   -266158.488 6   -168263.67249  22531807.05949
  23529692.867 4    -38996.742 4    -17502.61746  23529693.09046
  22513156.023 6   -222828.305 6   -127464.36749  22513153.92649
  20773757.844 7   -104047.727 7    -72472.41049  20773757.61349
  23371684.703 5    -77302.367 5    -43172.21548  23371686.19548
  20639425.063 6   -196960.730 6   -120855.13748  20639422.31648
  23077942.352 4    -64192.109 4    -34721.07446  23077940.57046
 20  5 16  3 15 28.0000000  0  7G01G04G07G08G09G11G16                0.000337608
  22530423.227 6   -273426.949 6   -173927.40649  22530423.78549
  23529465.609 4    -40188.313 4    -18431.12146  23529466.20746
  22511876.695 6   -229550.211 6   -132702.21549  22511874.98849
  20773265.352 7   -106634.211 7    -74487.85549  20773265.60549
  23371259.891 5    -79538.441 5    -44914.61348  23371261.06348
  20638424.219 6   -202219.977 6   -124953.25048  20638421.50448
  23077506.109 4    -66484.974 4    -36507.72146  23077504.57846
 20  5 16  3 15 29.0000000  0  7G01G04G07G08G09G11G16                0.000335184
  22529039.594 6   -280696.152 6   -179591.71949  22529041.00049
  23529239.359 4    -41380.844 4    -19360.37946  23529239.61746
  22510597.719 6   -236272.816 6   -137940.60549  22510595.14849
  20772773.359 7   -109221.391 7    -76503.84049  20772772.98849
  23370833.469 5    -81775.188 5    -46657.53548  23370834.95748
  20637423.258 6   -207479.672 6   -129051.71948  20637420.51248
  23077069.773 4    -68778.793 4    -38295.11346  23077068.01246
 20  5 16  3 15 30.0000000  0  7G01G04G07G08G09G11G16                0.000332762
  22527656.430 6   -287966.121 6   -185256.63349  22527657.62949
  23529012.078 4    -42574.270 4    -20290.31646  23529012.71546
  22509318.227 6   -242996.094 6   -143179.52749  22509316.08649
  20772280.586 7   -111809.238 7    -78520.34849  20772280.27049
  23370407.898 5    -84012.621 5    -48400.99648  23370409.29748
  20636421.922 6   -212739.844 6   -133150.55148  20636419.89148
  23076633.094 5    -71073.473 5    -40083.17646  23076631.23846
 20  5 16  3 15 31.0000000  0  7G01G04G07G08G09G11G16                0.000330338
  22526272.570 6   -295236.715 6   -190922.03149  22526273.85249
  23528784.461 4    -43768.516 4    -21220.90246  23528784.95346
  22508038.734 6   -249719.980 6   -148418.91449  22508036.46149
  20771788.141 7   -114397.707 7    -80537.33649  20771788.05949
  23369981.789 5    -86250.648 5    -50144.92248  23369984.17248
  20635420.961 6   -218000.363 6   -137249.66048  20635418.53548
  23076196.383 5    -73368.977 5    -41871.88346  23076194.36346
 20  5 16  3 15 32.0000000  0  7G01G04G07G08G09G11G16                0.000327913
  22524889.047 6   -302507.949 6   -196587.92649  22524890.30549
  23528557.664 4    -44963.602 4    -22152.11746  23528557.71946
  22506759.203 6   -256444.445 6   -153658.76249  22506756.46949
  20771295.625 7   -116986.703 7    -82554.73849  20771295.00049
  23369556.375 5    -88489.199 5    -51889.25048  23369557.81348
  20634419.977 6   -223261.199 6   -141349.01648  20634417.99248
  23075759.547 5    -75665.297 5    -43661.22346  23075756.99246
 20  5 16  3 15 33.0000000  0  7G01G04G07G08G09G11G16                0.000325489
  22523505.344 6   -309779.516 6   -202254.08649  22523506.30549
  23528329.133 4    -46159.203 4    -23083.75846  23528330.55946
  22505479.852 6   -263169.184 6   -158898.81649  22505476.97349
  20770802.656 7   -119575.980 7    -84572.35549  20770803.20349
  23369130.313 5    -90727.996 5    -53633.77348  23369132.06648
  20633418.742 6   -228522.070 6   -145448.39548  20633415.87548
  23075322.398 4    -77962.102 4    -45450.93846  23075320.55146
 20  5 16  3 15 34.0000000  0  7G01G04G07G08G09G11G16                0.000323063
  22522121.273 6   -317051.754 6   -207920.75849  22522122.75049
  23528101.539 3    -47355.656 3    -24016.08646  23528102.48846
  22504199.469 6   -269894.551 6   -164139.36749  22504196.96549
  20770309.773 7   -122165.902 7    -86590.47349  20770309.96949
  23368704.148 5    -92967.410 5    -55378.78548  23368705.83248
  20632417.461 6   -233783.344 6   -149548.08648  20632415.43048
  23074885.477 4    -80259.734 4    -47241.29746  23074882.81346
 20  5 16  3 15 35.0000000  0  7G01G04G07G08G09G11G16                0.000320639
  22520737.180 6   -324324.430 6   -213587.78549  22520738.71149
  23527874.469 4    -48552.797 4    -24948.93446  23527874.79346
  22502919.328 6   -276620.332 6   -169380.23049  22502917.09449
  20769817.055 7   -124756.219 7    -88608.90249  20769816.69949
  23368277.523 5    -95207.191 5    -57124.07048  23368280.12948
  20631416.250 6   -239044.797 6   -153647.92648  20631413.85248
  23074447.570 4    -82558.023 4    -49032.16446  23074445.84046
 20  5 16  3 15 36.0000000  0  7G01G04G07G08G09G11G16                0.000318213
  22519353.195 6   -331597.516 6   -219255.10949  22519354.38749
  23527646.266 4    -49750.434 4    -25882.16446  23527647.37146
  22501639.797 6   -283346.422 6   -174621.34449  22501637.25449
  20769323.969 7   -127346.832 7    -90627.56649  20769323.66849
  23367851.773 5    -97447.313 5    -58869.61748  23367853.57848
  20630414.750 6   -244306.301 6   -157747.80548  20630412.66848
  23074010.578 4    -84856.805 4    -50823.41846  23074007.90646
 20  5 16  3 15 37.0000000  0  7G01G04G07G08G09G11G16                0.000315786
  22517969.008 6   -338870.898 6   -224922.68849  22517970.78949
  23527418.563 4    -50948.613 4    -26815.80146  23527419.07046
  22500359.789 6   -290072.766 6   -179862.66449  22500357.27749
  20768830.875 7   -129937.734 7    -92646.44949  20768830.98849
  23367425.414 6    -99687.648 6    -60615.33648  23367427.19948
  20629413.953 6   -249567.875 6   -161847.73448  20629411.30948
  23073573.211 4    -87156.098 4    -52615.08646  23073570.42646
 20  5 16  3 15 38.0000000  0  7G01G04G07G08G09G11G16                0.000313360
  22516584.734 6   -346144.777 6   -230590.65249  22516585.94549
  23527190.313 4    -52147.480 4    -27749.98046  23527190.84046
  22499079.727 6   -296799.605 6   -185104.35549  22499077.08649
  20768337.672 7   -132529.047 7    -94665.65649  20768337.59049
  23366999.039 5   -101928.402 5    -62361.38348  23367001.01248
  20628412.125 6   -254829.609 6   -165947.78148  20628409.93848
  23073135.367 4    -89456.043 4    -54407.25846  23073132.43046
 20  5 16  3 15 39.0000000  0  7G01G04G07G08G09G11G16                0.000310932
  22515201.117 6   -353418.996 6   -236258.87549  22515202.06349
  23526962.547 4    -53346.883 4    -28684.57046  23526962.43446
  22497799.555 6   -303526.711 6   -190346.25048  22497796.68848
  20767844.477 7   -135120.637 7    -96685.07049  20767844.85949
  23366572.445 5   -104169.453 5    -64107.64648  23366574.37148
  20627411.219 6   -260091.398 6   -170047.87548  20627408.98848
  23072697.789 4    -91756.531 4    -56199.84846  23072694.56346
 20  5 16  3 15 40.0000000  0  7G01G04G07G08G09G11G16                0.000308504
  22513816.641 6   -360693.555 6   -241927.36749  22513817.74649
  23526734.188 4    -54546.820 4    -29619.57846  23526734.07046
  22496519.469 6   -310254.074 6   -195588.33649  22496516.53549
  20767351.094 7   -137712.523 7    -98704.72349  20767351.26249
  23366145.648 5   -106410.734 5    -65854.09448  23366148.58648
  20626410.289 6   -265353.230 6   -174148.00448  20626407.56648
  23072259.203 4    -94057.496 4    -57992.80146  23072256.58646
 20  5 16  3 15 41.0000000  0  7G01G04G07G08G09G11G16                0.000306076
  22512431.688 6   -367968.242 6   -247595.94549  22512433.48449
  23526505.234 4    -55747.035 4    -30554.80146  23526505.80546
  22495238.891 6   -316981.559 6   -200830.52749  22495236.50049
  20766857.984 7   -140304.488 7   -100724.44149  20766857.85949
  23365719.648 5   -108652.113 5    -67600.62148  23365721.76648
  20625409.133 6   -270614.914 6   -178248.02348  20625406.44148
  23071821.461 4    -96358.746 4    -59785.97746  23071818.84046
 20  5 16  3 15 42.0000000  0  7G01G04G07G08G09G11G16                0.000303648
  22511047.078 6   -375243.289 6   -253264.82049  22511049.08249
  23526276.914 4    -56947.789 4    -31490.47346  23526277.34046
  22493958.930 6   -323709.293 6   -206072.93049  22493956.29349
  20766364.852 7   -142896.703 7   -102744.34849  20766364.87149
  23365292.883 5   -110893.746 5    -69347.36748  23365295.83648
  20624407.617 6   -275876.645 6   -182348.07048  20624404.86348
  23071383.492 4    -98660.488 4    -61579.54346  23071380.61346
 20  5 16  3 15 43.0000000  0  7G01G04G07G08G09G11G16                0.000301220
  22509662.922 6   -382518.582 6   -258933.87949  22509664.85949
  23526048.227 4    -58149.082 4    -32426.57046  23526048.52046
  22492678.430 6   -330437.289 6   -211315.52349  22492676.04349
  20765871.359 7   -145489.199 7   -104764.48049  20765871.55149
  23364866.148 5   -113135.566 5    -71094.25448  23364868.77748
  20623406.789 6   -281138.387 6   -186448.12948  20623403.59448
  23070945.570 4   -100962.742 4    -63373.50846  23070942.55146
 20  5 16  3 15 44.0000000  0  7G01G04G07G08G09G11G16                0.000298790
  22508278.891 6   -389794.270 6   -264603.26249  22508280.67249
  23525819.516 4    -59350.859 4    -33363.03546  23525819.44546
  22491398.461 6   -337165.598 6   -216558.36749  22491395.61349
  20765378.031 7   -148081.973 7   -106784.81649  20765378.04749
  23364439.383 5   -115377.688 5    -72841.37948  23364442.08248
  20622405.039 6   -286400.211 6   -190548.24248  20622402.49648
  23070507.570 4   -103265.473 4    -65167.84846  23070504.50046
 20  5 16  3 15 45.0000000  0  7G01G04G07G08G09G11G16                0.000296360
  22506894.000 6   -397070.375 6   -270272.95349  22506895.55549
  23525591.070 5    -60553.332 5    -34300.04346  23525591.27046
  22490117.930 6   -343894.324 6   -221801.55149  22490114.78149
  20764884.820 7   -150675.164 7   -108805.49249  20764884.14149
  23364013.156 5   -117620.230 5    -74588.82448  23364015.70348
  20621403.867 6   -291662.148 6   -194648.45748  20621400.95748
  23070069.063 4   -105568.855 4    -66962.69146  23070065.92246
 20  5 16  3 15 46.0000000  0  7G01G04G07G08G09G11G16                0.000293930
  22505509.352 6   -404346.621 6   -275942.75449  22505511.41449
  23525362.500 5    -61756.078 5    -35237.24246  23525362.34846
  22488837.484 6   -350623.105 6   -227044.75048  22488834.17648
  20764390.945 7   -153268.422 7   -110826.22349  20764391.19549
  23363586.469 5   -119862.766 5    -76336.23848  23363589.13748
  20620402.289 6   -296923.945 6   -198748.56348  20620399.89148
  23069631.109 4   -107872.500 4    -68757.74246  23069627.61746
 20  5 16  3 15 47.0000000  0  7G01G04G07G08G09G11G16                0.000291502
  22504124.617 5   -411622.887 5   -281612.56348  22504126.78548
  23525133.906 4    -62959.215 4    -36174.73846  23525133.18046
  22487557.398 6   -357351.969 6   -232288.01649  22487554.31349
  20763898.094 7   -155861.777 7   -112847.01649  20763897.77049
  23363159.195 5   -122105.426 5    -78083.75448  23363162.66448
  20619401.578 6   -302185.555 6   -202848.52348  20619398.31648
  23069192.250 5   -110176.465 5    -70553.05146  23069188.92646
 20  5 16  3 15 48.0000000  0  7G01G04G07G08G09G11G16                0.000289070
  22502739.258 5   -418899.434 5   -287282.58248  22502742.11748
  23524905.789 3    -64162.609 3    -37112.42246  23524904.64146
  22486276.953 6   -364080.922 6   -237531.36748  22486273.63348
  20763404.430 7   -158455.199 7   -114867.85249  20763404.00049
  23362731.828 5   -124348.141 5    -79831.32048  23362735.94148
  20618400.500 6   -307447.035 6   -206948.37148  20618397.41848
  23068753.367 5   -112480.777 5    -72348.64546  23068750.78946
 20  5 16  3 15 49.0000000  0  7G01G04G07G08G09G11G16                0.000286640
  22501355.250 5   -426175.988 5   -292952.61348  22501357.19948
  23524675.734 3    -65366.281 3    -38050.38345  23524675.87145
  22484996.266 6   -370809.891 6   -242774.71148  22484992.66848
  20762910.570 7   -161048.629 7   -116888.69149  20762909.78549
  23362305.922 5   -126590.828 5    -81578.87548  23362308.86748
  20617399.633 6   -312708.281 6   -211048.03948  20617396.05148
  23068315.422 5   -114785.293 5    -74144.36346  23068312.37146
 20  5 16  3 15 50.0000000  0  7G01G04G07G08G09G11G16                0.000284210
  22499970.500 5   -433452.715 5   -298622.78948  22499972.38348
  23524447.328 3    -66570.281 3    -38988.57445  23524446.59445
  22483715.633 6   -377538.875 6   -248018.07448  22483712.16848
  20762417.617 7   -163642.121 7   -118909.58649  20762416.64849
  23361878.914 6   -128833.504 6    -83326.43848  23361881.49248
  20616398.039 6   -317969.359 6   -215147.59048  20616394.98448
  23067876.492 5   -117090.098 5    -75940.31346  23067873.38746
 20  5 16  3 15 51.0000000  0  7G01G04G07G08G09G11G16                0.000281778
  22498586.023 5   -440729.711 5   -304293.17648  22498587.89548
  23524217.656 4    -67774.742 4    -39927.14145  23524217.53945
  22482434.813 6   -384268.168 6   -253261.67648  22482431.66848
  20761923.508 7   -166235.832 7   -120930.66449  20761922.75049
  23361452.242 6   -131076.469 6    -85074.22348  23361454.33248
  20615396.523 6   -323230.441 6   -219247.12948  20615394.01248
  23067437.406 5   -119395.336 5    -77736.57846  23067434.70346
 20  5 16  3 15 52.0000000  0  7G01G04G07G08G09G11G16                0.000279348
  22497200.781 5   -448006.738 5   -309963.59048  22497203.03548
  23523988.750 4    -68979.496 4    -40865.95345  23523988.44945
  22481154.258 6   -390997.461 6   -258505.27048  22481150.93448
  20761429.992 7   -168829.574 7   -122951.76249  20761429.53549
  23361025.219 6   -133319.414 6    -86821.97348  23361027.42648
  20614395.766 6   -328491.305 6   -223346.50848  20614392.80548
  23066998.781 5   -121700.813 5    -79533.05546  23066996.05546
 20  5 16  3 15 53.0000000  0  7G01G04G07G08G09G11G16                0.000276917
  22495816.375 5   -455283.914 5   -315634.11748  22495817.85948
  23523759.461 3    -70184.523 3    -41804.94145  23523758.91445
  22479873.547 6   -397726.816 6   -263748.91448  22479870.28548
  20760936.813 7   -171423.398 7   -124972.93449  20760936.04349
  23360598.703 6   -135562.441 6    -88569.78548  23360600.61348
  20613394.711 6   -333752.027 6   -227445.77348  20613391.58648
  23066560.180 5   -124006.590 5    -81329.75846  23066557.36746
 20  5 16  3 15 54.0000000  0  7G01G04G07G08G09G11G16                0.000274485
  22494431.375 5   -462561.125 5   -321304.68048  22494433.49648
  23523529.430 3    -71389.750 3    -42744.09845  23523529.63745
  22478592.484 6   -404456.141 6   -268992.54748  22478590.18448
  20760442.719 7   -174017.141 7   -126994.03149  20760442.19549
  23360171.914 6   -137805.375 6    -90317.53148  23360173.52048
  20612393.570 6   -339012.445 6   -231544.80148  20612390.70348
  23066121.016 5   -126312.500 5    -83126.58246  23066118.28146
 20  5 16  3 15 55.0000000  0  7G01G04G07G08G09G11G16                0.000272053
  22493047.031 5   -469838.430 5   -326975.30548  22493048.64848
  23523300.508 3    -72595.328 3    -43683.48845  23523299.90645
  22477312.258 6   -411185.570 6   -274236.26248  22477309.20348
  20759949.156 7   -176611.027 7   -129015.24249  20759948.58649
  23359744.688 6   -140048.418 6    -92065.35548  23359746.73848
  20611393.000 6   -344272.750 6   -235643.74248  20611389.46548
  23065682.078 5   -128618.801 5    -84923.71146  23065679.57046
 20  5 16  3 15 56.0000000  0  7G01G04G07G08G09G11G16                0.000269621
  22491661.352 5   -477115.973 5   -332646.11348  22491663.56648
  23523071.391 4    -73801.328 4    -44623.22745  23523071.34045
  22476032.023 6   -417915.137 6   -279480.08648  22476028.70348
  20759455.336 7   -179205.023 7   -131036.53549  20759454.93049
  23359318.320 6   -142291.574 6    -93813.27048  23359320.01648
  20610391.906 6   -349532.973 6   -239742.62148  20610389.02748
  23065243.414 5   -130925.461 5    -86721.12946  23065240.53546
 20  5 16  3 15 57.0000000  0  7G01G04G07G08G09G11G16                0.000267189
  22490276.969 5   -484393.648 5   -338317.03148  22490278.88348
  23522841.133 4    -75007.625 4    -45563.17645  23522841.60545
  22474751.102 6   -424644.766 6   -284723.96148  22474748.42248
  20758961.703 7   -181799.121 7   -133057.91449  20758961.34849
  23358891.305 6   -144534.820 6    -95561.24648  23358892.68048
  20609390.688 6   -354793.012 6   -243841.34848  20609387.58248
  23064804.078 5   -133232.371 5    -88518.71546  23064801.37546
 20  5 16  3 15 58.0000000  0  7G01G04G07G08G09G11G16                0.000264755
  22488891.750 4   -491671.469 4   -343988.05948  22488893.98048
  23522611.477 4    -76214.227 4    -46503.39545  23522611.96945
  22473470.672 6   -431374.500 6   -289967.92648  22473468.06348
  20758468.141 7   -184393.254 7   -135079.30549  20758467.71549
  23358464.438 6   -146778.086 6    -97309.23448  23358466.10248
  20608389.758 6   -360052.855 6   -247939.92248  20608386.78148
  23064366.266 5   -135539.609 5    -90316.55546  23064362.60546
 20  5 16  3 15 59.0000000  0  7G01G04G07G08G09G11G16                0.000262323
  22487507.352 4   -498949.359 4   -349659.15248  22487509.42648
  23522381.578 3    -77421.137 3    -47443.84045  23522382.22345
  22472190.727 6   -438104.281 6   -295211.92248  22472187.14548
  20757974.594 7   -186987.449 7   -137100.75449  20757973.63749
  23358037.586 6   -149021.383 6    -99057.24648  23358038.39848
  20607388.680 6   -365312.555 6   -252038.38348  20607386.25848
  23063927.320 5   -137847.090 5    -92114.57846  23063923.44946
 20  5 16  3 16  0.0000000  0  7G01G04G07G08G09G11G16                0.000259890
  22486121.750 5   -506227.309 5   -355330.27348  22486124.28548
  23522152.094 4    -78628.332 4    -48384.50445  23522152.43445
  22470909.516 6   -444834.074 6   -300455.91048  22470906.46148
  20757480.711 7   -189581.633 7   -139122.19149  20757480.37149
  23357610.586 6   -151264.707 6   -100805.30148  23357611.32848
  20606387.688 6   -370571.996 6   -256136.64548  20606384.84448
  23063487.594 5   -140154.805 5    -93912.81646  23063484.46546
 20  5 16  3 16  1.0000000  0  7G01G04G07G08G09G11G16                0.000257456
  22484737.383 5   -513505.340 5   -361001.46148  22484739.10948
  23521922.555 4    -79835.742 4    -49325.35545  23521923.05945
  22469628.422 6   -451563.910 6   -305699.94148  22469625.99648
  20756986.797 7   -192175.859 7   -141143.67249  20756986.47349
  23357183.695 6   -153508.027 6   -102553.34448  23357184.79748
  20605387.070 6   -375831.223 6   -260234.75048  20605384.16048
  23063048.648 5   -142462.805 5    -95711.26246  23063045.39146
 20  5 16  3 16  2.0000000  0  7G01G04G07G08G09G11G16                0.000255022
  22483352.359 5   -520783.320 5   -366672.60948  22483354.11348
  23521693.078 4    -81043.387 4    -50266.39545  23521693.03945
  22468347.914 6   -458293.648 6   -310943.86748  22468345.03148
  20756493.445 7   -194770.012 7   -143165.09849  20756493.11349
  23356756.328 6   -155751.262 6   -104301.32048  23356758.24648
  20604386.648 6   -381090.164 6   -264332.62948  20604383.31348
  23062608.953 5   -144770.941 5    -97509.82846  23062606.31346
 20  5 16  3 16  3.0000000  0  7G01G04G07G08G09G11G16                0.000252590
  22481966.938 4   -528061.375 4   -372343.81648  22481969.29348
  23521462.047 4    -82251.250 4    -51207.59445  23521463.53945
  22467067.047 6   -465023.359 6   -316187.78148  22467064.41848
  20755999.906 7   -197364.141 7   -145186.49249  20755998.97349
  23356329.984 6   -157994.453 6   -106049.25048  23356330.99648
  20603385.602 6   -386348.824 6   -268430.28548  20603382.48448
  23062170.242 5   -147079.258 5    -99308.51646  23062166.89146
 20  5 16  3 16  4.0000000  0  7G01G04G07G08G09G11G16                0.000250156
  22480582.313 4   -535339.531 4   -378015.12148  22480584.44548
  23521233.125 4    -83459.352 4    -52148.95345  23521233.77345
  22465786.641 6   -471753.145 6   -321431.77348  22465783.77748
  20755505.977 7   -199958.332 7   -147207.94149  20755505.04349
  23355903.117 6   -160237.652 6   -107797.18448  23355903.91848
  20602385.367 6   -391607.305 6   -272527.80148  20602382.11348
  23061731.250 4   -149387.836 4   -101107.41046  23061727.51246
 20  5 16  3 16  5.0000000  0  7G01G04G07G08G09G11G16                0.000247723
  22479197.172 4   -542617.617 4   -383686.35548  22479199.43848
  23521002.086 4    -84667.660 4    -53090.51645  23521003.75045
  22464505.969 6   -478482.820 6   -326675.66048  22464503.58248
  20755012.547 7   -202552.418 7   -149229.29349  20755011.74249
  23355476.789 6   -162480.738 6   -109545.03148  23355477.30548
  20601384.711 6   -396865.426 6   -276625.03148  20601381.39848
  23061291.758 4   -151696.555 4   -102906.39146  23061288.44546
 20  5 16  3 16  6.0000000  0  7G01G04G07G08G09G11G16                0.000245287
  22477812.531 4   -549895.789 4   -389357.65648  22477814.18848
  23520772.375 4    -85876.215 4    -54032.24645  23520773.72345
  22463225.398 6   -485212.535 6   -331919.58648  22463223.32048
  20754519.031 7   -205146.563 7   -151250.70349  20754517.84849
  23355049.305 6   -164723.898 6   -111292.94548  23355050.27348
  20600383.945 6   -402123.355 6   -280722.12548  20600380.52048
  23060852.258 5   -154005.555 5   -104705.58646  23060849.12146
 20  5 16  3 16  7.0000000  0  7G01G04G07G08G09G11G16                0.000242853
  22476427.219 4   -557173.895 4   -395028.90248  22476429.40248
  23520541.906 4    -87084.930 4    -54974.13745  23520543.85945
  22461944.758 6   -491942.148 6   -337163.43448  22461942.80148
  20754025.250 7   -207740.559 7   -153272.00449  20754024.81649
  23354622.242 6   -166966.879 6   -113040.72748  23354623.39848
  20599382.891 6   -407380.953 6   -284818.95348  20599380.37148
  23060413.313 5   -156314.613 5   -106504.84046  23060409.67646
 20  5 16  3 16  8.0000000  0  7G01G04G07G08G09G11G16                0.000240419
  22475042.445 4   -564452.027 4   -400700.17648  22475044.53548
  23520311.820 4    -88293.832 4    -55916.12945  23520313.67645
  22460663.922 6   -498671.730 6   -342407.26648  22460662.07048
  20753531.711 7   -210334.531 7   -155293.28149  20753530.98049
  23354195.469 6   -169209.863 6   -114788.51248  23354196.64848
  20598382.938 6   -412638.309 6   -288915.59847  20598379.98847
  23059974.125 5   -158623.891 5   -108304.28146  23059970.20346
 20  5 16  3 16  9.0000000  0  7G01G04G07G08G09G11G16                0.000237984
  22473657.750 4   -571730.359 4   -406371.60948  22473659.42248
  23520082.281 4    -89503.133 4    -56858.45345  23520083.44545
  22459383.859 6   -505401.430 6   -347651.19148  22459381.66048
  20753037.805 7   -212928.637 7   -157314.66049  20753037.25849
  23353768.609 6   -171452.918 6   -116536.35248  23353769.50448
  20597382.266 6   -417895.484 6   -293012.09048  20597379.49648
  23059534.234 5   -160933.504 5   -110103.98446  23059530.74646
 20  5 16  3 16 10.0000000  0  7G01G04G07G08G09G11G16                0.000235550
  22472272.813 4   -579008.770 4   -412043.10248  22472274.85948
  23519851.789 4    -90712.699 4    -57800.95345  23519853.52745
  22458103.070 6   -512131.156 6   -352895.14148  22458101.35248
  20752544.336 7   -215522.770 7   -159336.06649  20752543.57049
  23353342.008 6   -173695.969 6   -118284.19148  23353342.72748
  20596381.586 6   -423152.492 6   -297108.46148  20596379.34848
  23059094.703 5   -163243.379 5   -111903.90246  23059090.91446
 20  5 16  3 16 11.0000000  0  7G01G04G07G08G09G11G16                0.000233114
  22470887.438 4   -586287.129 4   -417714.54748  22470890.10548
  23519622.125 5    -91922.469 5    -58743.62945  23519623.23445
  22456822.000 6   -518860.848 6   -358139.05948  22456819.75848
  20752050.625 7   -218116.848 7   -161357.42649  20752050.01249
  23352915.453 6   -175938.988 6   -120032.00448  23352916.10948
  20595381.352 6   -428409.168 6   -301204.58248  20595378.66048
  23058654.383 5   -165553.402 5   -113703.93846  23058651.80546
 20  5 16  3 16 12.0000000  0  7G01G04G07G08G09G11G16                0.000230679
  22469502.383 4   -593565.574 4   -423386.06348  22469505.04348
  23519391.336 5    -93132.461 5    -59686.50445  23519392.63745
  22455541.555 6   -525590.484 6   -363382.93448  22455539.55948
  20751557.289 7   -220710.910 7   -163378.77749  20751556.29349
  23352488.164 6   -178181.977 6   -121779.78548  23352489.43448
  20594381.156 6   -433665.645 6   -305300.53948  20594378.50048
  23058215.359 5   -167863.648 5   -115504.13746  23058211.83646
 20  5 16  3 16 13.0000000  0  7G01G04G07G08G09G11G16                0.000228243
  22468117.406 5   -600843.832 5   -429057.43848  22468119.59048
  23519161.422 4    -94342.539 4    -60629.43045  23519162.53545
  22454261.313 6   -532319.973 6   -368626.68848  22454258.99648
  20751063.352 7   -223304.777 7   -165399.97349  20751062.25049
  23352061.375 6   -180424.801 6   -123527.44148  23352062.37948
  20593381.164 6   -438921.703 6   -309396.16848  20593378.35548
  23057775.664 5   -170173.965 5   -117304.37946  23057772.22346
 20  5 16  3 16 14.0000000  0  7G01G04G07G08G09G11G16                0.000225807
  22466732.523 6   -608122.180 6   -434728.87948  22466734.65248
  23518931.164 5    -95552.719 5    -61572.39845  23518931.84845
  22452980.969 6   -539049.340 6   -373870.37548  22452978.04348
  20750570.211 7   -225898.566 7   -167421.12149  20750569.52349
  23351635.547 6   -182667.488 6   -125274.98048  23351635.97348
  20592380.734 6   -444177.453 6   -313491.56348  20592377.88348
  23057335.820 5   -172484.324 5   -119104.65246  23057332.70746
 20  5 16  3 16 15.0000000  0  7G01G04G07G08G09G11G16                0.000223372
  22465346.945 6   -615400.465 6   -440400.24649  22465349.37549
  23518700.523 5    -96763.152 5    -62515.53945  23518701.98045
  22451699.844 6   -545778.711 6   -379114.05548  22451697.54748
  20750076.617 7   -228492.340 7   -169442.25049  20750075.85249
  23351208.773 6   -184910.129 6   -127022.49648  23351208.81348
  20591380.945 6   -449432.887 6   -317586.69948  20591378.03948
  23056895.641 5   -174794.941 5   -120905.12546  23056892.63746
 20  5 16  3 16 16.0000000  0  7G01G04G07G08G09G11G16                0.000220936
  22463962.344 6   -622678.730 6   -446071.59849  22463963.78149
  23518470.680 5    -97973.797 5    -63458.84045  23518471.58245
  22450419.531 6   -552508.008 6   -384357.66448  22450416.96548
  20749582.766 7   -231086.043 7   -171463.32449  20749582.81349
  23350782.195 6   -187152.699 6   -128769.96148  23350782.49648
  20590381.078 6   -454688.043 6   -321681.62948  20590378.26248
  23056456.617 5   -177105.691 5   -122705.70746  23056453.32046
 20  5 16  3 16 17.0000000  0  7G01G04G07G08G09G11G16                0.000218500
  22462577.258 6   -629956.891 6   -451742.88349  22462579.13349
  23518240.492 5    -99184.555 5    -64402.28145  23518241.20345
  22449138.797 6   -559237.176 6   -389601.16848  22449136.81348
  20749089.359 7   -233679.586 7   -173484.26649  20749089.26249
  23350355.000 6   -189395.137 6   -130517.31648  23350355.85948
  20589381.117 6   -459942.797 6   -325776.23848  20589378.35948
  23056016.063 5   -179416.559 5   -124506.38346  23056013.42246
 20  5 16  3 16 18.0000000  0  7G01G04G07G08G09G11G16                0.000216064
  22461192.219 6   -637235.063 6   -457414.18449  22461193.41449
  23518010.008 5   -100395.480 5    -65345.89545  23518010.68445
  22447858.688 6   -565966.273 6   -394844.61748  22447856.00448
  20748595.750 7   -236273.082 7   -175505.17249  20748595.16049
  23349928.734 6   -191637.453 6   -132264.58248  23349929.37948
  20588381.070 6   -465197.277 6   -329870.64148  20588378.55948
  23055576.344 4   -181727.570 4   -126307.16846  23055573.64546
 20  5 16  3 16 19.0000000  0  7G01G04G07G08G09G11G16                0.000213629
  22459807.344 6   -644513.211 6   -463085.47349  22459808.83249
  23517779.961 5   -101606.551 5    -66289.60545  23517780.09445
  22446578.344 6   -572695.281 6   -400087.99648  22446575.55148
  20748102.000 7   -238866.496 7   -177526.00849  20748101.92649
  23349501.727 6   -193879.703 6   -134011.78548  23349501.86348
  20587381.219 6   -470451.445 6   -333964.80548  20587378.46548
  23055137.313 4   -184038.727 4   -128108.07846  23055134.14846
 20  5 16  3 16 20.0000000  0  7G01G04G07G08G09G11G16                0.000211191
  22458422.117 6   -651791.516 6   -468756.87949  22458423.43849
  23517549.070 5   -102818.035 5    -67233.63745  23517549.52745
  22445297.078 6   -579424.469 6   -405331.52048  22445294.90248
  20747608.328 7   -241460.047 7   -179546.95749  20747608.15649
  23349074.672 6   -196122.059 6   -135759.07848  23349075.12948
  20586381.000 6   -475705.496 6   -338058.86748  20586378.54748
  23054696.359 4   -186350.234 4   -129909.25046  23054694.34046
 20  5 16  3 16 21.0000000  0  7G01G04G07G08G09G11G16                0.000208755
  22457037.164 6   -659069.734 6   -474428.22349  22457038.39549
  23517318.891 5   -104029.605 5    -68177.73045  23517318.35945
  22444016.891 6   -586153.480 6   -410574.90648  22444014.62148
  20747115.188 7   -244053.469 7   -181567.80149  20747114.77049
  23348647.852 6   -198364.262 6   -137506.25048  23348648.94148
  20585381.688 6   -480959.180 6   -342152.65248  20585378.90648
  23054257.016 4   -188661.832 4   -131710.49646  23054254.01246
 20  5 16  3 16 22.0000000  0  7G01G04G07G08G09G11G16                0.000206318
  22455651.992 6   -666347.848 6   -480099.48049  22455653.60549
  23517088.789 5   -105241.305 5    -69121.91045  23517088.01245
  22442736.789 6   -592882.340 6   -415818.16848  22442733.87548
  20746621.828 7   -246646.727 7   -183588.52049  20746620.93849
  23348221.523 6   -200606.324 6   -139253.31348  23348222.13348
  20584381.914 6   -486212.453 6   -346246.10548  20584379.43448
  23053816.781 4   -190973.453 4   -133511.76246  23053814.47746
 20  5 16  3 16 23.0000000  0  7G01G04G07G08G09G11G16                0.000203882
  22454267.273 6   -673625.887 6   -485770.68049  22454268.50049
  23516857.477 5   -106453.113 5    -70066.16045  23516856.93845
  22441456.188 6   -599611.066 6   -421061.32848  22441453.40248
  20746128.258 7   -249239.867 7   -185609.14849  20746127.64849
  23347794.008 5   -202848.207 5   -141000.23448  23347795.03148
  20583382.273 6   -491465.367 6   -350339.27748  20583379.72748
  23053377.516 4   -193285.207 4   -135313.12946  23053374.03546
 20  5 16  3 16 24.0000000  0  7G01G04G07G08G09G11G16                0.000201445
  22452882.281 6   -680903.820 6   -491441.80549  22452883.76249
  23516627.203 5   -107665.023 5    -71010.52345  23516626.39845
  22440176.367 6   -606339.668 6   -426304.39548  22440173.04748
  20745634.820 7   -251832.855 7   -187629.66049  20745634.21549
  23347367.367 5   -205089.957 5   -142747.05148  23347368.78148
  20582382.547 6   -496717.914 6   -354432.17248  20582380.43448
  23052937.273 4   -195597.023 4   -137114.53546  23052934.48846
 20  5 16  3 16 25.0000000  0  7G01G04G07G08G09G11G16                0.000199007
  22451497.078 6   -688181.523 6   -497112.73849  22451498.83649
  23516396.203 5   -108876.883 5    -71954.86345  23516395.57845
  22438895.867 6   -613067.984 6   -431547.24648  22438892.99248
  20745141.289 7   -254425.555 7   -189649.94549  20745141.40649
  23346940.961 5   -207331.433 5   -144493.65748  23346942.12148
  20581383.344 6   -501969.922 6   -358524.65248  20581380.65648
  23052497.539 4   -197908.773 4   -138915.91046  23052494.62146
 20  5 16  3 16 26.0000000  0  7G01G04G07G08G09G11G16                0.000196571
  22450112.250 6   -695459.344 6   -502783.76649  22450113.77749
  23516165.523 5   -110089.055 5    -72899.42645  23516165.21545
  22437615.133 6   -619796.344 6   -436790.12948  22437612.68448
  20744648.336 7   -257018.313 7   -191670.27749  20744647.76649
  23346514.695 5   -209572.922 5   -146240.27748  23346515.78148
  20580383.805 6   -507221.770 6   -362617.00448  20580381.00048
  23052057.664 4   -200220.828 4   -140717.51246  23052054.65246
 20  5 16  3 16 27.0000000  0  7G01G04G07G08G09G11G16                0.000194134
  22448727.539 6   -702737.055 6   -508454.71549  22448728.79349
  23515934.992 5   -111301.352 5    -73844.08245  23515934.35245
  22436334.750 6   -626524.539 6   -442032.87948  22436332.02348
  20744154.758 7   -259610.926 7   -193690.49649  20744154.40249
  23346088.477 5   -211814.227 5   -147986.74648  23346089.26248
  20579384.711 6   -512473.195 6   -366709.02048  20579382.24248
  23051618.008 4   -202532.934 4   -142519.15646  23051614.87946
 20  5 16  3 16 28.0000000  0  7G01G04G07G08G09G11G16                0.000191696
  22447342.766 6   -710014.457 6   -514125.41049  22447344.44949
  23515704.281 5   -112513.508 5    -74788.60945  23515703.07445
  22435054.219 6   -633252.375 6   -447275.34448  22435051.95348
  20743661.563 7   -262203.168 7   -195710.42249  20743661.05549
  23345661.984 5   -214055.207 5   -149732.96148  23345662.64848
  20578385.734 6   -517724.043 6   -370800.59848  20578382.94548
  23051177.953 4   -204844.902 4   -144320.70346  23051174.88746
 20  5 16  3 16 29.0000000  0  7G01G04G07G08G09G11G16                0.000189259
  22445957.578 6   -717291.918 6   -519796.16449  22445959.30549
  23515474.047 5   -113725.961 5    -75733.38345  23515472.49245
  22433774.219 6   -639980.258 6   -452517.85248  22433772.00448
  20743168.352 7   -264795.473 7   -197730.40249  20743167.65249
  23345235.430 5   -216296.160 5   -151479.16448  23345236.28548
  20577386.336 6   -522974.664 6   -374891.98848  20577384.39548
  23050737.570 4   -207157.121 4   -146122.43846  23050734.96546
 20  5 16  3 16 30.0000000  0  7G01G04G07G08G09G11G16                0.000186821
  22444572.516 6   -724569.164 6   -525466.74648  22444573.95348
  23515242.844 5   -114938.332 5    -76678.10245  23515241.49645
  22432493.906 6   -646707.840 6   -457760.12148  22432491.85248
  20742674.703 7   -267387.457 7   -199750.12949  20742674.39849
  23344809.148 5   -218536.816 5   -153225.12948  23344809.54748
  20576386.945 6   -528224.770 6   -378982.97748  20576384.93448
  23050297.375 4   -209469.242 4   -147924.09046  23050295.43846
 20  5 16  3 16 31.0000000  0  7G01G04G07G08G09G11G16                0.000184383
  22443187.953 6   -731846.395 6   -531137.31349  22443189.21949
  23515012.445 5   -116150.988 5    -77623.00045  23515011.08245
  22431213.945 6   -653435.371 6   -463002.35248  22431211.19948
  20742181.570 7   -269979.430 7   -201769.85249  20742180.85249
  23344382.539 5   -220777.449 5   -154971.08648  23344382.96948
  20575388.031 6   -533474.582 6   -383073.74248  20575385.54748
  23049857.383 5   -211781.582 5   -149725.90646  23049854.97346
 20  5 16  3 16 32.0000000  0  7G01G04G07G08G09G11G16                0.000181946
  22441803.125 6   -739123.633 6   -536807.89149  22441804.43449
  23514781.633 5   -117363.758 5    -78568.00845  23514779.63345
  22429933.281 6   -660162.867 6   -468244.55548  22429931.21548
  20741688.539 7   -272571.324 7   -203789.50449  20741688.14149
  23343956.195 5   -223017.973 5   -156716.95348  23343955.91048
  20574388.828 6   -538724.121 6   -387164.28548  20574386.84448
  23049416.953 4   -214094.063 4   -151527.83646  23049415.10246
 20  5 16  3 16 33.0000000  0  7G01G04G07G08G09G11G16                0.000179508
  22440418.344 6   -746400.727 6   -542478.34849  22440419.88749
  23514551.063 5   -118576.672 5    -79513.15645  23514548.80945
  22428653.359 6   -666890.180 6   -473486.61748  22428651.26648
  20741195.406 7   -275163.016 7   -205809.00849  20741195.24249
  23343529.742 5   -225258.281 5   -158462.65648  23343529.90648
  20573390.391 6   -543973.246 6   -391254.50448  20573388.12948
  23048977.016 4   -216406.586 4   -153329.80546  23048975.03546
 20  5 16  3 16 34.0000000  0  7G01G04G07G08G09G11G16                0.000177071
  22439034.227 6   -753677.652 6   -548148.68049  22439035.28549
  23514320.102 5   -119789.574 5    -80458.27345  23514318.27045
  22427373.094 6   -673617.273 6   -478728.50448  22427371.42248
  20740702.086 7   -277754.516 7   -207828.35549  20740701.82849
  23343103.789 5   -227498.430 5   -160208.23448  23343103.64548
  20572391.547 6   -549221.867 6   -395344.34848  20572388.92248
  23048537.484 4   -218719.098 4   -155131.77746  23048534.98046
 20  5 16  3 16 35.0000000  0  7G01G04G07G08G09G11G16                0.000174631
  22437649.219 6   -760954.293 6   -553818.78549  22437650.39149
  23514089.844 5   -121002.391 5    -81403.32445  23514087.31345
  22426092.930 6   -680344.012 6   -483970.12948  22426091.19948
  20740209.125 7   -280345.688 7   -209847.44949  20740209.11749
  23342677.445 5   -229738.195 5   -161953.50048  23342677.30548
  20571392.828 6   -554469.953 6   -399433.77048  20571390.60248
  23048096.953 4   -221031.508 4   -156933.65646  23048095.27046
 20  5 16  3 16 36.0000000  0  7G01G04G07G08G09G11G16                0.000172194
  22436265.289 6   -768230.863 6   -559488.84049  22436265.59049
  23513859.063 5   -122215.383 5    -82348.54345  23513856.34445
  22424813.023 6   -687070.703 6   -489211.71148  22424811.09848
  20739716.141 7   -282936.793 7   -211866.48849  20739715.58649
  23342251.469 5   -231977.887 5   -163698.71148  23342251.05948
  20570394.094 6   -559717.703 6   -403522.92648  20570391.87148
  23047656.695 4   -223344.035 4   -158735.63346  23047654.62946
 20  5 16  3 16 37.0000000  0  7G01G04G07G08G09G11G16                0.000169756
  22434880.102 6   -775507.383 6   -565158.85549  22434880.96549
  23513627.406 5   -123428.449 5    -83293.81345  23513625.53545
  22423532.930 6   -693797.203 6   -494453.14148  22423530.66048
  20739223.164 7   -285527.727 7   -213885.40649  20739222.96549
  23341825.297 5   -234217.383 5   -165443.77048  23341825.42648
  20569395.570 6   -564965.074 6   -407611.78148  20569393.28148
  23047217.219 4   -225656.688 4   -160537.70346  23047214.94546
 20  5 16  3 16 38.0000000  0  7G01G04G07G08G09G11G16                0.000167316
  22433495.125 6   -782783.793 6   -570828.78549  22433496.40649
  23513397.297 5   -124641.668 5    -84239.16045  23513394.30145
  22422252.766 6   -700523.590 6   -499694.47348  22422250.57848
  20738730.070 7   -288118.559 7   -215904.23049  20738729.53549
  23341398.297 5   -236456.772 5   -167188.73748  23341398.98448
  20568397.039 6   -570212.066 6   -411700.34448  20568394.39548
  23046776.969 4   -227969.367 4   -162339.79746  23046774.85946
 20  5 16  3 16 39.0000000  0  7G01G04G07G08G09G11G16                0.000164879
  22432110.469 6   -790060.102 6   -576498.63749  22432112.25049
  23513166.438 5   -125854.996 5    -85184.59445  23513163.82045
  22420973.523 6   -707249.848 6   -504935.71548  22420971.24648
  20738236.875 7   -290709.254 7   -217922.95349  20738236.53149
  23340972.641 5   -238695.961 5   -168933.54748  23340972.53548
  20567398.688 6   -575458.691 6   -415788.62148  20567396.24248
  23046336.992 4   -230282.158 4   -164141.97046  23046334.89546
 20  5 16  3 16 40.0000000  0  7G01G04G07G08G09G11G16                0.000162441
  22430725.883 6   -797336.332 6   -582168.42649  22430727.47749
  23512936.367 5   -127068.402 5    -86130.11345  23512932.24245
  22419692.906 6   -713975.934 6   -510176.81648  22419691.21148
  20737744.016 7   -293299.785 7   -219941.54749  20737743.26249
  23340547.086 5   -240935.051 5   -170678.28548  23340547.39148
  20566400.422 6   -580704.910 6   -419876.58248  20566397.91448
  23045896.781 4   -232595.039 4   -165944.20746  23045894.99246
 20  5 16  3 16 41.0000000  0  7G01G04G07G08G09G11G16                0.000160002
  22429341.211 6   -804612.410 6   -587838.10249  22429342.71149
  23512705.242 5   -128281.906 5    -87075.69145  23512701.75845
  22418413.148 6   -720701.820 6   -515417.77348  22418411.13348
  20737251.344 7   -295890.137 7   -221960.00049  20737250.73449
  23340120.711 5   -243173.910 5   -172422.84048  23340121.44948
  20565401.969 6   -585950.707 6   -423964.21948  20565399.76648
  23045456.555 4   -234907.930 4   -167746.46546  23045454.85946
 20  5 16  3 16 42.0000000  0  7G01G04G07G08G09G11G16                0.000157564
  22427956.813 6   -811888.391 6   -593507.68849  22427957.89149
  23512473.648 5   -129495.477 5    -88021.35545  23512470.35545
  22417133.484 6   -727427.578 6   -520658.63348  22417131.10948
  20736758.297 7   -298480.348 7   -223978.34849  20736757.93449
  23339694.773 5   -245412.613 5   -174167.27348  23339695.79348
  20564403.781 6   -591196.141 6   -428051.57848  20564401.53148
  23045016.328 4   -237220.922 4   -169548.78946  23045014.56646
 20  5 16  3 16 43.0000000  0  7G01G04G07G08G09G11G16                0.000155125
  22426572.008 6   -819164.273 6   -599177.20749  22426573.36749
  23512242.602 5   -130709.195 5    -88967.14145  23512239.59445
  22415853.328 6   -734153.203 6   -525899.37548  22415851.61348
  20736265.336 7   -301070.426 7   -225996.59449  20736265.06649
  23339268.305 5   -247651.148 5   -175911.61348  23339269.22748
  20563405.508 6   -596441.219 6   -432138.65648  20563402.99248
  23044576.188 4   -239533.973 4   -171351.16046  23044574.38746
 20  5 16  3 16 44.0000000  0  7G01G04G07G08G09G11G16                0.000152685
  22425187.273 6   -826440.227 6   -604846.78148  22425188.76248
  23512011.656 5   -131923.195 5    -89913.11745  23512008.91845
  22414573.867 6   -740878.797 6   -531140.10548  22414571.72348
  20735772.195 7   -303660.516 7   -228014.84849  20735771.71549
  23338842.117 5   -249889.664 5   -177655.92648  23338843.40648
  20562407.938 6   -601686.020 6   -436225.50848  20562404.96948
  23044136.102 4   -241847.270 4   -173153.73446  23044134.01246
 20  5 16  3 16 45.0000000  0  7G01G04G07G08G09G11G16                0.000150248
  22423804.242 5   -833715.996 5   -610516.21148  22423804.42648
  23511780.250 5   -133137.273 5    -90859.16445  23511777.63345
  22413293.914 6   -747604.266 6   -536380.74248  22413291.64548
  20735279.656 7   -306250.461 7   -230032.98449  20735279.37149
  23338416.945 6   -252128.070 6   -179400.15248  23338417.87148
  20561409.547 6   -606930.445 6   -440312.07848  20561407.78548
  23043696.227 5   -244160.652 5   -174956.37946  23043693.56646
 20  5 16  3 16 46.0000000  0  7G01G04G07G08G09G11G16                0.000147808
  22422419.250 5   -840991.598 5   -616185.50848  22422420.27048
  23511549.289 5   -134351.293 5    -91805.18445  23511546.18845
  22412014.391 6   -754329.418 6   -541621.14848  22412011.68448
  20734786.742 7   -308840.098 7   -232050.88749  20734786.19549
  23337990.484 6   -254366.137 6   -181144.12548  23337991.79748
  20560411.852 6   -612174.332 6   -444398.21948  20560409.83648
  23043257.602 4   -246473.934 4   -176758.96546  23043253.61746
 20  5 16  3 16 47.0000000  0  7G01G04G07G08G09G11G16                0.000145369
  22421033.969 6   -848267.016 6   -621854.67248  22421035.52048
  23511318.883 5   -135565.258 5    -92751.10245  23511315.30145
  22410734.125 6   -761054.301 6   -546861.31348  22410732.16848
  20734293.898 7   -311429.457 7   -234068.56649  20734293.77049
  23337565.414 5   -256603.973 5   -182887.89148  23337565.05948
  20559414.086 6   -617417.723 6   -448483.98448  20559411.84848
  23042815.297 4   -248787.125 4   -178561.43846  23042813.57046
 20  5 16  3 16 48.0000000  0  7G01G04G07G08G09G11G16                0.000142929
  22419649.727 6   -855542.234 6   -627523.67649  22419651.28149
  23511087.891 5   -136779.320 5    -93697.10945  23511084.52045
  22409454.586 6   -767779.008 6   -552101.32448  22409452.61348
  20733801.352 7   -314018.633 7   -236086.10949  20733801.05549
  23337138.781 5   -258841.574 5   -184631.47348  23337139.15648
  20558416.586 6   -622660.691 6   -452569.40648  20558413.84048
  23042374.578 4   -251100.383 4   -180363.96146  23042373.10246
 20  5 16  3 16 49.0000000  0  7G01G04G07G08G09G11G16                0.000140490
  22418265.602 6   -862817.371 6   -633192.60949  22418266.89549
  23510856.336 5   -137993.500 5    -94643.20745  23510852.97745
  22408175.336 6   -774503.551 6   -557341.21548  22408173.37948
  20733308.836 7   -316607.699 7   -238103.55949  20733308.39849
  23336713.914 5   -261079.000 5   -186374.91048  23336712.98048
  20557418.945 6   -627903.293 6   -456654.55548  20557416.59848
  23041934.750 4   -253413.680 4   -182166.52746  23041933.11746
 20  5 16  3 16 50.0000000  0  7G01G04G07G08G09G11G16                0.000138052
  22416880.992 6   -870092.418 6   -638861.48449  22416882.10949
  23510625.859 5   -139207.821 5    -95589.43645  23510622.25045
  22406895.391 6   -781227.992 6   -562581.03148  22406893.27748
  20732815.984 7   -319196.605 7   -240120.89549  20732815.69549
  23336287.547 5   -263316.309 5   -188118.26648  23336287.57848
  20556421.102 6   -633145.480 6   -460739.37148  20556418.32448
  23041494.445 4   -255727.141 4   -183969.21146  23041492.83246
 20  5 16  3 16 51.0000000  0  7G01G04G07G08G09G11G16                0.000135611
  22415496.758 6   -877367.418 6   -644530.30949  22415498.31349
  23510394.930 5   -140422.262 5    -96535.78545  23510391.04745
  22405615.641 6   -787952.305 6   -567820.75048  22405613.96548
  20732323.188 7   -321785.469 7   -242138.18449  20732323.02349
  23335862.406 5   -265553.543 5   -189861.57048  23335861.65648
  20555423.016 6   -638387.359 6   -464823.95348  20555420.89848
  23041053.922 4   -258040.684 4   -185771.98446  23041052.49246
 20  5 16  3 16 52.0000000  0  7G01G04G07G08G09G11G16                0.000133171
  22414112.320 6   -884642.223 6   -650198.98449  22414113.53149
  23510163.609 5   -141636.742 5    -97482.06645  23510160.09445
  22404336.156 6   -794676.395 6   -573060.30548  22404334.37148
  20731831.000 7   -324374.070 7   -244155.27349  20731830.41049
  23335436.922 5   -267790.480 5   -191604.64148  23335435.77748
  20554426.234 6   -643628.762 6   -468908.16848  20554423.69548
  23040613.867 4   -260354.223 4   -187574.76246  23040612.58646
 20  5 16  3 16 53.0000000  0  7G01G04G07G08G09G11G16                0.000130732
  22412727.492 6   -891917.008 6   -655867.64849  22412728.94949
  23509932.531 5   -142851.402 5    -98428.60245  23509929.06645
  22403056.133 6   -801400.410 6   -578299.79748  22403054.30948
  20731338.344 7   -326962.605 7   -246172.32049  20731338.07449
  23335011.336 5   -270027.363 5   -193347.66048  23335010.30948
  20553428.789 6   -648869.867 6   -472992.14848  20553426.54348
  23040172.859 3   -262667.898 3   -189377.62146  23040172.33246
 20  5 16  3 16 54.0000000  0  7G01G04G07G08G09G11G16                0.000128292
  22411343.594 6   -899191.504 6   -661536.07849  22411344.76649
  23509700.164 5   -144065.996 5    -99375.10245  23509697.73045
  22401777.297 6   -808124.098 6   -583539.02348  22401774.98448
  20730845.938 7   -329550.832 7   -248189.11749  20730845.69549
  23334585.523 5   -272263.918 5   -195090.43048  23334584.50448
  20552431.734 6   -654110.398 6   -477075.68048  20552429.40248
  23039733.039 3   -264981.504 3   -191180.43046  23039731.98046
 20  5 16  3 16 55.0000000  0  7G01G04G07G08G09G11G16                0.000125853
  22409959.195 6   -906465.801 6   -667204.35949  22409960.23449
  23509470.516 5   -145280.563 5   -100321.57045  23509466.80945
  22400497.625 5   -814847.508 5   -588778.04748  22400495.66048
  20730352.992 7   -332138.770 7   -250205.69549  20730353.05549
  23334160.227 5   -274500.176 5   -196832.97348  23334159.07448
  20551434.422 6   -659350.422 6   -481158.82048  20551431.80148
  23039293.578 3   -267295.047 3   -192983.18846  23039291.83246
 20  5 16  3 16 56.0000000  0  7G01G04G07G08G09G11G16                0.000123413
  22408575.117 6   -913740.133 6   -672872.66449  22408575.66449
  23509238.391 5   -146495.395 5   -101268.19945  23509235.39545
  22399218.445 5   -821570.906 5   -594017.05948  22399216.11348
  20729860.773 7   -334726.746 7   -252222.30149  20729860.26249
  23333734.516 5   -276736.457 5   -198575.53548  23333733.95748
  20550437.586 6   -664590.211 6   -485241.77048  20550435.05148
  23038852.359 3   -269608.785 3   -194786.09846  23038851.21946
 20  5 16  3 16 57.0000000  0  7G01G04G07G08G09G11G16                0.000120974
  22407190.852 6   -921014.418 6   -678540.93849  22407191.79749
  23509007.813 5   -147710.387 5   -102214.96545  23509004.34445
  22397938.688 6   -828294.242 6   -599256.02748  22397936.59848
  20729368.281 7   -337314.664 7   -254238.85949  20729367.55949
  23333308.203 5   -278972.617 5   -200318.00048  23333307.77048
  20549440.813 6   -669829.691 6   -489324.47348  20549438.14148
  23038412.078 3   -271922.719 3   -196589.16846  23038411.01646
 20  5 16  3 16 58.0000000  0  7G01G04G07G08G09G11G16                0.000118532
  22405806.438 6   -928288.594 6   -684209.12948  22405807.71148
  23508776.391 5   -148925.531 5   -103161.78145  23508772.98045
  22396659.914 6   -835017.426 6   -604494.87948  22396657.36348
  20728875.813 7   -339902.422 7   -256255.28549  20728875.55549
  23332883.430 5   -281208.609 5   -202060.34448  23332881.82848
  20548443.297 6   -675068.770 6   -493406.87148  20548441.13348
  23037972.328 4   -274236.637 4   -198392.22346  23037970.65246
 20  5 16  3 16 59.0000000  0  7G01G04G07G08G09G11G16                0.000116093
  22404422.188 6   -935562.652 6   -689877.21949  22404423.28949
  23508544.789 5   -150140.664 5   -104108.60545  23508541.69145
  22395380.094 5   -841740.375 5   -609733.54748  22395378.43048
  20728383.383 7   -342489.996 7   -258271.57849  20728382.91049
  23332458.000 5   -283444.402 5   -203802.52748  23332456.50448
  20547446.195 6   -680307.422 6   -497488.94148  20547444.20748
  23037531.508 4   -276550.676 4   -200195.36346  23037530.13346
 20  5 16  3 17  0.0000000  0  7G01G04G07G08G09G11G16                0.000113653
  22403038.266 6   -942836.668 6   -695545.28149  22403039.32449
  23508313.922 5   -151356.059 5   -105055.62945  23508310.32445
  22394100.523 6   -848463.301 6   -614972.19548  22394098.65248
  20727891.109 7   -345077.520 7   -260287.82849  20727890.67249
  23332031.852 5   -285680.180 5   -205544.69948  23332030.98448
  20546449.375 6   -685545.770 6   -501570.77348  20546447.48048
  23037090.977 4   -278864.801 4   -201998.57446  23037089.37946
 20  5 16  3 17  1.0000000  0  7G01G04G07G08G09G11G16                0.000111212
  22401654.039 6   -950110.598 6   -701213.28149  22401655.20749
  23508081.883 5   -152571.484 5   -106002.73445  23508079.05945
  22392821.602 5   -855186.051 5   -620210.69948  22392819.69548
  20727399.031 7   -347664.859 7   -262303.94149  20727398.48849
  23331606.352 5   -287915.754 5   -207286.70748  23331605.47348
  20545452.898 6   -690783.734 6   -505652.29348  20545450.81648
  23036651.422 3   -281179.063 3   -203801.89846  23036649.09446
 20  5 16  3 17  2.0000000  0  7G01G04G07G08G09G11G16                0.000108770
  22400269.906 6   -957384.375 6   -706881.15649  22400270.65249
  23507850.703 4   -153787.086 4   -106949.96945  23507847.70745
  22391541.984 5   -861908.633 5   -625449.07448  22391540.06648
  20726906.656 7   -350252.063 7   -264319.94149  20726906.16849
  23331181.148 5   -290151.191 5   -209028.60248  23331179.80548
  20544456.203 6   -696021.297 6   -509733.51248  20544453.73848
  23036210.516 3   -283493.375 3   -205605.25846  23036208.92246
 20  5 16  3 17  3.0000000  0  7G01G04G07G08G09G11G16                0.000106331
  22398885.922 6   -964658.207 6   -712549.07849  22398886.47349
  23507619.383 5   -155002.836 5   -107897.31345  23507616.21945
  22390262.844 6   -868631.203 6   -630687.43848  22390260.85248
  20726414.305 7   -352839.242 7   -266335.92249  20726413.85249
  23330755.766 5   -292386.547 5   -210770.44148  23330754.48448
  20543459.672 6   -701258.598 6   -513814.52348  20543457.28548
  23035769.766 4   -285807.801 4   -207408.72346  23035768.46546
 20  5 16  3 17  4.0000000  0  7G01G04G07G08G09G11G16                0.000103889
  22397501.555 6   -971931.961 6   -718216.94149  22397502.63749
  23507387.914 5   -156218.773 5   -108844.79345  23507384.39845
  22388983.508 5   -875353.633 5   -635925.69548  22388981.98448
  20725921.859 7   -355426.309 7   -268351.82849  20725921.25049
  23330330.625 5   -294621.785 5   -212512.19148  23330329.19948
  20542462.648 6   -706495.551 6   -517895.27048  20542460.61348
  23035329.633 3   -288122.418 3   -209212.31646  23035328.25846
 20  5 16  3 17  5.0000000  0  7G01G04G07G08G09G11G16                0.000101448
  22396117.156 6   -979205.570 6   -723884.69149  22396118.72749
  23507156.281 4   -157434.734 4   -109792.31345  23507153.04345
  22387704.336 6   -882075.902 6   -641163.82048  22387702.22348
  20725429.703 7   -358013.234 7   -270367.61349  20725428.93849
  23329904.906 5   -296856.855 5   -214253.80948  23329903.61348
  20541466.531 6   -711732.059 6   -521975.66448  20541464.30948
  23034889.289 4   -290437.023 4   -211015.91046  23034887.26646
 20  5 16  3 17  6.0000000  0  7G01G04G07G08G09G11G16                0.000099007
  22394733.445 6   -986479.313 6   -729552.53949  22394734.22349
  23506924.438 4   -158651.066 4   -110740.14545  23506921.39145
  22386425.609 6   -888798.219 6   -646401.99248  22386423.21148
  20724937.578 7   -360600.203 7   -272383.43049  20724936.79349
  23329480.141 5   -299091.977 5   -215995.46148  23329478.07048
  20540470.055 6   -716968.391 6   -526055.92248  20540468.11748
  23034448.359 4   -292751.973 4   -212819.77046  23034447.00846
 20  5 16  3 17  7.0000000  0  7G01G04G07G08G09G11G16                0.000096565
  22393349.086 6   -993752.660 6   -735220.07849  22393350.27749
  23506693.219 4   -159867.230 4   -111687.80545  23506690.23445
  22385146.430 5   -895520.113 5   -651639.82848  22385144.22748
  20724445.359 7   -363186.777 7   -274398.94549  20724444.63749
  23329054.656 5   -301326.660 5   -217736.77748  23329052.66848
  20539473.898 6   -722204.113 6   -530135.71148  20539471.37948
  23034008.398 4   -295066.676 4   -214623.43846  23034006.31646
 20  5 16  3 17  8.0000000  0  7G01G04G07G08G09G11G16                0.000094126
  22391964.766 6  -1001026.043 6   -740887.64549  22391965.84049
  23506461.563 4   -161083.621 4   -112635.64145  23506458.55545
  22383867.133 6   -902241.992 6   -656877.66048  22383865.23448
  20723953.195 7   -365773.293 7   -276414.41449  20723952.39149
  23328629.484 5   -303561.336 5   -219478.09848  23328627.82448
  20538477.469 6   -727439.535 6   -534215.26648  20538475.29748
  23033567.789 3   -297381.602 3   -216427.27046  23033565.94946
 20  5 16  3 17  9.0000000  0  7G01G04G07G08G09G11G16                0.000091682
  22390580.781 6  -1008299.305 6   -746555.11349  22390582.59449
  23506229.805 4   -162300.129 4   -113583.58645  23506227.41045
  22382587.625 5   -908963.691 5   -662115.34448  22382585.68048
  20723460.930 7   -368359.676 7   -278429.78149  20723460.27349
  23328204.234 5   -305795.824 5   -221219.26248  23328202.12548
  20537481.305 6   -732674.559 6   -538294.50448  20537479.18048
  23033127.516 4   -299696.570 4   -218231.14146  23033125.23046
 20  5 16  3 17 10.0000000  0  7G01G04G07G08G09G11G16                0.000089241
  22389196.992 6  -1015572.555 6   -752222.57849  22389197.97349
  23505999.258 4   -163516.785 4   -114531.62945  23505995.65245
  22381308.852 5   -915685.340 5   -667353.00048  22381306.77348
  20722968.445 7   -370946.027 7   -280445.12149  20722968.02049
  23327779.367 5   -308030.281 5   -222960.40248  23327776.54348
  20536485.078 6   -737909.289 6   -542373.50448  20536483.43848
  23032687.383 4   -302011.734 4   -220035.16046  23032684.88346
 20  5 16  3 17 11.0000000  0  7G01G04G07G08G09G11G16                0.000086800
  22387812.961 6  -1022845.785 6   -757890.03549  22387814.03949
  23505767.102 5   -164733.668 5   -115479.84445  23505764.35245
  22380030.055 5   -922406.922 5   -672590.60248  22380027.55148
  20722476.781 7   -373532.305 7   -282460.39849  20722476.24649
  23327353.805 5   -310264.637 5   -224701.46948  23327351.34448
  20535489.297 6   -743143.730 6   -546452.29748  20535486.75048
  23032246.359 4   -304327.027 4   -221839.28546  23032244.35546
 20  5 16  3 17 12.0000000  0  7G01G04G07G08G09G11G16                0.000084358
  22386428.367 6  -1030118.922 6   -763557.41049  22386430.14549
  23505534.516 4   -165950.672 4   -116428.14545  23505532.93445
  22378750.570 5   -929128.395 5   -677828.11348  22378748.51248
  20721984.547 7   -376118.469 7   -284475.59049  20721983.97349
  23326928.617 5   -312498.863 5   -226442.43448  23326926.28548
  20534493.625 6   -748377.820 6   -550530.80548  20534490.71548
  23031805.938 4   -306642.402 4   -223643.48046  23031803.59846
 20  5 16  3 17 13.0000000  0  7G01G04G07G08G09G11G16                0.000081917
  22385044.648 6  -1037391.930 6   -769224.68849  22385046.47749
  23505303.602 4   -167167.719 4   -117376.50845  23505300.94145
  22377471.867 6   -935849.664 6   -683065.46148  22377469.68048
  20721492.250 7   -378704.418 7   -286490.61349  20721491.82449
  23326503.219 5   -314732.898 5   -228183.24648  23326501.06648
  20533497.148 6   -753611.441 6   -554608.95748  20533494.72748
  23031365.156 4   -308957.848 4   -225447.72746  23031363.23846
 20  5 16  3 17 14.0000000  0  7G01G04G07G08G09G11G16                0.000079473
  22383660.938 6  -1044664.855 6   -774891.89849  22383661.99649
  23505072.773 5   -168384.941 5   -118324.97745  23505069.57045
  22376192.711 6   -942570.793 6   -688302.69548  22376190.43448
  20721000.406 7   -381290.270 7   -288505.56649  20720999.77049
  23326078.195 5   -316966.781 5   -229923.92648  23326075.69948
  20532501.141 6   -758844.738 6   -558686.85548  20532499.16448
  23030924.469 4   -311273.375 4   -227252.03946  23030921.85246
 20  5 16  3 17 15.0000000  0  7G01G04G07G08G09G11G16                0.000077032
  22382277.227 6  -1051937.727 6   -780559.07449  22382278.91449
  23504840.531 4   -169602.309 4   -119273.57045  23504837.55945
  22374913.750 6   -949291.813 6   -693539.85248  22374911.70748
  20720507.977 7   -383876.020 7   -290520.43849  20720507.50049
  23325652.938 5   -319200.570 5   -231664.54348  23325650.46148
  20531505.484 6   -764077.672 6   -562764.46148  20531502.91048
  23030484.266 4   -313589.020 4   -229056.42646  23030481.92246
 20  5 16  3 17 16.0000000  0  7G01G04G07G08G09G11G16                0.000074589
  22380893.133 6  -1059210.535 6   -786226.19549  22380894.52749
  23504609.211 4   -170819.820 4   -120222.29345  23504606.06345
  22373634.867 6   -956012.738 6   -698776.93448  22373632.85948
  20720016.227 7   -386461.707 7   -292535.25449  20720015.74249
  23325227.922 5   -321434.293 5   -233405.10948  23325224.86348
  20530509.484 6   -769310.305 6   -566841.83648  20530507.31648
  23030043.617 4   -315904.789 4   -230860.90646  23030041.11346
 20  5 16  3 17 17.0000000  0  7G01G04G07G08G09G11G16                0.000072147
  22379509.461 6  -1066483.133 6   -791893.14549  22379510.63349
  23504376.992 4   -172037.398 4   -121171.07845  23504374.64145
  22372355.781 6   -962733.422 6   -704013.82448  22372353.74248
  20719524.156 7   -389047.105 7   -294549.85549  20719523.64149
  23324803.633 5   -323667.727 5   -235145.44147  23324800.07047
  20529514.211 6   -774542.426 6   -570918.82048  20529511.71148
  23029603.117 4   -318220.508 4   -232665.36746  23029600.37946
 20  5 16  3 17 18.0000000  0  7G01G04G07G08G09G11G16                0.000069706
  22378125.773 6  -1073755.781 6   -797560.14849  22378126.93449
  23504145.531 4   -173255.129 4   -122119.97745  23504142.53945
  22371077.461 6   -969454.078 6   -709250.69548  22371074.95748
  20719032.266 7   -391632.496 7   -296564.44149  20719031.94149
  23324378.656 5   -325901.125 5   -236885.75847  23324374.98047
  20528518.813 6   -779774.301 6   -574995.59848  20528516.13348
  23029161.453 4   -320536.465 4   -234470.00446  23029159.63346
 20  5 16  3 17 19.0000000  0  7G01G04G07G08G09G11G16                0.000067263
  22376740.984 6  -1081028.316 6   -803227.05549  22376743.04349
  23503914.211 4   -174473.051 4   -123068.99645  23503911.07045
  22369798.266 5   -976174.629 5   -714487.49248  22369796.07848
  20718540.508 7   -394217.805 7   -298578.97749  20718540.07449
  23323952.430 5   -328134.434 5   -238626.00047  23323949.84847
  20527523.094 6   -785005.824 6   -579072.10948  20527520.63748
  23028721.383 4   -322852.500 4   -236274.71146  23028718.92646
 20  5 16  3 17 20.0000000  0  7G01G04G07G08G09G11G16                0.000064819
  22375357.992 6  -1088300.742 6   -808893.87949  22375359.03949
  23503682.820 4   -175690.984 4   -124018.01245  23503678.73845
  22368518.883 5   -982894.965 5   -719724.12148  22368517.02348
  20718048.461 7   -396802.918 7   -300593.34449  20718048.25049
  23323527.883 5   -330367.508 5   -240366.05548  23323525.03548
  20526527.977 6   -790236.883 6   -583148.26648  20526525.32448
  23028280.305 4   -325168.578 4   -238079.43846  23028278.17646
 20  5 16  3 17 21.0000000  0  7G01G04G07G08G09G11G16                0.000062378
  22373973.602 6  -1095572.988 6   -814560.55949  22373975.05149
  23503451.727 4   -176909.043 4   -124967.14845  23503447.51245
  22367240.859 5   -989615.063 5   -724960.55548  22367238.13748
  20717556.305 7   -399387.824 7   -302607.55949  20717555.46549
  23323103.539 5   -332600.418 5   -242105.97747  23323100.44947
  20525532.453 6   -795467.516 6   -587224.08648  20525529.91448
  23027839.742 4   -327484.688 4   -239884.20746  23027837.57046
 20  5 16  3 17 22.0000000  0  7G01G04G07G08G09G11G16                0.000059933
  22372589.758 6  -1102845.152 6   -820227.17649  22372591.32849
  23503219.813 5   -178127.176 5   -125916.35545  23503215.78145
  22365962.188 6   -996335.047 6   -730196.90248  22365959.63348
  20717064.406 7   -401972.613 7   -304621.66849  20717064.20349
  23322678.797 5   -334833.137 5   -243845.77047  23322675.06647
  20524536.867 6   -800697.777 6   -591299.61348  20524534.51248
  23027398.859 4   -329800.883 4   -241689.02846  23027396.66446
 20  5 16  3 17 23.0000000  0  7G01G04G07G08G09G11G16                0.000057491
  22371206.000 6  -1110117.234 6   -825893.73449  22371207.23049
  23502987.859 5   -179345.430 5   -126865.65245  23502983.92645
  22364683.320 6  -1003054.918 6   -735433.16448  22364681.18448
  20716572.656 7   -404557.273 7   -306635.69549  20716571.99649
  23322253.656 5   -337065.762 5   -245585.49247  23322250.15647
  20523541.820 6   -805927.656 6   -595374.84448  20523538.93448
  23026957.977 4   -332117.152 4   -243493.89846  23026956.52346
 20  5 16  3 17 24.0000000  0  7G01G04G07G08G09G11G16                0.000055048
  22369822.195 6  -1117389.113 6   -831560.12949  22369823.94549
  23502755.359 4   -180563.742 4   -127815.00445  23502751.87945
  22363405.203 6  -1009774.516 6   -740669.21548  22363402.13348
  20716080.906 7   -407141.711 7   -308649.53949  20716080.65249
  23321828.641 5   -339298.109 5   -247324.98047  23321825.34047
  20522546.672 6   -811157.078 6   -599449.72348  20522544.21148
  23026516.930 4   -334433.344 4   -245298.71146  23026515.27346
 20  5 16  3 17 25.0000000  0  7G01G04G07G08G09G11G16                0.000052605
  22368438.344 6  -1124660.879 6   -837226.43849  22368440.49649
  23502524.258 5   -181782.105 5   -128764.37145  23502520.18445
  22362126.070 6  -1016493.961 6   -745905.13748  22362123.41448
  20715589.172 7   -409726.035 7   -310663.29749  20715588.52749
  23321404.492 5   -341530.285 5   -249064.33647  23321400.68847
  20521551.789 6   -816386.129 6   -603524.30548  20521549.34848
  23026076.688 4   -336749.703 4   -247103.66446  23026074.55946
 20  5 16  3 17 26.0000000  0  7G01G04G07G08G09G11G16                0.000050161
  22367054.680 6  -1131932.445 6   -842892.59049  22367056.88749
  23502292.133 4   -183000.520 4   -129713.79745  23502288.31645
  22360847.266 6  -1023213.176 6   -751140.88748  22360844.89548
  20715097.492 7   -412310.113 7   -312676.86349  20715097.07449
  23320979.250 5   -343762.246 5   -250803.53547  23320975.87947
  20520556.453 6   -821614.688 6   -607598.50848  20520554.38348
  23025635.344 4   -339065.992 4   -248908.55946  23025633.48446
 20  5 16  3 17 27.0000000  0  7G01G04G07G08G09G11G16                0.000047718
  22365670.734 6  -1139204.004 6   -848558.73849  22365672.70749
  23502059.789 4   -184219.160 4   -130663.36345  23502056.56345
  22359568.469 6  -1029932.305 6   -756376.57448  22359566.28148
  20714605.773 7   -414894.172 7   -314690.41449  20714605.13749
  23320555.313 5   -345994.180 5   -252542.70347  23320551.28547
  20519562.133 6   -826842.930 6   -611672.46548  20519559.41048
  23025195.008 4   -341382.465 4   -250713.60546  23025193.42646
 20  5 16  3 17 28.0000000  0  7G01G04G07G08G09G11G16                0.000045275
  22364287.117 6  -1146475.379 6   -854224.73849  22364289.09049
  23501827.453 4   -185437.785 4   -131612.94545  23501824.79345
  22358289.992 6  -1036651.215 6   -761612.09448  22358287.48848
  20714113.969 7   -417477.980 7   -316703.77749  20714113.30149
  23320130.133 5   -348225.844 5   -254281.66447  23320126.74647
  20518567.203 6   -832070.707 6   -615746.05548  20518564.78148
  23024754.445 4   -343698.879 4   -252518.60546  23024752.29346
 20  5 16  3 17 29.0000000  0  7G01G04G07G08G09G11G16                0.000042831
  22362903.586 6  -1153746.766 6   -859890.75449  22362905.59449
  23501595.977 4   -186656.680 4   -132562.74245  23501593.10945
  22357011.477 6  -1043370.102 6   -766847.58648  22357009.16448
  20713622.070 7   -420061.809 7   -318717.14149  20713621.98449
  23319705.648 5   -350457.465 5   -256020.59047  23319701.99247
  20517572.344 6   -837298.230 6   -619819.45348  20517569.93448
  23024312.914 4   -346015.547 4   -254323.79746  23024310.85546
 20  5 16  3 17 30.0000000  0  7G01G04G07G08G09G11G16                0.000040388
  22361519.789 6  -1161018.035 6   -865556.68049  22361521.82049
  23501363.625 4   -187875.664 4   -133512.62145  23501361.37545
  22355732.734 6  -1050088.793 6   -772082.93448  22355731.14848
  20713130.195 7   -422645.457 7   -320730.37149  20713130.27349
  23319281.297 5   -352688.902 5   -257759.38347  23319277.27047
  20516577.727 6   -842525.367 6   -623892.54748  20516575.15248
  23023872.383 4   -348332.277 4   -256129.03946  23023870.63746
 20  5 16  3 17 31.0000000  0  7G01G04G07G08G09G11G16                0.000037943
  22360135.977 6  -1168289.309 6   -871222.59449  22360137.96149
  23501132.680 4   -189094.844 4   -134462.63345  23501128.93845
  22354454.305 5  -1056807.469 5   -777318.26648  22354452.17248
  20712638.758 7   -425229.059 7   -322743.57449  20712638.27049
  23318856.305 5   -354920.359 5   -259498.18847  23318852.85547
  20515583.328 6   -847752.227 6   -627965.42248  20515580.73848
  23023431.742 4   -350649.180 4   -257934.42246  23023429.50846
 20  5 16  3 17 32.0000000  0  7G01G04G07G08G09G11G16                0.000035500
  22358752.055 6  -1175560.457 6   -876888.42249  22358754.21949
  23500900.359 4   -190314.098 4   -135412.72745  23500896.37145
  22353176.102 5  -1063525.930 5   -782553.43048  22353173.33648
  20712147.102 7   -427812.473 7   -324756.62549  20712147.00849
  23318431.344 5   -357151.582 5   -261236.80147  23318428.93047
  20514588.438 6   -852978.645 6   -632037.95748  20514585.70348
  23022991.859 4   -352966.098 4   -259739.81346  23022988.46946
 20  5 16  3 17 33.0000000  0  7G01G04G07G08G09G11G16                0.000033056
  22357368.508 6  -1182831.309 6   -882554.01649  22357371.18449
  23500669.242 4   -191533.359 4   -136362.80145  23500665.24645
  22351897.594 5  -1070244.129 5   -787788.39148  22351895.51648
  20711655.508 7   -430395.570 7   -326769.43049  20711655.05949
  23318006.766 5   -359382.520 5   -262975.19547  23318004.74247
  20513594.109 6   -858204.527 6   -636110.07048  20513591.29748
  23022549.633 4   -355282.941 4   -261545.14146  23022547.99646
 20  5 16  3 17 34.0000000  0  7G01G04G07G08G09G11G16                0.000030611
  22355985.602 6  -1190102.051 6   -888219.53549  22355987.92649
  23500435.125 4   -192752.699 4   -137312.92245  23500432.94545
  22350619.039 6  -1076962.113 6   -793023.17648  22350617.16448
  20711164.352 7   -432978.563 7   -328782.15249  20711163.62549
  23317583.086 5   -361613.266 5   -264713.44547  23317579.66847
  20512599.578 6   -863429.988 6   -640181.86748  20512597.13748
  23022109.102 4   -357599.816 4   -263350.50046  23022106.85246
 20  5 16  3 17 35.0000000  0  7G01G04G07G08G09G11G16                0.000028168
  22354602.031 6  -1197372.801 6   -893885.05549  22354603.71949
  23500202.938 4   -193972.145 4   -138263.12945  23500200.48845
  22349340.781 6  -1083680.031 6   -798257.91848  22349339.01648
  20710672.711 7   -435561.465 7   -330794.80949  20710672.19949
  23317157.734 5   -363843.961 5   -266451.65247  23317155.28147
  20511605.438 6   -868655.176 6   -644253.44548  20511602.98448
  23021668.453 4   -359916.910 4   -265156.02046  23021666.35246
 20  5 16  3 17 36.0000000  0  7G01G04G07G08G09G11G16                0.000025723
  22353217.930 6  -1204643.461 6   -899550.50449  22353220.16049
  23499970.641 4   -195191.805 4   -139213.50845  23499968.75845
  22348062.078 6  -1090397.852 6   -803492.57848  22348060.68048
  20710181.164 7   -438144.254 7   -332807.37149  20710180.43049
  23316733.000 5   -366074.535 5   -268189.74647  23316730.37547
  20510611.359 6   -873879.988 6   -648324.73048  20510608.51248
  23021226.961 4   -362234.066 4   -266961.58646  23021225.37546
 20  5 16  3 17 37.0000000  0  7G01G04G07G08G09G11G16                0.000023279
  22351834.617 6  -1211913.848 6   -905215.74649  22351836.28149
  23499738.781 3   -196411.402 3   -140163.83245  23499735.96145
  22346784.078 5  -1097115.344 5   -808726.98448  22346782.59848
  20709689.758 7   -440726.762 7   -334819.70749  20709688.96949
  23316308.539 5   -368304.820 5   -269927.61747  23316306.09447
  20509617.211 6   -879104.293 6   -652395.61748  20509614.62948
  23020785.992 4   -364551.160 4   -268767.12546  23020784.23046
 20  5 16  3 17 38.0000000  0  7G01G04G07G08G09G11G16                0.000020834
  22350451.539 6  -1219184.090 6   -910880.85949  22350452.57849
  23499507.023 4   -197631.090 4   -141114.25845  23499504.07445
  22345505.648 6  -1103832.652 6   -813961.25848  22345504.25448
  20709198.492 7   -443309.090 7   -336831.91049  20709198.04749
  23315884.367 5   -370534.859 5   -271665.30547  23315881.55947
  20508622.578 6   -884328.141 6   -656466.13748  20508620.33648
  23020345.750 4   -366868.293 4   -270572.68446  23020343.64546
 20  5 16  3 17 39.0000000  0  7G01G04G07G08G09G11G16                0.000018391
  22349068.109 6  -1226454.328 6   -916545.97349  22349069.37549
  23499276.266 4   -198850.961 4   -142064.84845  23499272.47745
  22344227.438 6  -1110549.895 6   -819195.46148  22344225.88348
  20708707.070 7   -445891.371 7   -338844.07449  20708706.49649
  23315460.516 5   -372764.898 5   -273402.99647  23315457.42647
  20507629.078 6   -889551.730 6   -660536.46548  20507626.29348
  23019904.539 4   -369185.570 4   -272378.33646  23019902.37546
 20  5 16  3 17 40.0000000  0  7G01G04G07G08G09G11G16                0.000015945
  22347684.445 6  -1233724.410 6   -922210.95749  22347685.77749
  23499044.039 4   -200070.996 4   -143015.53945  23499040.18445
  22342949.586 6  -1117266.957 6   -824429.53148  22342947.57448
  20708215.711 7   -448473.484 7   -340856.09849  20708214.93849
  23315036.469 5   -374994.688 5   -275140.50847  23315033.09847
  20506634.758 6   -894774.871 6   -664606.43448  20506632.66448
  23019463.406 4   -371502.906 4   -274184.05546  23019461.45346
 20  5 16  3 17 41.0000000  0  7G01G04G07G08G09G11G16                0.000013500
  22346300.281 6  -1240994.555 6   -927876.00049  22346303.06649
  23498811.188 4   -201291.191 4   -143966.34445  23498808.51245
  22341670.734 6  -1123983.992 6   -829663.57848  22341668.83648
  20707724.344 7   -451055.598 7   -342868.13749  20707723.69549
  23314611.688 5   -377224.539 5   -276878.06647  23314608.75847
  20505640.922 6   -899997.781 6   -668676.23448  20505638.24648
  23019022.133 4   -373820.449 4   -275989.93946  23019020.30146
 20  5 16  3 17 42.0000000  0  7G01G04G07G08G09G11G16                0.000011055
  22344917.188 6  -1248264.574 6   -933540.95749  22344919.31649
  23498578.977 4   -202511.520 4   -144917.21945  23498576.09045
  22340393.266 6  -1130700.879 6   -834897.52348  22340391.22348
  20707232.859 7   -453637.582 7   -344880.08249  20707232.00849
  23314187.430 5   -379454.215 5   -278615.48047  23314184.38347
  20504647.516 6   -905220.277 6   -672745.72348  20504644.32048
  23018581.836 4   -376138.047 4   -277795.86346  23018579.64846
 20  5 16  3 17 43.0000000  0  7G01G04G07G08G09G11G16                0.000008610
  22343533.789 6  -1255534.359 6   -939205.73049  22343535.86749
  23498346.125 4   -203731.836 4   -145868.09445  23498343.80145
  22339114.461 6  -1137417.477 6   -840131.24248  22339113.35248
  20706741.852 7   -456219.301 7   -346891.81649  20706741.00449
  23313762.883 5   -381683.605 5   -280352.67247  23313759.93447
  20503653.789 6   -910442.309 6   -676814.84048  20503650.64548
  23018140.555 4   -378455.590 4   -279601.74646  23018138.29346
 20  5 16  3 17 44.0000000  0  7G01G04G07G08G09G11G16                0.000006166
  22342150.094 6  -1262803.961 6   -944870.35249  22342152.60949
  23498115.000 4   -204952.168 4   -146819.03545  23498111.57845
  22337836.805 6  -1144133.848 6   -845364.77348  22337835.00848
  20706250.258 7   -458800.758 7   -348903.34049  20706249.51649
  23313338.750 5   -383912.746 5   -282089.65647  23313335.70747
  20502660.352 6   -915663.863 6   -680883.59048  20502657.15648
  23017699.227 4   -380773.148 4   -281407.64146  23017697.52346
 20  5 16  3 17 45.0000000  0  7G01G04G07G08G09G11G16                0.000003721
  22340767.078 6  -1270073.371 6   -950534.82849  22340768.97349
  23497882.211 4   -206172.563 4   -147769.98845  23497879.71145
  22336558.883 6  -1150849.957 6   -850598.10548  22336556.86348
  20705758.953 7   -461382.027 7   -350914.72349  20705758.44949
  23312914.203 5   -386141.660 5   -283826.46547  23312912.38747
  20501666.555 6   -920884.953 6   -684951.96548  20501663.50048
  23017257.992 4   -383090.668 4   -283213.49646  23017256.45746
 20  5 16  3 17 46.0000000  0  7G01G04G07G08G09G11G16                0.000001276
  22339383.570 6  -1277342.496 6   -956199.08649  22339385.87149
  23497650.344 4   -207392.871 4   -148720.87545  23497647.32845
  22335281.055 6  -1157565.777 6   -855831.21548  22335279.15248
  20705267.891 7   -463962.992 7   -352925.86749  20705267.38349
  23312491.039 5   -388370.297 5   -285563.05947  23312487.64847
  20500672.375 6   -926105.465 6   -689019.90248  20500670.12148
  23016817.469 4   -385408.125 4   -285019.30946  23016815.50046
 20  5 16  3 17 47.0000000  0  7G01G04G07G08G09G11G16               -0.000001169
  22338000.344 6  -1284611.527 6   -961863.26249  22338002.53949
  23497417.781 4   -208613.313 4   -149671.90645  23497414.97745
  22334002.750 6  -1164281.402 6   -861064.16848  22334001.09448
  20704777.156 7   -466543.793 7   -354936.87949  20704775.99649
  23312066.180 5   -390598.715 5   -287299.48447  23312063.88347
  20499679.836 6   -931325.570 6   -693087.51248  20499676.55148
  23016376.297 4   -387725.656 4   -286825.18446  23016374.42646
 20  5 16  3 17 48.0000000  0  7G01G04G07G08G09G11G16               -0.000003614
  22336617.016 6  -1291880.477 6   -967527.37549  22336619.60949
  23497186.008 4   -209833.852 4   -150622.98445  23497183.04745
  22332725.117 6  -1170996.930 6   -866297.04348  22332723.00048
  20704285.602 7   -469124.488 7   -356947.80549  20704285.03149
  23311642.234 5   -392827.031 5   -289035.84047  23311640.24247
  20498686.266 6   -936545.352 6   -697154.87548  20498683.34448
  23015934.461 4   -390043.234 4   -288631.08246  23015933.42646
 20  5 16  3 17 49.0000000  0  7G01G04G07G08G09G11G16               -0.000006060
  22335233.641 6  -1299149.191 6   -973191.30949  22335236.62149
  23496953.930 4   -211054.395 4   -151574.07045  23496951.47745
  22331446.547 6  -1177712.164 6   -871529.69148  22331445.02348
  20703795.039 7   -471704.949 7   -358958.55549  20703794.26649
  23311218.961 5   -395055.113 5   -290772.02048  23311216.24248
  20497693.492 6   -941764.617 6   -701221.83248  20497690.25848
  23015494.031 4   -392360.789 4   -290436.96946  23015492.24646
 20  5 16  3 17 50.0000000  0  7G01G04G07G08G09G11G16               -0.000008505
  22333850.750 6  -1306417.688 6   -978855.07049  22333853.02749
  23496721.445 4   -212274.949 4   -152525.14145  23496718.90645
  22330168.977 6  -1184427.137 6   -876762.14148  22330167.12148
  20703303.797 7   -474285.145 7   -360969.09449  20703303.04749
  23310795.055 5   -397282.898 5   -292507.95748  23310792.75048
  20496700.266 6   -946983.371 6   -705288.39148  20496697.34448
  23015052.594 4   -394678.301 4   -292242.82446  23015050.85246
 20  5 16  3 17 51.0000000  0  7G01G04G07G08G09G11G16               -0.000010950
  22332467.781 6  -1313686.121 6   -984518.78149  22332469.75049
  23496489.219 4   -213495.703 4   -153476.43845  23496486.70345
  22328891.672 6  -1191142.016 6   -881994.50048  22328889.39548
  20702812.508 7   -476865.262 7   -362979.57849  20702811.80549
  23310370.570 5   -399510.594 5   -294243.82047  23310368.46147
  20495707.195 6   -952201.809 6   -709354.71148  20495704.06648
  23014611.555 3   -396995.949 3   -294048.78946  23014610.16446
 20  5 16  3 17 52.0000000  0  7G01G04G07G08G09G11G16               -0.000013395
  22331084.563 6  -1320954.516 6   -990182.46149  22331086.84849
  23496256.930 4   -214716.535 4   -154427.72745  23496254.32845
  22327614.141 6  -1197856.738 6   -887226.75448  22327611.58248
  20702321.930 7   -479445.285 7   -364989.98449  20702321.15249
  23309947.172 5   -401738.188 5   -295979.60548  23309944.57048
  20494714.422 6   -957419.871 6   -713420.72748  20494711.17648
  23014170.547 3   -399313.785 3   -295854.90646  23014168.67646
 20  5 16  3 17 53.0000000  0  7G01G04G07G08G09G11G16               -0.000015842
  22329700.711 6  -1328222.762 6   -995846.02749  22329703.80949
  23496023.922 3   -215937.574 3   -155379.17645  23496021.79345
  22326336.133 6  -1204571.363 6   -892458.93448  22326334.03548
  20701831.063 7   -482025.180 7   -367000.29349  20701830.25449
  23309522.516 5   -403965.617 5   -297715.25448  23309521.44948
  20493721.125 6   -962637.582 6   -717486.48048  20493718.14848
  23013730.602 3   -401631.578 3   -297660.97346  23013727.44146
 20  5 16  3 17 54.0000000  0  7G01G04G07G08G09G11G16               -0.000018288
  22328318.516 6  -1335490.742 6  -1001509.39849  22328320.95349
  23495791.328 3   -217158.496 3   -156330.55545  23495789.75045
  22325058.492 6  -1211285.629 6   -897690.83248  22325056.47348
  20701340.031 7   -484604.750 7   -369010.34849  20701339.61349
  23309099.672 5   -406192.727 5   -299450.66448  23309097.42648
  20492728.445 6   -967854.695 6   -721551.76248  20492725.48848
  23013288.297 4   -403949.352 4   -299467.02346  23013286.63346
 20  5 16  3 17 55.0000000  0  7G01G04G07G08G09G11G16               -0.000020733
  22326935.414 6  -1342758.578 6  -1007172.65249  22326937.56349
  23495558.570 3   -218379.465 3   -157281.94945  23495557.59445
  22323781.453 6  -1217999.719 6   -902922.59448  22323778.82848
  20700848.867 7   -487184.137 7   -371020.26649  20700848.41049
  23308675.430 5   -408419.633 5   -301185.93448  23308673.98048
  20491735.594 6   -973071.398 6   -725616.73448  20491732.64848
  23012847.469 3   -406267.102 3   -301273.07046  23012845.60946
 20  5 16  3 17 56.0000000  0  7G01G04G07G08G09G11G16               -0.000023178
  22325552.125 6  -1350026.230 6  -1012835.75849  22325554.38749
  23495326.242 3   -219600.570 3   -158233.46945  23495324.95345
  22322503.258 6  -1224713.570 6   -908154.16848  22322500.89548
  20700358.016 7   -489763.328 7   -373030.02349  20700357.57449
  23308251.961 5   -410646.363 5   -302921.05548  23308250.22748
  20490743.258 6   -978287.656 6   -729681.34848  20490740.28548
  23012406.773 4   -408584.871 4   -303079.14146  23012404.39146
 20  5 16  3 17 57.0000000  0  7G01G04G07G08G09G11G16               -0.000025625
  22324169.992 6  -1357293.770 6  -1018498.77349  22324171.73849
  23495093.047 3   -220821.695 3   -159184.99245  23495092.59045
  22321226.211 6  -1231427.273 6   -913385.62548  22321223.19948
  20699867.484 7   -492342.348 7   -375039.65249  20699867.07449
  23307828.234 5   -412872.906 5   -304656.02048  23307827.16848
  20489750.695 6   -983503.496 6   -733745.63348  20489747.34848
  23011966.352 4   -410902.719 4   -304885.26646  23011963.66046
 20  5 16  3 17 58.0000000  0  7G01G04G07G08G09G11G16               -0.000028070
  22322786.625 6  -1364561.094 6  -1024161.62149  22322789.14849
  23494860.625 3   -222042.867 3   -160136.58245  23494860.30545
  22319948.227 6  -1238140.652 6   -918616.83248  22319945.48048
  20699376.719 7   -494921.152 7   -377049.10549  20699376.02049
  23307404.664 5   -415099.180 5   -306390.77748  23307403.01648
  20488757.703 6   -988718.840 6   -737809.53948  20488755.25848
  23011524.461 4   -413220.516 4   -306691.32846  23011522.48046
 20  5 16  3 17 59.0000000  0  7G01G04G07G08G09G11G16               -0.000030518
  22321403.836 6  -1371828.246 6  -1029824.33249  22321406.57849
  23494627.805 2   -223264.070 2   -161088.13745  23494628.26245
  22318670.734 6  -1244853.879 6   -923847.91048  22318668.23848
  20698885.930 7   -497499.762 7   -379058.41849  20698885.65649
  23306980.828 5   -417325.270 5   -308125.39548  23306979.66448
  20487765.531 6   -993933.754 6   -741873.10948  20487763.01648
  23011083.180 4   -415538.277 4   -308497.37146  23011081.41446
 20  5 16  3 18  0.0000000  0  7G01G04G07G08G09G11G16               -0.000032963
  22320020.750 6  -1379095.215 6  -1035486.91049  22320023.16449
  23494395.484 2   -224485.297 2   -162039.74245  23494395.99645
  22317393.273 6  -1251566.848 6   -929078.79348  22317390.79348
  20698395.289 7   -500078.148 7   -381067.55149  20698395.14149
  23306557.211 5   -419551.121 5   -309859.82848  23306556.41448
  20486773.336 6   -999148.180 6   -745936.29348  20486770.52348
  23010642.281 4   -417856.074 4   -310303.46946  23010640.04746
 20  5 16  3 18  1.0000000  0  7G01G04G07G08G09G11G16               -0.000035410
  22318638.031 6  -1386362.199 6  -1041149.49249  22318640.86349
  23494163.508 2   -225706.805 2   -162991.54345  23494163.82445
  22316115.953 6  -1258279.824 6   -934309.68848  22316113.54748
  20697904.578 7   -502656.582 7   -383076.71949  20697904.21149
  23306134.016 5   -421776.945 5   -311594.23448  23306132.61348
  20485780.867 6  -1004362.379 6   -749999.30548  20485778.56648
  23010201.516 4   -420174.090 4   -312109.72346  23010199.14146
 20  5 16  3 18  2.0000000  0  7G01G04G07G08G09G11G16               -0.000037855
  22317255.445 6  -1393629.012 6  -1046811.93849  22317257.86749
  23493930.500 1   -226928.316 1   -163943.41045  23493931.36345
  22314839.063 6  -1264992.500 6   -939540.34448  22314835.86348
  20697414.086 7   -505234.715 7   -385085.65249  20697413.69949
  23305710.047 5   -424002.500 5   -313328.44548  23305709.39848
  20484788.828 6  -1009576.098 6   -754061.94148  20484786.04748
  23009760.148 4   -422492.059 4   -313915.94546  23009758.05146
 20  5 16  3 18  3.0000000  0  7G01G04G07G08G09G11G16               -0.000040302
  22315872.391 6  -1400895.656 6  -1052474.25849  22315875.09449
  23493697.656 1   -228149.934 1   -164895.31345  23493698.80945
  22313561.094 6  -1271705.012 6   -944770.87548  22313558.51648
  20696923.469 7   -507812.699 7   -387094.48049  20696922.79349
  23305286.492 5   -426227.934 5   -315062.54748  23305285.67248
  20483797.484 6  -1014789.379 6   -758124.23848  20483794.18448
  23009318.680 4   -424810.086 4   -315722.18046  23009316.72746
 20  5 16  3 18  4.0000000  0  7G01G04G07G08G09G11G16               -0.000042747
  22314489.789 6  -1408162.160 6  -1058136.46949  22314492.44549
  23493465.000 1   -229371.629 1   -165847.33645  23493466.57445
  22312284.063 6  -1278417.332 6   -950001.25448  22312281.11748
  20696432.930 7   -510390.496 7   -389103.14849  20696432.66049
  23304863.555 5   -428453.156 5   -316796.49248  23304862.18848
  20482805.234 6  -1020002.219 6   -762186.19148  20482802.21548
  23008877.781 4   -427128.148 4   -317528.46946  23008875.61346
 20  5 16  3 18  5.0000000  0  7G01G04G07G08G09G11G16               -0.000045195
  22313106.906 6  -1415428.453 6  -1063798.51649  22313109.73049
  23493234.023 1   -230593.348 1   -166799.27745  23493233.84045
  22311006.719 6  -1285129.391 6   -955231.43048  22311003.48848
  20695942.438 7   -512968.086 7   -391111.65649  20695941.80149
  23304439.586 5   -430678.125 5   -318530.23448  23304439.08248
  20481813.641 6  -1025214.602 6   -766247.78948  20481810.19148
  23008436.070 4   -429446.207 4   -319334.74246  23008434.50846
 20  5 16  3 18  6.0000000  0  7G01G04G07G08G09G11G16               -0.000047642
  22311724.219 6  -1422694.559 6  -1069460.41449  22311727.02749
  23493000.813 1   -231814.961 1   -167751.17645  23493001.70345
  22309729.836 6  -1291841.203 6   -960461.41048  22309726.46548
  20695451.805 7   -515545.422 7   -393119.97749  20695451.60249
  23304016.211 5   -432902.875 5   -320263.81348  23304015.65648
  20480821.695 6  -1030426.484 6   -770308.99648  20480818.27348
  23007995.750 4   -431764.207 4   -321140.96946  23007993.25046
 20  5 16  3 18  7.0000000  0  7G01G04G07G08G09G11G16               -0.000050087
  22310341.367 6  -1429960.707 6  -1075122.34049  22310344.32449
  23492768.352 1   -233037.020 1   -168703.45345  23492768.88345
  22308452.398 6  -1298553.047 6   -965691.41448  22308449.46148
  20694961.836 7   -518122.805 7   -395128.32049  20694961.42249
  23303593.203 5   -435127.629 5   -321997.39548  23303592.16848
  20479829.578 6  -1035638.203 6   -774370.07848  20479826.82448
  23007554.758 4   -434082.508 4   -322947.43846  23007552.12946
 20  5 16  3 18  8.0000000  0  7G01G04G07G08G09G11G16               -0.000052534
  22308958.570 6  -1437226.512 6  -1080784.00449  22308961.63349
  23492536.141 1   -234258.883 1   -169655.55945  23492536.50445
  22307175.102 6  -1305264.445 6   -970921.07848  22307172.19548
  20694471.492 7   -520699.770 7   -397136.34049  20694470.85249
  23303169.688 5   -437351.988 5   -323730.66448  23303169.55948
  20478838.234 6  -1040849.219 6   -778430.60948  20478834.94148
  23007113.797 4   -436400.559 4   -324753.71546  23007110.79746
 20  5 16  3 18  9.0000000  0  7G01G04G07G08G09G11G16               -0.000054981
  22307576.352 6  -1444492.219 6  -1086445.59449  22307579.11349
  23492303.555 1   -235480.809 1   -170607.73045  23492303.74645
  22305898.398 6  -1311975.746 6   -976150.66448  22305895.44948
  20693980.992 7   -523276.652 7   -399144.30549  20693980.11749
  23302746.102 5   -439576.219 5   -325463.83248  23302745.88748
  20477846.383 6  -1046059.895 6   -782490.87948  20477843.45348
  23006672.539 4   -438718.742 4   -326560.10546  23006669.67646
 20  5 16  3 18 10.0000000  0  7G01G04G07G08G09G11G16               -0.000057428
  22306193.805 6  -1451757.906 6  -1092107.16449  22306196.61749
  23492070.273 1   -236703.043 1   -171560.16445  23492071.23445
  22304621.016 6  -1318686.945 6   -981380.17648  22304618.07048
  20693490.609 7   -525853.438 7   -401152.19149  20693490.27749
  23302323.711 5   -441800.359 5   -327196.93848  23302322.76648
  20476855.289 6  -1051270.258 6   -786550.90248  20476851.98448
  23006231.445 4   -441037.070 4   -328366.59446  23006228.60246
 20  5 16  3 18 11.0000000  0  7G01G04G07G08G09G11G16               -0.000059875
  22304811.063 6  -1459023.371 6  -1097768.56349  22304814.07449
  23491837.844 1   -237925.273 1   -172512.57845  23491838.50045
  22303344.039 6  -1325397.918 6   -986609.50048  22303340.62148
  20693000.063 7   -528430.027 7   -403159.92649  20692999.94549
  23301900.086 5   -444024.316 5   -328929.88348  23301900.00048
  20475863.461 6  -1056480.184 6   -790610.58248  20475860.70748
  23005790.625 4   -443355.402 4   -330173.09446  23005787.53546
 20  5 16  3 18 12.0000000  0  7G01G04G07G08G09G11G16               -0.000062323
  22303428.359 6  -1466288.836 6  -1103429.96549  22303431.50849
  23491605.211 1   -239147.652 1   -173465.10545  23491606.52045
  22302066.945 6  -1332108.793 6   -991838.76248  22302063.97348
  20692509.930 7   -531006.559 7   -405167.61349  20692509.98449
  23301476.977 5   -446248.168 5   -330662.75448  23301476.59448
  20474872.422 6  -1061689.770 6   -794670.00448  20474869.32448
  23005349.094 4   -445673.879 4   -331979.69946  23005346.34446
 20  5 16  3 18 13.0000000  0  7G01G04G07G08G09G11G16               -0.000064770
  22302045.852 6  -1473554.148 6  -1109091.24649  22302049.17249
  23491371.906 1   -240370.156 1   -174417.62545  23491373.53545
  22300789.523 6  -1338819.504 6   -997067.89548  22300786.75048
  20692019.570 7   -533582.934 7   -407175.18049  20692019.27049
  23301053.859 5   -448471.844 5   -332395.49248  23301053.50848
  20473881.211 6  -1066898.941 6   -798729.09448  20473878.02748
  23004907.609 4   -447992.363 4   -333786.31646  23004905.11746
 20  5 16  3 18 14.0000000  0  7G01G04G07G08G09G11G16               -0.000067217
  22300663.586 6  -1480819.035 6  -1114752.19949  22300666.80949
  23491139.766 1   -241592.414 1   -175370.00445  23491140.76245
  22299512.742 6  -1345529.723 6  -1002296.63348  22299509.94148
  20691529.156 7   -536158.863 7   -409182.39849  20691529.13749
  23300630.352 5   -450695.059 5   -334127.87548  23300630.51248
  20472890.102 6  -1072107.430 6   -802787.66048  20472886.84448
  23004466.742 3   -450310.629 3   -335592.77046  23004464.09046
 20  5 16  3 18 15.0000000  0  7G01G04G07G08G09G11G16               -0.000069664
  22299280.969 6  -1488083.867 6  -1120413.10249  22299284.59049
  23490909.031 1   -242815.008 1   -176322.68445  23490908.57445
  22298236.406 6  -1352239.848 6  -1007525.30548  22298233.09848
  20691039.445 7   -538734.680 7   -411189.52749  20691039.27349
  23300207.359 5   -452918.180 5   -335860.18048  23300206.98048
  20471899.133 6  -1077315.559 6   -806845.94548  20471895.70348
  23004025.281 4   -452629.031 4   -337399.30946  23004022.78146
 20  5 16  3 18 16.0000000  0  7G01G04G07G08G09G11G16               -0.000072111
  22297898.719 6  -1495348.559 6  -1126073.89549  22297902.05149
  23490675.258 1   -244037.543 1   -177275.27745  23490675.74645
  22296959.133 6  -1358949.762 6  -1012753.80548  22296956.17248
  20690549.156 7   -541310.348 7   -413196.54349  20690548.83649
  23299784.430 5   -455141.148 5   -337592.35948  23299783.88748
  20470907.922 6  -1082523.277 6   -810903.90648  20470904.96148
  23003585.344 4   -454947.461 4   -339205.86746  23003581.45746
 20  5 16  3 18 17.0000000  0  7G01G04G07G08G09G11G16               -0.000074558
  22296516.547 6  -1502613.086 6  -1131734.56649  22296519.41049
  23490442.000 1   -245260.145 1   -178227.94545  23490442.65245
  22295682.477 6  -1365659.504 6  -1017982.17648  22295679.39848
  20690058.992 7   -543885.820 7   -415203.40249  20690058.40249
  23299361.383 5   -457363.918 5   -339324.39148  23299361.13348
  20469917.117 6  -1087730.578 6   -814961.53948  20469913.92648
  23003143.289 4   -457265.922 4   -341012.46146  23003140.37946
 20  5 16  3 18 18.0000000  0  7G01G04G07G08G09G11G16               -0.000077005
  22295133.875 6  -1509877.508 6  -1137395.15649  22295136.55949
  23490210.570 1   -246482.930 1   -179180.81645  23490210.61345
  22294405.750 6  -1372369.059 6  -1023210.39848  22294402.23448
  20689568.992 7   -546461.152 7   -417210.15249  20689568.45349
  23298938.680 5   -459586.512 5   -341056.28148  23298938.07848
  20468926.406 6  -1092937.461 6   -819018.85248  20468922.64848
  23002702.000 4   -459584.508 4   -342819.15246  23002699.00446
 20  5 16  3 18 19.0000000  0  7G01G04G07G08G09G11G16               -0.000079454
  22293751.398 6  -1517141.766 6  -1143055.61749  22293754.53949
  23489976.336 1   -247705.715 1   -180133.65645  23489977.63345
  22293129.141 6  -1379078.418 6  -1028438.47348  22293125.87948
  20689078.734 7   -549036.297 7   -419216.76649  20689078.80549
  23298515.648 5   -461808.941 5   -342788.04748  23298515.20748
  20467935.391 6  -1098143.945 6   -823075.84848  20467932.29748
  23002261.008 4   -461903.098 4   -344625.85546  23002257.56346
 20  5 16  3 18 20.0000000  0  7G01G04G07G08G09G11G16               -0.000081902
  22292368.945 6  -1524405.930 6  -1148716.00449  22292372.09049
  23489743.047 1   -248928.652 1   -181086.66045  23489744.96145
  22291852.234 6  -1385787.629 6  -1033666.43048  22291849.11748
  20688588.773 7   -551611.289 7   -421223.25449  20688588.71149
  23298092.938 5   -464031.184 5   -344519.66848  23298092.57848
  20466944.750 6  -1103350.008 6   -827132.52748  20466941.44548
  23001819.945 4   -464221.664 4   -346432.53146  23001816.36346
 20  5 16  3 18 21.0000000  0  7G01G04G07G08G09G11G16               -0.000084349
  22290987.266 6  -1531669.934 6  -1154376.26249  22290990.18449
  23489510.883 1   -250151.668 1   -182039.58645  23489511.81645
  22290575.805 6  -1392496.641 6  -1038894.23448  22290572.24648
  20688098.750 7   -554186.121 7   -423229.61349  20688098.44949
  23297669.234 5   -466253.246 5   -346251.14548  23297669.46148
  20465954.789 6  -1108555.664 6   -831188.88748  20465951.45348
  23001378.578 4   -466540.379 4   -348239.32446  23001375.45746
 20  5 16  3 18 22.0000000  0  7G01G04G07G08G09G11G16               -0.000086798
  22289604.602 6  -1538933.805 6  -1160036.41849  22289607.35949
  23489277.406 1   -251374.770 1   -182992.69145  23489279.99645
  22289299.117 6  -1399205.457 6  -1044121.88748  22289295.72348
  20687608.805 7   -556760.820 7   -425235.87949  20687608.78549
  23297247.109 5   -468475.172 5   -347982.52048  23297246.75048
  20464963.984 6  -1113760.879 6   -835244.89548  20464960.57448
  23000936.984 4   -468859.063 4   -350046.10246  23000933.94146
 20  5 16  3 18 23.0000000  0  7G01G04G07G08G09G11G16               -0.000089245
  22288222.656 6  -1546197.684 6  -1165696.59049  22288225.75449
  23489045.320 1   -252598.109 1   -183945.90645  23489046.79745
  22288022.305 6  -1405914.297 6  -1049349.55148  22288019.02748
  20687119.117 7   -559335.563 7   -427242.17249  20687118.61749
  23296823.922 5   -470697.098 5   -349713.89148  23296823.97748
  20463973.320 6  -1118965.887 6   -839300.74648  20463969.79748
  23000496.000 4   -471177.996 4   -351853.07446  23000492.71546
 20  5 16  3 18 24.0000000  0  7G01G04G07G08G09G11G16               -0.000091694
  22286839.766 6  -1553461.383 6  -1171356.60949  22286843.25049
  23488812.984 1   -253821.465 1   -184899.14545  23488814.05945
  22286746.078 6  -1412622.848 6  -1054577.00048  22286742.71548
  20686628.875 7   -561910.023 7   -429248.24249  20686628.50849
  23296401.484 5   -472918.773 5   -351445.07048  23296401.24248
  20462982.977 6  -1124170.371 6   -843356.18848  20462979.46948
  23000054.797 4   -473496.914 4   -353660.03146  23000051.31346
 20  5 16  3 18 25.0000000  0  7G01G04G07G08G09G11G16               -0.000094143
  22285457.578 6  -1560725.051 6  -1177016.61349  22285461.15249
  23488579.539 1   -255045.109 1   -185852.61345  23488581.82845
  22285469.133 6  -1419331.309 6  -1059804.36748  22285466.10548
  20686139.109 7   -564484.461 7   -431254.30549  20686138.77349
  23295978.109 5   -475140.371 5   -353176.18848  23295978.13348
  20461992.508 6  -1129374.590 6   -847411.42248  20461989.32848
  22999613.375 4   -475815.996 4   -355467.10246  22999610.48046
 20  5 16  3 18 26.0000000  0  7G01G04G07G08G09G11G16               -0.000096590
  22284075.359 6  -1567988.488 6  -1182676.42649  22284078.44549
  23488346.156 1   -256268.676 1   -186806.05945  23488349.06345
  22284192.938 6  -1426039.539 6  -1065031.56648  22284189.35948
  20685649.281 7   -567058.633 7   -433260.15249  20685648.97749
  23295555.695 5   -477361.711 5   -354907.10248  23295555.53548
  20461002.445 6  -1134578.285 6   -851466.25048  20460998.95748
  22999172.305 4   -478135.023 4   -357274.13346  22999168.48846
 20  5 16  3 18 27.0000000  0  7G01G04G07G08G09G11G16               -0.000099039
  22282693.688 6  -1575251.758 6  -1188336.12149  22282696.74649
  23488112.711 1   -257492.395 1   -187759.61745  23488116.51645
  22282916.531 6  -1432747.547 6  -1070258.58648  22282912.80548
  20685159.273 7   -569632.609 7   -435265.84849  20685159.39149
  23295132.961 5   -479582.863 5   -356637.86748  23295133.32448
  20460012.039 6  -1139781.563 6   -855520.75448  20460008.75448
  22998730.547 4   -480454.055 4   -359081.16046  22998727.49646
 20  5 16  3 18 28.0000000  0  7G01G04G07G08G09G11G16               -0.000101488
  22281311.156 6  -1582514.734 6  -1193995.57849  22281314.74249
  23487879.820 1   -258715.961 1   -188713.10945  23487883.52345
  22281640.109 6  -1439455.234 6  -1075485.35949  22281636.53549
  20684669.836 6   -572206.285 6   -437271.30949  20684669.58649
  23294710.313 5   -481803.656 5   -358368.35948  23294710.40248
  20459022.297 6  -1144984.270 6   -859574.80948  20459018.77748
  22998289.844 4   -482773.012 4   -360888.14846  22998286.37946
 20  5 16  3 18 29.0000000  0  7G01G04G07G08G09G11G16               -0.000103935
  22279929.344 6  -1589777.660 6  -1199655.00049  22279932.65249
  23487645.922 1   -259939.648 1   -189666.60545  23487650.68845
  22280363.664 6  -1446162.762 6  -1080712.00049  22280359.94949
  20684180.031 7   -574779.891 7   -439276.71549  20684179.84049
  23294287.820 5   -484024.371 5   -360098.79748  23294288.17248
  20458032.156 6  -1150186.613 6   -863628.59048  20458028.77048
  22997848.336 4   -485092.066 4   -362695.19946  22997844.90646
 20  5 16  3 18 30.0000000  0  7G01G04G07G08G09G11G16               -0.000106388
  22278547.219 6  -1597040.480 6  -1205314.33649  22278550.24649
  23487413.64111                   -190620.31355  23487417.94555
  22279087.156 6  -1452870.152 6  -1085938.54349  22279083.82849
  20683690.484 7   -577353.352 7   -441282.01249  20683689.99249
  23293864.914 5   -486244.965 5   -361829.12548  23293865.14548
  20457042.422 6  -1155388.590 6   -867682.07048  20457039.21948
  22997406.977 4   -487411.219 4   -364502.33646  22997403.38346
 20  5 16  3 18 31.0000000  0  7G01G04G07G08G09G11G16               -0.000108835
  22277165.461 6  -1604303.070 6  -1210973.49649  22277168.39149
  23487180.961 1                   -191573.91445  23487185.27045
  22277810.781 6  -1459577.285 6  -1091164.87948  22277807.14148
  20683200.289 7   -579926.574 7   -443287.12149  20683200.31649
  23293443.172 5   -488465.293 5   -363559.25048  23293442.82848
  20456052.586 6  -1160590.059 6   -871735.16848  20456049.02048
  22996965.664 4   -489730.320 4   -366309.43446  22996962.55146
 20  5 16  3 18 32.0000000  0  7G01G04G07G08G09G11G16               -0.000111282
  22275783.313 6  -1611565.441 6  -1216632.48849  22275786.43449
  23486947.17211   -263611.32011   -192527.59855  23486951.95355
  22276534.688 6  -1466284.137 6  -1096391.00049  22276531.08649
  20682710.820 7   -582499.563 7   -445292.03549  20682710.52049
  23293020.086 5   -490685.367 5   -365289.18048  23293020.56348
  20455062.969 6  -1165791.047 6   -875787.88348  20455059.59448
  22996524.469 4   -492049.402 4   -368116.50846  22996520.83246
 20  5 16  3 18 33.0000000  0  7G01G04G07G08G09G11G16               -0.000113731
  22274401.352 6  -1618827.652 6  -1222291.35549  22274404.47749
  23486714.68811                                
  22275258.086 6  -1472990.766 6  -1101616.94148  22275254.46148
  20682221.445 6   -585072.316 6   -447296.78149  20682221.03949
  23292597.688 5   -492905.219 5   -367018.94148  23292597.92248
  20454073.055 6  -1170991.547 6   -879840.21548  20454069.94148
  22996083.117 4   -494368.434 4   -369923.53946  22996079.78546
 20  5 16  3 18 34.0000000  0  7G01G04G07G08G09G11G16               -0.000116180
  22273019.438 6  -1626089.680 6  -1227950.07449  22273022.54349
  23486480.62511                                
  22273982.180 6  -1479697.203 6  -1106842.73448  22273978.56348
  20681732.000 7   -587644.930 7   -449301.41849  20681732.17649
  23292175.227 5   -495124.891 5   -368748.55548  23292175.83248
  20453083.656 6  -1176191.637 6   -883892.23048  20453080.22748
  22995642.117 5   -496687.535 5   -371730.63346  22995638.04746
 20  5 16  3 18 35.0000000  0  7G01G04G07G08G09G11G16               -0.000118629
  22271638.055 6  -1633351.441 6  -1233608.59449  22271640.96949
  23486249.60911                                
  22272705.906 6  -1486403.313 6  -1112068.27749  22272702.29749
  20681242.531 7   -590217.250 7   -451305.82849  20681242.07449
  23291752.969 5   -497344.227 5   -370477.91048  23291753.34848
  20452094.273 6  -1181391.184 6   -887943.82848  20452090.85548
  22995200.563 4   -499006.551 4   -373537.65646  22995196.78546
 20  5 16  3 18 36.0000000  0  7G01G04G07G08G09G11G16               -0.000121078
  22270256.055 6  -1640613.043 6  -1239266.97749  22270259.18049
  23486015.594 1                                
  22271430.039 6  -1493109.219 6  -1117293.65649  22271426.29749
  20680752.898 7   -592789.363 7   -453310.07449  20680752.54749
  23291330.375 5   -499563.414 5   -372207.15648  23291330.88748
  20451104.633 6  -1186590.281 6   -891995.07448  20451101.38748
  22994759.258 4   -501325.613 4   -375344.71946  22994755.45746
 20  5 16  3 18 37.0000000  0  7G01G04G07G08G09G11G16               -0.000123528
  22268874.219 6  -1647874.500 6  -1244925.25449  22268877.08649
  23485784.570 1                                
  22270153.844 6  -1499814.938 6  -1122518.88749  22270150.19149
  20680263.445 7   -595361.305 7   -455314.18449  20680263.64549
  23290908.359 5   -501782.391 5   -373936.23048  23290908.66048
  20450115.469 6  -1191788.969 6   -896045.99248  20450112.02348
  22994318.461 4   -503644.664 4   -377151.76646  22994314.23046
 20  5 16  3 18 38.0000000  0  7G01G04G07G08G09G11G16               -0.000125977
  22267492.258 6  -1655135.727 6  -1250583.35249  22267495.16449
  23485551.05511   -270955.64111                
  22268878.023 6  -1506520.387 6  -1127743.91849  22268874.13349
  20679774.406 7   -597933.039 7   -457318.12949  20679773.86349
  23290486.344 5   -504001.129 5   -375665.11748  23290486.68448
  20449126.516 6  -1196987.168 6   -900096.53948  20449123.05148
  22993876.445 4   -505963.711 4   -378958.82446  22993872.66046
 20  5 16  3 18 39.0000000  0  7G01G04G07G08G09G11G16               -0.000128424
  22266110.719 6  -1662396.855 6  -1256241.37149  22266113.67249
  23485318.109 1   -272179.891 1                
  22267601.789 6  -1513225.672 6  -1132968.81349  22267598.06649
  20679285.031 7   -600504.609 7   -459321.94949  20679284.08249
  23290064.055 5   -506219.699 5   -377393.87948  23290064.25848
  20448137.492 6  -1202184.977 6   -904146.78148  20448133.69548
  22993435.664 5   -508282.813 5   -380765.91446  22993430.88346
 20  5 16  3 18 40.0000000  0  7G01G04G07G08G09G11G16               -0.000130873
  22264728.992 6  -1669657.793 6  -1261899.24649  22264731.85549
  23485084.430 1   -273404.191 1                
  22266325.875 6  -1519930.730 6  -1138193.53949  22266322.29749
  20678795.609 7   -603076.016 7   -461325.64549  20678795.00049
  23289641.781 5   -508438.066 5   -379122.47748  23289641.59048
  20447148.484 6  -1207382.309 6   -908196.64848  20447144.69548
  22992994.508 5   -510601.926 5   -382573.01246  22992990.19946
 20  5 16  3 18 41.0000000  0  7G01G04G07G08G09G11G16               -0.000133322
  22263347.484 6  -1676918.574 6  -1267556.99649  22263350.19949
  23484851.859 1   -274628.602 1                
  22265049.492 6  -1526635.566 6  -1143418.08649  22265046.10249
  20678306.328 7   -605647.234 7   -463329.19549  20678305.82449
  23289219.477 5   -510656.246 5   -380850.92648  23289220.04348
  20446159.711 6  -1212579.230 6   -912246.20748  20446155.91048
  22992552.633 5   -512921.070 5   -384380.13346  22992548.75846
 20  5 16  3 18 42.0000000  0  7G01G04G07G08G09G11G16               -0.000135771
  22261965.594 6  -1684179.367 6  -1273214.75449  22261968.06649
  23484618.820 1   -275853.180 1                
  22263774.242 6  -1533340.406 6  -1148642.63349  22263770.73049
  20677817.398 7   -608218.434 7   -465332.72749  20677816.74249
  23288797.555 5   -512874.441 5   -382579.39148  23288797.75848
  20445170.906 6  -1217775.879 6   -916295.53948  20445166.99248
  22992111.289 5   -515240.422 5   -386187.43446  22992107.23446
 20  5 16  3 18 43.0000000  0  7G01G04G07G08G09G11G16               -0.000138222
  22260583.969 6  -1691440.070 6  -1278872.44149  22260586.85249
  23484384.672 1   -277077.996 1                
  22262498.234 6  -1540045.074 6  -1153867.05549  22262494.69149
  20677327.906 7   -610789.523 7   -467336.17649  20677327.34449
  23288376.102 5   -515092.465 5   -384307.72748  23288375.75048
  20444181.750 6  -1222972.164 6   -920344.59448  20444177.91048
  22991670.781 5   -517559.840 5   -387994.77746  22991665.86346
 20  5 16  3 18 44.0000000  0  7G01G04G07G08G09G11G16               -0.000140671
  22259202.492 6  -1698700.656 6  -1284530.04349  22259205.19149
  23484152.773 1   -278302.852 1                
  22261222.398 6  -1546749.598 6  -1159091.35549  22261218.30949
  20676838.547 7   -613360.477 7   -469339.51249  20676838.45749
  23287953.578 5   -517310.387 5   -386035.97748  23287953.89548
  20443193.398 6  -1228168.063 6   -924393.34448  20443189.18048
  22991228.422 5   -519879.344 5   -389802.17646  22991224.20346
 20  5 16  3 18 45.0000000  0  7G01G04G07G08G09G11G16               -0.000143120
  22257820.719 6  -1705961.207 6  -1290187.61349  22257823.30949
  23483919.250 1   -279527.855 1                
  22259946.805 6  -1553454.020 6  -1164315.58249  22259943.13749
  20676349.297 7   -615931.352 7   -471342.79349  20676348.48049
  23287531.602 5   -519528.211 5   -387764.15048  23287531.54348
  20442204.172 6  -1233363.652 6   -928441.85948  20442200.50048
  22990787.578 5   -522198.969 5   -391609.67246  22990782.78146
 20  5 16  3 18 46.0000000  0  7G01G04G07G08G09G11G16               -0.000145571
  22256438.758 6  -1713221.621 6  -1295845.07449  22256441.80949
  23483686.430 1   -280753.137 1                
  22258670.383 6  -1560158.293 6  -1169539.69149  22258667.25049
  20675860.094 7   -618502.082 7   -473345.94949  20675860.14149
  23287109.344 5   -521745.867 5   -389492.19548  23287109.69148
  20441215.898 6  -1238558.816 6   -932490.03548  20441212.31348
  22990345.641 5   -524518.645 5   -393417.21146  22990341.57446
 20  5 16  3 18 47.0000000  0  7G01G04G07G08G09G11G16               -0.000148020
  22255057.492 6  -1720481.727 6  -1301502.30149  22255060.05949
  23483453.125 1   -281978.258 1                
  22257394.883 6  -1566862.191 6  -1174763.51249  22257391.81649
  20675371.000 7   -621072.465 7   -475348.85549  20675370.39849
  23286687.508 5   -523963.230 5   -391220.00048  23286687.23048
  20440227.289 6  -1243753.426 6   -936537.78948  20440223.24648
  22989904.477 4   -526838.270 4   -395224.71946  22989900.67646
 20  5 16  3 18 48.0000000  0  7G01G04G07G08G09G11G16               -0.000150471
  22253675.625 6  -1727741.773 6  -1307159.48049  22253678.70349
  23483219.891 1   -283203.504 1                
  22256119.102 6  -1573565.988 6  -1179987.24249  22256115.89549
  20674881.625 7   -623642.777 7   -477351.69149  20674881.77349
  23286265.734 5   -526180.453 5   -392947.71148  23286265.75048
  20439238.984 6  -1248947.695 6   -940585.27348  20439235.35548
  22989463.117 4   -529157.961 4   -397032.25846  22989458.37546
 20  5 16  3 18 49.0000000  0  7G01G04G07G08G09G11G16               -0.000152920
  22252294.203 6  -1735001.543 6  -1312816.44149  22252297.17649
  23482987.617 1   -284428.820 1                
  22254843.867 6  -1580269.469 6  -1185210.73449  22254840.31649
  20674392.719 7   -626212.805 7   -479354.31349  20674392.48449
  23285844.195 5   -528397.402 5   -394675.21148  23285843.75048
  20438250.383 6  -1254141.414 6   -944632.32448  20438246.93848
  22989021.672 4   -531477.570 4   -398839.73846  22989017.20746
 20  5 16  3 18 50.0000000  0  7G01G04G07G08G09G11G16               -0.000155371
  22250912.906 6  -1742261.230 6  -1318473.34449  22250915.53549
  23482753.680 1   -285654.078 1                
  22253568.141 6  -1586972.781 6  -1190434.09849  22253564.55149
  20673903.492 7   -628782.734 7   -481356.85249  20673903.20749
  23285421.930 5   -530614.188 5   -396402.58248  23285421.78548
  20437262.195 6  -1259334.754 6   -948679.07848  20437258.55148
  22988580.086 5   -533797.250 5   -400647.28546  22988575.76246
 20  5 16  3 18 51.0000000  0  7G01G04G07G08G09G11G16               -0.000157822
  22249531.539 6  -1749520.727 6  -1324130.10249  22249534.04749
  23482520.59411                                
  22252292.594 6  -1593675.922 6  -1195657.32449  22252288.99649
  20673415.031 7   -631352.473 7   -483359.25049  20673414.42649
  23285000.430 5   -532830.828 5   -398129.83648  23285000.28148
  20436273.805 6  -1264527.668 6   -952725.50448  20436270.43048
  22988138.898 5   -536116.992 5   -402454.89146  22988134.03546
 20  5 16  3 18 52.0000000  0  7G01G04G07G08G09G11G16               -0.000160271
  22248149.719 6  -1756780.270 6  -1329786.88349  22248152.52749
  23482289.156 1                                
  22251016.891 6  -1600379.000 6  -1200880.50049  22251013.83649
  20672925.594 7   -633922.207 7   -485361.63749  20672925.40649
  23284578.828 5   -535047.395 5   -399857.03148  23284578.45748
  20435285.461 6  -1269720.301 6   -956771.71548  20435282.09848
  22987697.406 5   -538436.910 5   -404262.60946  22987692.92646
 20  5 16  3 18 53.0000000  0  7G01G04G07G08G09G11G16               -0.000162722
  22246768.742 6  -1764039.648 6  -1335443.54349  22246771.18049
  23482055.422 1                                
  22249741.727 6  -1607081.879 6  -1206103.52049  22249738.02349
  20672436.930 7   -636491.789 7   -487363.91049  20672436.47749
  23284156.664 5   -537263.816 5   -401584.11348  23284156.70748
  20434297.938 6  -1274912.508 6   -960817.59048  20434294.41448
  22987255.344 5   -540756.855 5   -406070.35546  22987251.53146
 20  5 16  3 18 54.0000000  0  7G01G04G07G08G09G11G16               -0.000165173
  22245386.883 6  -1771298.773 6  -1341099.99649  22245389.84049
  23481822.586 1                                
  22248466.180 6  -1613784.504 6  -1211326.34049  22248462.74649
  20671947.859 7   -639061.086 7   -489365.96149  20671947.49249
  23283735.328 5   -539479.957 5   -403310.97748  23283734.82048
  20433309.828 6  -1280104.215 6   -964863.07848  20433306.26248
  22986813.867 5   -543076.762 5   -407878.07846  22986809.86346
 20  5 16  3 18 55.0000000  0  7G01G04G07G08G09G11G16               -0.000167624
  22244005.586 6  -1778557.621 6  -1346756.24249  22244008.10949
  23481589.672 1                                
  22247190.805 6  -1620486.766 6  -1216548.87949  22247187.40649
  20671458.852 7   -641630.105 7   -491367.79349  20671458.39549
  23283313.203 5   -541695.813 5   -405037.62148  23283313.22348
  20432322.133 6  -1285295.355 6   -968908.12948  20432318.30548
  22986373.063 5   -545396.582 5   -409685.73846  22986368.50046
 20  5 16  3 18 56.0000000  0  7G01G04G07G08G09G11G16               -0.000170073
  22242624.570 6  -1785816.461 6  -1352412.48049  22242627.10249
  23481356.836 1   -293008.516 1                
  22245915.594 6  -1627188.988 6  -1221771.38749  22245911.75449
  20670970.180 7   -644199.070 7   -493369.57849  20670969.89149
  23282892.117 5   -543911.664 5   -406764.25448  23282891.55148
  20431334.734 6  -1290486.219 6   -972952.95348  20431330.66848
  22985931.039 4   -547716.566 4   -411493.50446  22985927.12546
 20  5 16  3 18 57.0000000  0  7G01G04G07G08G09G11G16               -0.000172523
  22241243.594 6  -1793075.074 6  -1358068.54349  22241245.56349
  23481122.695 1   -294234.465 1                
  22244639.953 6  -1633890.949 6  -1226993.69549  22244636.80149
  20670481.211 7   -646767.816 7   -495371.20349  20670480.71149
  23282470.625 5   -546127.191 5   -408490.64148  23282469.90248
  20430346.211 6  -1295676.586 6   -976997.39548  20430342.73048
  22985489.734 4   -550036.508 4   -413301.26246  22985485.77046
 20  5 16  3 18 58.0000000  0  7G01G04G07G08G09G11G16               -0.000174974
  22239861.922 6  -1800333.660 6  -1363724.59049  22239864.40249
  23480890.125 1   -295460.594 1                
  22243364.609 6  -1640592.816 6  -1232215.93049  22243361.09049
  20669992.656 7   -649336.473 7   -497372.75049  20669992.04349
  23282048.844 5   -548342.680 5   -410216.98848  23282048.02748
  20429358.867 6  -1300866.648 6   -981041.59448  20429355.14848
  22985047.633 4   -552356.613 4   -415109.13346  22985043.81346
 20  5 16  3 18 59.0000000  0  7G01G04G07G08G09G11G16               -0.000177425
  22238480.398 6  -1807592.012 6  -1369380.44549  22238483.02749
  23480657.094 2   -296686.785 2                
  22242089.602 6  -1647294.398 6  -1237437.94549  22242086.23449
  20669503.891 7   -651904.898 7   -499374.12549  20669503.57849
  23281627.594 5   -550557.887 5   -411943.13348  23281626.85248
  20428371.297 6  -1306056.195 6   -985085.39148  20428367.50048
  22984606.250 4   -554676.660 4   -416916.94546  22984602.69946
 20  5 16  3 19  0.0000000  0  7G01G04G07G08G09G11G16               -0.000179876
  22237099.289 6  -1814850.020 6  -1375036.03949  22237101.99249
  23480424.156 1   -297912.832 1                
  22240814.336 6  -1653995.598 6  -1242659.66049  22240810.73449
  20669015.055 7   -654472.980 7   -501375.22749  20669014.80149
  23281205.469 5   -552772.738 5   -413669.00048  23281205.22348
  20427383.992 6  -1311245.109 6   -989128.70348  20427380.18848
  22984164.406 4   -556996.563 4   -418724.68446  22984161.09446
 20  5 16  3 19  1.0000000  0  7G01G04G07G08G09G11G16               -0.000182327
  22235718.742 6  -1822107.957 6  -1380691.57049  22235720.76649
  23480190.281 1   -299139.031 1                
  22239538.703 6  -1660696.660 6  -1247881.26649  22239535.57049
  20668526.586 7   -657040.957 7   -503376.25449  20668525.94949
  23280784.578 5   -554987.496 5   -415394.78148  23280783.84048
  20426396.805 6  -1316433.695 6   -993171.76248  20426392.73048
  22983723.492 4   -559316.566 4   -420532.47746  22983719.57846
 20  5 16  3 19  2.0000000  0  7G01G04G07G08G09G11G16               -0.000184778
  22234337.008 6  -1829365.805 6  -1386347.03549  22234339.51249
  23479956.711 2   -300365.418 2                
  22238263.695 6  -1667397.629 6  -1253102.79749  22238260.53949
  20668037.641 7   -659608.863 7   -505377.21949  20668037.45349
  23280363.305 5   -557202.172 5   -417120.50448  23280362.72348
  20425408.906 6  -1321621.953 6   -997214.55948  20425405.49648
  22983281.875 4   -561636.699 4   -422340.38346  22983278.44546
 20  5 16  3 19  3.0000000  0  7G01G04G07G08G09G11G16               -0.000187229
  22232956.336 6  -1836623.383 6  -1392002.28949  22232958.61349
  23479723.906 2   -301591.797 2                
  22236988.742 6  -1674098.234 6  -1258324.04749  22236985.37949
  20667549.055 7   -662176.469 7   -507377.94949  20667548.73049
  23279941.680 5   -559416.500 5   -418845.95748  23279941.00848
  20424422.234 6  -1326809.613 6  -1001256.89548  20424418.10948
  22982841.180 4   -563956.699 4   -424148.19146  22982836.89146
 20  5 16  3 19  4.0000000  0  7G01G04G07G08G09G11G16               -0.000189680
  22231574.922 6  -1843880.770 6  -1397657.39149  22231577.14849
  23479490.234 2   -302818.156 2                
  22235713.602 6  -1680798.641 6  -1263545.12949  22235710.16049
  20667060.938 7   -664743.844 7   -509378.49649  20667060.32849
  23279520.445 5   -561630.648 5   -420571.26248  23279519.94948
  20423434.859 6  -1331996.836 6  -1005298.88348  20423431.28548
  22982399.375 4   -566276.711 4   -425955.98846  22982395.30546
 20  5 16  3 19  5.0000000  0  7G01G04G07G08G09G11G16               -0.000192131
  22230194.055 6  -1851138.012 6  -1403312.38349  22230196.40249
  23479256.547 2   -304044.645 2                
  22234438.609 6  -1687498.820 6  -1268766.05149  22234435.26649
  20666572.469 7   -667311.070 7   -511378.93449  20666571.65649
  23279098.867 5   -563844.594 5   -422296.41448  23279098.59848
  20422447.922 6  -1337183.648 6  -1009340.55548  20422444.23848
  22981957.227 4   -568596.809 4   -427763.84846  22981953.84046
 20  5 16  3 19  6.0000000  0  7G01G04G07G08G09G11G16               -0.000194582
  22228813.148 6  -1858395.215 6  -1408967.34849  22228815.43849
  23479024.938 2   -305271.320 2                
  22233163.969 6  -1694198.949 6  -1273986.93049  22233160.10949
  20666083.836 7   -669878.273 7   -513379.35949  20666083.55149
  23278677.852 5   -566058.523 5   -424021.55548  23278677.15648
  20421460.852 6  -1342370.156 6  -1013381.98848  20421457.43048
  22981515.820 4   -570917.027 4   -429571.80946  22981512.09846
 20  5 16  3 19  7.0000000  0  7G01G04G07G08G09G11G16               -0.000197033
  22227431.836 6  -1865652.273 6  -1414622.20349  22227434.03549
  23478791.547 2   -306498.074 2                
  22231888.977 6  -1700898.852 6  -1279207.63349  22231885.65249
  20665595.320 7   -672445.262 7   -515379.60949  20665595.02049
  23278256.594 5   -568272.230 5   -425746.52048  23278255.92648
  20420474.000 6  -1347556.215 6  -1017423.07448  20420470.02748
  22981073.906 4   -573237.293 4   -431379.81346  22981070.30946
 20  5 16  3 19  8.0000000  0  7G01G04G07G08G09G11G16               -0.000199486
  22226051.133 6  -1872909.012 6  -1420276.80549  22226053.48449
  23478557.422 2   -307724.746 2                
  22230614.227 6  -1707598.418 6  -1284428.07449  22230610.44949
  20665106.672 7   -675011.941 7   -517379.62149  20665106.55949
  23277835.008 5   -570485.594 5   -427471.22748  23277834.71148
  20419487.453 6  -1352741.715 6  -1021463.71948  20419483.22748
  22980633.430 4   -575557.398 4   -433187.71146  22980629.05146
 20  5 16  3 19  9.0000000  0  7G01G04G07G08G09G11G16               -0.000201935
  22224670.711 6  -1880165.496 6  -1425931.20749  22224672.63749
  23478325.133 2   -308951.422 2                
  22229339.031 6  -1714297.680 6  -1289648.27749  22229335.63349
  20664618.375 7   -677578.371 7   -519379.43449  20664618.08649
  23277414.172 5   -572698.711 5   -429195.73848  23277413.63748
  20418500.727 6  -1357926.668 6  -1025503.94548  20418496.69148
  22980192.375 4   -577877.484 4   -434995.57446  22980187.77746
 20  5 16  3 19 10.0000000  0  7G01G04G07G08G09G11G16               -0.000204388
  22223289.461 6  -1887421.844 6  -1431585.50849  22223291.80949
  23478091.180 2   -310178.215 2                
  22228064.391 6  -1720996.730 6  -1294868.31649  22228060.73449
  20664130.023 7   -680144.621 7   -521379.11349  20664129.68849
  23276993.250 5   -574911.617 5   -430920.07448  23276992.92648
  20417513.891 6  -1363111.199 6  -1029543.84048  20417510.26648
  22979750.328 4   -580197.570 4   -436803.41846  22979746.15646
 20  5 16  3 19 11.0000000  0  7G01G04G07G08G09G11G16               -0.000206839
  22221908.969 6  -1894677.941 6  -1437239.60549  22221911.10949
  23477857.852 2   -311404.977 2                
  22226789.289 6  -1727695.488 6  -1300088.12549  22226785.94949
  20663641.625 7   -682710.609 7   -523378.58249  20663641.31349
  23276571.898 5   -577124.270 5   -432644.22348  23276571.93048
  20416527.430 6  -1368295.219 6  -1033583.33648  20416523.62548
  22979308.461 4   -582517.637 4   -438611.25846  22979304.48046
 20  5 16  3 19 12.0000000  0  7G01G04G07G08G09G11G16               -0.000209290
  22220527.750 6  -1901933.859 6  -1442893.56649  22220530.21549
  23477623.336 2   -312631.742 2                
  22225514.891 6  -1734394.031 6  -1305307.77349  22225511.56349
  20663153.367 7   -685276.406 7   -525377.90249  20663153.09849
  23276151.078 5   -579336.707 5   -434368.20348  23276150.78148
  20415541.109 6  -1373478.789 6  -1037622.48048  20415537.56648
  22978866.828 4   -584837.645 4   -440419.06946  22978863.20746
 20  5 16  3 19 13.0000000  0  7G01G04G07G08G09G11G16               -0.000211742
  22219147.094 6  -1909189.609 6  -1448547.39549  22219149.74249
  23477390.234 2   -313858.680 2                
  22224240.570 6  -1741092.379 6  -1310527.26249  22224236.43849
  20662665.250 7   -687842.031 7   -527377.08649  20662664.91049
  23275730.328 5   -581548.996 5   -436092.07048  23275729.95348
  20414554.773 6  -1378661.938 6  -1041661.29348  20414550.80148
  22978425.523 4   -587157.742 4   -442226.93846  22978421.51646
 20  5 16  3 19 14.0000000  0  7G01G04G07G08G09G11G16               -0.000214193
  22217766.594 6  -1916445.289 6  -1454201.16049  22217768.92249
  23477157.203 1   -315085.762 1                
  22222965.859 6  -1747790.578 6  -1315746.63749  22222962.11749
  20662176.617 7   -690407.578 7   -529376.21549  20662176.71549
  23275308.820 5   -583761.172 5   -437815.84848  23275309.38348
  20413568.789 6  -1383844.738 6  -1045699.84048  20413564.77048
  22977983.469 4   -589477.941 4   -444034.87146  22977980.20746
 20  5 16  3 19 15.0000000  0  7G01G04G07G08G09G11G16               -0.000216646
  22216385.820 6  -1923700.523 6  -1459854.59049  22216387.92649
  23476923.344 1   -316312.594 1                
  22221691.109 6  -1754488.305 6  -1320965.64849  22221687.27049
  20661688.805 7   -692972.668 7   -531374.98849  20661688.84449
  23274888.164 5   -585972.867 5   -439539.24248  23274888.57848
  20412582.516 6  -1389026.805 6  -1049737.81648  20412578.14548
  22977542.484 4   -591797.918 4   -445842.64546  22977538.68446
 20  5 16  3 19 16.0000000  0  7G01G04G07G08G09G11G16               -0.000219097
  22215005.555 6  -1930955.453 6  -1465507.77749  22215007.42249
  23476689.422 1   -317539.344 1                
  22220416.227 6  -1761185.641 6  -1326184.34449  22220412.75849
  20661200.828 7   -695537.383 7   -533373.46949  20661200.73049
  23274468.117 5   -588184.223 5   -441262.37948  23274467.64548
  20411596.367 6  -1394208.293 6  -1053775.33248  20411592.55148
  22977100.875 4   -594117.711 4   -447650.28145  22977097.09045
 20  5 16  3 19 17.0000000  0  7G01G04G07G08G09G11G16               -0.000221548
  22213624.953 6  -1938210.148 6  -1471160.78949  22213626.47749
  23476455.781 1   -318766.207 1                
  22219142.273 6  -1767882.758 6  -1331402.87549  22219138.45749
  20660713.078 7   -698101.926 7   -535371.81349  20660712.85949
  23274047.133 6   -590395.352 6   -442985.33248  23274046.71148
  20410610.672 6  -1399389.293 6  -1057812.48048  20410606.71148
  22976660.141 4   -596437.516 4   -449457.93845  22976655.73845
 20  5 16  3 19 18.0000000  0  7G01G04G07G08G09G11G16               -0.000224001
  22212244.117 6  -1945464.566 6  -1476813.57849  22212246.06649
  23476222.703 2   -319992.977 2                
  22217868.016 6  -1774579.508 6  -1336621.12549  22217864.09849
  20660224.813 7   -700666.141 7   -537369.90249  20660224.64849
  23273626.336 5   -592606.184 5   -444708.05548  23273625.92248
  20409624.891 6  -1404569.727 6  -1061849.18448  20409621.07848
  22976219.102 4   -598757.184 4   -451265.48445  22976214.41045
 20  5 16  3 19 19.0000000  0  7G01G04G07G08G09G11G16               -0.000226452
  22210863.570 6  -1952718.902 6  -1482466.30549  22210865.93449
  23475989.883 1   -321219.879 1                
  22216593.844 6  -1781276.129 6  -1341839.27049  22216589.89149
  20659737.273 7   -703230.254 7   -539367.91049  20659736.70349
  23273205.531 5   -594816.852 5   -446430.66048  23273205.12148
  20408639.078 6  -1409749.840 6  -1065885.63348  20408635.27748
  22975776.586 4   -601077.000 4   -453073.13345  22975773.06645
 20  5 16  3 19 20.0000000  0  7G01G04G07G08G09G11G16               -0.000228903
  22209483.578 6  -1959972.703 6  -1488118.61349  22209485.26249
  23475755.398 1   -322446.520 1                
  22215319.766 6  -1787972.195 6  -1347056.97749  22215315.53549
  20659249.359 7   -705793.836 7   -541365.51249  20659249.24249
  23272784.484 5   -597027.027 5   -448152.87948  23272784.62548
  20407653.445 6  -1414929.105 6  -1069921.42248  20407649.66448
  22975334.648 4   -603396.449 4   -454880.49245  22975331.63345
 20  5 16  3 19 21.0000000  0  7G01G04G07G08G09G11G16               -0.000231356
  22208102.789 6  -1967226.367 6  -1493770.81649  22208105.32049
  23475522.766 1   -323673.258 1                
  22214045.133 6  -1794668.039 6  -1352274.51649  22214041.34449
  20658761.414 7   -708357.262 7   -543362.98449  20658761.17249
  23272364.148 6   -599236.992 6   -449874.93048  23272364.60248
  20406668.242 6  -1420107.961 6  -1073956.88748  20406664.12548
  22974894.055 4   -605715.934 4   -456687.86345  22974890.23045
 20  5 16  3 19 22.0000000  0  7G01G04G07G08G09G11G16               -0.000233807
  22206723.438 6  -1974479.711 6  -1499422.77749  22206725.23849
  23475288.297 1   -324899.867 1                
  22212771.445 6  -1801363.563 6  -1357491.80949  22212767.45349
  20658273.531 7   -710920.352 7   -545360.19549  20658273.45749
  23271943.383 6   -601446.637 6   -451596.73448  23271944.08248
  20405682.758 6  -1425286.266 6  -1077991.93848  20405678.76648
  22974452.945 5   -608035.332 5   -458495.18445  22974449.22345
 20  5 16  3 19 23.0000000  0  7G01G04G07G08G09G11G16               -0.000236258
  22205342.719 6  -1981732.859 6  -1505074.57849  22205344.88349
  23475054.789 1   -326126.563 1                
  22211497.445 6  -1808058.816 6  -1362708.88749  22211493.25449
  20657786.016 7   -713483.250 7   -547357.25849  20657785.59049
  23271523.570 6   -603656.074 6   -453318.38348  23271523.27048
  20404697.398 6  -1430464.078 6  -1082026.59048  20404693.35948
  22974011.523 4   -610354.715 4   -460302.52045  22974007.86745
 20  5 16  3 19 24.0000000  0  7G01G04G07G08G09G11G16               -0.000238710
  22203962.813 6  -1988985.750 6  -1510726.17649  22203964.46549
  23474821.375 1   -327353.211 1                
  22210223.016 6  -1814753.801 6  -1367925.76649  22210219.39849
  20657298.414 7   -716045.902 7   -549354.13349  20657297.74249
  23271103.273 6   -605865.246 6   -455039.81648  23271103.25848
  20403712.117 6  -1435641.391 6  -1086060.86748  20403708.03548
  22973569.656 4   -612674.039 4   -462109.79346  22973566.53946
 20  5 16  3 19 25.0000000  0  7G01G04G07G08G09G11G16               -0.000241161
  22202582.352 6  -1996238.543 6  -1516377.69949  22202584.22349
  23474587.227 1   -328580.117 1                
  22208949.000 6  -1821448.613 6  -1373142.50049  22208945.29349
  20656810.766 7   -718608.402 7   -551350.89149  20656810.32849
  23270682.352 6   -608074.277 6   -456761.13348  23270682.91848
  20402726.875 6  -1440818.293 6  -1090094.81348  20402722.88748
  22973129.266 5   -614993.383 5   -463917.07846  22973124.93046
 20  5 16  3 19 26.0000000  0  7G01G04G07G08G09G11G16               -0.000243614
  22201202.219 6  -2003491.082 6  -1522029.02349  22201204.28949
  23474354.250 1   -329806.918 1                
  22207674.766 6  -1828143.125 6  -1378359.01249  22207671.25849
  20656323.102 7   -721170.652 7   -553347.44549  20656322.40649
  23270262.164 6   -610283.074 6   -458482.27748  23270262.35948
  20401742.023 6  -1445994.703 6  -1094128.37948  20401737.98448
  22972687.836 4   -617312.730 4   -465724.36746  22972683.93046
 20  5 16  3 19 27.0000000  0  7G01G04G07G08G09G11G16               -0.000246065
  22199822.438 6  -2010743.449 6  -1527680.22349  22199824.05549
  23474121.320 1   -331033.750 1                
  22206401.352 6  -1834837.430 6  -1383575.35249  22206397.71949
  20655835.508 7   -723732.707 7   -555343.85249  20655835.37549
  23269841.859 5   -612491.605 5   -460203.20348  23269842.05148
  20400757.188 6  -1451170.660 6  -1098161.59048  20400753.18048
  22972245.680 5   -619632.055 5   -467531.62546  22972242.27346
 20  5 16  3 19 28.0000000  0  7G01G04G07G08G09G11G16               -0.000248518
  22198442.453 6  -2017995.617 6  -1533331.25449  22198444.32849
  23473888.844 1   -332260.656 1                
  22205127.344 6  -1841531.473 6  -1388791.48849  22205123.46149
  20655348.242 7   -726294.555 7   -557340.10249  20655347.67249
  23269421.469 6   -614699.938 6   -461923.98048  23269421.86748
  20399772.375 6  -1456346.105 6  -1102194.40248  20399768.30148
  22971804.867 4   -621951.371 4   -469338.88346  22971801.21946
 20  5 16  3 19 29.0000000  0  7G01G04G07G08G09G11G16               -0.000250971
  22197061.813 6  -2025247.570 6  -1538982.12949  22197063.96949
  23473655.055 1   -333487.688 1                
  22203853.578 6  -1848225.258 6  -1394007.41849  22203849.30949
  20654861.008 7   -728856.199 7   -559336.19149  20654860.34449
  23269001.477 5   -616908.047 5   -463644.59048  23269001.74648
  20398787.555 6  -1461521.094 6  -1106226.85948  20398783.57848
  22971363.383 4   -624270.707 4   -471146.16046  22971359.83646
 20  5 16  3 19 30.0000000  0  7G01G04G07G08G09G11G16               -0.000253422
  22195681.992 6  -2032499.355 6  -1544632.87149  22195683.97349
  23473421.617 1   -334714.723 1                
  22202580.008 6  -1854918.855 6  -1399223.21149  22202576.19949
  20654373.141 7   -731417.668 7   -561332.13749  20654372.58249
  23268581.320 5   -619115.977 5   -465365.05948  23268581.78148
  20397802.820 6  -1466695.648 6  -1110258.98048  20397798.69148
  22970921.742 4   -626589.996 4   -472953.39846  22970918.52346
 20  5 16  3 19 31.0000000  0  7G01G04G07G08G09G11G16               -0.000255875
  22194301.992 6  -2039750.875 6  -1550283.40249  22194304.17249
  23473187.125 1   -335941.719 1                
  22201306.266 6  -1861612.117 6  -1404438.73849  22201302.11349
  20653885.883 7   -733978.828 7   -563327.84849  20653885.50449
  23268160.977 6   -621323.613 6   -467085.29748  23268161.75048
  20396818.477 6  -1471869.660 6  -1114290.68448  20396814.36348
  22970480.414 4   -628909.242 4   -474760.61746  22970477.09446
 20  5 16  3 19 32.0000000  0  7G01G04G07G08G09G11G16               -0.000258326
  22192922.313 6  -2047002.195 6  -1555933.78149  22192924.06349
  23472953.422 1   -337168.781 1                
  22200032.719 6  -1868305.145 6  -1409654.08649  22200028.40649
  20653398.617 7   -736539.816 7   -565323.43049  20653398.23849
  23267741.000 5   -623531.023 5   -468805.35948  23267742.06648
  20395833.516 6  -1477043.219 6  -1118322.02348  20395829.78148
  22970038.992 5   -631228.516 5   -476567.85546  22970035.96546
 20  5 16  3 19 33.0000000  0  7G01G04G07G08G09G11G16               -0.000260778
  22191542.656 6  -2054253.324 6  -1561584.01249  22191544.44949
  23472721.500 1   -338395.883 1                
  22198759.000 6  -1874997.922 6  -1414869.23849  22198754.85249
  20652911.164 7   -739100.598 7   -567318.84449  20652910.96549
  23267321.352 6   -625738.254 6   -470525.28148  23267321.78548
  20394849.156 6  -1482216.309 6  -1122352.99648  20394845.43848
  22969597.844 4   -633547.754 4   -478375.05146  22969594.89146
 20  5 16  3 19 34.0000000  0  7G01G04G07G08G09G11G16               -0.000263231
  22190162.602 6  -2061504.195 6  -1567234.03949  22190164.65649
  23472485.992 1   -339623.004 1                
  22197485.266 6  -1881690.387 6  -1420084.14549  22197481.07449
  20652424.133 7   -741661.074 7   -569314.02349  20652423.77049
  23266901.641 6   -627945.152 6   -472244.93848  23266901.71948
  20393864.828 6  -1487388.859 6  -1126383.56348  20393860.94548
  22969157.273 4   -635866.926 4   -480182.19546  22969153.29746
 20  5 16  3 19 35.0000000  0  7G01G04G07G08G09G11G16               -0.000265684
  22188782.539 6  -2068754.938 6  -1572883.96549  22188784.65649
  23472252.820 1   -340850.137 1                
  22196211.875 6  -1888382.719 6  -1425298.95749  22196207.79349
  20651936.727 7   -744221.445 7   -571309.11749  20651936.59849
  23266481.227 6   -630151.930 6   -473964.50048  23266481.72348
  20392880.820 6  -1492561.047 6  -1130413.83648  20392876.75848
  22968715.484 4   -638186.188 4   -481989.39146  22968712.21146
 20  5 16  3 19 36.0000000  0  7G01G04G07G08G09G11G16               -0.000268135
  22187403.195 6  -2076005.469 6  -1578533.73049  22187404.74249
  23472019.133 1   -342077.398 1                
  22194938.547 6  -1895074.789 6  -1430513.55549  22194934.34449
  20651449.656 7   -746781.633 7   -573304.06649  20651449.25449
  23266061.031 6   -632358.500 6   -475683.90648  23266061.89548
  20391896.273 6  -1497732.734 6  -1134443.71948  20391892.69148
  22968274.133 5   -640505.414 5   -483796.60246  22968270.91846
 20  5 16  3 19 37.0000000  0  7G01G04G07G08G09G11G16               -0.000270588
  22186023.172 6  -2083255.770 6  -1584183.31349  22186025.16449
  23471786.914 1   -343304.711 1                
  22193665.117 6  -1901766.555 6  -1435727.92249  22193660.94549
  20650962.633 7   -749341.520 7   -575298.78949  20650961.96949
  23265641.055 5   -634564.789 5   -477403.09448  23265641.93848
  20390912.289 6  -1502903.910 6  -1138473.21148  20390908.85948
  22967832.555 4   -642824.566 4   -485603.72746  22967829.70746
 20  5 16  3 19 38.0000000  0  7G01G04G07G08G09G11G16               -0.000273041
  22184643.891 6  -2090505.797 6  -1589832.68849  22184645.39549
  23471552.641 1   -344531.961 1                
  22192391.617 6  -1908458.023 6  -1440942.04749  22192387.44949
  20650475.266 7   -751901.129 7   -577293.28949  20650474.99649
  23265221.797 6   -636770.785 6   -479122.05148  23265221.95348
  20389928.422 6  -1508074.539 6  -1142502.27048  20389924.35248
  22967391.297 4   -645143.664 4   -487410.82446  22967388.10546
 20  5 16  3 19 39.0000000  0  7G01G04G07G08G09G11G16               -0.000275492
  22183264.008 6  -2097755.723 6  -1595481.97349  22183266.00849
  23471320.766 1   -345759.332 1                
  22191118.430 6  -1915149.340 6  -1446156.06349  22191114.26649
  20649988.328 7   -754460.621 7   -579287.69949  20649987.80149
  23264801.969 5   -638976.668 5   -480840.93048  23264802.55948
  20388944.617 6  -1513244.809 6  -1146531.05548  20388941.02348
  22966950.086 4   -647462.855 4   -489217.99646  22966946.67246
 20  5 16  3 19 40.0000000  0  7G01G04G07G08G09G11G16               -0.000277945
  22181884.164 6  -2105005.441 6  -1601131.10549  22181886.20349
  23471086.156 1   -346986.707 1                
  22189845.453 6  -1921840.398 6  -1451369.87149  22189841.14149
  20649501.297 7   -757019.914 7   -581281.94949  20649500.92249
  23264382.398 5   -641182.363 5   -482559.65248  23264382.40648
  20387960.297 6  -1518414.621 6  -1150559.47348  20387956.88748
  22966508.492 4   -649782.027 4   -491025.15646  22966505.60946
 20  5 16  3 19 41.0000000  0  7G01G04G07G08G09G11G16               -0.000280397
  22180505.367 6  -2112255.000 6  -1606780.11349  22180506.68849
  23470852.070 1   -348214.234 1                
  22188571.875 6  -1928531.258 6  -1456583.52349  22188567.89849
  20649014.805 7   -759579.039 7   -583276.07849  20649014.14849
  23263963.016 5   -643387.855 5   -484278.22748  23263962.68048
  20386976.992 6  -1523583.977 6  -1154587.54748  20386973.29748
  22966067.766 5   -652101.238 5   -492832.32046  22966064.36746
 20  5 16  3 19 42.0000000  0  7G01G04G07G08G09G11G16               -0.000282850
  22179125.703 6  -2119504.254 6  -1612428.87949  22179127.59049
  23470619.555 1   -349441.672 1                
  22187299.297 6  -1935221.742 6  -1461796.88749  22187294.93849
  20648527.266 7   -762137.840 7   -585269.94549  20648527.17249
  23263542.789 6   -645592.988 6   -485996.52048  23263543.14848
  20385993.117 6  -1528752.750 6  -1158615.16048  20385989.93048
  22965626.539 4   -654420.289 4   -494639.36346  22965623.09046
 20  5 16  3 19 43.0000000  0  7G01G04G07G08G09G11G16               -0.000285303
  22177746.539 6  -2126753.305 6  -1618077.49249  22177747.77749
  23470384.977 1   -350669.145 1                
  22186025.594 6  -1941912.031 6  -1467010.09849  22186021.28949
  20648040.617 7   -764696.461 7   -587263.67649  20648040.12949
  23263123.656 6   -647797.977 6   -487714.69148  23263123.14148
  20385010.203 6  -1533921.113 6  -1162642.46148  20385006.03948
  22965185.469 5   -656739.414 5   -496446.46546  22965181.97746
 20  5 16  3 19 44.0000000  0  7G01G04G07G08G09G11G16               -0.000287756
  22176366.906 6  -2134002.242 6  -1623726.01249  22176368.58249
  23470151.906 1   -351896.797 1                
  22184752.750 6  -1948602.098 6  -1472223.13349  22184748.16449
  20647553.555 7   -767254.926 7   -589257.28149  20647553.02349
  23262704.477 6   -650002.738 6   -489432.68848  23262703.83248
  20384026.375 6  -1539089.004 6  -1166669.38348  20384022.75048
  22964744.031 5   -659058.523 5   -498253.58246  22964740.96546
 20  5 16  3 19 45.0000000  0  7G01G04G07G08G09G11G16               -0.000290209
  22174986.977 6  -2141251.020 6  -1629374.41049  22174988.71149
  23469918.766 1   -353124.398 1                
  22183479.719 6  -1955292.000 6  -1477436.04749  22183475.05949
  20647066.508 7   -769813.234 7   -591250.77049  20647066.17649
  23262284.617 6   -652207.383 6   -491150.59848  23262284.28148
  20383042.773 6  -1544256.520 6  -1170696.01248  20383039.40648
  22964302.461 5   -661377.699 5   -500060.73046  22964299.38346
 20  5 16  3 19 46.0000000  0  7G01G04G07G08G09G11G16               -0.000292662
  22173607.523 6  -2148499.688 6  -1635022.72349  22173609.77349
  23469683.820 1   -354352.348 1                
  22182206.445 6  -1961981.766 6  -1482648.85949  22182202.29749
  20646579.836 7   -772371.480 7   -593244.21149  20646579.67249
  23261865.313 6   -654411.887 6   -492868.39148  23261864.68448
  20382059.672 6  -1549423.684 6  -1174722.37548  20382056.43448
  22963860.219 5   -663696.992 5   -501867.97346  22963858.01246
 20  5 16  3 19 47.0000000  0  7G01G04G07G08G09G11G16               -0.000295115
  22172228.320 6  -2155748.094 6  -1640670.83649  22172230.31349
  23469448.852 1   -355580.168 1                
  22180934.133 6  -1968671.203 6  -1487861.40649  22180929.19149
  20646093.328 7   -774929.414 7   -595237.40649  20646093.21149
  23261445.688 6   -656616.141 6   -494585.99648  23261445.04748
  20381076.438 6  -1554590.297 6  -1178748.31348  20381073.05548
  22963419.453 5   -666016.207 5   -503675.16446  22963417.07046
 20  5 16  3 19 48.0000000  0  7G01G04G07G08G09G11G16               -0.000297569
  22170849.250 6  -2162996.281 6  -1646318.77349  22170850.78549
  23469215.93811                                
  22179660.633 6  -1975360.324 6  -1493073.71149  22179655.91849
  20645606.531 7   -777487.082 7   -597230.39149  20645606.30949
  23261026.250 6   -658820.102 6   -496303.37148  23261026.08648
  20380093.453 6  -1559756.398 6  -1182773.84048  20380089.95748
  22962978.594 5   -668335.348 5   -505482.28946  22962975.67646
 20  5 16  3 19 49.0000000  0  7G01G04G07G08G09G11G16               -0.000300022
  22169469.922 6  -2170244.141 6  -1651966.45749  22169471.78549
  23468980.953 1                                
  22178388.047 6  -1982049.152 6  -1498285.78149  22178383.24649
  20645120.188 7   -780044.473 7   -599223.16449  20645119.71549
  23260607.016 6   -661023.742 6   -498020.49648  23260606.62548
  20379110.484 6  -1564921.938 6  -1186798.94148  20379106.98848
  22962537.203 5   -670654.387 5   -507289.31646  22962534.28946
 20  5 16  3 19 50.0000000  0  7G01G04G07G08G09G11G16               -0.000302475
  22168090.859 6  -2177491.645 6  -1657613.85949  22168092.61749
  23468749.422 1   -359263.473 1                
  22177115.320 6  -1988737.543 6  -1503497.51649  22177110.83649
  20644633.383 7   -782601.500 7   -601215.65249  20644632.64849
  23260187.297 5   -663227.055 5   -499737.36348  23260187.27748
  20378127.781 6  -1570086.840 6  -1190823.53948  20378123.93448
  22962095.352 5   -672973.281 5   -509096.25846  22962093.11346
 20  5 16  3 19 51.0000000  0  7G01G04G07G08G09G11G16               -0.000304926
  22166711.758 6  -2184739.043 6  -1663261.17649  22166713.72349
  23468516.070 1   -360491.289 1                
  22175842.703 6  -1995425.773 6  -1508709.12549  22175838.16049
  20644146.500 7   -785158.379 7   -603208.02749  20644146.40249
  23259768.500 5   -665430.176 5   -501454.08248  23259767.70748
  20377145.172 6  -1575251.352 6  -1194847.82848  20377141.05548
  22961654.531 5   -675292.184 5   -510903.21946  22961651.29746
 20  5 16  3 19 52.0000000  0  7G01G04G07G08G09G11G16               -0.000307379
  22165332.625 6  -2191986.172 6  -1668908.29349  22165334.19149
  23468282.664 1   -361719.090 1                
  22174570.109 6  -2002113.691 6  -1513920.48849  22174564.93049
  20643660.336 7   -787714.992 7   -605200.19549  20643659.80149
  23259349.227 5   -667633.082 5   -503170.63348  23259348.70348
  20376162.438 6  -1580415.355 6  -1198871.73448  20376158.71948
  22961213.344 5   -677611.109 5   -512710.18046  22961210.60546
 20  5 16  3 19 53.0000000  0  7G01G04G07G08G09G11G16               -0.000309834
  22163953.867 6  -2199233.043 6  -1674555.20349  22163955.22749
  23468049.398 1   -362946.805 1                
  22173297.430 6  -2008801.328 6  -1519131.63749  22173292.69549
  20643173.461 7   -790271.340 7   -607192.15249  20643173.56349
  23258929.789 5   -669835.641 5   -504886.93448  23258929.70748
  20375179.695 6  -1585578.813 6  -1202895.20348  20375176.35548
  22960772.180 5   -679929.895 5   -514517.00446  22960769.46146
 20  5 16  3 19 54.0000000  0  7G01G04G07G08G09G11G16               -0.000312286
  22162575.063 6  -2206479.609 6  -1680201.87549  22162576.23849
  23467815.297 1   -364174.527 1                
  22172025.023 6  -2015488.570 6  -1524342.47349  22172020.25049
  20642687.313 7   -792827.383 7   -609183.87549  20642687.05149
  23258511.203 5   -672037.954 5   -506603.03448  23258510.58248
  20374197.391 6  -1590741.672 6  -1206918.21148  20374193.64548
  22960330.586 5   -682248.621 5   -516323.80546  22960327.86746
 20  5 16  3 19 55.0000000  0  7G01G04G07G08G09G11G16               -0.000314739
  22161195.852 6  -2213725.875 6  -1685848.31649  22161197.58249
  23467581.938 1   -365402.223 1                
  22170752.148 6  -2022175.512 6  -1529553.08249  22170747.39549
  20642200.820 7   -795383.129 7   -611175.36349  20642200.91849
  23258091.844 6   -674239.895 6   -508318.82848  23258091.28548
  20373215.180 6  -1595904.008 6  -1210940.81348  20373211.38348
  22959890.055 4   -684567.219 4   -518130.50046  22959887.00846
 20  5 16  3 19 56.0000000  0  7G01G04G07G08G09G11G16               -0.000317192
  22159816.523 6  -2220971.941 6  -1691494.59849  22159818.41849
  23467348.773 1   -366629.969 1                
  22169480.008 6  -2028862.195 6  -1534763.48449  22169474.91049
  20641714.617 7   -797938.648 7   -613166.68449  20641714.14849
  23257673.445 6   -676441.645 6   -510034.48448  23257672.23048
  20372233.031 6  -1601065.844 6  -1214963.02348  20372229.12548
  22959449.000 4   -686885.789 4   -519937.18446  22959445.87146
 20  5 16  3 19 57.0000000  0  7G01G04G07G08G09G11G16               -0.000319645
  22158437.867 6  -2228217.824 6  -1697140.74249  22158439.47749
  23467115.016 1   -367857.699 1                
  22168207.680 6  -2035548.609 6  -1539973.67249  22168202.78149
  20641228.359 7   -800493.977 7   -615157.84449  20641227.98849
  23257253.930 6   -678643.180 6   -511749.96548  23257252.98448
  20371250.703 6  -1606227.223 6  -1218984.87948  20371246.87148
  22959007.109 5   -689204.344 5   -521743.84845  22959004.32045
 20  5 16  3 19 58.0000000  0  7G01G04G07G08G09G11G16               -0.000322098
  22157059.352 6  -2235463.305 6  -1702786.57049  22157060.78549
  23466881.289 1   -369085.367 1                
  22166935.070 6  -2042234.605 6  -1545183.53949  22166930.49249
  20640742.039 7   -803048.918 7   -617148.70749  20640741.73449
  23256835.023 5   -680844.320 5   -513465.14548  23256834.49648
  20370268.430 6  -1611387.934 6  -1223006.21148  20370264.57048
  22958565.711 4   -691522.727 4   -523550.38346  22958563.55946
 20  5 16  3 19 59.0000000  0  7G01G04G07G08G09G11G16               -0.000324551
  22155680.563 6  -2242708.520 6  -1708432.19149  22155681.97749
  23466647.914 1   -370312.945 1                
  22165662.992 6  -2048920.254 6  -1550393.13749  22165658.19549
  20640255.953 7   -805603.535 7   -619139.31649  20640255.66849
  23256416.711 6   -683045.133 6   -515180.07048  23256415.35948
  20369286.789 6  -1616548.113 6  -1227027.12548  20369282.71148
  22958124.930 5   -693841.008 5   -525356.84446  22958121.94146
 20  5 16  3 20  0.0000000  0  7G01G04G07G08G09G11G16               -0.000327007
  22154301.516 6  -2249953.539 6  -1714077.65649  22154303.34049
  23466414.82811                                
  22164390.805 6  -2055605.770 6  -1555602.62949  22164386.02349
  20639769.766 7   -808158.043 7   -621129.84049  20639769.79749
  23255997.383 6   -685245.820 6   -516894.88748  23255996.84048
  20368304.758 6  -1621707.871 6  -1231047.71548  20368301.41048
  22957683.141 5   -696159.363 5   -527163.33646  22957680.69146
 20  5 16  3 20  1.0000000  0  7G01G04G07G08G09G11G16               -0.000329458
  22152923.461 6  -2257198.301 6  -1719722.92249  22152924.84449
  23466181.180 1                                
  22163118.391 6  -2062290.895 6  -1560811.81649  22163113.53949
  20639283.602 7   -810712.238 7   -623120.12149  20639283.27049
  23255579.422 5   -687446.188 5   -518609.46548  23255577.75048
  20367322.914 6  -1626867.078 6  -1235067.87948  20367319.03548
  22957242.133 4   -698477.594 4   -528969.75846  22957240.11746
 20  5 16  3 20  2.0000000  0  7G01G04G07G08G09G11G16               -0.000331911
  22151544.484 6  -2264442.906 6  -1725368.07449  22151546.53549
  23465946.852 1   -373996.027 1                
  22161846.539 6  -2068975.816 6  -1566020.84449  22161841.62949
  20638797.570 7   -813266.270 7   -625110.27749  20638797.58649
  23255160.203 5   -689646.387 5   -520323.91048  23255159.16048
  20366341.406 6  -1632025.832 6  -1239087.69148  20366337.35548
  22956800.523 4   -700795.895 4   -530776.24246  22956798.78946
 20  5 16  3 20  3.0000000  0  7G01G04G07G08G09G11G16               -0.000334364
  22150166.039 6  -2271687.250 6  -1731013.00849  22150167.48449
  23465713.211 1   -375223.832 1                
  22160574.508 6  -2075660.449 6  -1571229.64849  22160569.34049
  20638311.789 7   -815820.027 7   -627100.21549  20638311.58649
  23254741.656 6   -691846.328 6   -522038.15648  23254740.71148
  20365359.742 6  -1637184.063 6  -1243107.09448  20365355.60248
  22956359.625 4   -703114.078 4   -532582.62146  22956357.59846
 20  5 16  3 20  4.0000000  0  7G01G04G07G08G09G11G16               -0.000336817
  22148787.063 6  -2278931.316 6  -1736657.73849  22148789.35549
  23465481.102 1   -376451.547 1                
  22159302.563 6  -2082344.770 6  -1576438.21149  22159297.43449
  20637825.773 7   -818373.527 7   -629089.96149  20637825.56349
  23254323.055 5   -694045.973 5   -523752.16848  23254321.89148
  20364378.172 6  -1642341.789 6  -1247126.10248  20364374.54348
  22955918.797 4   -705432.199 4   -534388.95346  22955916.52746
 20  5 16  3 20  5.0000000  0  7G01G04G07G08G09G11G16               -0.000339270
  22147409.047 6  -2286175.016 6  -1742302.17249  22147410.93849
  23465247.703 1   -377679.148 1                
  22158030.695 6  -2089028.676 6  -1581646.45349  22158025.73049
  20637340.141 7   -820926.656 7   -631079.41049  20637339.85249
  23253905.320 5   -696245.207 5   -525465.85948  23253903.75048
  20363396.781 6  -1647498.859 6  -1251144.59448  20363392.76248
  22955477.961 4   -707750.203 4   -536195.19546  22955475.58246
 20  5 16  3 20  6.0000000  0  7G01G04G07G08G09G11G16               -0.000341724
  22146030.508 6  -2293418.539 6  -1747946.47349  22146032.18849
  23465012.766 1   -378906.781 1                
  22156758.813 6  -2095712.328 6  -1586854.48849  22156753.87949
  20636854.633 7   -823479.586 7   -633068.70349  20636854.06349
  23253486.281 6   -698444.285 6   -527179.42648  23253485.02048
  20362415.820 6  -1652655.465 6  -1255162.73048  20362411.81348
  22955036.344 4   -710068.152 4   -538001.38746  22955034.73446
 20  5 16  3 20  7.0000000  0  7G01G04G07G08G09G11G16               -0.000344177
  22144652.219 6  -2300661.730 6  -1753590.52349  22144654.01649
  23464780.133 1   -380134.461 1                
  22155487.102 6  -2102395.633 6  -1592062.25849  22155481.98049
  20636368.555 7   -826032.188 7   -635057.74249  20636368.31349
  23253067.914 6   -700643.020 6   -528892.73048  23253066.42248
  20361434.570 6  -1657811.516 6  -1259180.43048  20361430.46548
  22954595.586 4   -712385.966 4   -539807.47546  22954593.48846
 20  5 16  3 20  8.0000000  0  7G01G04G07G08G09G11G16               -0.000346630
  22143274.125 6  -2307904.566 6  -1759234.28549  22143276.04349
  23464546.875 1   -381361.918 1                
  22154215.391 6  -2109078.531 6  -1597269.71549  22154210.50449
  20635882.703 7   -828584.430 7   -637046.50449  20635882.50849
  23252649.547 5   -702841.359 5   -530605.73448  23252648.25448
  20360453.234 6  -1662966.902 6  -1263197.61348  20360449.73448
  22954154.102 4   -714703.652 4   -541613.46946  22954152.48846
 20  5 16  3 20  9.0000000  0  7G01G04G07G08G09G11G16               -0.000349083
  22141895.672 6  -2315147.207 6  -1764877.89549  22141897.57049
  23464312.242 1   -382589.414 1                
  22152943.680 6  -2115761.211 6  -1602476.99649  22152938.45749
  20635397.109 7   -831136.500 7   -639035.13349  20635396.91049
  23252231.227 6   -705039.539 6   -532318.60248  23252229.93048
  20359472.250 6  -1668121.871 6  -1267214.47348  20359468.32848
  22953713.070 4   -717021.344 4   -543419.46146  22953711.51246
 20  5 16  3 20 10.0000000  0  7G01G04G07G08G09G11G16               -0.000351536
  22140517.547 6  -2322389.492 6  -1770521.24249  22140519.56649
  23464077.891 1   -383816.945 1                
  22151672.188 6  -2122443.457 6  -1607683.94149  22151666.87149
  20634911.422 7   -833688.184 7   -641023.46149  20634911.31649
  23251813.641 5   -707237.293 5   -534031.14148  23251811.44548
  20358491.828 6  -1673276.191 6  -1271230.82048  20358487.77748
  22953272.086 4   -719338.852 4   -545225.30146  22953270.61746
 20  5 16  3 20 11.0000000  0  7G01G04G07G08G09G11G16               -0.000353991
  22139139.414 6  -2329631.434 6  -1776164.30949  22139141.41049
  23463844.875 1   -385044.289 1                
  22150400.102 6  -2129125.316 6  -1612890.58649  22150395.68849
  20634426.156 7   -836239.570 7   -643011.55549  20634425.61349
  23251395.070 5   -709434.730 5   -535743.43848  23251393.46948
  20357511.086 6  -1678429.906 6  -1275246.70748  20357506.98448
  22952830.516 4   -721656.215 4   -547031.04746  22952829.51646
 20  5 16  3 20 12.0000000  0  7G01G04G07G08G09G11G16               -0.000356443
  22137760.992 6  -2336873.164 6  -1781807.21149  22137763.54749
  23463611.430 1   -386271.680 1                
  22149129.102 6  -2135806.910 6  -1618097.02349  22149124.35249
  20633940.938 7   -838790.688 7   -644999.43849  20633940.37549
  23250975.969 5   -711631.949 5   -537455.55548  23250974.96948
  20356530.000 6  -1683583.125 6  -1279262.19948  20356526.14148
  22952389.492 4   -723973.551 4   -548836.76246  22952388.38346
 20  5 16  3 20 13.0000000  0  7G01G04G07G08G09G11G16               -0.000358896
  22136383.125 5  -2344114.473 5  -1787449.78949  22136385.37149
  23463377.305 1   -387498.883 1                
  22147857.922 6  -2142488.094 6  -1623303.14849  22147852.72349
  20633455.250 7   -841341.434 7   -646987.03149  20633455.01649
  23250558.758 5   -713828.738 5   -539167.33248  23250557.49248
  20355549.641 6  -1688735.707 6  -1283277.20748  20355545.72748
  22951949.328 3   -726290.699 3   -550642.34846  22951948.02746
 20  5 16  3 20 14.0000000  0  7G01G04G07G08G09G11G16               -0.000361349
  22135005.148 6  -2351355.453 6  -1793092.10949  22135007.21549
  23463143.633 1   -388726.074 1                
  22146586.578 6  -2149168.859 6  -1628508.93849  22146581.55549
  20632969.578 7   -843891.820 7   -648974.34849  20632969.70749
  23250141.063 5   -716025.156 5   -540878.82448  23250138.94948
  20354569.063 6  -1693887.652 6  -1287291.70748  20354565.07448
  22951507.914 3   -728607.648 3   -552447.76246  22951506.89146
 20  5 16  3 20 15.0000000  0  7G01G04G07G08G09G11G16               -0.000363802
  22133627.328 6  -2358596.293 6  -1798734.32449  22133629.73449
  23462910.836 1   -389953.293 1                
  22145315.188 6  -2155849.449 6  -1633714.58649  22145310.27749
  20632484.258 7   -846442.051 7   -650961.53949  20632484.55149
  23249722.430 5   -718221.441 5   -542590.22348  23249720.88748
  20353589.164 6  -1699039.195 6  -1291305.89548  20353585.07848
  22951067.047 3   -730924.707 3   -554253.23846  22951065.95746
 20  5 16  3 20 16.0000000  0  7G01G04G07G08G09G11G16               -0.000366255
  22132249.414 6  -2365836.934 6  -1804376.37549  22132251.77749
  23462677.422 1   -391180.645 1                
  22144043.906 6  -2162529.789 6  -1638920.04349  22144039.51649
  20631998.875 7   -848992.082 7   -652948.57849  20631999.23049
  23249304.617 5   -720417.488 5   -544301.43447  23249302.99247
  20352608.906 6  -1704190.266 6  -1295319.71948  20352604.86748
  22950626.344 3   -733241.699 3   -556058.68446  22950625.09846
 20  5 16  3 20 17.0000000  0  7G01G04G07G08G09G11G16               -0.000368710
  22130871.383 6  -2373077.191 6  -1810018.13749  22130873.75449
  23462444.539 1   -392407.801 1                
  22142772.953 6  -2169209.695 6  -1644125.16849  22142768.00849
  20631513.875 7   -851541.754 7   -654935.34049  20631514.02049
  23248886.836 5   -722613.219 5   -546012.39148  23248885.44948
  20351629.156 6  -1709340.711 6  -1299333.04748  20351625.13348
  22950186.141 3   -735558.594 3   -557864.06346  22950184.07046
 20  5 16  3 20 18.0000000  0  7G01G04G07G08G09G11G16               -0.000371162
  22129494.219 6  -2380317.391 6  -1815659.84849  22129496.31649
  23462210.383 1   -393635.207 1                
  22141501.625 6  -2175889.516 6  -1649330.22749  22141496.95349
  20631028.758 7   -854091.352 7   -656922.03549  20631028.99649
  23248469.133 5   -724808.828 5   -547723.25848  23248467.57048
  20350648.938 6  -1714490.793 6  -1303346.10248  20350644.63348
  22949745.297 3   -737875.543 3   -559669.48446  22949743.05546
 20  5 16  3 20 19.0000000  0  7G01G04G07G08G09G11G16               -0.000373615
  22128116.289 6  -2387557.254 6  -1821301.30149  22128118.65249
  23461978.336 1   -394862.508 1                
  22140230.484 6  -2182568.973 6  -1654534.99649  22140225.60949
  20630543.703 7   -856640.660 7   -658908.51249  20630543.89149
  23248051.773 5   -727004.086 5   -549433.84847  23248049.86747
  20349668.961 6  -1719640.328 6  -1307358.72748  20349664.68048
  22949304.281 4   -740192.414 4   -561474.84846  22949302.51646
 20  5 16  3 20 20.0000000  0  7G01G04G07G08G09G11G16               -0.000376068
  22126738.828 6  -2394796.723 6  -1826942.44549  22126741.30149
  23461744.727 1   -396089.723 1                
  22138959.273 6  -2189247.949 6  -1659739.40249  22138954.90649
  20630058.250 7   -859189.551 7   -660894.66049  20630058.80549
  23247634.266 5   -729198.980 5   -551144.16047  23247632.00847
  20348689.227 6  -1724789.180 6  -1311370.81348  20348684.86348
  22948863.313 4   -742509.055 4   -563280.03146  22948861.62546
 20  5 16  3 20 21.0000000  0  7G01G04G07G08G09G11G16               -0.000378523
  22125361.047 6  -2402035.898 6  -1832583.36349  22125363.41849
  23461510.172 1   -397316.859 1                
  22137688.391 6  -2195926.605 6  -1664943.54749  22137684.16449
  20629573.469 7   -861738.113 7   -662880.55549  20629573.46949
  23247216.109 5   -731393.520 5   -552854.19948  23247214.54748
  20347709.203 6  -1729937.438 6  -1315382.44548  20347704.98848
  22948422.578 3   -744825.590 3   -565085.12946  22948421.14146
 20  5 16  3 20 22.0000000  0  7G01G04G07G08G09G11G16               -0.000380978
  22123983.539 6  -2409274.809 6  -1838224.07049  22123985.91449
  23461275.60211                                
  22136417.523 6  -2202604.938 6  -1670147.43849  22136413.03549
  20629088.367 7   -864286.406 7   -664866.23849  20629088.81649
  23246797.945 5   -733587.835 5   -554564.05648  23246796.81648
  20346729.914 6  -1735085.207 6  -1319393.69548  20346725.88748
  22947981.508 4   -747142.070 4   -566890.17646  22947980.16046
 20  5 16  3 20 23.0000000  0  7G01G04G07G08G09G11G16               -0.000383430
  22122606.008 6  -2416513.461 6  -1843864.57849  22122608.29349
  23461043.227 1                                
  22135146.688 6  -2209282.996 6  -1675351.12149  22135142.45749
  20628603.773 7   -866834.500 7   -666851.76249  20628603.96949
  23246380.672 5   -735781.887 5   -556273.69948  23246379.81348
  20345750.250 6  -1740232.457 6  -1323404.53948  20345746.28148
  22947540.813 3   -749458.504 3   -568695.18446  22947539.52046
 20  5 16  3 20 24.0000000  0  7G01G04G07G08G09G11G16               -0.000385883
  22121228.594 6  -2423751.828 6  -1849504.86349  22121231.21949
  23460810.688 1                                
  22133875.922 6  -2215960.680 6  -1680554.50449  22133871.66449
  20628119.195 7   -869382.227 7   -668837.00849  20628119.24649
  23245963.070 5   -737975.566 5   -557983.05948  23245962.44148
  20344771.016 6  -1745379.102 6  -1327414.91048  20344766.64148
  22947100.523 3   -751774.750 3   -570500.05146  22947098.60546
 20  5 16  3 20 25.0000000  0  7G01G04G07G08G09G11G16               -0.000388336
  22119850.922 6  -2430989.875 6  -1855144.90249  22119853.43449
  23460577.148 1                                
  22132605.023 6  -2222638.043 6  -1685757.64549  22132601.12549
  20627634.086 7   -871929.633 7   -670822.00049  20627634.34449
  23245546.125 5   -740168.977 5   -559692.20748  23245544.62948
  20343791.484 6  -1750525.211 6  -1331424.87548  20343787.52048
  22946658.914 3   -754090.953 3   -572304.88746  22946658.27346
 20  5 16  3 20 26.0000000  0  7G01G04G07G08G09G11G16               -0.000390791
  22118474.055 5  -2438227.789 5  -1860784.82849  22118475.92649
  23460344.484 1   -403452.336 1                
  22131334.789 6  -2229315.211 6  -1690960.63749  22131330.39149
  20627149.734 7   -874476.961 7   -672806.92649  20627149.41449
  23245128.383 5   -742362.242 5   -561401.25048  23245127.32448
  20342812.688 6  -1755670.926 6  -1335434.51648  20342808.37948
  22946219.102 3   -756407.215 3   -574109.75846  22946217.31646
 20  5 16  3 20 27.0000000  0  7G01G04G07G08G09G11G16               -0.000393242
  22117096.711 6  -2445465.613 6  -1866424.69149  22117099.20749
  23460110.250 1   -404679.688 1                
  22130063.984 6  -2235992.266 6  -1696163.53549  22130060.10549
  20626664.992 7   -877024.195 7   -674791.78149  20626665.02049
  23244711.719 5   -744555.422 5   -563110.22348  23244710.44548
  20341833.523 6  -1760816.270 6  -1339443.87948  20341829.16448
  22945777.984 3   -758723.578 3   -575914.69946  22945776.61746
 20  5 16  3 20 28.0000000  0  7G01G04G07G08G09G11G16               -0.000395695
  22115719.633 6  -2452703.281 6  -1872064.43049  22115721.94149
  23459877.008 1   -405907.066 1                
  22128793.492 6  -2242669.055 6  -1701366.22749  22128789.75049
  20626179.742 7   -879571.207 7   -676776.46949  20626180.14849
  23244293.977 5   -746748.410 5   -564819.05148  23244292.75448
  20340854.281 6  -1765961.160 6  -1343452.87948  20340850.03148
  22945336.648 3   -761039.930 3   -577719.65246  22945335.61746
 20  5 16  3 20 29.0000000  0  7G01G04G07G08G09G11G16               -0.000398149
  22114342.195 6  -2459940.645 6  -1877703.93449  22114344.36349
  23459643.813 1   -407134.453 1                
  22127522.688 6  -2249345.539 6  -1706568.68049  22127518.82449
  20625695.563 7   -882117.980 7   -678760.97349  20625695.70349
  23243876.570 5   -748941.090 5   -566527.63348  23243875.73048
  20339875.531 6  -1771105.512 6  -1347461.45748  20339871.14148
  22944896.000 3   -763356.258 3   -579524.59446  22944894.83646
 20  5 16  3 20 30.0000000  0  7G01G04G07G08G09G11G16               -0.000400602
  22112965.242 6  -2467177.766 6  -1883343.24249  22112967.35549
  23459409.055 1   -408361.883 1                
  22126252.680 6  -2256021.734 6  -1711770.90249  22126248.69549
  20625210.766 7   -884664.512 7   -680745.27749  20625211.08649
  23243459.016 5   -751133.531 5   -568236.03148  23243458.76648
  20338896.914 6  -1776249.348 6  -1351469.64148  20338892.41048
  22944455.813 3   -765672.500 3   -581329.45746  22944454.23046
 20  5 16  3 20 31.0000000  0  7G01G04G07G08G09G11G16               -0.000403057
  22111588.141 6  -2474414.539 6  -1888982.28149  22111590.07049
  23459175.039 1   -409589.176 1                
  22124981.781 6  -2262697.586 6  -1716972.85549  22124978.42649
  20624725.930 7   -887210.680 7   -682729.30949  20624726.42249
  23243042.180 5   -753325.648 5   -569944.17248  23243041.57048
  20337917.883 6  -1781392.625 6  -1355477.39148  20337913.75448
  22944015.508 4   -767988.617 4   -583134.21946  22944013.61346
 20  5 16  3 20 32.0000000  0  7G01G04G07G08G09G11G16               -0.000405512
  22110211.797 6  -2481651.023 6  -1894621.10249  22110213.25849
  23458942.48411                                
  22123711.867 6  -2269373.031 6  -1722174.50449  22123707.96949
  20624241.844 7   -889756.539 7   -684713.09449  20624242.12949
  23242624.805 5   -755517.398 5   -571652.03148  23242624.25848
  20336939.109 6  -1786535.262 6  -1359484.64148  20336934.97748
  22943574.328 3   -770304.598 3   -584938.87146  22943572.88746
 20  5 16  3 20 33.0000000  0  7G01G04G07G08G09G11G16               -0.000407965
  22108834.070 6  -2488887.145 6  -1900259.63749  22108835.77049
  23458708.867 1                                
  22122441.305 6  -2276048.090 6  -1727375.84049  22122437.98049
  20623757.242 7   -892302.055 7   -686696.61349  20623757.60549
  23242207.438 5   -757708.840 5   -573359.64147  23242207.59047
  20335961.195 6  -1791677.320 6  -1363491.43048  20335956.65248
  22943133.727 4   -772620.426 4   -586743.40646  22943132.35546
 20  5 16  3 20 34.0000000  0  7G01G04G07G08G09G11G16               -0.000410419
  22107457.055 6  -2496122.988 6  -1905897.95748  22107459.21148
  23458474.344 1                                
  22121171.680 6  -2282722.832 6  -1732576.93448  22121168.03148
  20623273.094 7   -894847.309 7   -688679.92249  20623273.43049
  23241790.945 5   -759899.949 5   -575066.99247  23241790.72347
  20334982.523 6  -1796818.824 6  -1367497.79348  20334978.24648
  22942692.680 4   -774936.211 4   -588547.90646  22942691.62546
 20  5 16  3 20 35.0000000  0  7G01G04G07G08G09G11G16               -0.000412872
  22106080.438 6  -2503358.723 6  -1911536.18849  22106082.41049
  23458242.516 1                                
  22119901.047 6  -2289397.426 6  -1737777.91449  22119897.46949
  20622788.992 7   -897392.457 7   -690663.14849  20622788.79749
  23241373.813 5   -762091.020 5   -576774.33647  23241373.77047
  20334004.016 6  -1801959.980 6  -1371503.88348  20333999.93448
  22942252.078 4   -777252.039 4   -590352.44146  22942251.18446
 20  5 16  3 20 36.0000000  0  7G01G04G07G08G09G11G16               -0.000415327
  22104703.258 6  -2510594.105 6  -1917174.15649  22104705.21549
  23458008.12511                                
  22118631.078 6  -2296071.605 6  -1742978.58649  22118627.52349
  20622304.641 7   -899937.234 7   -692646.09849  20622304.64849
  23240956.953 5   -764281.648 5   -578481.31647  23240957.17647
  20333025.750 6  -1807100.496 6  -1375509.48848  20333021.50848
  22941811.570 3   -779567.723 3   -592156.89546  22941810.23446
 20  5 16  3 20 37.0000000  0  7G01G04G07G08G09G11G16               -0.000417780
  22103326.641 6  -2517828.984 6  -1922811.72349  22103328.20349
  23457775.52311                                
  22117361.281 6  -2302745.285 6  -1748178.85249  22117357.43449
  20621820.070 7   -902481.574 7   -694628.70749  20621820.36349
  23240540.359 5   -766471.836 5   -580187.96547  23240540.19947
  20332047.656 6  -1812240.293 6  -1379514.53148  20332043.54748
  22941370.609 4   -781883.078 4   -593961.06346  22941369.79346
 20  5 16  3 20 38.0000000  0  7G01G04G07G08G09G11G16               -0.000420233
  22101950.180 5  -2525063.492 5  -1928449.01648  22101951.51248
  23457541.87511                                
  22116091.398 6  -2309418.551 6  -1753378.80149  22116087.78549
  20621336.016 7   -905025.539 7   -696611.02049  20621336.03149
  23240123.289 5   -768661.711 5   -581894.35948  23240123.64148
  20331069.781 6  -1817379.488 6  -1383519.10248  20331065.40248
  22940929.711 5   -784198.406 5   -595765.20746  22940929.12546
 20  5 16  3 20 39.0000000  0  6G01G07G08G09G11G16                  -0.000422688
  22100572.727 6  -2532298.082 6  -1934086.34848  22100574.35548
  22114821.961 6  -2316091.754 6  -1758578.71149  22114817.96949
  20620852.453 7   -907569.480 7   -698593.31349  20620852.38749
  23239706.438 5   -770851.477 5   -583600.66448  23239706.45348
  20330091.648 6  -1822518.363 6  -1387523.42648  20330087.50448
  22940489.938 4   -786513.773 4   -597569.41046  22940488.23446
 20  5 16  3 20 40.0000000  0  6G01G07G08G09G11G16                  -0.000425140
  22099196.578 6  -2539532.371 6  -1939723.45348  22099198.00848
  22113551.359 6  -2322764.680 6  -1763778.39549  22113548.19149
  20620368.039 7   -910113.172 7   -700575.41449  20620367.89549
  23239289.805 5   -773040.988 5   -585306.78548  23239290.42248
  20329113.750 6  -1827656.719 6  -1391527.33648  20329110.03948
  22940048.141 4   -788829.098 4   -599373.56346  22940047.70346
 20  5 16  3 20 41.0000000  0  6G01G07G08G09G11G16                  -0.000427593
  22097819.781 5  -2546766.277 5  -1945360.26249  22097821.89849
  22112281.891 6  -2329437.176 6  -1768977.72749  22112278.30149
  20619884.070 7   -912656.516 7   -702557.25049  20619884.02349
  23238873.484 5   -775230.199 5   -587012.66048  23238873.87548
  20328136.445 6  -1832794.469 6  -1395530.78148  20328131.93848
  22939608.188 4   -791144.293 4   -601177.61346  22939607.21546
 20  5 16  3 20 42.0000000  0  6G01G07G08G09G11G16                  -0.000430048
  22096443.500 6  -2553999.789 6  -1950996.76248  22096445.30148
  22111012.383 6  -2336109.246 6  -1774176.73049  22111008.56349
  20619400.219 7   -915199.438 7   -704538.73849  20619400.43049
  23238456.648 4   -777418.955 4   -588718.19948  23238457.43448
  20327158.820 6  -1837931.539 6  -1399533.68848  20327154.39548
  22939167.797 4   -793459.265 4   -602981.48646  22939166.63746
 20  5 16  3 20 43.0000000  0  6G01G07G08G09G11G16                  -0.000432501
  22095067.602 6  -2561232.934 6  -1956632.98849  22095068.94149
  22109742.305 6  -2342780.922 6  -1779375.43449  22109739.13349
  20618916.141 7   -917742.039 7   -706519.97749  20618916.70749
  23238040.438 4   -779607.383 4   -590423.46548  23238041.05948
  20326181.172 6  -1843068.016 6  -1403536.13348  20326177.13348
  22938726.992 4   -795774.141 4   -604785.27046  22938726.45746
 20  5 16  3 20 44.0000000  0  6G01G07G08G09G11G16                  -0.000434954
  22093690.438 6  -2568465.969 6  -1962269.12949  22093692.70349
  22108473.211 6  -2349452.395 6  -1784573.98849  22108469.84049
  20618432.625 7   -920284.508 7   -708501.12549  20618432.85249
  23237624.016 4   -781795.625 4   -592128.58248  23237624.63348
  20325203.773 6  -1848204.066 6  -1407538.24648  20325199.93448
  22938287.266 4   -798089.027 4   -606589.06646  22938285.73846
 20  5 16  3 20 45.0000000  0  6G01G07G08G09G11G16                  -0.000437408
  22092314.438 6  -2575698.676 6  -1967904.99649  22092316.34849
  22107203.734 6  -2356123.496 6  -1789772.25049  22107200.29349
  20617948.891 7   -922826.680 7   -710482.03549  20617949.06349
  23237207.828 4   -783983.574 4   -593833.48048  23237207.84848
  20324226.672 6  -1853339.531 6  -1411539.89848  20324222.39148
  22937846.086 4   -800403.773 4   -608392.75846  22937845.13346
 20  5 16  3 20 46.0000000  0  6G01G07G08G09G11G16                  -0.000439861
  22090937.977 6  -2582931.055 6  -1973540.61749  22090939.83649
  22105934.141 6  -2362794.250 6  -1794970.23849  22105930.61349
  20617464.945 7   -925368.527 7   -712462.69949  20617465.35549
  23236792.289 4   -786171.184 4   -595538.11748  23236791.73848
  20323249.563 6  -1858474.410 6  -1415541.10948  20323245.43048
  22937405.883 4   -802718.441 4   -610196.39546  22937405.08646
 20  5 16  3 20 47.0000000  0  6G01G07G08G09G11G16                  -0.000442314
  22089561.727 6  -2590163.109 6  -1979175.98449  22089563.87949
  22104665.313 6  -2369464.625 6  -1800167.93449  22104661.27749
  20616981.539 7   -927910.027 7   -714443.08649  20616981.86349
  23236375.938 4   -788358.488 4   -597242.51248  23236375.46548
  20322272.500 6  -1863608.703 6  -1419541.85548  20322268.62548
  22936964.875 4   -805032.938 4   -611999.90246  22936964.53146
 20  5 16  3 20 48.0000000  0  6G01G07G08G09G11G16                  -0.000444769
  22088185.336 6  -2597394.789 6  -1984811.05549  22088187.85949
  22103395.734 6  -2376134.574 6  -1805365.29349  22103392.38349
  20616497.984 7   -930451.160 7   -716423.19149  20616498.06349
  23235959.852 4   -790545.391 4   -598946.59048  23235959.17648
  20321295.828 6  -1868742.355 6  -1423542.10248  20321291.60948
  22936524.672 5   -807347.266 5   -613803.28946  22936523.79746
 20  5 16  3 20 49.0000000  0  6G01G07G08G09G11G16                  -0.000447222
  22086809.492 6  -2604626.262 6  -1990445.96949  22086811.36349
  22102126.336 6  -2382804.313 6  -1810562.49249  22102122.80949
  20616014.352 7   -932992.078 7   -718403.13349  20616014.55549
  23235543.055 4   -792732.125 4   -600650.54748  23235543.10548
  20320318.789 6  -1873875.570 6  -1427542.01648  20320314.64548
  22936084.383 4   -809661.625 4   -615606.68846  22936083.49646
 20  5 16  3 20 50.0000000  0  6G01G07G08G09G11G16                  -0.000449675
  22085433.734 6  -2611857.461 6  -1996080.67249  22085435.38749
  22100857.203 6  -2389473.711 6  -1815759.42649  22100853.87549
  20615531.156 7   -935532.758 7   -720382.88749  20615531.23849
  23235126.555 5   -794918.570 5   -602354.27048  23235126.87948
  20319341.773 6  -1879008.215 6  -1431541.48048  20319338.08248
  22935644.047 4   -811975.844 4   -617409.96946  22935642.84446
 20  5 16  3 20 51.0000000  0  6G01G07G08G09G11G16                  -0.000452129
  22084057.539 6  -2619088.344 6  -2001715.12149  22084059.62949
  22099588.570 6  -2396142.684 6  -1820956.02349  22099584.73049
  20615047.758 7   -938073.051 7   -722362.33649  20615047.61749
  23234711.359 5   -797104.637 5   -604057.69948  23234711.14148
  20318365.656 6  -1884140.254 6  -1435540.46948  20318361.35248
  22935204.156 4   -814289.949 4   -619213.17246  22935202.69946
 20  5 16  3 20 52.0000000  0  6G01G07G08G09G11G16                  -0.000454582
  22082681.539 6  -2626318.711 6  -2007349.17248  22082682.89548
  22098319.727 6  -2402811.176 6  -1826152.26249  22098315.74249
  20614564.344 7   -940612.910 7   -724341.44149  20614563.87149
  23234295.516 5   -799290.207 5   -605760.74248  23234295.05948
  20317389.203 6  -1889271.551 6  -1439538.88348  20317384.92648
  22934763.438 4   -816603.781 4   -621016.16846  22934762.80146
 20  5 16  3 20 53.0000000  0  6G01G07G08G09G11G16                  -0.000457035
  22081305.922 6  -2633548.785 6  -2012982.98848  22081307.39148
  22097050.523 6  -2409479.320 6  -1831348.22349  22097046.94949
  20614081.148 7   -943152.449 7   -726320.30549  20614080.89549
  23233880.219 5   -801475.539 5   -607463.60548  23233878.89848
  20316412.523 6  -1894402.297 6  -1443536.87148  20316408.82448
  22934322.680 4   -818917.508 4   -622819.06346  22934322.41446
 20  5 16  3 20 54.0000000  0  6G01G07G08G09G11G16                  -0.000459488
  22079930.273 6  -2640778.520 6  -2018616.54749  22079931.65649
  22095781.727 6  -2416147.070 6  -1836543.86749  22095777.90249
  20613598.016 7   -945691.676 7   -728298.92649  20613597.98849
  23233463.883 5   -803660.477 5   -609166.16048  23233463.68448
  20315436.539 6  -1899532.445 6  -1447534.38748  20315432.30948
  22933882.930 4   -821231.113 4   -624621.86746  22933882.09446
 20  5 16  3 20 55.0000000  0  6G01G07G08G09G11G16                  -0.000461943
  22078554.750 6  -2648008.039 6  -2024249.94149  22078556.05149
  22094512.805 6  -2422814.500 6  -1841739.26649  22094509.50449
  20613114.609 7   -948230.695 7   -730277.38749  20613114.49249
  23233048.258 5   -805845.172 5   -610868.52048  23233047.64148
  20314460.078 6  -1904662.055 6  -1451531.48448  20314456.19948
  22933443.078 4   -823544.648 4   -626424.62146  22933441.91046
 20  5 16  3 20 56.0000000  0  6G01G07G08G09G11G16                  -0.000464396
  22077179.031 6  -2655237.125 6  -2029883.00449  22077180.46949
  22093244.367 6  -2429481.527 6  -1846934.35249  22093241.01649
  20612631.570 7   -950769.293 7   -732255.51649  20612631.80549
  23232632.383 5   -808029.547 5   -612570.61348  23232632.23048
  20313484.398 6  -1909791.051 6  -1455528.10248  20313480.30948
  22933002.297 4   -825858.000 4   -628227.22346  22933001.46146
 20  5 16  3 20 57.0000000  0  6G01G07G08G09G11G16                  -0.000466848
  22075803.094 6  -2662465.949 6  -2035515.85249  22075805.02349
  22091975.938 6  -2436148.230 6  -1852129.18449  22091972.02049
  20612148.438 7   -953307.629 7   -734233.43849  20612148.60549
  23232216.109 5   -810213.547 5   -614272.42648  23232216.67248
  20312508.383 6  -1914919.473 6  -1459524.27348  20312504.16848
  22932561.773 4   -828171.254 4   -630029.75046  22932560.97746
 20  5 16  3 20 58.0000000  0  6G01G07G08G09G11G16                  -0.000469301
  22074427.523 6  -2669694.465 6  -2041148.46149  22074429.41049
  22090707.383 6  -2442814.578 6  -1857323.73449  22090703.40249
  20611665.836 7   -955845.648 7   -736211.11349  20611665.41849
  23231800.945 5   -812397.281 5   -615974.03148  23231800.99648
  20311532.461 6  -1920047.336 6  -1463520.01248  20311528.71148
  22932122.367 4   -830484.406 4   -631832.21546  22932121.07846
 20  5 16  3 20 59.0000000  0  6G01G07G08G09G11G16                  -0.000471756
  22073051.891 6  -2676922.609 6  -2046780.78149  22073054.04349
  22089438.563 6  -2449480.504 6  -1862517.96149  22089434.72749
  20611182.414 7   -958383.316 7   -738188.52049  20611182.74649
  23231385.719 5   -814580.656 5   -617675.35948  23231385.90648
  20310556.867 6  -1925174.563 6  -1467515.25448  20310552.91048
  22931681.695 4   -832797.391 4   -633634.53146  22931680.94946
 20  5 16  3 21  0.0000000  0  6G01G07G08G09G11G16                  -0.000474209
  22071676.891 6  -2684150.449 6  -2052412.85949  22071678.30149
  22088170.305 6  -2456146.078 6  -1867711.91849  22088165.88749
  20610699.555 7   -960920.703 7   -740165.70749  20610700.05149
  23230970.617 5   -816763.707 5   -619376.44948  23230970.37548
  20309581.508 6  -1930301.211 6  -1471510.04748  20309577.33648
  22931241.633 4   -835110.281 4   -635436.78546  22931240.72746
 20  5 16  3 21  1.0000000  0  6G01G07G08G09G11G16                  -0.000476662
  22070301.039 6  -2691377.969 6  -2058044.69548  22070303.35548
  22086901.984 6  -2462811.313 6  -1872905.61349  22086898.19149
  20610217.156 7   -963457.770 7   -742142.63749  20610217.05149
  23230554.813 5   -818946.418 5   -621077.27048  23230554.82448
  20308606.078 6  -1935427.309 6  -1475504.40248  20308601.69548
  22930801.523 4   -837422.996 4   -637238.91046  22930800.60546
 20  5 16  3 21  2.0000000  0  6G01G07G08G09G11G16                  -0.000479115
  22068925.938 6  -2698605.133 6  -2063676.24649  22068927.69149
  22085633.789 6  -2469476.129 6  -1878098.96949  22085629.52349
  20609734.484 7   -965994.492 7   -744119.30149  20609734.42249
  23230140.156 5   -821128.801 5   -622777.84048  23230139.91848
  20307630.367 6  -1940552.758 6  -1479498.25848  20307626.32448
  22930361.617 4   -839735.613 4   -639040.94946  22930360.20746
 20  5 16  3 21  3.0000000  0  6G01G07G08G09G11G16                  -0.000481567
  22067551.391 6  -2705831.996 6  -2069307.56349  22067552.71949
  22084365.836 6  -2476140.609 6  -1883292.06649  22084361.20749
  20609251.883 7   -968530.918 7   -746095.73849  20609251.69949
  23229724.672 5   -823310.871 5   -624478.15648  23229724.45748
  20306655.375 6  -1945677.656 6  -1483491.68848  20306651.72748
  22929921.359 4   -842048.109 4   -640842.89546  22929920.25046
 20  5 16  3 21  4.0000000  0  6G01G07G08G09G11G16                  -0.000484022
  22066175.930 6  -2713058.633 6  -2074938.70748  22066177.53548
  22083097.570 6  -2482804.789 6  -1888484.93849  22083093.54749
  20608769.461 7   -971067.113 7   -748071.99249  20608769.22349
  23229309.977 5   -825492.684 5   -626178.26648  23229308.92648
  20305680.367 6  -1950802.063 6  -1487484.73048  20305676.38748
  22929481.320 4   -844360.527 4   -642644.78846  22929480.29746
 20  5 16  3 21  5.0000000  0  6G01G07G08G09G11G16                  -0.000486475
  22064800.195 6  -2720284.895 6  -2080569.55549  22064802.22749
  22081829.516 6  -2489468.586 6  -1893677.50849  22081825.37549
  20608286.406 7   -973602.965 7   -750047.98449  20608286.63749
  23228894.453 5   -827674.191 5   -627878.14148  23228894.27748
  20304705.234 6  -1955925.852 6  -1491477.29348  20304701.12548
  22929041.195 4   -846672.848 4   -644446.58646  22929039.71146
 20  5 16  3 21  6.0000000  0  6G01G07G08G09G11G16                  -0.000488928
  22063425.367 6  -2727510.781 6  -2086200.11749  22063427.07049
  22080561.375 6  -2496131.945 6  -1898869.73849  22080557.17249
  20607804.125 7   -976138.441 7   -752023.68049  20607804.05149
  23228478.734 5   -829855.301 5   -629577.71148  23228479.04748
  20303730.500 6  -1961048.977 6  -1495469.34048  20303726.12548
  22928601.641 4   -848984.961 4   -646248.23846  22928599.95746
 20  5 16  3 21  7.0000000  0  6G01G07G08G09G11G16                  -0.000491381
  22062050.898 6  -2734736.293 6  -2091830.38349  22062052.07849
  22079293.313 6  -2502794.883 6  -1904061.64149  22079289.12549
  20607321.688 7   -978673.547 7   -753999.09049  20607321.55549
  23228064.547 5   -832036.027 5   -631276.98048  23228064.27348
  20302755.625 6  -1966171.496 6  -1499460.91448  20302751.66448
  22928161.414 4   -851296.895 4   -648049.73446  22928160.46946
 20  5 16  3 21  8.0000000  0  6G01G07G08G09G11G16                  -0.000493834
  22060675.625 6  -2741961.512 6  -2097460.42649  22060677.32049
  22078025.641 6  -2509457.477 6  -1909253.26649  22078021.28549
  20606839.289 7   -981208.379 7   -755974.28549  20606839.13349
  23227649.391 5   -834216.484 5   -632976.03148  23227649.14148
  20301780.656 6  -1971293.445 6  -1503452.03548  20301776.99648
  22927721.289 4   -853608.742 4   -649851.16846  22927720.15246
 20  5 16  3 21  9.0000000  0  6G01G07G08G09G11G16                  -0.000496286
  22059300.813 6  -2749186.438 6  -2103090.23449  22059302.38749
  22076757.898 6  -2516119.746 6  -1914444.64549  22076753.63749
  20606357.352 7   -983742.918 7   -757949.25849  20606357.14549
  23227234.156 5   -836396.629 5   -634674.84448  23227234.27048
  20300806.453 6  -1976414.832 6  -1507442.73048  20300802.67648
  22927282.109 4   -855920.492 4   -651652.52346  22927280.17646
 20  5 16  3 21 10.0000000  0  6G01G07G08G09G11G16                  -0.000498739
  22057926.297 6  -2756411.070 6  -2108719.81649  22057928.19949
  22075490.219 6  -2522781.648 6  -1919635.73849  22075486.14549
  20605874.773 7   -986277.184 7   -759924.00449  20605874.66849
  23226819.453 5   -838576.457 5   -636373.41448  23226819.12548
  20299831.680 6  -1981535.641 6  -1511432.97348  20299827.75048
  22926841.547 4   -858232.148 4   -653453.82846  22926840.18046
 20  5 16  3 21 11.0000000  0  6G01G07G08G09G11G16                  -0.000501192
  22056551.094 6  -2763635.254 6  -2114349.05149  22056552.79749
  22074222.531 6  -2529443.098 6  -1924826.48049  22074218.66849
  20605392.781 7   -988811.008 7   -761898.41849  20605392.03949
  23226404.523 5   -840755.922 5   -638071.69348  23226404.37548
  20298857.313 6  -1986655.785 6  -1515422.69148  20298853.55548
  22926401.695 4   -860543.586 4   -655254.96546  22926400.24246
 20  5 16  3 21 11.9990000  0  6G01G07G08G09G11G16                   0.000496357
  22055178.112 6  -2770851.949 6  -2119972.44949  22055179.82749
  22072956.308 6  -2536097.535 6  -1930011.75849  22072951.86649
  20604911.190 7   -991342.016 7   -763870.63349  20604911.09349
  23225990.284 5   -842932.855 5   -639768.01248  23225989.94448
  20297884.151 6  -1991770.219 6  -1519407.96948  20297879.93748
  22925962.886 4   -862852.598 4   -657054.19146  22925961.06546
 20  5 16  3 21 12.9990000  0  6G01G07G08G09G11G16                   0.000493904
  22053803.097 6  -2778075.613 6  -2125601.27049  22053805.62849
  22071689.089 6  -2542758.359 6  -1935202.00849  22071684.88249
  20604428.784 7   -993875.344 7   -765844.64849  20604428.60149
  23225576.276 5   -845111.750 5   -641465.85548  23225575.15148
  20296910.308 6  -1996889.309 6  -1523396.86748  20296906.44848
  22925523.276 5   -865163.891 5   -658855.20346  22925521.03046
 20  5 16  3 21 13.9990000  0  6G01G07G08G09G11G16                   0.000491451
  22052428.995 6  -2785298.969 6  -2131229.85949  22052430.35149
  22070421.339 6  -2549418.820 6  -1940391.98049  22070417.30449
  20603946.823 7   -996408.371 7   -767818.43849  20603946.51149
  23225161.440 5   -847290.355 5   -643163.46148  23225160.82348
  20295936.144 6  -2002007.789 6  -1527385.29348  20295932.08548
  22925083.175 5   -867475.078 5   -660656.12946  22925081.55046
 20  5 16  3 21 14.9990000  0  6G01G07G08G09G11G16                   0.000488998
  22051054.284 6  -2792522.063 6  -2136858.24649  22051056.25749
  22069154.136 6  -2556078.961 6  -1945581.70349  22069149.66349
  20603465.120 7   -998941.133 7   -769792.01649  20603464.87049
  23224746.987 5   -849468.672 5   -644860.85248  23224746.23048
  20294962.128 6  -2007125.762 6  -1531373.32048  20294958.35548
  22924642.995 5   -869786.180 5   -662456.98046  22924641.56546
 20  5 16  3 21 15.9990000  0  6G01G07G08G09G11G16                   0.000486546
  22049680.276 6  -2799744.754 6  -2142486.31349  22049682.14749
  22067886.769 6  -2562738.664 6  -1950771.08649  22067882.63649
  20602982.815 7  -1001473.504 7   -771765.29749  20602982.70249
  23224332.964 5   -851646.625 5   -646557.95348  23224331.81548
  20293988.253 6  -2012243.066 6  -1535360.82848  20293984.13648
  22924204.011 5   -872097.090 5   -664257.68846  22924201.89046
 20  5 16  3 21 16.9990000  0  6G01G07G08G09G11G16                   0.000484093
  22048305.886 6  -2806967.020 6  -2148114.05149  22048307.67549
  22066619.417 6  -2569397.902 6  -1955960.10949  22066615.14749
  20602501.339 7  -1004005.465 7   -773738.25849  20602501.30049
  23223918.550 5   -853824.109 5   -648254.70348  23223917.64748
  20293014.417 6  -2017359.695 6  -1539347.81348  20293010.53848
  22923763.526 4   -874407.785 4   -666058.22746  22923762.04246
 20  5 16  3 21 17.9990000  0  6G01G07G08G09G11G16                   0.000481640
  22046931.995 6  -2814188.945 6  -2153741.52349  22046933.28849
  22065352.362 6  -2576056.766 6  -1961148.82849  22065348.09349
  20602019.526 7  -1006537.109 7   -775710.96549  20602019.65549
  23223503.128 5   -856001.262 5   -649951.19148  23223503.12848
  20292040.948 6  -2022475.719 6  -1543334.32448  20292036.87848
  22923324.089 5   -876718.285 5   -667858.61746  22923322.13646
 20  5 16  3 21 18.9990000  0  6G01G07G08G09G11G16                   0.000479187
  22045557.440 6  -2821410.484 6  -2159368.69549  22045559.05049
  22064085.440 6  -2582715.180 6  -1966337.19949  22064081.16349
  20601537.612 7  -1009068.379 7   -777683.37949  20601537.74549
  23223090.315 5   -858178.066 5   -651647.40648  23223088.51948
  20291067.683 6  -2027591.102 6  -1547320.33248  20291063.65548
  22922884.605 5   -879028.637 5   -669658.89546  22922882.52246
 20  5 16  3 21 19.9990000  0  6G01G07G08G09G11G16                   0.000476734
  22044183.050 6  -2828631.820 6  -2164995.70749  22044184.87449
  22062818.612 6  -2589373.336 6  -1971525.37149  22062814.30849
  20601056.362 7  -1011599.445 7   -779655.63349  20601055.88649
  23222676.019 5   -860354.645 5   -653343.44548  23222674.53048
  20290094.190 6  -2032706.023 6  -1551305.99248  20290090.37048
  22922444.284 4   -881338.969 4   -671459.16046  22922442.88246
 20  5 16  3 21 20.9990000  0  6G01G07G08G09G11G16                   0.000474281
  22042808.667 6  -2835852.867 6  -2170622.49249  22042810.56949
  22061551.339 6  -2596031.184 6  -1976713.30949  22061547.07349
  20600574.714 7  -1014130.285 7   -781627.71949  20600573.98049
  23222261.214 5   -862530.984 5   -655039.29348  23222260.70248
  20289120.808 6  -2037820.395 6  -1555291.21148  20289117.39448
  22922004.339 4   -883649.258 4   -673259.39546  22922003.46446
 20  5 16  3 21 21.9990000  0  6G01G07G08G09G11G16                   0.000471828
  22041434.581 6  -2843073.504 6  -2176248.96549  22041436.81549
  22060284.573 6  -2602688.523 6  -1981900.84849  22060280.24549
  20600093.222 7  -1016660.652 7   -783599.43849  20600093.14749
  23221847.222 5   -864706.840 5   -656734.75848  23221846.32748
  20288147.878 6  -2042934.074 6  -1559275.89548  20288144.05448
  22921565.065 4   -885959.289 4   -675059.41846  22921563.53046
 20  5 16  3 21 22.9990000  0  6G01G07G08G09G11G16                   0.000469376
  22040061.269 6  -2850293.824 6  -2181875.18049  22040062.83549
  22059017.565 6  -2609345.523 6  -1987088.12149  22059013.56249
  20599611.745 7  -1019190.754 7   -785570.94149  20599611.15549
  23221433.573 5   -866882.445 5   -658430.03548  23221432.49548
  20287174.776 6  -2048047.199 6  -1563260.14848  20287171.21048
  22921126.081 5   -888269.215 5   -676859.34445  22921124.10145
 20  5 16  3 21 23.9990000  0  6G01G07G08G09G11G16                   0.000466925
  22038687.003 6  -2857513.738 6  -2187501.08249  22038688.69849
  22057751.159 6  -2616002.086 6  -1992275.04749  22057746.64749
  20599130.175 7  -1021720.473 7   -787542.15249  20599130.03449
  23221019.597 5   -869057.660 5   -660125.00048  23221018.65148
  20286201.956 6  -2053159.664 6  -1567243.88748  20286198.14048
  22920686.776 5   -890578.945 5   -678659.13345  22920684.66745
 20  5 16  3 21 24.9990000  0  6G01G07G08G09G11G16                   0.000464470
  22037313.128 6  -2864733.309 6  -2193126.72349  22037315.05049
  22056484.792 6  -2622658.266 6  -1997461.68849  22056480.31249
  20598649.034 7  -1024249.863 7   -789513.10949  20598648.98049
  23220605.401 5   -871232.512 5   -661819.69148  23220604.72648
  20285229.120 6  -2058271.523 6  -1571227.15248  20285225.35848
  22920245.855 5   -892888.535 5   -680458.82846  22920245.26546
 20  5 16  3 21 25.9990000  0  6G01G07G08G09G11G16                   0.000462019
  22035939.651 6  -2871952.621 6  -2198752.16049  22035940.74149
  22055217.831 6  -2629314.141 6  -2002648.08649  22055214.04649
  20598167.730 7  -1026779.012 7   -791483.87149  20598167.81549
  23220192.011 5   -873407.090 5   -663514.16848  23220191.40148
  20284256.378 6  -2063382.867 6  -1575210.02048  20284252.99548
  22919806.628 5   -895198.082 5   -682258.47746  22919805.48046
 20  5 16  3 21 26.9990000  0  6G01G07G08G09G11G16                   0.000459566
  22034565.901 6  -2879171.738 6  -2204377.44149  22034566.97249
  22053951.355 6  -2635969.785 6  -2007834.30549  22053947.08149
  20597686.440 7  -1029307.980 7   -793454.50049  20597686.37049
  23219778.386 5   -875581.539 5   -665208.55548  23219777.32348
  20283283.894 6  -2068493.746 6  -1579192.52048  20283279.94848
  22919367.815 5   -897507.629 5   -684058.12946  22919366.08946
 20  5 16  3 21 27.9990000  0  6G01G07G08G09G11G16                   0.000457113
  22033192.175 6  -2886390.473 6  -2210002.42249  22033193.39049
  22052684.870 6  -2642624.984 6  -2013020.16849  22052680.35849
  20597205.503 7  -1031836.527 7   -795424.79349  20597205.12849
  23219364.769 5   -877755.535 5   -666902.57448  23219363.48748
  20282311.690 6  -2073603.961 6  -1583174.50048  20282307.55048
  22918928.159 5   -899816.965 5   -685857.61746  22918926.96446
 20  5 16  3 21 28.9990000  0  6G01G07G08G09G11G16                   0.000454660
  22031818.503 6  -2893608.813 6  -2215627.10249  22031819.89749
  22051418.472 6  -2649279.766 6  -2018205.71549  22051414.47249
  20596724.097 7  -1034364.730 7   -797394.82449  20596724.27249
  23218950.761 5   -879929.168 5   -668596.30548  23218949.69848
  20281339.245 6  -2078713.539 6  -1587155.99248  20281335.83948
  22918488.159 5   -902126.113 5   -687656.93046  22918487.55046
 20  5 16  3 21 29.9990000  0  6G01G07G08G09G11G16                   0.000452208
  22030444.995 6  -2900826.773 6  -2221251.48049  22030446.40949
  22050152.089 6  -2655934.113 6  -2023390.91849  22050147.91349
  20596243.050 7  -1036892.586 7   -799364.57849  20596242.81949
  23218537.339 5   -882102.449 5   -670289.77048  23218536.75348
  20280366.565 6  -2083822.477 6  -1591136.98048  20280363.46848
  22918049.542 5   -904435.117 5   -689456.16845  22918047.42545
 20  5 16  3 21 30.9990000  0  6G01G07G08G09G11G16                   0.000449755
  22029071.167 6  -2908044.285 6  -2226875.51649  22029072.78849
  22048885.956 6  -2662587.973 6  -2028575.73849  22048881.88649
  20595762.425 7  -1039419.969 7   -801333.96549  20595762.01949
  23218124.097 5   -884275.277 5   -671982.88748  23218123.23048
  20279394.776 6  -2088930.723 6  -1595117.43448  20279391.13248
  22917609.972 5   -906743.852 5   -691255.18845  22917608.24545
 20  5 16  3 21 31.9990000  0  6G01G07G08G09G11G16                   0.000447304
  22027698.503 6  -2915261.488 6  -2232499.30549  22027699.93749
  22047619.675 6  -2669241.473 6  -2033760.27349  22047616.10149
  20595281.222 7  -1041947.043 7   -803303.11749  20595281.46049
  23217710.034 5   -886447.785 5   -673675.74648  23217709.67548
  20278422.948 6  -2094038.352 6  -1599097.39848  20278418.98048
  22917170.683 5   -909052.465 5   -693054.10946  22917169.45246
 20  5 16  3 21 32.9990000  0  6G01G07G08G09G11G16                   0.000444851
  22026324.315 6  -2922478.383 6  -2238122.85949  22026326.35149
  22046353.972 6  -2675894.656 6  -2038944.56649  22046349.82749
  20594800.394 7  -1044473.863 7   -805272.06649  20594800.60849
  23217296.644 5   -888620.031 5   -675368.40648  23217296.19448
  20277450.917 6  -2099145.473 6  -1603076.98048  20277447.44448
  22916731.034 5   -911361.027 5   -694852.99646  22916729.87846
 20  5 16  3 21 33.9990000  0  6G01G07G08G09G11G16                   0.000442398
  22024951.831 6  -2929694.840 6  -2243746.07449  22024952.97649
  22045088.065 6  -2682547.313 6  -2044128.46949  22045083.73749
  20594319.573 7  -1047000.215 7   -807240.65649  20594319.89449
  23216883.440 5   -890791.805 5   -677060.69148  23216883.21048
  20276479.565 6  -2104251.855 6  -1607055.98048  20276475.87048
  22916292.081 4   -913669.309 4   -696651.65646  22916290.83146
 20  5 16  3 21 34.9990000  0  6G01G07G08G09G11G16                   0.000439947
  22023578.417 6  -2936910.926 6  -2249368.99649  22023579.92149
  22043821.730 6  -2689199.590 6  -2049312.06349  22043817.73349
  20593838.855 7  -1049526.262 7   -809209.00449  20593838.44049
  23216471.128 5   -892963.230 5   -678752.71148  23216469.62848
  20275507.980 6  -2109357.645 6  -1611034.51648  20275504.08948
  22915853.042 4   -915977.457 4   -698450.20745  22915851.57745
 20  5 16  3 21 35.9990000  0  6G01G07G08G09G11G16                   0.000437494
  22022205.112 6  -2944126.625 6  -2254991.61749  22022206.68749
  22042556.167 6  -2695851.422 6  -2054495.30149  22042552.51149
  20593358.394 7  -1052051.898 7   -811177.03149  20593358.19049
  23216057.730 5   -895134.301 5   -680444.45348  23216056.54648
  20274536.769 6  -2114462.770 6  -1615012.53948  20274532.63248
  22915413.901 5   -918285.395 5   -700248.60545  22915411.99145
 20  5 16  3 21 36.9990000  0  6G01G07G08G09G11G16                   0.000435041
  22020832.331 6  -2951341.855 6  -2260613.87149  22020833.84349
  22041290.456 6  -2702502.738 6  -2059678.14549  22041286.23349
  20592877.722 7  -1054577.066 7   -813144.69549  20592878.03849
  23215644.386 5   -897304.883 5   -682135.82448  23215643.40548
  20273565.097 6  -2119567.180 6  -1618990.00448  20273561.30448
  22914974.370 5   -920593.063 5   -702046.79746  22914972.72246
 20  5 16  3 21 37.9990000  0  6G01G07G08G09G11G16                   0.000432590
  22019459.183 6  -2958556.813 6  -2266235.91049  22019460.80449
  22040024.573 6  -2709153.734 6  -2064860.74249  22040020.46449
  20592397.753 7  -1057101.996 7   -815112.17649  20592397.91349
  23215231.565 5   -899475.215 5   -683826.98848  23215230.74148
  20272593.565 6  -2124671.035 6  -1622967.03548  20272590.11248
  22914535.284 4   -922900.695 4   -703844.96946  22914533.31946
 20  5 16  3 21 38.9990000  0  6G01G07G08G09G11G16                   0.000430138
  22018086.237 6  -2965771.277 6  -2271857.57049  22018087.94449
  22038759.222 6  -2715804.207 6  -2070042.93049  22038755.27649
  20591917.065 7  -1059626.434 7   -817079.26649  20591917.20649
  23214818.933 5   -901645.074 5   -685517.79748  23214818.01148
  20271622.605 6  -2129774.141 6  -1626943.47748  20271618.84748
  22914096.737 5   -925208.000 5   -705642.86746  22914094.70646
 20  5 16  3 21 39.9990000  0  6G01G07G08G09G11G16                   0.000427687
  22016713.440 6  -2972985.355 6  -2277478.92649  22016714.79249
  22037493.683 6  -2722454.242 6  -2075224.77749  22037489.87449
  20591436.730 7  -1062150.523 7   -819046.08649  20591437.01549
  23214405.417 5   -903814.535 5   -687208.28548  23214404.89448
  20270651.425 6  -2134876.629 6  -1630919.44548  20270647.66348
  22913657.339 5   -927515.156 5   -707440.64146  22913655.80846
 20  5 16  3 21 40.9990000  0  6G01G07G08G09G11G16                   0.000425234
  22015340.315 6  -2980199.105 6  -2283100.03149  22015342.11249
  22036228.589 6  -2729103.891 6  -2080406.32049  22036224.19449
  20590956.355 7  -1064674.273 7   -821012.64849  20590956.38649
  23213993.448 5   -905983.641 5   -688898.49648  23213992.14748
  20269680.761 6  -2139978.504 6  -1634894.93448  20269677.45248
  22913218.144 5   -929822.164 5   -709238.31646  22913216.40946
 20  5 16  3 21 41.9990000  0  6G01G07G08G09G11G16                   0.000422783
  22013968.065 6  -2987412.457 6  -2288720.82449  22013969.72249
  22034963.276 6  -2735753.129 6  -2085587.54349  22034959.02649
  20590476.464 7  -1067197.660 7   -822978.92649  20590476.39449
  23213580.300 5   -908152.430 5   -690588.46148  23213579.81248
  20268710.105 6  -2145079.730 6  -1638869.91048  20268706.15148
  22912779.464 5   -932128.980 5   -711035.83246  22912777.36246
 20  5 16  3 21 42.9990000  0  6G01G07G08G09G11G16                   0.000420330
  22012595.651 6  -2994625.355 6  -2294341.26249  22012597.01949
  22033697.519 6  -2742401.867 6  -2090768.37949  22033693.87449
  20589996.378 7  -1069720.625 7   -824944.87549  20589996.39049
  23213168.003 5   -910320.742 5   -692278.05948  23213167.12448
  20267739.683 6  -2150180.273 6  -1642844.36348  20267736.08948
  22912341.378 5   -934435.551 5   -712833.16046  22912338.31946
 20  5 16  3 21 43.9990000  0  6G01G07G08G09G11G16                   0.000417879
  22011222.917 6  -3001837.809 6  -2299961.34849  22011224.66349
  22032433.151 6  -2749050.090 6  -2095948.81649  22032428.92949
  20589516.206 7  -1072243.125 7   -826910.45749  20589516.42149
  23212756.058 5   -912488.625 5   -693967.32048  23212754.79248
  20266769.019 6  -2155280.070 6  -1646818.22748  20266765.23748
  22911901.714 5   -936741.898 5   -714630.32446  22911899.94446
 20  5 16  3 21 44.9990000  0  6G01G07G08G09G11G16                   0.000415426
  22009850.792 6  -3009049.895 6  -2305581.14849  22009852.03449
  22031167.839 6  -2755697.926 6  -2101128.95349  22031163.80849
  20589036.339 7  -1074765.305 7   -828875.78949  20589036.18349
  23212343.464 5   -914656.141 5   -695656.29348  23212342.46448
  20265798.573 6  -2160379.242 6  -1650791.60948  20265794.76548
  22911462.589 4   -939048.020 4   -716427.31346  22911460.93746
 20  5 16  3 21 45.9990000  0  6G01G07G08G09G11G16                   0.000412975
  22008478.222 6  -3016261.414 6  -2311200.51249  22008479.71049
  22029902.659 6  -2762345.148 6  -2106308.60549  22029898.41749
  20588556.495 7  -1077286.902 7   -830840.67249  20588556.81949
  23211930.964 5   -916823.109 5   -697344.84048  23211930.16348
  20264828.253 6  -2165477.633 6  -1654764.37148  20264825.01148
  22911024.128 4   -941353.828 4   -718224.04746  22911022.05446
 20  5 16  3 21 46.9990000  0  6G01G07G08G09G11G16                   0.000410524
  22007106.089 6  -3023472.633 6  -2316819.64149  22007107.32749
  22028638.245 6  -2768992.035 6  -2111488.00449  22028633.56549
  20588076.878 7  -1079808.270 7   -832805.37149  20588077.01149
  23211518.495 5   -918989.785 5   -699033.16448  23211517.44448
  20263858.175 6  -2170575.441 6  -1658736.69548  20263854.72648
  22910585.464 4   -943659.574 4   -720020.71946  22910583.02246
 20  5 16  3 21 47.9990000  0  6G01G07G08G09G11G16                   0.000408073
  22005734.011 6  -3030683.359 6  -2322438.39149  22005734.97649
  22027372.823 6  -2775638.367 6  -2116666.95749  22027369.20249
  20587596.894 7  -1082329.102 7   -834769.65649  20587596.94449
  23211106.128 5   -921155.965 5   -700721.10948  23211105.84348
  20262888.511 6  -2175672.504 6  -1662708.43048  20262884.89748
  22910147.370 5   -945964.949 5   -721817.12546  22910144.74146
 20  5 16  3 21 48.9990000  0  6G01G07G08G09G11G16                   0.000405622
  22004361.940 6  -3037893.555 6  -2328056.72349  22004362.86249
  22026108.909 6  -2782284.152 6  -2121845.49649  22026104.64749
  20587117.417 7  -1084849.473 7   -836733.58249  20587117.59749
  23210693.597 5   -923321.664 5   -702408.66448  23210693.51148
  20261918.487 6  -2180768.793 6  -1666679.55948  20261915.14448
  22909708.472 5   -948270.078 5   -723613.33646  22909705.88246
 20  5 16  3 21 49.9990000  0  6G01G07G08G09G11G16                   0.000403172
  22002989.855 6  -3045103.438 6  -2333674.80549  22002990.91749
  22024843.730 6  -2788929.563 6  -2127023.74249  22024839.76949
  20586637.722 7  -1087369.500 7   -838697.23449  20586637.49949
  23210282.222 5   -925487.051 5   -704095.97348  23210281.39048
  20260948.526 6  -2185864.469 6  -1670650.21548  20260945.65548
  22909269.355 4   -950575.039 4   -725409.41446  22909267.20646
 20  5 16  3 21 50.9990000  0  6G01G07G08G09G11G16                   0.000400721
  22001617.526 6  -3052312.895 6  -2339292.56349  22001618.75749
  22023579.605 6  -2795574.488 6  -2132201.61749  22023575.42949
  20586158.472 7  -1089889.109 7   -840660.57049  20586158.46049
  23209869.683 5   -927651.984 5   -705782.92648  23209869.65948
  20259979.409 6  -2190959.477 6  -1674620.35548  20259975.96048
  22908831.058 5   -952879.762 5   -727205.30546  22908828.81546
 20  5 16  3 21 51.9990000  0  6G01G07G08G09G11G16                   0.000398270
  22000246.401 6  -3059521.871 6  -2344909.94549  22000246.94849
  22022315.065 6  -2802218.938 6  -2137379.09849  22022311.14049
  20585679.058 7  -1092408.309 7   -842623.58249  20585679.12449
  23209457.370 5   -929816.496 5   -707469.55948  23209457.51148
  20259009.964 6  -2196053.773 6  -1678589.93448  20259006.44048
  22908392.815 5   -955184.270 5   -729001.02346  22908389.85146
 20  5 16  3 21 52.9990000  0  6G01G07G08G09G11G16                   0.000395819
  21998874.284 6  -3066730.660 6  -2350527.18849  21998875.34349
  22021050.730 6  -2808863.090 6  -2142556.35549  22021046.68749
  20585199.878 7  -1094927.270 7   -844586.41049  20585199.36249
  23209045.925 5   -931980.777 5   -709156.01248  23209045.98348
  20258040.409 6  -2201147.574 6  -1682559.12948  20258037.23348
  22907953.487 5   -957488.723 5   -730796.69546  22907951.70646
 20  5 16  3 21 53.9990000  0  6G01G07G08G09G11G16                   0.000393368
  21997502.847 6  -3073939.016 6  -2356144.08249  21997503.61649
  22019786.245 6  -2815506.852 6  -2147733.30949  22019782.10849
  20584720.362 7  -1097445.859 7   -846548.94549  20584720.72249
  23208634.300 5   -934144.672 5   -710842.16448  23208634.25348
  20257071.112 6  -2206240.727 6  -1686527.81648  20257067.98748
  22907515.433 5   -959793.008 5   -732592.23446  22907512.86246
 20  5 16  3 21 54.9990000  0  6G01G07G08G09G11G16                   0.000390917
  21996130.870 6  -3081146.906 6  -2361760.62149  21996131.63649
  22018522.370 6  -2822150.031 6  -2152909.81649  22018518.35549
  20584241.503 7  -1099963.969 7   -848511.10949  20584241.25349
  23208222.253 5   -936308.105 5   -712527.96148  23208222.58548
  20256101.792 6  -2211333.160 6  -1690495.94548  20256099.01548
  22907077.042 5   -962096.996 5   -734387.54346  22907074.90546
 20  5 16  3 21 55.9990000  0  6G01G07G08G09G11G16                   0.000388504
  21994759.284 6  -3088354.551 6  -2367376.95749  21994760.32349
  22017257.948 6  -2828792.953 6  -2158086.11749  22017254.33549
  20583761.823 7  -1102481.875 7   -850473.10949  20583762.26149
  23207810.355 5   -938471.320 5   -714213.58248  23207811.10848
  20255133.214 6  -2216425.047 6  -1694463.64848  20255130.17548
  22906638.480 5   -964400.941 5   -736182.84046  22906636.21846
 20  5 16  3 21 56.9990000  0  6G01G07G08G09G11G16                   0.000386053
  21993387.878 6  -3095561.902 6  -2372993.08249  21993388.92949
  22015994.386 6  -2835435.531 6  -2163262.15249  22015990.17949
  20583283.183 7  -1104999.516 7   -852434.91849  20583282.83549
  23207399.245 5   -940634.254 5   -715898.98048  23207399.33148
  20254164.401 6  -2221516.418 6  -1698430.94948  20254160.99548
  22906200.409 5   -966704.828 5   -737978.07846  22906197.85546
 20  5 16  3 21 57.9990000  0  6G01G07G08G09G11G16                   0.000383602
  21992016.440 6  -3102768.875 6  -2378608.90249  21992017.58549
  22014730.292 6  -2842077.695 6  -2168437.87149  22014726.26549
  20582804.362 7  -1107516.809 7   -854396.44149  20582804.29649
  23206987.323 5   -942796.820 5   -717584.09848  23206987.67548
  20253195.565 6  -2226607.168 6  -1702397.77348  20253192.29648
  22905761.683 5   -969008.531 5   -739773.16846  22905759.62046
 20  5 16  3 21 58.9990000  0  6G01G07G08G09G11G16                   0.000381151
  21990644.964 6  -3109975.320 6  -2384224.31349  21990645.88649
  22013466.089 6  -2848719.293 6  -2173613.14549  22013462.40949
  20582324.855 7  -1110033.559 7   -856357.54749  20582325.43349
  23206576.339 5   -944958.863 5   -719268.81648  23206576.33548
  20252227.480 6  -2231697.109 6  -1706363.95748  20252224.02248
  22905323.605 5   -971311.902 5   -741568.00046  22905321.24546
 20  5 16  3 21 59.9990000  0  6G01G07G08G09G11G16                   0.000378700
  21989273.605 6  -3117181.504 6  -2389839.51249  21989274.87449
  22012202.558 6  -2855360.574 6  -2178788.17249  22012198.58149
  20581846.292 7  -1112550.074 7   -858318.46949  20581846.29249
  23206164.480 5   -947120.633 5   -720953.30948  23206164.65548
  20251258.636 6  -2236786.543 6  -1710329.75448  20251255.14048
  22904884.769 4   -973615.203 4   -743362.78146  22904882.71846
 20  5 16  3 22  0.9990000  0  6G01G07G08G09G11G16                   0.000376251
  21987902.675 6  -3124387.285 6  -2395454.40649  21987903.46849
  22010938.698 6  -2862001.418 6  -2183962.85549  22010935.17549
  20581367.120 7  -1115066.211 7   -860279.09849  20581366.92149
  23205753.745 5   -949282.031 5   -722637.51648  23205753.72648
  20250290.183 6  -2241875.289 6  -1714295.00848  20250286.82748
  22904446.886 4   -975918.320 4   -745157.41846  22904444.60546
 20  5 16  3 22  1.9990000  0  6G01G07G08G09G11G16                   0.000373762
  21986531.511 6  -3131592.629 6  -2401068.95349  21986532.19849
  22009675.167 6  -2868641.770 6  -2189137.15649  22009671.39049
  20580888.839 7  -1117581.918 7   -862239.39149  20580888.72249
  23205342.159 5   -951443.004 5   -724321.38748  23205342.60848
  20249322.214 6  -2246963.367 6  -1718259.74648  20249318.50348
  22904008.581 4   -978221.211 4   -746951.87546  22904006.45246
 20  5 16  3 22  2.9990000  0  6G01G07G08G09G11G16                   0.000371311
  21985160.565 6  -3138797.512 6  -2406683.14549  21985160.97249
  22008411.409 6  -2875281.629 6  -2194311.07449  22008407.81549
  20580409.909 7  -1120097.223 7   -864199.36349  20580410.11249
  23204930.284 5   -953603.547 5   -726004.93848  23204931.02248
  20248353.980 6  -2252050.758 6  -1722223.94548  20248351.10148
  22903570.159 4   -980523.852 4   -748746.14146  22903568.06946
 20  5 16  3 22  3.9990000  0  6G01G07G08G09G11G16                   0.000368860
  21983789.503 6  -3146002.066 6  -2412297.08249  21983789.99949
  22007147.784 6  -2881921.094 6  -2199484.67649  22007144.70649
  20579931.597 7  -1122612.160 7   -866159.05549  20579931.42149
  23204520.050 5   -955763.754 5   -727688.23848  23204520.08948
  20247385.667 6  -2257137.512 6  -1726187.64848  20247382.83548
  22903132.503 5   -982826.309 5   -750540.25046  22903129.94446
 20  5 16  3 22  4.9990000  0  6G01G07G08G09G11G16                   0.000366411
  21982418.745 6  -3153206.098 6  -2417910.60949  21982419.12049
  22005884.698 6  -2888560.004 6  -2204657.85249  22005881.36249
  20579452.534 7  -1125126.637 7   -868118.38749  20579452.88249
  23204108.605 5   -957923.477 5   -729371.12148  23204109.28848
  20246418.050 6  -2262223.508 6  -1730150.77048  20246414.95648
  22902693.940 5   -985128.504 5   -752334.16846  22902692.07746
 20  5 16  3 22  5.9990000  0  6G01G07G08G09G11G16                   0.000363960
  21981048.011 6  -3160409.711 6  -2423523.81649  21981048.23349
  22004621.542 6  -2895198.457 6  -2209830.66849  22004618.06549
  20578974.511 7  -1127640.695 7   -870077.40249  20578974.20249
  23203697.378 5   -960082.766 5   -731053.69148  23203698.49548
  20245449.987 6  -2267308.824 6  -1734113.34848  20245447.05848
  22902256.331 5   -987430.477 5   -754127.91446  22902253.89746
 20  5 16  3 22  6.9990000  0  6G01G07G08G09G11G16                   0.000361511
  21979677.472 6  -3167612.957 6  -2429136.73449  21979677.58149
  22003358.237 6  -2901836.516 6  -2215003.18049  22003355.15949
  20578495.956 7  -1130154.441 7   -872036.16049  20578495.87049
  23203287.300 5   -962241.766 5   -732736.04348  23203287.85548
  20244482.659 6  -2272393.539 6  -1738075.46548  20244479.52248
  22901818.394 5   -989732.320 5   -755921.56346  22901815.98046
 20  5 16  3 22  7.9990000  0  6G01G07G08G09G11G16                   0.000359060
  21978306.370 6  -3174815.777 6  -2434749.32049  21978306.54249
  22002094.659 6  -2908474.066 6  -2220175.30549  22002092.29649
  20578018.136 7  -1132667.746 7   -873994.58649  20578017.51549
  23202876.526 5   -964400.273 5   -734417.99248  23202876.60148
  20243514.886 6  -2277477.527 6  -1742037.01248  20243511.93748
  22901380.089 5   -992033.914 5   -757715.02046  22901377.80846
 20  5 16  3 22  8.9990000  0  6G01G07G08G09G11G16                   0.000356609
  21976936.073 6  -3182018.152 6  -2440361.55549  21976936.21849
  22000832.237 6  -2915111.172 6  -2225347.06649  22000828.95649
  20577539.815 7  -1135180.664 7   -875952.70349  20577539.48349
  23202466.019 5   -966558.391 5   -736099.63748  23202466.19848
  20242547.909 6  -2282560.852 6  -1745998.05148  20242544.61648
  22900942.315 5   -994335.238 5   -759508.26246  22900939.69046
 20  5 16  3 22  9.9990000  0  6G01G07G08G09G11G16                   0.000354160
  21975565.534 6  -3189220.039 6  -2445973.41049  21975566.06549
  21999569.323 6  -2921747.727 6  -2230518.41449  21999566.14049
  20577061.472 7  -1137693.102 7   -877910.44149  20577061.24949
  23202054.745 5   -968716.031 5   -737780.91448  23202055.71848
  20241580.659 6  -2287643.414 6  -1749958.48848  20241577.06548
  22900504.464 5   -996636.309 5   -761301.31646  22900501.85546
 20  5 16  3 22 10.9990000  0  6G01G07G08G09G11G16                   0.000351711
  21974195.151 6  -3196421.563 6  -2451584.98849  21974195.13649
  21998306.167 6  -2928383.871 6  -2235689.43449  21998303.82749
  20576583.589 7  -1140205.223 7   -879867.94149  20576583.27249
  23201644.355 5   -970873.328 5   -739461.92648  23201645.48048
  20240613.667 6  -2292725.352 6  -1753918.44148  20240610.64448
  22900066.378 5   -998937.203 5   -763094.23046  22900063.66346
 20  5 16  3 22 11.9990000  0  6G01G07G08G09G11G16                   0.000349260
  21972824.800 6  -3203622.785 6  -2457196.32449  21972824.98049
  21997043.636 6  -2935019.672 6  -2240860.18849  21997040.49149
  20576105.698 7  -1142717.066 7   -881825.22749  20576105.64749
  23201234.284 5   -973030.328 5   -741142.71148  23201234.96848
  20239646.878 6  -2297806.762 6  -1757877.98048  20239643.74948
  22899628.706 5  -1001237.976 5   -764887.02646  22899626.25746
 20  5 16  3 22 12.9990000  0  6G01G07G08G09G11G16                   0.000346811
  21971454.589 6  -3210823.648 6  -2462807.38749  21971454.78449
  21995781.253 6  -2941655.102 6  -2246030.64549  21995778.44449
  20575627.815 7  -1145228.563 7   -883782.23449  20575627.57749
  23200823.573 5   -975187.020 5   -742823.25848  23200824.21848
  20238680.167 6  -2302887.555 6  -1761837.03548  20238676.70648
  22899190.706 5  -1003538.676 5   -766679.76246  22899188.60146
 20  5 16  3 22 13.9990000  0  6G01G07G08G09G11G16                   0.000344360
  21970084.206 6  -3218024.070 6  -2468418.10249  21970084.27249
  21994517.800 6  -2948289.992 6  -2251200.69149  21994515.41349
  20575149.823 7  -1147739.629 7   -885738.90649  20575149.81949
  23200413.097 5   -977343.227 5   -744503.42648  23200413.82748
  20237713.089 6  -2307967.613 6  -1765795.52748  20237710.02648
  22898752.808 5  -1005839.051 5   -768472.26246  22898750.98746
 20  5 16  3 22 14.9990000  0  6G01G07G08G09G11G16                   0.000341911
  21968714.245 6  -3225224.078 6  -2474028.49649  21968714.13249
  21993255.870 6  -2954924.445 6  -2256370.39849  21993252.58549
  20574672.144 7  -1150250.266 7   -887695.25449  20574671.90949
  23200002.948 5   -979499.066 5   -746183.30148  23200003.99548
  20236746.378 6  -2313047.012 6  -1769753.49648  20236743.40148
  22898315.433 5  -1008139.281 5   -770264.64546  22898312.91346
 20  5 16  3 22 15.9990000  0  6G01G07G08G09G11G16                   0.000339462
  21967344.097 6  -3232423.637 6  -2479638.53549  21967344.44049
  21991993.355 6  -2961558.426 6  -2261539.73449  21991990.46449
  20574194.331 7  -1152760.512 7   -889651.28549  20574194.08149
  23199592.589 5   -981654.480 5   -747862.84848  23199593.91348
  20235780.112 6  -2318125.707 6  -1773710.92648  20235777.03048
  22897878.167 5  -1010439.234 5   -772056.82446  22897875.08546
 20  5 16  3 22 16.9990000  0  6G01G07G08G09G11G16                   0.000337013
  21965974.237 6  -3239622.766 6  -2485248.24249  21965974.12849
  21990730.815 6  -2968191.945 6  -2266708.70749  21990728.58949
  20573716.659 7  -1155270.340 7   -891606.98849  20573716.39449
  23199182.761 5   -983809.449 5   -749542.04748  23199183.81948
  20234814.175 6  -2323203.766 6  -1777667.85548  20234810.96048
  22897439.956 5  -1012738.973 5   -773848.84446  22897437.90146
 20  5 16  3 22 17.9990000  0  6G01G07G08G09G11G16                   0.000334564
  21964604.378 6  -3246821.574 6  -2490857.70749  21964604.70649
  21989468.847 6  -2974825.082 6  -2271877.38349  21989466.11649
  20573239.347 7  -1157779.859 7   -893562.46149  20573239.00749
  23198772.995 5   -985964.164 5   -751221.05148  23198773.58148
  20233847.386 6  -2328281.219 6  -1781624.30948  20233844.42548
  22897001.909 5  -1015038.617 5   -775640.80546  22897000.39046
 20  5 16  3 22 18.9990000  0  6G01G07G08G09G11G16                   0.000332113
  21963234.769 6  -3254019.953 6  -2496466.82849  21963234.69449
  21988206.245 6  -2981457.750 6  -2277045.69149  21988203.58949
  20572761.870 7  -1160288.957 7   -895517.60249  20572761.31949
  23198363.019 5   -988118.430 5   -752899.70348  23198363.94448
  20232881.948 6  -2333357.965 6  -1785580.21948  20232878.55048
  22896564.503 5  -1017338.016 5   -777432.53546  22896562.11246
 20  5 16  3 22 19.9990000  0  6G01G07G08G09G11G16                   0.000329664
  21961864.870 6  -3261217.883 6  -2502075.60549  21961865.07349
  21986944.214 6  -2988089.914 6  -2282213.60949  21986941.74149
  20572284.542 7  -1162797.660 7   -897472.43449  20572284.07349
  23197952.800 5   -990272.313 5   -754578.05148  23197953.55448
  20231915.753 6  -2338434.023 6  -1789535.59048  20231912.48348
  22896126.909 5  -1019637.168 5   -779224.07846  22896124.87046
 20  5 16  3 22 20.9990000  0  6G01G07G08G09G11G16                   0.000327215
  21960494.808 6  -3268415.461 6  -2507684.10249  21960495.24549
  21985682.230 6  -2994721.688 6  -2287381.22749  21985679.93749
  20571807.198 7  -1165306.023 7   -899427.00849  20571806.70649
  23197542.933 5   -992425.785 5   -756256.09048  23197544.21848
  20230950.269 6  -2343509.441 6  -1793490.46548  20230947.17548
  22895690.011 5  -1021936.188 5   -781015.52046  22895687.26946
 20  5 16  3 22 21.9990000  0  6G01G07G08G09G11G16                   0.000324766
  21959125.214 6  -3275612.652 6  -2513292.29749  21959125.84349
  21984420.487 6  -3001353.074 6  -2292548.53549  21984417.98049
  20571329.980 7  -1167814.063 7   -901381.32449  20571329.53449
  23197133.534 5   -994578.945 5   -757933.87948  23197134.15948
  20229983.987 6  -2348584.309 6  -1797444.89848  20229981.07748
  22895253.050 5  -1024235.055 5   -782806.84846  22895249.70246
 20  5 16  3 22 22.9990000  0  6G01G07G08G09G11G16                   0.000322317
  21957756.144 6  -3282809.301 6  -2518900.07449  21957756.08149
  21983158.722 6  -3007983.820 6  -2297715.35249  21983156.13249
  20570852.698 7  -1170321.527 7   -903335.19549  20570852.58949
  23196724.269 5   -996731.559 5   -759611.24648  23196724.81548
  20229018.519 6  -2353658.305 6  -1801398.66048  20229015.67548
  22894815.308 5  -1026533.559 5   -784597.87946  22894812.42546
 20  5 16  3 22 23.9990000  0  6G01G07G08G09G11G16                   0.000319868
  21956386.605 6  -3290005.594 6  -2524507.57449  21956387.04649
  21981897.448 6  -3014614.164 6  -2302881.85249  21981894.49549
  20570375.808 7  -1172828.680 7   -905288.82449  20570375.24549
  23196314.581 5   -998883.832 5   -761288.34848  23196315.17948
  20228053.003 6  -2358731.676 6  -1805351.94148  20228049.92148
  22894377.925 5  -1028831.895 5   -786388.78946  22894375.26546
 20  5 16  3 22 24.9990000  0  6G01G07G08G09G11G16                   0.000317419
  21955017.237 6  -3297201.570 6  -2530114.82449  21955017.59349
  21980635.355 6  -3021244.180 6  -2308048.09849  21980632.90949
  20569898.487 7  -1175335.570 7   -907242.24649  20569898.57349
  23195904.667 5  -1001035.855 5   -762965.25448  23195905.45648
  20227088.058 6  -2363804.523 6  -1809304.80948  20227085.28448
  22893940.440 5  -1031130.141 5   -788179.63746  22893937.55046
 20  5 16  3 22 25.9990000  0  6G01G07G08G09G11G16                   0.000314970
  21953647.550 6  -3304397.270 6  -2535721.85949  21953648.30049
  21979373.870 6  -3027873.859 6  -2313214.08249  21979371.07349
  20569421.651 7  -1177842.172 7   -909195.44149  20569421.56249
  23195495.050 5  -1003187.563 5   -764641.91048  23195495.83148
  20226122.909 6  -2368876.793 6  -1813257.23448  20226119.65148
  22893503.378 5  -1033428.332 5   -789970.44546  22893500.10546
 20  5 16  3 22 26.9990000  0  6G01G07G08G09G11G16                   0.000312521
  21952278.855 6  -3311592.367 6  -2541328.42249  21952279.42949
  21978112.605 6  -3034502.922 6  -2318379.58249  21978109.54249
  20568944.644 7  -1180348.223 7   -911148.20349  20568944.27249
  23195085.714 5  -1005338.727 5   -766318.14548  23195086.48748
  20225157.409 6  -2373948.270 6  -1817209.03148  20225154.56948
  22893066.128 5  -1035726.136 5   -791760.94246  22893062.76546
 20  5 16  3 22 27.9990000  0  6G01G07G08G09G11G16                   0.000310074
  21950909.425 6  -3318786.941 6  -2546934.59449  21950910.34349
  21976850.690 6  -3041131.379 6  -2323544.61349  21976848.61649
  20568468.034 7  -1182853.758 7   -913100.57049  20568467.51949
  23194676.792 5  -1007489.371 5   -767993.97348  23194677.16348
  20224192.628 6  -2379018.918 6  -1821160.18448  20224189.62848
  22892628.698 5  -1038023.574 5   -793551.15646  22892625.93746
 20  5 16  3 22 28.9990000  0  6G01G07G08G09G11G16                   0.000307625
  21949540.042 6  -3325981.121 6  -2552540.44549  21949541.25749
  21975589.761 6  -3047759.430 6  -2328709.32849  21975587.11249
  20567991.245 7  -1185358.938 7   -915052.65249  20567991.27249
  23194267.237 5  -1009639.664 5   -769669.52748  23194267.85148
  20223227.933 6  -2384088.930 6  -1825110.84848  20223225.05448
  22892192.034 5  -1040320.852 5   -795341.23846  22892188.69446
 20  5 16  3 22 29.9990000  0  6G01G07G08G09G11G16                   0.000305176
  21948171.526 6  -3333174.930 6  -2558146.00449  21948172.65549
  21974328.253 6  -3054387.078 6  -2333873.73449  21974325.84749
  20567514.276 7  -1187863.750 7   -917004.46149  20567514.01549
  23193858.980 5  -1011789.586 5   -771344.78548  23193858.89748
  20222263.003 6  -2389158.336 6  -1829061.03548  20222260.18748
  22891754.901 5  -1042617.973 5   -797131.19146  22891751.71846
 20  5 16  3 22 30.9990000  0  6G01G07G08G09G11G16                   0.000302727
  21946802.667 6  -3340368.305 6  -2563751.23449  21946803.68749
  21973067.144 6  -3061014.207 6  -2339037.72749  21973065.30849
  20567037.839 7  -1190368.137 7   -918955.92649  20567037.60849
  23193449.948 5  -1013939.047 5   -773019.69148  23193449.78448
  20221298.519 6  -2394227.035 6  -1833010.66448  20221295.51548
  22891317.909 5  -1044914.859 5   -798920.97746  22891314.25746
 20  5 16  3 22 31.9990000  0  6G01G07G08G09G11G16                   0.000300280
  21945433.628 6  -3347561.285 6  -2569356.14849  21945434.89749
  21971806.448 6  -3067640.930 6  -2344201.40649  21971803.85849
  20566561.370 7  -1192872.160 7   -920907.11749  20566561.16349
  23193040.222 5  -1016088.211 5   -774694.37148  23193040.48348
  20220334.651 6  -2399295.090 6  -1836959.80148  20220331.44848
  22890880.847 5  -1047211.551 5   -800710.61346  22890877.40546
 20  5 16  3 22 32.9990000  0  6G01G07G08G09G11G16                   0.000297831
  21944065.214 6  -3354753.887 6  -2574960.76649  21944066.73049
  21970545.073 6  -3074267.215 6  -2349364.74649  21970542.78049
  20566085.011 7  -1195375.848 7   -922858.04349  20566084.67549
  23192631.167 5  -1018237.000 5   -776368.75448  23192631.48348
  20219370.355 6  -2404362.523 6  -1840908.45348  20219367.34348
  22890443.651 5  -1049508.109 5   -802500.13746  22890440.47246
 20  5 16  3 22 33.9990000  0  6G01G07G08G09G11G16                   0.000295382
  21942696.417 6  -3361946.027 6  -2580565.03149  21942697.62849
  21969284.550 6  -3080893.016 6  -2354527.70349  21969281.97249
  20565608.456 7  -1197879.125 7   -924808.65249  20565608.13649
  23192222.605 5  -1020385.328 5   -778042.77348  23192222.62848
  20218405.651 6  -2409429.254 6  -1844856.55548  20218402.73348
  22890006.284 5  -1051804.391 5   -804289.46546  22890003.19446
 20  5 16  3 22 34.9990000  0  6G01G07G08G09G11G16                   0.000292934
  21941327.855 6  -3369137.727 6  -2586168.95749  21941329.17149
  21968023.776 6  -3087518.305 6  -2359690.26649  21968021.20249
  20565132.347 7  -1200381.949 7   -926758.90249  20565132.27649
  23191814.034 5  -1022533.242 5   -779716.47748  23191814.12448
  20217441.901 6  -2414495.262 6  -1848804.09048  20217438.70248
  22889569.573 5  -1054100.445 5   -806078.60546  22889566.41346
 20  5 16  3 22 35.9990000  0  6G01G07G08G09G11G16                   0.000290485
  21939959.417 6  -3376329.066 6  -2591772.59449  21939960.55449
  21966762.925 6  -3094143.211 6  -2364852.53149  21966760.96449
  20564656.315 7  -1202884.480 7   -928708.92249  20564656.06549
  23191405.214 5  -1024680.848 5   -781389.93848  23191405.37848
  20216478.011 6  -2419560.668 6  -1852751.16448  20216475.02248
  22889132.878 5  -1056396.332 5   -807867.59846  22889129.54246
 20  5 16  3 22 36.9990000  0  6G01G07G08G09G11G16                   0.000288038
  21938590.722 6  -3383519.871 6  -2597375.81349  21938592.65549
  21965501.815 6  -3100767.520 6  -2370014.32849  21965500.08549
  20564179.722 7  -1205386.473 7   -930658.52749  20564179.32749
  23190996.948 5  -1026827.891 5   -783062.96148  23190996.99948
  20215513.956 6  -2424625.293 6  -1856697.62548  20215510.89048
  22888695.862 5  -1058691.891 5   -809656.34446  22888692.81546
 20  5 16  3 22 37.9990000  0  6G01G07G08G09G11G16                   0.000285591
  21937222.894 6  -3390710.285 6  -2602978.73449  21937223.97649
  21964241.948 6  -3107391.398 6  -2375175.79349  21964239.67149
  20563704.058 7  -1207888.125 7   -932607.86749  20563703.85849
  23190588.237 5  -1028974.574 5   -784735.69948  23190588.23748
  20214550.855 6  -2429689.258 6  -1860643.57448  20214547.56948
  22888258.644 5  -1060987.314 5   -811444.98546  22888256.28846
 20  5 16  3 22 38.9990000  0  6G01G07G08G09G11G16                   0.000283142
  21935854.659 6  -3397900.180 6  -2608581.24649  21935856.01549
  21962981.573 6  -3114014.727 6  -2380336.82449  21962978.91349
  20563228.065 7  -1210389.258 7   -934556.80949  20563227.71449
  23190180.237 5  -1031120.758 5   -786408.05548  23190179.50348
  20213586.823 6  -2434752.457 6  -1864588.92648  20213584.15948
  22887822.362 5  -1063282.352 5   -813233.32446  22887818.95246
 20  5 16  3 22 39.9990000  0  6G01G07G08G09G11G16                   0.000280695
  21934486.503 6  -3405089.637 6  -2614183.42249  21934487.52249
  21961721.284 6  -3120637.574 6  -2385497.48849  21961718.65549
  20562751.948 7  -1212890.000 7   -936505.43449  20562751.74549
  23189771.784 5  -1033266.555 5   -788080.10948  23189771.53048
  20212623.753 6  -2439814.973 6  -1868533.73848  20212620.48748
  22887385.800 5  -1065577.180 5   -815021.50846  22887382.77246
 20  5 16  3 22 40.9990000  0  6G01G07G08G09G11G16                   0.000278248
  21933118.667 6  -3412278.652 6  -2619785.25049  21933119.78049
  21960460.948 6  -3127259.922 6  -2390657.75449  21960458.73349
  20562276.151 7  -1215390.313 7   -938453.73049  20562275.98749
  23189363.870 5  -1035411.922 5   -789751.82048  23189362.96048
  20211660.370 6  -2444876.793 6  -1872478.02048  20211657.49548
  22886949.386 5  -1067871.813 5   -816809.55146  22886945.90946
 20  5 16  3 22 41.9990000  0  6G01G07G08G09G11G16                   0.000275799
  21931750.300 6  -3419467.191 6  -2625386.71149  21931751.83549
  21959200.714 6  -3133881.750 6  -2395817.62149  21959198.62849
  20561800.815 7  -1217890.172 7   -940401.67249  20561800.46449
  23188956.003 5  -1037556.801 5   -791423.15648  23188955.05848
  20210697.644 6  -2449937.871 6  -1876421.71148  20210694.45648
  22886512.237 5  -1070166.141 5   -818597.33646  22886509.20246
 20  5 16  3 22 42.9990000  0  6G01G07G08G09G11G16                   0.000273352
  21930382.808 6  -3426655.152 6  -2630987.71149  21930384.07349
  21957940.862 6  -3140502.980 6  -2400977.02349  21957938.56949
  20561325.034 7  -1220389.484 7   -942349.19149  20561324.78849
  23188546.964 5  -1039701.176 5   -793094.10248  23188546.81948
  20209734.480 6  -2454998.152 6  -1880364.78948  20209731.77648
  22886075.464 5  -1072460.125 5   -820384.85246  22886072.56246
 20  5 16  3 22 43.9990000  0  6G01G07G08G09G11G16                   0.000270905
  21929014.690 6  -3433842.844 6  -2636588.50849  21929016.03449
  21956681.292 6  -3147123.871 6  -2406136.16049  21956678.81249
  20560849.448 7  -1222888.555 7   -944296.51249  20560849.46049
  23188139.847 5  -1041845.281 5   -794764.83648  23188138.89448
  20208771.464 6  -2460057.879 6  -1884307.43048  20208768.33148
  22885639.683 5  -1074754.023 5   -822172.31346  22885635.94846
 20  5 16  3 22 44.9990000  0  6G01G07G08G09G11G16                   0.000268457
  21927646.855 6  -3441029.938 6  -2642188.84849  21927648.68349
  21955421.347 6  -3153744.137 6  -2411294.81349  21955418.96049
  20560374.034 7  -1225387.055 7   -946243.39549  20560373.80849
  23187731.917 5  -1043988.801 5   -796435.10548  23187730.87848
  20207808.980 6  -2465116.777 6  -1888249.42648  20207805.95248
  22885202.847 5  -1077047.563 5   -823959.46946  22885199.43346
 20  5 16  3 22 45.9990000  0  6G01G07G08G09G11G16                   0.000266010
  21926279.464 6  -3448216.574 6  -2647788.82049  21926280.89449
  21954161.276 6  -3160363.922 6  -2416453.08649  21954159.12049
  20559898.534 7  -1227885.164 7   -948189.97349  20559898.44449
  23187323.628 5  -1046131.895 5   -798105.05148  23187322.70248
  20206846.565 6  -2470174.949 6  -1892190.85948  20206843.23048
  22884766.886 5  -1079340.844 5   -825746.43046  22884763.26946
 20  5 16  3 22 46.9990000  0  6G01G07G08G09G11G16                   0.000263563
  21924912.331 6  -3455402.734 6  -2653388.43049  21924913.56949
  21952902.151 6  -3166983.180 6  -2421610.94949  21952899.83149
  20559423.401 7  -1230382.816 7   -950136.19949  20559423.17149
  23186916.573 5  -1048274.559 5   -799774.66448  23186915.66748
  20205884.065 6  -2475232.398 6  -1896131.73448  20205880.67948
  22884330.175 5  -1081633.824 5   -827533.16846  22884326.90946
 20  5 16  3 22 47.9990000  0  6G01G07G08G09G11G16                   0.000261118
  21923544.581 6  -3462588.566 6  -2658987.77349  21923546.31249
  21951642.706 6  -3173602.035 6  -2426768.50049  21951640.19049
  20558948.089 7  -1232880.133 7   -952082.16049  20558948.05049
  23186508.495 5  -1050416.891 5   -801444.02048  23186507.74148
  20204921.886 6  -2480289.273 6  -1900072.16048  20204918.84748
  22883893.847 5  -1083926.730 5   -829319.85946  22883890.81946
 20  5 16  3 22 48.9990000  0  6G01G07G08G09G11G16                   0.000258671
  21922177.878 6  -3469773.902 6  -2664586.73849  21922179.52249
  21950382.886 6  -3180220.359 6  -2431925.63749  21950380.46849
  20558472.784 7  -1235376.988 7   -954027.76249  20558472.91749
  23186101.315 5  -1052558.766 5   -803113.02348  23186099.95648
  20203959.667 6  -2485345.371 6  -1904011.97748  20203956.94848
  22883457.667 5  -1086219.309 5   -831106.28946  22883454.49946
 20  5 16  3 22 49.9990000  0  6G01G07G08G09G11G16                   0.000256224
  21920810.378 6  -3476958.766 6  -2670185.32849  21920811.84749
  21949123.581 6  -3186838.195 6  -2437082.39549  21949121.43349
  20557997.980 7  -1237873.449 7   -955973.05149  20557997.63649
  23185693.269 5  -1054700.188 5   -804781.66048  23185692.41748
  20202998.034 6  -2490400.785 6  -1907951.25848  20202994.80448
  22883021.456 5  -1088511.656 5   -832892.54346  22883017.95646
 20  5 16  3 22 50.9990000  0  6G01G07G08G09G11G16                   0.000253777
  21919442.933 6  -3484143.164 6  -2675783.56349  21919444.33549
  21947864.245 6  -3193455.520 6  -2442238.75449  21947862.16349
  20557523.050 7  -1240369.441 7   -957917.98049  20557522.93349
  23185286.362 5  -1056841.191 5   -806449.96948  23185285.15548
  20202036.019 6  -2495455.461 6  -1911889.96148  20202032.85848
  22882585.714 5  -1090803.742 5   -834678.58646  22882581.67946
 20  5 16  3 22 51.9990000  0  6G01G07G08G09G11G16                   0.000251329
  21918075.628 6  -3491327.195 6  -2681381.50849  21918077.81249
  21946605.112 6  -3200072.430 6  -2447394.78949  21946602.91749
  20557047.808 7  -1242865.090 7   -959862.64549  20557047.83949
  23184878.847 5  -1058981.816 5   -808117.99248  23184877.30448
  20201073.956 6  -2500509.512 6  -1915828.18448  20201071.10848
  22882148.995 5  -1093095.680 5   -836464.51646  22882145.40146
 20  5 16  3 22 52.9990000  0  6G01G07G08G09G11G16                   0.000248884
  21916708.612 6  -3498510.887 6  -2686979.18449  21916710.41749
  21945346.198 6  -3206688.934 6  -2452550.50449  21945343.80449
  20556573.206 7  -1245360.418 7   -961807.05549  20556573.05449
  23184471.339 5  -1061122.137 5   -809785.77748  23184470.77248
  20200112.401 6  -2505562.977 6  -1919765.95348  20200109.50748
  22881713.370 5  -1095387.453 5   -838250.32046  22881709.42946
 20  5 16  3 22 53.9990000  0  6G01G07G08G09G11G16                   0.000246437
  21915342.042 6  -3505694.188 6  -2692576.55549  21915343.10849
  21944087.206 6  -3213305.020 6  -2457705.88749  21944084.85549
  20556098.206 7  -1247855.426 7   -963751.21949  20556098.19849
  23184064.308 6  -1063262.113 6   -811453.29748  23184063.52648
  20199151.159 6  -2510615.805 6  -1923703.21948  20199147.81548
  22881277.480 5  -1097679.063 5   -840035.98446  22881273.15546
 20  5 16  3 22 54.9990000  0  6G01G07G08G09G11G16                   0.000243990
  21913974.980 6  -3512877.094 6  -2698173.62549  21913976.72649
  21942828.050 6  -3219920.656 6  -2462860.92649  21942825.88649
  20555623.456 7  -1250350.047 7   -965695.07449  20555623.36249
  23183657.683 6  -1065401.676 6   -813120.49248  23183656.45648
  20198189.433 6  -2515667.992 6  -1927639.98848  20198186.65948
  22880841.448 5  -1099970.500 5   -841821.51246  22880837.73346
 20  5 16  3 22 55.9990000  0  6G01G07G08G09G11G16                   0.000241545
  21912608.519 6  -3520059.547 6  -2703770.34849  21912609.69449
  21941569.433 6  -3226535.879 6  -2468015.64849  21941567.44449
  20555149.003 7  -1252844.285 7   -967638.63749  20555148.89749
  23183250.206 6  -1067540.859 6   -814787.38748  23183249.43348
  20197228.198 6  -2520719.500 6  -1931576.22748  20197225.62048
  22880405.644 5  -1102261.715 5   -843606.88346  22880401.38246
 20  5 16  3 22 56.9990000  0  6G01G07G08G09G11G16                   0.000239098
  21911241.292 6  -3527241.621 6  -2709366.76649  21911242.86249
  21940310.855 6  -3233150.586 6  -2473169.96549  21940308.28449
  20554674.417 7  -1255338.117 7   -969581.88349  20554674.45249
  23182843.550 6  -1069679.648 6   -816453.98048  23182842.26548
  20196266.823 6  -2525770.324 6  -1935511.93848  20196264.22248
  22879969.276 5  -1104552.707 5   -845392.07446  22879965.43746
 20  5 16  3 22 57.9990000  0  6G01G07G08G09G11G16                   0.000236652
  21909874.745 6  -3534423.355 6  -2714962.92649  21909876.30449
  21939051.995 6  -3239764.914 6  -2478323.98849  21939049.89049
  20554199.995 7  -1257831.648 7   -971524.89849  20554199.62049
  23182436.558 6  -1071818.148 6   -818120.34048  23182435.53048
  20195306.183 6  -2530820.578 6  -1939447.19548  20195303.23348
  22879533.292 5  -1106843.590 5   -847177.18446  22879529.23746
 20  5 16  3 22 58.9990000  0  6G01G07G08G09G11G16                   0.000234205
  21908508.190 6  -3541604.902 6  -2720558.93449  21908509.48749
  21937793.089 6  -3246379.035 6  -2483477.84849  21937791.08549
  20553725.542 7  -1260325.039 7   -973467.79749  20553725.28849
  23182029.480 6  -1073956.504 6   -819786.59048  23182028.40548
  20194345.097 6  -2535870.418 6  -1943382.13748  20194342.16748
  22879097.847 5  -1109134.520 5   -848962.32446  22879093.53046
 20  5 16  3 22 59.9990000  0  6G01G07G08G09G11G16                   0.000231760
  21907142.003 6  -3548785.984 6  -2726154.57449  21907143.14449
  21936534.730 6  -3252992.656 6  -2488631.32049  21936532.58149
  20553250.980 7  -1262818.008 7   -975410.36349  20553250.92949
  23181623.136 6  -1076094.422 6   -821452.50048  23181621.58148
  20193384.511 6  -2540919.516 6  -1947316.49248  20193381.48348
  22878661.237 5  -1111425.199 5   -850747.27746  22878657.60546
 20  5 16  3 23  0.9990000  0  6G01G07G08G09G11G16                   0.000229313
  21905775.565 6  -3555966.629 6  -2731749.88349  21905777.01149
  21935276.097 6  -3259605.777 6  -2493784.40649  21935274.12849
  20552776.480 7  -1265310.520 7   -977352.58249  20552776.24949
  23181216.159 6  -1078231.863 6   -823118.03948  23181215.28848
  20192423.456 6  -2545967.910 6  -1951250.31348  20192420.86648
  22878225.972 5  -1113715.586 5   -852531.98446  22878221.99546
 20  5 16  3 23  1.9990000  0  6G01G07G08G09G11G16                   0.000226868
  21904409.597 6  -3563146.961 6  -2737344.94549  21904410.49549
  21934018.065 6  -3266218.523 6  -2498937.19549  21934015.78049
  20552302.339 7  -1267802.746 7   -979294.57849  20552302.20249
  23180809.269 6  -1080369.047 6   -824783.37948  23180808.47648
  20191462.839 6  -2551015.730 6  -1955183.67648  20191460.19448
  22877789.667 5  -1116005.926 5   -854316.67246  22877786.20646
 20  5 16  3 23  2.9990000  0  6G01G07G08G09G11G16                   0.000224421
  21903042.386 6  -3570326.855 6  -2742939.66049  21903043.91349
  21932759.792 6  -3272830.852 6  -2504089.65649  21932757.77249
  20551828.230 7  -1270294.609 7   -981236.29349  20551828.01549
  23180403.230 6  -1082505.883 6   -826448.44148  23180401.86648
  20190502.151 6  -2556062.898 6  -1959116.53148  20190499.62048
  22877354.347 5  -1118296.023 5   -856101.17246  22877350.88646
 20  5 16  3 23  3.9990000  0  6G01G07G08G09G11G16                   0.000221975
  21901676.433 6  -3577506.156 6  -2748533.92649  21901677.91349
  21931501.183 6  -3279442.512 6  -2509241.59849  21931499.44449
  20551354.089 7  -1272785.930 7   -983177.57849  20551354.31549
  23179996.315 6  -1084642.098 6   -828113.03148  23179995.23748
  20189541.909 6  -2561109.199 6  -1963048.71148  20189538.76948
  22876918.894 6  -1120585.734 6   -857885.37546  22876915.12046
 20  5 16  3 23  4.9990000  0  6G01G07G08G09G11G16                   0.000219530
  21900310.472 6  -3584685.078 6  -2754127.88749  21900311.67149
  21930243.394 6  -3286053.746 6  -2514393.21149  21930241.14749
  20550880.276 7  -1275276.871 7   -985118.57049  20550880.19049
  23179589.894 6  -1086777.953 6   -829777.34048  23179588.87448
  20188582.003 6  -2566154.867 6  -1966980.39848  20188579.30048
  22876483.597 5  -1122875.277 5   -859669.43046  22876479.51146
 20  5 16  3 23  5.9990000  0  6G01G07G08G09G11G16                   0.000217083
  21898944.730 6  -3591863.531 6  -2759721.48849  21898945.80849
  21928985.878 6  -3292664.465 6  -2519544.41849  21928983.29249
  20550406.097 7  -1277767.371 7   -987059.21549  20550406.18349
  23179183.550 6  -1088913.395 6   -831441.31648  23179182.26148
  20187622.003 6  -2571199.828 6  -1970911.54348  20187619.02248
  22876047.308 5  -1125164.566 5   -861453.28146  22876043.32746
 20  5 16  3 23  6.9990000  0  6G01G07G08G09G11G16                   0.000214638
  21897578.394 6  -3599041.574 6  -2765314.77049  21897580.03449
  21927727.409 6  -3299274.746 6  -2524695.28549  21927725.51149
  20549932.308 7  -1280257.535 7   -988999.60949  20549932.45649
  23178777.745 6  -1091048.453 6   -833105.00448  23178776.40548
  20186662.370 6  -2576244.148 6  -1974842.18048  20186659.34748
  22875611.230 5  -1127453.664 5   -863237.00046  22875608.25346
 20  5 16  3 23  7.9990000  0  6G01G07G08G09G11G16                   0.000212193
  21896212.550 6  -3606219.234 6  -2770907.75049  21896214.33149
  21926469.222 6  -3305884.605 6  -2529845.82849  21926467.51149
  20549458.800 7  -1282747.348 7   -990939.71949  20549458.76549
  23178371.597 6  -1093183.148 6   -834768.40648  23178370.33948
  20185701.769 6  -2581287.805 6  -1978772.30148  20185699.57748
  22875175.737 5  -1129742.570 5   -865020.55946  22875172.82346
 20  5 16  3 23  8.9990000  0  6G01G07G08G09G11G16                   0.000209747
  21894846.714 6  -3613396.488 6  -2776500.41049  21894848.43749
  21925211.909 6  -3312494.012 6  -2534996.01249  21925209.85549
  20548984.784 7  -1285236.801 7   -992879.55549  20548984.69049
  23177965.862 6  -1095317.438 6   -836431.49648  23177963.61648
  20184742.675 6  -2586330.820 6  -1982701.93448  20184739.96848
  22874740.722 5  -1132031.285 5   -866803.97746  22874736.99146
 20  5 16  3 23  9.9990000  0  6G01G07G08G09G11G16                   0.000207302
  21893480.886 6  -3620573.359 6  -2782092.77749  21893482.81949
  21923954.440 6  -3319103.012 6  -2540145.87949  21923952.18349
  20548511.425 7  -1287725.883 7   -994819.09849  20548510.92549
  23177559.511 6  -1097451.441 6   -838094.36348  23177557.77648
  20183783.190 6  -2591373.219 6  -1986631.07448  20183780.29648
  22874305.011 5  -1134319.855 5   -868587.27746  22874301.15146
 20  5 16  3 23 10.9990000  0  6G01G07G08G09G11G16                   0.000204857
  21892115.370 6  -3627749.797 6  -2787684.80949  21892116.92949
  21922697.112 6  -3325711.504 6  -2545295.35249  21922694.67949
  20548038.136 7  -1290214.543 7   -996758.31649  20548037.50749
  23177153.026 6  -1099584.973 6   -839756.85948  23177151.59748
  20182823.589 6  -2596414.902 6  -1990559.65248  20182821.46048
  22873869.144 5  -1136608.148 5   -870370.36346  22873866.34346
 20  5 16  3 23 11.9990000  0  6G01G07G08G09G11G16                   0.000202412
  21890749.526 6  -3634925.711 6  -2793276.42249  21890751.84349
  21921439.355 6  -3332319.461 6  -2550444.40649  21921437.17149
  20547564.003 7  -1292702.762 7   -998697.18849  20547563.74549
  23176747.386 6  -1101718.051 6   -841419.00448  23176745.71048
  20181864.347 6  -2601455.863 6  -1994487.67648  20181861.56548
  22873434.183 5  -1138896.211 5   -872153.26646  22873430.78046
 20  5 16  3 23 12.9990000  0  6G01G07G08G09G11G16                   0.000199966
  21889384.667 6  -3642101.102 6  -2798867.64149  21889386.58149
  21920181.987 6  -3338926.820 6  -2555593.00449  21920179.90949
  20547090.925 7  -1295190.449 7  -1000635.63749  20547090.71049
  23176341.276 6  -1103850.625 6   -843080.74648  23176340.19048
  20180905.651 6  -2606495.988 6  -1998415.04348  20180902.83148
  22872999.151 5  -1141183.914 5   -873935.89146  22872995.44846
 20  5 16  3 23 13.9990000  0  6G01G07G08G09G11G16                   0.000197521
  21888018.769 6  -3649276.102 6  -2804458.54349  21888020.78449
  21918924.776 6  -3345533.781 6  -2560741.28549  21918922.29249
  20546617.503 7  -1297677.773 7  -1002573.82049  20546617.40549
  23175935.886 6  -1105982.832 6   -844742.20748  23175934.25748
  20179946.800 6  -2611535.496 6  -2002341.93048  20179943.64048
  22872563.581 5  -1143471.434 5   -875718.38746  22872560.21046
 20  5 16  3 23 14.9990000  0  6G01G07G08G09G11G16                   0.000195076
  21886653.503 6  -3656450.691 6  -2810049.12949  21886655.66749
  21917667.776 6  -3352140.246 6  -2565889.17649  21917665.35149
  20546143.956 7  -1300164.703 7  -1004511.68049  20546144.03849
  23175530.339 6  -1108114.664 6   -846403.37948  23175528.77648
  20178987.495 6  -2616574.332 6  -2006268.29748  20178984.99948
  22872128.097 5  -1145758.738 5   -877500.70746  22872125.33546
 20  5 16  3 23 15.9990000  0  6G01G07G08G09G11G16                   0.000192631
  21885288.097 6  -3663625.027 6  -2815639.52349  21885290.10549
  21916410.276 6  -3358746.410 6  -2571036.83649  21916408.44449
  20545671.003 7  -1302651.414 7  -1006449.37549  20545670.69849
  23175124.706 6  -1110246.254 6   -848064.35548  23175123.10548
  20178028.519 6  -2621612.652 6  -2010194.25848  20178025.69848
  22871692.636 5  -1148046.004 5   -879283.00046  22871689.57746
 20  5 16  3 23 16.9990000  0  6G01G07G08G09G11G16                   0.000190186
  21883923.464 6  -3670799.027 6  -2821229.64849  21883925.11249
  21915153.261 6  -3365352.262 6  -2576184.25449  21915151.40549
  20545197.698 7  -1305137.867 7  -1008386.87149  20545197.66749
  23174719.136 6  -1112377.609 6   -849725.14848  23174717.66348
  20177070.058 6  -2626650.434 6  -2014119.80548  20177067.05448
  22871258.315 5  -1150333.145 5   -881065.19146  22871254.31546
 20  5 16  3 23 17.9990000  0  6G01G07G08G09G11G16                   0.000187740
  21882558.464 6  -3677972.582 6  -2826819.42649  21882559.96849
  21913896.253 6  -3371957.590 6  -2581331.26249  21913894.31549
  20544724.706 7  -1307623.891 7  -1010324.03149  20544724.71849
  23174313.565 6  -1114508.473 6   -851385.56648  23174311.93348
  20176111.917 6  -2631687.496 6  -2018044.78548  20176108.80448
  22870822.901 5  -1152620.078 5   -882847.21146  22870819.76146
 20  5 16  3 23 18.9990000  0  6G01G07G08G09G11G16                   0.000185297
  21881193.315 6  -3685145.633 6  -2832408.81649  21881195.42549
  21912639.917 6  -3378562.348 6  -2586477.82449  21912637.63249
  20544251.581 7  -1310109.434 7  -1012260.82049  20544251.74549
  23173907.862 6  -1116638.891 6   -853045.62948  23173906.73348
  20175153.440 6  -2636723.797 6  -2021969.18048  20175150.24148
  22870387.784 5  -1154906.684 5   -884628.98846  22870383.98746
 20  5 16  3 23 19.9990000  0  6G01G07G08G09G11G16                   0.000182852
  21879828.378 6  -3692318.215 6  -2837997.84049  21879830.16349
  21911383.058 6  -3385166.648 6  -2591624.03549  21911380.49549
  20543778.550 7  -1312594.563 7  -1014197.27749  20543778.62449
  23173502.925 6  -1118768.895 6   -854705.37548  23173501.39048
  20174195.081 6  -2641759.402 6  -2025893.02048  20174192.41748
  22869952.605 5  -1157193.082 5   -886410.59846  22869949.21046
 20  5 16  3 23 20.9990000  0  6G01G07G08G09G11G16                   0.000180407
  21878463.284 6  -3699490.441 6  -2843586.58249  21878465.40149
  21910126.542 6  -3391770.492 6  -2596769.88749  21910124.12849
  20543305.909 7  -1315079.324 7  -1016133.46149  20543305.64449
  23173097.292 6  -1120898.527 6   -856364.83248  23173096.30048
  20173237.019 6  -2646794.363 6  -2029816.37148  20173233.77648
  22869517.339 5  -1159479.297 5   -888192.04746  22869513.81946
 20  5 16  3 23 21.9990000  0  6G01G07G08G09G11G16                   0.000177961
  21877098.651 6  -3706662.367 6  -2849175.10249  21877100.73349
  21908869.839 6  -3398374.047 6  -2601915.51249  21908867.36249
  20542833.487 7  -1317563.867 7  -1018069.46949  20542833.11249
  23172692.394 6  -1123027.941 6   -858024.11748  23172690.79648
  20172278.917 6  -2651828.824 6  -2033739.33648  20172275.84748
  22869082.261 5  -1161765.438 5   -889973.45346  22869079.20246
 20  5 16  3 23 22.9990000  0  6G01G07G08G09G11G16                   0.000175518
  21875733.987 6  -3713833.797 6  -2854763.22749  21875736.42149
  21907613.456 6  -3404977.047 6  -2607060.70749  21907610.44449
  20542360.761 7  -1320047.922 7  -1020005.09449  20542360.40949
  23172287.081 6  -1125156.848 6   -859683.00848  23172285.76948
  20171320.925 6  -2656862.523 6  -2037661.69548  20171317.92548
  22868647.417 5  -1164051.301 5   -891754.64546  22868643.93346
 20  5 16  3 23 23.9990000  0  6G01G07G08G09G11G16                   0.000173073
  21874369.659 6  -3721004.617 6  -2860350.87149  21874371.40549
  21906357.339 6  -3411579.383 6  -2612205.38349  21906354.48049
  20541888.331 7  -1322531.402 7  -1021940.27049  20541887.38649
  23171881.839 6  -1127285.211 6   -861341.47748  23171880.74148
  20170363.542 6  -2661895.344 6  -2041583.37548  20170360.06248
  22868211.870 5  -1166336.766 5   -893535.53946  22868209.42546
 20  5 16  3 23 24.9990000  0  6G01G07G08G09G11G16                   0.000170630
  21873005.347 6  -3728175.195 6  -2865938.33249  21873006.94849
  21905100.831 6  -3418181.441 6  -2617349.84849  21905097.91349
  20541415.550 7  -1325014.668 7  -1023875.28549  20541415.26549
  23171477.105 6  -1129413.324 6   -862999.74248  23171475.88648
  20169405.581 6  -2666927.707 6  -2045504.69948  20169402.79648
  22867777.409 5  -1168622.211 5   -895316.41846  22867774.28446
 20  5 16  3 23 25.9990000  0  6G01G07G08G09G11G16                   0.000168184
  21871640.683 6  -3735345.301 6  -2871525.43049  21871642.35149
  21903844.144 6  -3424782.953 6  -2622493.88349  21903841.40149
  20540943.050 7  -1327497.465 7  -1025809.92649  20540942.67149
  23171071.355 6  -1131540.988 6   -864657.66048  23171070.89748
  20168447.925 6  -2671959.277 6  -2049425.40248  20168445.21448
  22867342.183 5  -1170907.355 5   -897097.04746  22867339.39446
 20  5 16  3 23 26.9990000  0  6G01G07G08G09G11G16                   0.000165741
  21870276.120 6  -3742514.992 6  -2877112.19949  21870278.09349
  21902588.605 6  -3431384.047 6  -2627637.59049  21902585.67549
  20540470.745 7  -1329979.934 7  -1027744.32449  20540470.27649
  23170666.722 6  -1133668.324 6   -866315.32048  23170666.14748
  20167490.823 6  -2676990.270 6  -2053345.65248  20167487.90948
  22866907.300 5  -1173192.348 5   -898877.55146  22866904.70646
 20  5 16  3 23 27.9990000  0  6G01G07G08G09G11G16                   0.000163296
  21868912.433 6  -3749684.094 6  -2882698.51649  21868913.92149
  21901332.511 6  -3437984.484 6  -2632780.79349  21901330.02649
  20539998.690 7  -1332461.820 7  -1029678.25849  20539998.05049
  23170262.065 6  -1135795.082 6   -867972.53948  23170261.65948
  20166533.425 6  -2682020.375 6  -2057265.21948  20166530.56248
  22866472.753 5  -1175476.922 5   -900657.73446  22866469.78046
 20  5 16  3 23 28.9990000  0  6G01G07G08G09G11G16                   0.000160852
  21867547.714 6  -3756852.898 6  -2888284.59849  21867549.35849
  21900076.550 6  -3444584.598 6  -2637923.73849  21900073.56249
  20539526.065 7  -1334943.453 7  -1031612.00449  20539525.69449
  23169856.862 6  -1137921.582 6   -869629.55148  23169856.87848
  20165576.612 6  -2687049.949 6  -2061184.36748  20165573.44848
  22866038.323 5  -1177761.422 5   -902437.86346  22866034.87846
 20  5 16  3 23 29.9990000  0  6G01G07G08G09G11G16                   0.000158409
  21866183.667 6  -3764021.188 6  -2893870.27749  21866185.55049
  21898820.620 6  -3451184.148 6  -2643066.24649  21898817.54649
  20539053.745 7  -1337424.613 7  -1033545.37149  20539053.32349
  23169452.683 6  -1140047.590 6   -871286.18448  23169452.68748
  20164619.253 6  -2692078.766 6  -2065102.91848  20164616.50748
  22865603.237 5  -1180045.637 5   -904217.78946  22865600.44846
 20  5 16  3 23 30.9990000  0  6G01G07G08G09G11G16                   0.000155964
  21864820.089 6  -3771189.102 6  -2899455.66049  21864821.61649
  21897565.042 6  -3457783.313 6  -2648208.45349  21897561.88249
  20538581.683 7  -1339905.457 7  -1035478.49649  20538581.69849
  23169047.722 6  -1142173.258 6   -872942.54748  23169048.27648
  20163662.800 6  -2697106.934 6  -2069020.97348  20163659.78048
  22865168.628 5  -1182329.680 5   -905997.57446  22865165.95246
 20  5 16  3 23 31.9990000  0  6G01G07G08G09G11G16                   0.000153521
  21863456.120 6  -3778356.578 6  -2905040.70749  21863457.28849
  21896309.487 6  -3464381.973 6  -2653350.26649  21896306.54249
  20538109.909 7  -1342385.898 7  -1037411.31349  20538109.29249
  23168643.792 6  -1144298.535 6   -874598.61348  23168643.64748
  20162705.909 6  -2702134.453 6  -2072938.52048  20162703.15548
  22864734.151 5  -1184613.504 5   -907777.18446  22864730.95646
 20  5 16  3 23 32.9990000  0  6G01G07G08G09G11G16                   0.000151075
  21862092.019 6  -3785523.613 6  -2910625.40649  21862093.70649
  21895053.550 6  -3470980.152 6  -2658491.70749  21895050.81549
  20537637.839 7  -1344865.938 7  -1039343.80949  20537637.40149
  23168239.433 6  -1146423.375 6   -876254.33648  23168239.29648
  20161749.651 6  -2707161.254 6  -2076855.50448  20161746.30848
  22864299.597 5  -1186897.082 5   -909556.60246  22864296.24946
 20  5 16  3 23 33.9990000  0  6G01G07G08G09G11G16                   0.000148632
  21860728.331 6  -3792690.160 6  -2916209.72749  21860729.96449
  21893798.206 6  -3477577.789 6  -2663632.71549  21893795.28049
  20537166.175 7  -1347345.508 7  -1041275.93849  20537165.93349
  23167834.644 6  -1148547.750 6   -877909.69948  23167835.06548
  20160793.308 6  -2712187.352 6  -2080771.94948  20160789.88648
  22863865.464 5  -1189180.410 5   -911335.81346  22863862.14746
 20  5 16  3 23 34.9990000  0  6G01G07G08G09G11G16                   0.000146191
  21859364.628 6  -3799856.277 6  -2921793.71149  21859366.04649
  21892542.698 6  -3484174.977 6  -2668773.38349  21892540.10849
  20536694.175 7  -1349824.676 7  -1043207.75449  20536693.92149
  23167430.831 6  -1150671.805 6   -879564.81348  23167430.64748
  20159836.823 6  -2717212.723 6  -2084687.82848  20159833.28848
  22863430.972 5  -1191463.500 5   -913114.84046  22863427.52246
 20  5 16  3 23 35.9990000  0  6G01G07G08G09G11G16                   0.000143745
  21858000.456 6  -3807021.945 6  -2927377.34849  21858002.70649
  21891287.425 6  -3490771.633 6  -2673913.63749  21891284.25349
  20536222.737 7  -1352303.453 7  -1045139.27749  20536222.29249
  23167027.550 6  -1152795.379 6   -881219.54748  23167026.69448
  20158880.605 6  -2722237.414 6  -2088603.16848  20158877.26148
  22862996.480 5  -1193746.348 5   -914893.66846  22862993.10546
 20  5 16  3 23 36.9990000  0  6G01G07G08G09G11G16                   0.000141302
  21856637.269 6  -3814187.191 6  -2932960.65249  21856639.58949
  21890032.378 6  -3497367.883 6  -2679053.57049  21890029.34349
  20535750.644 7  -1354781.848 7  -1047070.48849  20535750.53049
  23166622.901 5  -1154918.582 5   -882873.98848  23166622.80448
  20157924.800 6  -2727261.457 6  -2092518.00848  20157921.23348
  22862561.800 5  -1196029.051 5   -916672.41846  22862558.82746
 20  5 16  3 23 37.9990000  0  7G01G07G08G09G11G16G30                0.000138859
  21855274.105 6  -3821352.113 6  -2938543.71149  21855276.30049
  21888777.081 6  -3503963.730 6  -2684193.19549  21888774.42549
  20535279.448 7  -1357259.973 7  -1049001.50449  20535279.23349
  23166219.362 5  -1157041.535 5   -884528.24248  23166218.85848
  20156968.487 6  -2732284.918 6  -2096432.39148  20156965.21048
  22862127.183 5  -1198311.570 5   -918451.01246  22862124.44846
  24525863.03413   -271992.18013   -159507.19957  24525863.07357
 20  5 16  3 23 38.9990000  0  7G01G07G08G09G11G16G30                0.000136417
  21853910.542 6  -3828516.539 6  -2944126.37949  21853912.99149
  21887522.269 6  -3510559.074 6  -2689332.43049  21887519.21849
  20534807.698 7  -1359737.672 7  -1050932.17649  20534807.90949
  23165814.847 5  -1159164.000 5   -886182.11348  23165814.99548
  20156012.784 6  -2737307.645 6  -2100346.20348  20156009.21848
  22861692.612 5  -1200593.863 5   -920229.42246  22861690.07746
  24524471.308 2   -279299.902 2   -165201.52747  24524472.58947
 20  5 16  3 23 39.9990000  0  7G01G07G08G09G11G16G30                0.000133974
  21852547.448 6  -3835680.309 6  -2949708.53949  21852550.05849
  21886266.815 6  -3517153.695 6  -2694471.09049  21886264.46449
  20534336.534 7  -1362214.730 7  -1052862.35249  20534336.63649
  23165411.034 5  -1161285.832 5   -887835.49648  23165411.15148
  20155057.690 6  -2742329.473 6  -2104259.31648  20155053.91348
  22861258.706 5  -1202875.699 5   -922007.47746  22861256.24946
  24523081.198 3   -286607.191 3   -170895.51247  24523082.37847
 20  5 16  3 23 40.9990000  0  7G01G07G08G09G11G16G30                0.000131531
  21851184.198 6  -3842843.469 6  -2955290.21949  21851186.53449
  21885012.034 6  -3523747.664 6  -2699609.24649  21885009.36649
  20533865.011 7  -1364691.219 7  -1054792.07849  20533865.27249
  23165007.784 5  -1163407.090 5   -889488.41848  23165007.81948
  20154101.847 6  -2747350.434 6  -2108171.75848  20154098.32748
  22860824.808 5  -1205157.125 5   -923785.18846  22860822.02646
  24521690.589 2   -293914.121 2   -176589.22347  24521691.53447
 20  5 16  3 23 41.9990000  0  7G01G07G08G09G11G16G30                0.000129089
  21849821.175 6  -3850006.375 6  -2960871.70349  21849823.52649
  21883757.581 6  -3530341.305 6  -2704747.15249  21883754.61249
  20533393.948 7  -1367167.457 7  -1056721.61749  20533393.99149
  23164604.206 5  -1165528.133 5   -891141.18048  23164603.85148
  20153146.440 6  -2752370.844 6  -2112083.76248  20153143.12048
  22860390.136 4  -1207438.523 4   -925562.89546  22860387.78846
  24520300.784 1   -301220.906 1   -182282.80147  24520300.94847
 20  5 16  3 23 42.9990000  0  7G01G07G08G09G11G16G30                0.000126646
  21848458.245 6  -3857168.885 6  -2966452.87649  21848460.68349
  21882503.011 6  -3536934.590 6  -2709884.77349  21882499.85549
  20532923.034 7  -1369643.406 7  -1058650.92249  20532922.49949
  23164199.823 5  -1167648.828 5   -892793.67248  23164200.40948
  20152191.026 6  -2757390.707 6  -2115995.34048  20152188.09348
  22859955.980 4  -1209719.723 4   -927340.46546  22859953.63646
  24518910.167 2   -308527.617 2   -187976.37147  24518910.43747
 20  5 16  3 23 43.9990000  0  7G01G07G08G09G11G16G30                0.000124203
  21847095.112 6  -3864330.926 6  -2972033.69149  21847097.73749
  21881248.433 6  -3543527.270 6  -2715021.93049  21881245.35149
  20532451.761 7  -1372118.855 7  -1060579.85249  20532451.54249
  23163796.730 5  -1169769.074 5   -894445.80948  23163796.95248
  20151236.167 6  -2762409.746 6  -2119906.28548  20151232.95648
  22859522.105 4  -1212000.664 4   -929117.84846  22859519.48346
  24517519.620 3   -315834.059 3   -193669.73447  24517520.14747
 20  5 16  3 23 44.9990000  0  7G01G07G08G09G11G16G30                0.000121759
  21845732.855 6  -3871492.332 6  -2977614.00449  21845734.95649
  21879994.323 6  -3550119.320 6  -2720158.59449  21879991.14449
  20531980.745 7  -1374593.770 7  -1062508.35249  20531980.57749
  23163393.511 5  -1171888.746 5   -896097.50448  23163393.44848
  20150281.042 6  -2767427.973 6  -2123816.59448  20150277.95648
  22859088.401 4  -1214281.164 4   -930894.86746  22859085.37046
  24516130.347 3   -323140.102 3   -199362.77347  24516129.83947
 20  5 16  3 23 45.9990000  0  7G01G07G08G09G11G16G30                0.000119318
  21844369.558 6  -3878653.344 6  -2983194.01649  21844372.41749
  21878739.581 6  -3556710.930 6  -2725294.91449  21878736.67949
  20531509.878 7  -1377068.297 7  -1064436.55949  20531509.85849
  23162990.245 5  -1174008.031 5   -897748.89848  23162990.43348
  20149326.214 6  -2772445.531 6  -2127726.37948  20149322.96448
  22858654.980 4  -1216561.539 4   -932671.78546  22858651.76146
  24514739.300 3   -330445.941 3   -205055.60947  24514739.98347
 20  5 16  3 23 46.9990000  0  7G01G07G08G09G11G16G30                0.000116875
  21843006.980 6  -3885813.973 6  -2988773.71949  21843009.44049
  21877485.323 6  -3563302.105 6  -2730430.89549  21877482.52649
  20531039.230 7  -1379542.508 7  -1066364.51649  20531039.14449
  23162587.026 5  -1176126.984 5   -899400.03948  23162587.20648
  20148371.581 6  -2777462.477 6  -2131635.69148  20148368.35848
  22858220.644 4  -1218841.715 4   -934448.54746  22858217.78446
  24513349.464 3   -337751.680 3   -210748.35547  24513349.78447
 20  5 16  3 23 47.9990000  0  7G01G07G08G09G11G16G30                0.000114433
  21841644.995 6  -3892974.207 6  -2994353.12149  21841647.49149
  21876231.230 6  -3569892.867 6  -2735566.55949  21876228.23049
  20530568.058 7  -1382016.371 7  -1068292.19949  20530567.83949
  23162183.222 5  -1178245.625 5   -901050.92248  23162184.07348
  20147417.128 6  -2782478.785 6  -2135544.49648  20147413.76548
  22857786.761 4  -1221121.742 4   -936225.18446  22857783.76546
  24511959.050 3   -345057.160 3   -216440.91447  24511959.47247
 20  5 16  3 23 48.9990000  0  7G01G07G08G09G11G16G30                0.000111990
  21840282.401 6  -3900134.000 6  -2999932.18049  21840284.71049
  21874976.948 6  -3576483.129 6  -2740701.82449  21874974.03049
  20530097.464 7  -1384489.816 7  -1070219.55549  20530097.79649
  23161780.581 5  -1180363.793 5   -902701.43848  23161780.60548
  20146462.394 6  -2787494.383 6  -2139452.75448  20146459.37448
  22857353.159 4  -1223401.520 4   -938001.62946  22857349.91346
  24510568.503 2   -352362.441 2   -222133.33247  24510569.24947
 20  5 16  3 23 49.9990000  0  7G01G07G08G09G11G16G30                0.000109549
  21838919.714 6  -3907293.293 6  -3005510.84049  21838922.42949
  21873723.206 6  -3583072.859 6  -2745836.67649  21873720.26149
  20529627.136 7  -1386962.832 7  -1072146.57449  20529627.11649
  23161378.011 5  -1182481.543 5   -904351.63748  23161378.32748
  20145508.105 6  -2792509.273 6  -2143360.45748  20145505.15548
  22856919.597 4  -1225680.996 4   -939777.84046  22856915.95246
  24509179.058 3   -359667.496 3   -227825.59047  24509179.12047
 20  5 16  3 23 50.9990000  0  7G01G07G08G09G11G16G30                0.000107105
  21837557.698 6  -3914452.277 6  -3011089.27049  21837560.19849
  21872469.159 6  -3589662.227 6  -2750971.25049  21872466.39449
  20529156.519 7  -1389435.555 7  -1074073.37549  20529156.26949
  23160974.761 5  -1184598.984 5   -906001.59448  23160975.38248
  20144554.011 6  -2797523.566 6  -2147267.69948  20144550.85848
  22856485.870 4  -1227960.398 4   -941554.01646  22856482.41346
  24507789.706 3   -366972.426 3   -233517.75047  24507788.71047
 20  5 16  3 23 51.9990000  0  7G01G07G08G09G11G16G30                0.000104664
  21836195.581 6  -3921610.535 6  -3016667.13349  21836198.04249
  21871215.503 6  -3596250.832 6  -2756105.22749  21871212.89749
  20528685.737 7  -1391907.602 7  -1075999.64549  20528685.95249
  23160572.136 5  -1186715.762 5   -907651.03948  23160572.54648
  20143600.097 6  -2802536.914 6  -2151174.20348  20143596.73048
  22856052.503 4  -1230239.266 4   -943329.76646  22856048.61646
  24506399.573 3   -374276.824 3   -239209.49247  24506398.84347
 20  5 16  3 23 52.9990000  0  7G01G07G08G09G11G16G30                0.000102222
  21834832.808 6  -3928768.215 6  -3022244.54349  21834835.63249
  21869962.128 6  -3602838.832 6  -2761238.73449  21869958.91349
  20528215.847 7  -1394379.125 7  -1077925.50849  20528215.27649
  23160168.675 5  -1188831.988 5   -909300.05548  23160169.78848
  20142646.550 6  -2807549.441 6  -2155080.06648  20142643.01148
  22855618.253 4  -1232517.855 4   -945105.27346  22855615.04646
  24505008.917 3   -381580.902 3   -244900.98447  24505008.93347
 20  5 16  3 23 53.9990000  0  7G01G07G08G09G11G16G30                0.000099781
  21833471.862 6  -3935925.512 6  -3027821.66049  21833473.96049
  21868708.456 6  -3609426.410 6  -2766371.91049  21868705.67949
  20527745.917 7  -1396850.297 7  -1079851.09849  20527745.41749
  23159766.706 5  -1190947.879 5   -910948.80148  23159767.20248
  20141692.792 6  -2812561.336 6  -2158985.43848  20141689.42948
  22855184.425 4  -1234796.219 4   -946880.61346  22855181.48346
  24503620.175 3   -388884.867 3   -250592.39147  24503619.55047
 20  5 16  3 23 54.9990000  0  7G01G07G08G09G11G16G30                0.000097338
  21832108.925 6  -3943082.488 6  -3033398.52349  21832111.85149
  21867454.972 6  -3616013.605 6  -2771504.78949  21867452.06949
  20527275.300 7  -1399321.188 7  -1081776.46549  20527275.32749
  23159363.503 5  -1193063.488 5   -912597.32848  23159364.94848
  20140738.815 6  -2817572.656 6  -2162890.36348  20140735.54648
  22854751.261 4  -1237074.430 4   -948655.85246  22854747.78446
  24502229.448 3   -396188.598 3   -256283.59847  24502229.58147
 20  5 16  3 23 55.9990000  0  7G01G07G08G09G11G16G30                0.000094898
  21830747.659 6  -3950238.957 6  -3038974.99649  21830749.62449
  21866201.573 6  -3622600.246 6  -2776637.23849  21866198.70249
  20526805.206 7  -1401791.594 7  -1083701.45749  20526805.07349
  23158961.065 5  -1195178.633 5   -914245.49648  23158962.48348
  20139785.253 6  -2822583.195 6  -2166794.67648  20139782.09748
  22854317.644 4  -1239352.387 4   -950430.89846  22854314.27246
  24500840.112 4   -403492.102 4   -261974.64147  24500839.54247
 20  5 16  3 23 56.9990000  0  7G01G07G08G09G11G16G30                0.000092455
  21829385.558 6  -3957394.906 6  -3044551.06349  21829388.06949
  21864948.128 6  -3629186.375 6  -2781769.29749  21864945.48049
  20526335.136 7  -1404261.551 7  -1085626.10949  20526334.74549
  23158558.847 5  -1197293.328 5   -915893.31648  23158559.71848
  20138831.745 6  -2827593.035 6  -2170698.44948  20138829.20248
  22853884.222 4  -1241630.051 4   -952205.70346  22853881.03046
  24499450.292 3   -410795.383 3   -267665.50047  24499450.08547
 20  5 16  3 23 57.9990000  0  7G01G07G08G09G11G16G30                0.000090015
  21828024.144 6  -3964550.680 6  -3050126.98049  21828026.06549
  21863695.042 6  -3635772.223 6  -2786901.12549  21863692.53449
  20525865.292 7  -1406731.332 7  -1087550.60949  20525865.16349
  23158157.065 5  -1199407.820 5   -917540.97348  23158157.30848
  20137878.792 6  -2832602.383 6  -2174601.84048  20137875.74948
  22853451.550 4  -1243907.695 4   -953980.51246  22853448.33946
  24498060.519 4   -418098.578 4   -273356.28947  24498060.23747
 20  5 16  3 23 58.9990000  0  7G01G07G08G09G11G16G30                0.000087574
  21826662.847 6  -3971705.922 6  -3055702.50049  21826664.92149
  21862441.605 6  -3642357.504 6  -2792032.51649  21862438.66349
  20525394.956 7  -1409200.648 7  -1089474.76249  20525395.14049
  23157754.308 5  -1201521.855 5   -919188.27348  23157755.17948
  20136925.487 6  -2837610.984 6  -2178504.64548  20136922.34748
  22853017.105 5  -1246185.086 5   -955755.09846  22853014.14746
  24496669.839 4   -425401.570 4   -279046.92647  24496670.31247
 20  5 16  3 23 59.9990000  0  7G01G07G08G09G11G16G30                0.000085133
  21825300.839 6  -3978860.832 6  -3061277.75449  21825303.40149
  21861188.886 6  -3648942.465 6  -2797163.65249  21861185.79249
  20524925.284 7  -1411669.676 7  -1091398.67249  20524925.37449
  23157352.386 5  -1203635.629 5   -920835.37148  23157352.95248
  20135972.550 6  -2842619.020 6  -2182407.00848  20135969.66348
  22852584.003 5  -1248462.352 5   -957529.57046  22852581.06246
  24495281.511 4   -432704.391 4   -284737.43447  24495281.09747
 20  5 16  3 24  0.9990000  0  7G01G07G08G09G11G16G30                0.000082689
  21823939.909 6  -3986015.332 6  -3066852.69549  21823941.76949
  21859935.808 6  -3655526.922 6  -2802294.39549  21859933.21049
  20524455.605 7  -1414138.293 7  -1093322.27349  20524455.63649
  23156950.128 5  -1205748.973 5   -922482.13348  23156950.89448
  20135020.175 6  -2847626.379 6  -2186308.84048  20135016.78448
  22852151.440 5  -1250739.383 5   -959303.86346  22852147.60846
  24493890.808 5   -440007.059 5   -290427.81647  24493891.11647
 20  5 16  3 24  1.9990000  0  7G01G07G08G09G11G16G30                0.000080250
  21822578.042 6  -3993169.516 6  -3072427.38749  21822580.34749
  21858683.128 6  -3662111.059 6  -2807424.89549  21858680.78849
  20523985.753 7  -1416606.688 7  -1095245.69549  20523986.06549
  23156548.433 5  -1207862.078 5   -924128.71548  23156548.69848
  20134066.581 6  -2852633.184 6  -2190210.25048  20134063.74548
  22851717.847 5  -1253016.371 5   -961078.14546  22851714.51546
  24492501.886 5   -447309.672 5   -296118.16847  24492501.65147
 20  5 16  3 24  2.9990000  0  7G01G07G08G09G11G16G30                0.000077806
  21821217.159 6  -4000323.207 6  -3078001.68449  21821218.89449
  21857429.987 6  -3668694.629 6  -2812554.94949  21857427.50749
  20523516.026 7  -1419074.582 7  -1097168.73449  20523516.47649
  23156146.472 5  -1209974.715 5   -925774.93448  23156147.01548
  20133114.339 6  -2857639.246 6  -2194111.07848  20133111.54648
  22851283.839 5  -1255293.047 5   -962852.18846  22851281.08546
  24491111.315 4   -454611.926 4   -301808.22347  24491112.18747
 20  5 16  3 24  3.9990000  0  7G01G07G08G09G11G16G30                0.000075367
  21819855.620 6  -4007476.480 6  -3083575.66449  21819857.98749
  21856177.558 6  -3675277.773 6  -2817684.68049  21856174.62849
  20523046.698 7  -1421542.168 7  -1099091.52349  20523046.62449
  23155744.230 5  -1212086.996 5   -927420.87148  23155744.83548
  20132162.190 6  -2862644.672 6  -2198011.41048  20132158.58148
  22850851.276 5  -1257569.504 5   -964626.06645  22850848.69845
  24489721.980 4   -461914.023 4   -307498.16047  24489722.57747
 20  5 16  3 24  4.9990000  0  7G01G07G08G09G11G16G30                0.000072926
  21818494.636 6  -4014629.105 6  -3089149.13749  21818496.92949
  21854924.675 6  -3681860.188 6  -2822813.82849  21854921.96849
  20522577.050 7  -1424009.094 7  -1101013.80549  20522577.28849
  23155341.909 5  -1214198.629 5   -929066.29348  23155343.07348
  20131209.698 6  -2867649.168 6  -2201911.01648  20131206.37848
  22850417.526 5  -1259845.563 5   -966399.62145  22850414.84345
  24488333.761 4   -469215.676 4   -313187.75047  24488332.99147
 20  5 16  3 24  5.9990000  0  7G01G07G08G09G11G16G30                0.000070484
  21817133.355 6  -4021781.406 6  -3094722.35549  21817135.89749
  21853672.167 6  -3688442.277 6  -2827942.72749  21853669.62849
  20522107.644 7  -1426475.789 7  -1102935.90649  20522107.90149
  23154940.730 5  -1216310.023 5   -930711.54348  23154941.39448
  20130257.519 6  -2872653.113 6  -2205810.19548  20130254.33548
  22849984.808 5  -1262121.516 5   -968173.09045  22849982.04645
  24486943.940 5   -476517.234 5   -318877.28147  24486943.71847
 20  5 16  3 24  6.9990000  0  7G01G07G08G09G11G16G30                0.000068045
  21815772.558 6  -4028933.367 6  -3100295.30949  21815774.62849
  21852419.901 6  -3695023.992 6  -2833071.33649  21852416.80449
  20521638.284 7  -1428942.172 7  -1104857.76649  20521638.58949
  23154539.175 5  -1218421.117 5   -932356.55948  23154539.81548
  20129304.995 6  -2877656.500 6  -2209708.93848  20129301.83948
  22849551.198 4  -1264397.336 4   -969946.44945  22849548.92145
  24485554.714 5   -483818.699 5   -324566.74247  24485553.82747
 20  5 16  3 24  7.9990000  0  7G01G07G08G09G11G16G30                0.000065603
  21814412.151 6  -4036084.891 6  -3105867.93049  21814413.65949
  21851167.284 6  -3701605.199 6  -2838199.55549  21851164.64449
  20521169.073 7  -1431408.152 7  -1106779.30949  20521169.31249
  23154137.237 5  -1220531.785 5   -934001.23448  23154138.21848
  20128352.573 6  -2882659.156 6  -2213607.11348  20128349.81248
  22849119.183 5  -1266672.918 5   -971719.62945  22849116.02645
  24484165.495 4   -491119.969 4   -330256.04347  24484164.37447
 20  5 16  3 24  8.9990000  0  7G01G07G08G09G11G16G30                0.000063162
  21813050.839 6  -4043236.070 6  -3111440.28149  21813052.97649
  21849915.245 6  -3708186.043 6  -2843327.48449  21849912.30849
  20520699.933 7  -1433873.840 7  -1108700.62149  20520700.23749
  23153735.995 5  -1222642.164 5   -935645.68448  23153736.33548
  20127401.503 6  -2887661.262 6  -2217504.86348  20127397.92148
  22848685.847 4  -1268948.379 4   -973492.71145  22848683.14745
  24482776.011 4   -498421.090 4   -335945.22747  24482775.46047
 20  5 16  3 24  9.9990000  0  7G01G07G08G09G11G16G30                0.000060720
  21811690.128 6  -4050386.793 6  -3117012.26649  21811692.18349
  21848663.433 6  -3714766.375 6  -2848455.01249  21848659.91749
  20520231.073 7  -1436339.129 7  -1110621.62949  20520230.90549
  23153334.034 5  -1224752.188 5   -937289.85948  23153334.87048
  20126449.730 6  -2892662.645 6  -2221402.03948  20126446.32748
  22848253.175 4  -1271223.617 4   -975265.61345  22848250.09345
  24481386.370 4   -505721.941 4   -341634.19547  24481385.91347
 20  5 16  3 24 10.9990000  0  7G01G07G08G09G11G16G30                0.000058281
  21810329.120 6  -4057537.137 6  -3122583.96149  21810331.77249
  21847411.058 7  -3721346.277 7  -2853582.21149  21847408.04249
  20519761.737 7  -1438804.027 7  -1112542.32049  20519761.81249
  23152932.230 5  -1226861.785 5   -938933.70348  23152933.79648
  20125498.315 6  -2897663.379 6  -2225298.71548  20125494.98048
  22847819.831 4  -1273498.672 4   -977038.39545  22847817.71445
  24479997.206 5   -513022.641 5   -347323.04747  24479996.44447
 20  5 16  3 24 11.9990000  0  7G01G07G08G09G11G16G30                0.000055840
  21808968.683 6  -4064687.168 6  -3128155.41449  21808971.16749
  21846158.878 7  -3727925.832 7  -2858709.14149  21846156.09749
  20519292.808 7  -1441268.727 7  -1114462.86749  20519292.69849
  23152531.206 5  -1228971.145 5   -940577.36348  23152532.49548
  20124546.394 6  -2902663.594 6  -2229194.99248  20124543.53048
  22847386.401 5  -1275773.637 5   -978811.10945  22847384.16745
  24478608.034 5   -520323.250 5   -353011.82447  24478607.08947
 20  5 16  3 24 12.9990000  0  7G01G07G08G09G11G16G30                0.000053400
  21807608.128 6  -4071836.855 6  -3133726.59849  21807610.74949
  21844907.042 7  -3734505.008 7  -2863835.77049  21844904.16749
  20518823.870 7  -1443733.105 7  -1116383.16849  20518823.85549
  23152129.956 5  -1231080.238 5   -942220.81348  23152131.14048
  20123595.097 6  -2907663.223 6  -2233090.80548  20123592.06548
  22846954.175 4  -1278048.480 4   -980583.71145  22846951.53845
  24477219.034 5   -527623.770 5   -358700.53947  24477218.26147
 20  5 16  3 24 13.9990000  0  7G01G07G08G09G11G16G30                0.000050959
  21806247.815 6  -4078986.055 6  -3139297.39849  21806250.19049
  21843655.136 6  -3741083.648 6  -2868961.98449  21843652.31949
  20518355.159 7  -1446197.020 7  -1118303.10249  20518355.24549
  23151728.487 5  -1233188.820 5   -943863.86348  23151729.59748
  20122643.667 6  -2912662.086 6  -2236986.02048  20122640.32348
  22846521.089 4  -1280323.027 4   -982356.07045  22846518.58945
  24475829.542 5   -534924.020 5   -364389.04747  24475828.65947
 20  5 16  3 24 14.9990000  0  7G01G07G08G09G11G16G30                0.000048519
  21804887.776 6  -4086134.813 6  -3144867.85949  21804889.64449
  21842403.378 6  -3747661.816 6  -2874087.82849  21842400.40149
  20517886.487 7  -1448660.570 7  -1120222.75049  20517886.05449
  23151327.573 5  -1235297.051 5   -945506.64148  23151328.67548
  20121692.878 6  -2917660.281 6  -2240880.71548  20121689.59748
  22846087.925 4  -1282597.410 4   -984128.32045  22846085.68745
  24474440.675 5   -542223.988 5   -370077.34047  24474439.69047
 20  5 16  3 24 15.9990000  0  7G01G07G08G09G11G16G30                0.000046078
  21803526.847 6  -4093283.063 6  -3150437.92249  21803529.42149
  21841151.870 6  -3754239.418 6  -2879213.23849  21841148.94849
  20517417.573 7  -1451123.633 7  -1122142.01649  20517417.51549
  23150926.151 5  -1237404.809 5   -947149.05148  23150927.22648
  20120741.300 6  -2922657.742 6  -2244774.83648  20120738.60848
  22845655.269 4  -1284871.457 4   -985900.30945  22845652.98745
  24473050.651 4   -549523.746 4   -375765.46147  24473051.02247
 20  5 16  3 24 16.9990000  0  7G01G07G08G09G11G16G30                0.000043638
  21802166.972 6  -4100430.938 6  -3156007.68849  21802168.89449
  21839900.159 6  -3760816.652 6  -2884338.35249  21839897.02249
  20516948.651 7  -1453586.395 7  -1124061.05549  20516948.90149
  23150525.175 5  -1239512.262 5   -948791.22748  23150526.40148
  20119790.605 6  -2927654.590 6  -2248668.48048  20119787.69448
  22845222.667 4  -1287145.391 4   -987672.22345  22845220.16345
  24471661.667 4   -556823.313 4   -381453.44147  24471661.77647
 20  5 16  3 24 17.9990000  0  7G01G07G08G09G11G16G30                0.000041197
  21800807.128 6  -4107578.391 6  -3161577.12949  21800808.87049
  21838648.480 6  -3767393.363 6  -2889463.06349  21838645.69849
  20516480.206 7  -1456048.730 7  -1125979.76249  20516480.03449
  23150123.972 5  -1241619.270 5   -950433.06348  23150125.89448
  20118840.261 6  -2932650.746 6  -2252561.59848  20118836.71448
  22844789.612 4  -1289419.063 4   -989443.92645  22844787.48345
  24470273.292 4   -564122.680 4   -387141.25847  24470272.65947
 20  5 16  3 24 18.9990000  0  7G01G07G08G09G11G16G30                0.000038757
  21799446.581 6  -4114725.426 6  -3167146.25049  21799449.12849
  21837396.831 6  -3773969.660 6  -2894587.45349  21837394.10549
  20516011.511 7  -1458510.762 7  -1127898.22749  20516011.75749
  23149722.878 5  -1243725.984 5   -952074.65248  23149724.48048
  20117889.636 6  -2937646.258 6  -2256454.19948  20117886.49148
  22844357.565 4  -1291692.559 4   -991215.49145  22844355.21845
  24468883.269 4   -571421.859 4   -392828.93447  24468883.28447
 20  5 16  3 24 19.9990000  0  7G01G07G08G09G11G16G30                0.000036318
  21798087.542 6  -4121871.898 6  -3172714.93449  21798089.48049
  21836145.542 6  -3780545.332 6  -2899711.35549  21836142.82749
  20515543.026 7  -1460972.242 7  -1129816.26249  20515543.20649
  23149321.808 5  -1245832.117 5   -953715.79748  23149323.90948
  20116939.292 6  -2942640.980 6  -2260346.18848  20116935.90148
  22843924.894 4  -1293965.746 4   -992986.80145  22843922.68345
  24467494.823 4   -578720.719 4   -398516.35947  24467494.59347
 20  5 16  3 24 20.9990000  0  7G01G07G08G09G11G16G30                0.000033876
  21796727.128 6  -4129017.801 6  -3178283.16049  21796729.37049
  21834894.534 6  -3787120.379 6  -2904834.76649  21834891.60849
  20515074.886 7  -1463433.207 7  -1131733.90249  20515075.24149
  23148921.206 5  -1247937.784 5   -955356.57448  23148923.16748
  20115989.347 6  -2947634.836 6  -2264237.50848  20115985.26948
  22843491.847 4  -1296238.512 4   -994757.77345  22843490.32745
  24466105.776 4   -586019.195 4   -404203.48047  24466105.55047
 20  5 16  3 24 21.9990000  0  7G01G07G08G09G11G16G30                0.000031437
  21795367.847 6  -4136163.191 6  -3183850.99249  21795369.82349
  21833643.019 6  -3793694.879 6  -2909957.75049  21833640.41749
  20514606.683 7  -1465893.695 7  -1133651.16849  20514606.44849
  23148521.722 5  -1250042.903 5   -956996.93248  23148522.45648
  20115038.714 6  -2952627.957 6  -2268128.25848  20115035.31248
  22843059.730 4  -1298511.051 4   -996528.56645  22843057.75745
  24464716.776 4   -593317.387 4   -409890.37947  24464717.31947
 20  5 16  3 24 22.9990000  0  7G01G07G08G09G11G16G30                0.000028997
  21794008.214 6  -4143308.051 6  -3189418.42249  21794009.96449
  21832392.159 6  -3800268.824 6  -2915080.30549  21832389.55449
  20514138.636 7  -1468353.730 7  -1135568.07849  20514138.44849
  23148121.034 5  -1252147.598 5   -958636.95348  23148121.99548
  20114088.565 6  -2957620.332 6  -2272018.41448  20114085.56248
  22842626.628 4  -1300783.223 4   -998299.07045  22842625.07345
  24463328.136 4   -600615.293 4   -415577.05147  24463328.21047
 20  5 16  3 24 23.9990000  0  7G01G07G08G09G11G16G30                0.000026558
  21792648.409 6  -4150452.535 6  -3194985.55149  21792650.61249
  21831141.230 6  -3806842.367 6  -2920202.54349  21831138.37849
  20513670.667 7  -1470813.445 7  -1137484.73449  20513670.78449
  23147719.901 5  -1254251.977 5   -960276.73048  23147721.41748
  20113138.776 6  -2962612.086 6  -2275908.09448  20113135.49148
  22842194.980 4  -1303055.318 4  -1000069.54745  22842193.16345
  24461939.026 4   -607913.059 4   -421263.61347  24461939.71047
 20  5 16  3 24 24.9990000  0  7G01G07G08G09G11G16G30                0.000024118
  21791288.862 6  -4157596.634 6  -3200552.38149  21791291.13649
  21829890.448 6  -3813415.438 6  -2925324.41849  21829887.62849
  20513202.894 7  -1473272.742 7  -1139401.07049  20513202.73349
  23147319.550 5  -1256355.957 5   -961916.19148  23147321.04648
  20112188.862 6  -2967603.172 6  -2279797.24648  20112185.67148
  22841762.917 4  -1305327.137 4  -1001839.80545  22841760.70245
  24460550.511 4   -615210.594 4   -426950.00047  24460550.53447
 20  5 16  3 24 25.9990000  0  7G01G07G08G09G11G16G30                0.000021679
  21789929.855 6  -4164740.324 6  -3206118.89149  21789931.57749
  21828639.901 6  -3819988.090 6  -2930445.96549  21828636.93749
  20512734.909 7  -1475731.750 7  -1141317.18049  20512734.77649
  23146918.636 5  -1258459.594 5   -963555.39548  23146920.97648
  20111239.472 6  -2972593.641 6  -2283685.92248  20111235.67548
  22841331.503 4  -1307598.805 4  -1003609.91845  22841328.63245
  24459162.261 4   -622508.016 4   -432636.30147  24459162.41347
 20  5 16  3 24 26.9990000  0  7G01G07G08G09G11G16G30                0.000019239
  21788570.651 6  -4171883.445 6  -3211684.95749  21788572.50349
  21827389.347 6  -3826560.148 6  -2935567.04349  21827386.56249
  20512266.847 7  -1478190.266 7  -1143232.90649  20512266.63649
  23146518.815 5  -1260562.773 5   -965194.23448  23146520.51548
  20110289.769 6  -2977583.281 6  -2287573.95748  20110286.06548
  22840898.183 4  -1309870.160 4  -1005379.80545  22840896.48045
  24457773.495 4   -629805.039 4   -438322.28947  24457773.72247
 20  5 16  3 24 27.9990000  0  7G01G07G08G09G11G16G30                0.000016802
  21787211.026 6  -4179026.027 6  -3217250.60549  21787213.13649
  21826138.823 6  -3833131.563 6  -2940687.62949  21826136.45249
  20511798.987 7  -1480648.227 7  -1145148.20749  20511798.76949
  23146118.831 5  -1262665.371 5   -966832.62548  23146120.36248
  20109340.730 6  -2982572.121 6  -2291461.36348  20109337.05848
  22840465.347 3  -1312141.164 3  -1007149.41845  22840464.29245
  24456384.753 4   -637101.762 4   -444008.04747  24456385.35547
 20  5 16  3 24 28.9990000  0  7G01G07G08G09G11G16G30                0.000014362
  21785852.300 6  -4186168.238 6  -3222815.95749  21785853.94049
  21824888.784 6  -3839702.609 6  -2945807.91849  21824885.87049
  20511331.128 7  -1483105.906 7  -1147063.28149  20511331.26949
  23145718.386 5  -1264767.688 5   -968470.78548  23145720.64048
  20108391.456 6  -2987560.379 6  -2295348.32048  20108387.74948
  22840033.589 3  -1314412.012 3  -1008918.91045  22840032.03045
  24454997.019 4   -644398.320 4   -449693.68847  24454996.63647
 20  5 16  3 24 29.9990000  0  7G01G07G08G09G11G16G30                0.000011923
  21784492.808 6  -4193310.074 6  -3228381.02349  21784495.01949
  21823637.894 6  -3846273.227 6  -2950927.87949  21823635.58549
  20510863.761 7  -1485563.246 7  -1148978.09049  20510863.74949
  23145318.362 5  -1266869.691 5   -970108.71148  23145320.33548
  20107442.065 6  -2992548.012 6  -2299234.78948  20107438.57348
  22839601.175 3  -1316682.711 3  -1010688.27745  22839600.22245
  24453608.448 4   -651694.742 4   -455379.21147  24453607.98047
 20  5 16  3 24 30.9990000  0  7G01G07G08G09G11G16G30                0.000009483
  21783134.050 6  -4200451.457 6  -3233945.73049  21783136.40549
  21822387.620 6  -3852843.367 6  -2956047.47349  21822385.10849
  20510396.230 7  -1488020.172 7  -1150892.58649  20510396.71849
  23144918.761 5  -1268971.250 5   -971746.29348  23144920.64748
  20106493.597 6  -2997534.965 6  -2303120.73048  20106489.75348
  22839169.659 3  -1318953.191 3  -1012457.49245  22839168.12845
  24452219.714 4   -658990.922 4   -461064.54347  24452219.73747
 20  5 16  3 24 31.9990000  0  7G01G07G08G09G11G16G30                0.000007044
  21781774.933 6  -4207592.410 6  -3239510.11349  21781777.17949
  21821137.308 6  -3859413.043 6  -2961166.69949  21821135.12449
  20509928.831 7  -1490476.750 7  -1152806.80549  20509929.21449
  23144519.284 5  -1271072.441 5   -973383.58648  23144520.73048
  20105544.565 6  -3002521.266 6  -2307006.15648  20105540.95648
  22838737.792 4  -1321223.445 4  -1014226.52745  22838736.14745
  24450831.081 4   -666286.918 4   -466749.73447  24450831.67147
 20  5 16  3 24 32.9990000  0  7G01G07G08G09G11G16G30                0.000004606
  21780417.089 6  -4214732.758 6  -3245074.02349  21780418.23749
  21819886.917 6  -3865982.043 6  -2966285.39549  21819884.74549
  20509461.222 7  -1492932.727 7  -1154720.54749  20509461.43349
  23144119.847 5  -1273173.074 5   -975020.44948  23144120.68348
  20104595.917 6  -3007506.676 6  -2310890.89148  20104592.07348
  22838305.620 3  -1323493.320 3  -1015995.26645  22838303.96845
  24449442.144 4   -673582.500 4   -472434.60547  24449443.00747
 20  5 16  3 24 33.9990000  0  7G01G07G08G09G11G16G30                0.000002167
  21779057.808 6  -4221872.500 6  -3250637.45749  21779059.28449
  21818637.284 6  -3872550.430 6  -2971403.61749  21818635.04649
  20508994.331 7  -1495388.164 7  -1156633.87549  20508994.16749
  23143719.558 5  -1275273.148 5   -976656.87148  23143721.10148
  20103647.159 6  -3012491.262 6  -2314774.98048  20103643.57748
  22837873.909 3  -1325762.816 3  -1017763.70745  22837872.39445
  24448053.112 4   -680877.750 4   -478119.21947  24448054.79647
 20  5 16  3 24 34.9990000  0  7G01G07G08G09G11G16G30               -0.000000271
  21777699.480 6  -4229011.832 6  -3256200.57049  21777701.23049
  21817387.714 6  -3879118.344 6  -2976521.47349  21817385.10849
  20508527.112 7  -1497843.191 7  -1158546.88749  20508527.13249
  23143319.792 5  -1277372.883 5   -978293.02748  23143321.64748
  20102698.698 6  -3017475.148 6  -2318658.53148  20102695.62848
  22837442.214 3  -1328032.094 3  -1019531.97345  22837440.71445
  24446666.003 4   -688172.758 4   -483803.63747  24446666.94847
 20  5 16  3 24 35.9990000  0  7G01G07G08G09G11G16G30               -0.000002710
  21776340.417 6  -4236150.785 6  -3261763.39549  21776342.72249
  21816137.651 6  -3885685.855 6  -2981639.01249  21816135.81949
  20508060.331 7  -1500297.934 7  -1160459.67649  20508059.72649
  23142920.940 5  -1279472.277 5   -979928.91448  23142922.27648
  20101750.550 6  -3022458.496 6  -2322541.65648  20101747.11648
  22837011.003 3  -1330301.258 3  -1021300.16845  22837008.87045
  24445277.573 4   -695467.648 4   -489487.95347  24445278.53447
 20  5 16  3 24 36.9990000  0  7G01G07G08G09G11G16G30               -0.000005148
  21774982.315 6  -4243289.426 6  -3267325.96949  21774984.28049
  21814888.128 6  -3892252.992 6  -2986756.26249  21814885.78449
  20507593.073 7  -1502752.352 7  -1162372.20349  20507592.55449
  23142521.308 5  -1281571.367 5   -981564.57048  23142522.95248
  20100802.370 6  -3027441.223 6  -2326424.30548  20100798.92148
  22836578.128 3  -1332570.270 3  -1023068.19545  22836576.67545
  24443889.261 4   -702762.363 4   -495172.14147  24443890.39447
 20  5 16  3 24 37.9990000  0  7G01G07G08G09G11G16G30               -0.000007586
  21773624.011 6  -4250427.555 6  -3272888.14849  21773625.59349
  21813638.487 6  -3898819.582 6  -2991873.08649  21813636.07349
  20507126.222 7  -1505206.359 7  -1164284.41849  20507126.19449
  23142121.886 5  -1283670.027 5   -983199.88748  23142123.55048
  20099853.636 6  -3032423.203 6  -2330306.36348  20099850.36248
  22836146.425 3  -1334839.023 3  -1024836.03545  22836144.94445
  24442501.714 4   -710056.902 4   -500856.19947  24442502.51147
 20  5 16  3 24 38.9990000  0  7G01G07G08G09G11G16G30               -0.000010025
  21772265.737 6  -4257565.121 6  -3278449.88749  21772267.47649
  21812388.862 6  -3905385.578 6  -2996989.44149  21812386.93349
  20506659.089 7  -1507659.867 7  -1166196.24649  20506659.19849
  23141722.073 5  -1285768.199 5   -984834.82048  23141724.37848
  20098906.362 6  -3037404.398 6  -2334187.81648  20098902.73048
  22835714.425 3  -1337107.445 3  -1026603.64545  22835713.62845
  24441113.026 4   -717351.078 4   -506539.96947  24441113.85147
 20  5 16  3 24 39.9990000  0  7G01G07G08G09G11G16G30               -0.000012463
  21770907.956 6  -4264702.188 6  -3284011.23849  21770909.42949
  21811139.995 6  -3911951.035 6  -3002105.38349  21811137.48349
  20506192.534 7  -1510112.914 7  -1168107.71149  20506192.55049
  23141322.870 5  -1287865.898 5   -986469.39548  23141325.19048
  20097958.120 6  -3042384.832 6  -2338068.66848  20097954.90148
  22835282.855 3  -1339375.555 3  -1028371.00845  22835281.73345
  24439724.886 4   -724644.922 4   -512223.48047  24439726.08147
 20  5 16  3 24 40.9990000  0  7G01G07G08G09G11G16G30               -0.000014900
  21769549.730 6  -4271838.809 6  -3289572.23849  21769551.54649
  21809890.620 6  -3918515.992 6  -3007220.93849  21809888.30049
  20505725.323 7  -1512565.570 7  -1170018.86749  20505725.46049
  23140923.401 5  -1289963.191 5   -988103.65248  23140925.80848
  20097011.003 6  -3047364.629 6  -2341949.03548  20097007.26148
  22834850.605 2  -1341643.484 2  -1030138.21945  22834850.18345
  24438336.831 4   -731938.609 4   -517906.86747  24438338.49547
 20  5 16  3 24 41.9990000  0  7G01G07G08G09G11G16G30               -0.000017340
  21768191.776 6  -4278975.129 6  -3295133.00449  21768192.80449
  21808640.917 6  -3925080.625 6  -3012336.23049  21808638.74149
  20505258.917 7  -1515017.934 7  -1171929.80149  20505259.15149
  23140524.636 5  -1292060.281 5   -989737.75048  23140527.10848
  20096063.534 6  -3052343.840 6  -2345828.93448  20096059.83548
  22834419.308 3  -1343911.328 3  -1031905.39145  22834418.63645
  24436949.425 5   -739232.180 5   -523590.16847  24436949.92147
 20  5 16  3 24 42.9990000  0  7G01G07G08G09G11G16G30               -0.000019777
  21766833.761 6  -4286111.129 6  -3300693.52049  21766835.59749
  21807391.800 6  -3931644.840 6  -3017451.20349  21807389.78449
  20504792.370 7  -1517470.031 7  -1173840.52749  20504792.46449
  23140125.987 5  -1294157.000 5   -991371.57048  23140127.84748
  20095115.933 6  -3057322.504 6  -2349708.41448  20095112.53048
  22833987.511 3  -1346178.984 3  -1033672.37545  22833987.14745
  24435560.620 4   -746525.715 4   -529273.44747  24435562.11647
 20  5 16  3 24 43.9990000  0  7G01G07G08G09G11G16G30               -0.000022215
  21765475.995 6  -4293246.547 6  -3306253.59049  21765477.37849
  21806143.167 6  -3938208.500 6  -3022565.74249  21806140.47649
  20504325.722 7  -1519921.633 7  -1175750.87549  20504325.46049
  23139727.183 5  -1296253.254 5   -993005.02748  23139728.78848
  20094168.573 6  -3062300.328 6  -2353587.24248  20094165.38648
  22833556.808 3  -1348446.363 3  -1035439.18045  22833555.55445
  24434173.300 4   -753818.724 4   -534956.31247  24434174.33947
