     2.10           OBSERVATION DATA    GPS(GPS)            RINEX VERSION / TYPE
cnvtToRINEX 3.07.0  convertToRINEX OPR  19-May-20 12:31 UTC PGM / RUN BY / DATE 
----------------------------------------------------------- COMMENT             
GBA0                                                        MARKER NAME         
GBA0                                                        MARKER NUMBER       
GNSS Observer       Trimble                                 OBSERVER / AGENCY   
0220324777          5700                2.32                REC # / TYPE / VERS 
                    TRM39105.00                             ANT # / TYPE        
 -3050437.0650  4927956.6729  2653974.6599                  APPROX POSITION XYZ 
       -0.0460        0.0000        0.0000                  ANTENNA: DELTA H/E/N
     1     1     0                                          WAVELENGTH FACT L1/2
     4    C1    L1    L2    P2                              # / TYPES OF OBSERV 
  2020     5    16     1    37   50.0000000     GPS         TIME OF FIRST OBS   
  2020     5    16     3     9   18.0000000     GPS         TIME OF LAST OBS    
     0                                                      RCV CLOCK OFFS APPL 
    18                                                      LEAP SECONDS        
     9                                                      # OF SATELLITES     
   G01  2579  2578  2579  2579                              PRN / # OF OBS      
   G04  5460  5460  5460  5460                              PRN / # OF OBS      
   G08  5489  5489  5489  5489                              PRN / # OF OBS      
   G09  5354  5334  5346  5346                              PRN / # OF OBS      
   G11  5489  5484  5463  5463                              PRN / # OF OBS      
   G16  5489  5489  5489  5489                              PRN / # OF OBS      
   G26  4686  4643  4639  4639                              PRN / # OF OBS      
   G27  5489  5489  5489  5489                              PRN / # OF OBS      
   G31  1905  1899  1860  1860                              PRN / # OF OBS      
CARRIER PHASE MEASUREMENTS: PHASE SHIFTS REMOVED            COMMENT             
                                                            END OF HEADER       
 20  5 16  1 37 50.0000000  0  5G08G11G16G27G31                      0.000069931
  20760548.39116    -34468.40216    -10186.55559  20760547.42659
  23531537.25015    -60215.52715    -16241.52057  23531533.68857
  21479486.89116      5381.73016      2628.69957  21479482.81357
  20116674.21917     -6436.20717     -3287.48459  20116672.66059
  23464472.32015     21310.98815                
 20  5 16  1 37 51.0000000  0  5G08G11G16G27G31                      0.000069357
  20760070.625 6    -36978.340 6    -12142.35549  20760069.91449
  23530713.672 6    -64542.938 6    -19613.49646  23530709.96946
  21479546.313 6      5693.648 6      2871.75047  21479542.29347
  20116600.758 7     -6821.855 7     -3587.99649  20116599.41849
  23464756.484 5     22803.709 5       963.66857  23464756.11757
 20  5 16  1 37 52.0000000  0  5G08G11G16G27G31                      0.000068781
  20759592.859 6    -39490.453 6    -14099.84849  20759591.79749
  23529889.656 5    -68872.984 5    -22987.54346  23529886.07446
  21479605.445 6      6002.934 6      3112.75847  21479600.97747
  20116527.047 7     -7209.609 7     -3890.14149  20116525.71149
  23465039.602 5     24293.988 5      2124.89547  23465039.71147
 20  5 16  1 37 53.0000000  0  5G08G11G16G27G31                      0.000068203
  20759113.781 6    -42004.816 6    -16059.09049  20759113.29349
  23529065.297 5    -73205.754 5    -26363.71947  23529061.79347
  21479663.906 6      6309.434 6      3351.58247  21479659.82047
  20116452.547 7     -7599.574 7     -4194.00449  20116451.29349
  23465323.141 5     25781.715 5      3284.14847  23465322.73847
 20  5 16  1 37 54.0000000  0  5G08G11G16G27G31                      0.000067625
  20758635.422 6    -44521.258 6    -18019.94949  20758634.27349
  23528240.328 6    -77541.070 6    -29741.89847  23528236.43047
  21479721.570 6      6613.438 6      3588.46547  21479717.27047
  20116378.102 7     -7991.539 7     -4499.43049  20116376.48849
  23465605.156 5     27267.090 5      4441.58647  23465605.25047
 20  5 16  1 37 55.0000000  0  5G08G11G16G27G31                      0.000067043
  20758156.219 6    -47039.719 6    -19982.38349  20758155.50049
  23527415.125 6    -81878.887 6    -33122.03147  23527411.01647
  21479779.070 6      6914.930 6      3823.39147  21479774.51647
  20116303.055 7     -8385.465 7     -4806.38349  20116301.60549
  23465887.641 5     28750.211 5      5597.27347  23465887.62147
 20  5 16  1 37 56.0000000  0  5G08G11G16G27G31                      0.000066462
  20757676.289 6    -49559.945 6    -21946.19949  20757675.87949
  23526589.633 6    -86218.918 6    -36503.85947  23526585.25847
  21479835.680 6      7214.180 6      4056.57447  21479831.72747
  20116227.867 6     -8781.078 6     -5114.66449  20116226.54749
  23466169.617 5     30231.285 5      6751.35547  23466169.80547
 20  5 16  1 37 57.0000000  0  5G08G11G16G27G31                      0.000065878
  20757196.406 6    -52081.688 6    -23911.18849  20757195.64849
  23525763.031 6    -90560.969 6    -39887.27746  23525759.03946
  21479892.328 6      7511.430 6      4288.21547  21479888.44947
  20116152.430 6     -9178.164 6     -5424.07449  20116150.72749
  23466451.188 5     31710.500 5      7904.00047  23466451.49647
 20  5 16  1 37 58.0000000  0  5G08G11G16G27G31                      0.000065294
  20756715.828 6    -54604.938 6    -25877.35249  20756715.26649
  23524936.492 6    -94904.961 6    -43272.20746  23524932.41046
  21479948.484 6      7806.723 6      4518.32047  21479944.55947
  20116076.703 6     -9576.660 6     -5734.59049  20116074.73449
  23466732.602 5     33188.008 5      9055.31347  23466732.20747
 20  5 16  1 37 59.0000000  0  5G08G11G16G27G31                      0.000064707
  20756235.367 6    -57129.727 6    -27844.72349  20756235.47749
  23524109.555 6    -99250.977 6    -46658.71547  23524105.60547
  21480003.930 6      8099.965 6      4746.82047  21480000.31647
  20116000.555 6     -9976.656 6     -6046.28149  20115999.12549
  23467013.391 5     34663.707 5     10205.21147  23467013.01247
 20  5 16  1 38  0.0000000  0  5G08G11G16G27G31                      0.000064119
  20755754.805 6    -59655.727 6    -29813.04349  20755754.63749
  23523281.867 6   -103598.653 6    -50046.51847  23523278.19947
  21480059.414 6      8391.547 6      4974.02047  21480055.68447
  20115924.250 6    -10377.801 6     -6358.85549  20115922.70749
  23467293.938 5     36137.902 5     11353.92247  23467293.90647
 20  5 16  1 38  1.0000000  0  5G08G11G16G27G31                      0.000063532
  20755273.773 6    -62183.027 6    -31782.36749  20755273.71549
  23522454.258 6   -107948.129 6    -53435.72747  23522450.98847
  21480115.250 6      8681.316 6      5199.81347  21480111.18447
  20115847.367 6    -10780.188 6     -6672.40249  20115846.13349
  23467574.180 5     37610.492 5     12501.38747  23467573.90247
 20  5 16  1 38  2.0000000  0  5G08G11G16G27G31                      0.000062943
  20754793.195 6    -64711.410 6    -33752.53149  20754792.37949
  23521626.031 5   -112299.172 5    -56826.14846  23521622.59446
  21480169.680 6      8969.547 6      5424.40247  21480165.80947
  20115770.969 6    -11183.590 6     -6986.74649  20115769.27049
  23467853.711 5     39081.789 5     13647.85547  23467853.76647
 20  5 16  1 38  3.0000000  0  5G08G11G16G27G31                      0.000062351
  20754311.719 6    -67240.969 6    -35723.61349  20754311.27749
  23520797.766 5   -116651.855 5    -60217.83646  23520794.65646
  21480224.281 6      9256.117 6      5647.69547  21480220.40647
  20115693.664 7    -11588.098 7     -7301.94549  20115692.14849
  23468133.852 5     40551.605 5     14793.16447  23468133.60247
 20  5 16  1 38  4.0000000  0  5G08G11G16G27G31                      0.000061762
  20753830.008 6    -69771.395 6    -37695.38349  20753829.40649
  23519969.406 5   -121005.871 5    -63610.56346  23519965.75046
  21480278.117 6      9541.277 6      5869.89847  21480274.51647
  20115616.773 7    -11993.445 7     -7617.80149  20115615.58249
  23468413.438 5     42020.246 5     15937.54347  23468412.97747
 20  5 16  1 38  5.0000000  0  5G08G11G16G27G31                      0.000061169
  20753348.039 6    -72302.492 6    -39667.66449  20753347.75049
  23519140.820 5   -125361.082 5    -67004.24246  23519137.05946
  21480331.828 6      9825.340 6      6091.24647  21480328.46947
  20115539.453 7    -12399.414 7     -7934.14149  20115537.87549
  23468691.930 5     43487.945 5     17081.20747  23468692.19547
 20  5 16  1 38  6.0000000  0  5G08G11G16G27G31                      0.000060575
  20752866.492 6    -74834.254 6    -41640.46149  20752866.07449
  23518311.227 5   -129717.434 5    -70398.79346  23518307.77346
  21480386.664 6     10108.238 6      6311.69547  21480382.28147
  20115462.102 7    -12805.980 7     -8250.94949  20115460.25849
  23468972.000 5     44954.684 5     18224.11347  23468971.16047
 20  5 16  1 38  7.0000000  0  5G08G11G16G27G31                      0.000059982
  20752384.672 6    -77366.813 6    -43613.88349  20752384.13349
  23517482.555 5   -134075.125 5    -73794.39546  23517479.45346
  21480439.820 6     10389.836 6      6531.11747  21480435.89147
  20115384.727 7    -13213.301 7     -8568.34049  20115382.91849
  23469250.484 5     46420.305 5     19366.15247  23469250.34847
 20  5 16  1 38  8.0000000  0  5G08G11G16G27G31                      0.000059387
  20751902.719 6    -79899.871 6    -45587.69949  20751902.26649
  23516652.828 5   -138433.590 5    -77190.60246  23516649.44546
  21480492.953 6     10670.512 6      6749.82847  21480489.49647
  20115306.914 7    -13620.996 7     -8886.02049  20115305.41849
  23469528.211 5     47885.266 5     20507.70347  23469528.94947
 20  5 16  1 38  9.0000000  0  5G08G11G16G27G31                      0.000058792
  20751420.484 6    -82433.344 6    -47561.82849  20751420.12949
  23515822.906 5   -142793.086 5    -80587.62946  23515820.11346
  21480546.906 6     10950.223 6      6967.76647  21480542.55147
  20115229.266 7    -14029.137 7     -9204.04749  20115227.80949
  23469808.000 5     49349.469 5     21648.62947  23469807.36747
 20  5 16  1 38 10.0000000  0  5G08G11G16G27G31                      0.000058197
  20750938.344 6    -84967.281 6    -49536.32849  20750937.70349
  23514993.938 6   -147153.467 6    -83985.35247  23514990.09447
  21480600.258 6     11229.012 6      7185.00447  21480595.71147
  20115151.539 7    -14437.613 7     -9522.34849  20115149.78549
  23470086.977 5     50812.926 5     22788.97747  23470085.84047
 20  5 16  1 38 11.0000000  0  5G08G11G16G27G31                      0.000057600
  20750456.477 6    -87501.738 6    -51511.23449  20750455.55549
  23514164.086 5   -151514.859 5    -87383.83246  23514160.05946
  21480652.617 6     11506.816 6      7401.48047  21480648.45347
  20115073.914 7    -14846.586 7     -9841.03149  20115072.35949
  23470365.148 5     52275.609 5     23928.72347  23470364.48847
 20  5 16  1 38 12.0000000  0  5G08G11G16G27G31                      0.000057003
  20749974.094 6    -90036.578 6    -53486.43049  20749973.27049
  23513333.453 5   -155877.086 5    -90782.95346  23513330.17646
  21480705.688 6     11783.773 6      7617.30147  21480701.48847
  20114996.258 7    -15255.828 7    -10159.92649  20114994.39549
  23470643.781 5     53737.645 5     25067.97347  23470642.65247
 20  5 16  1 38 13.0000000  0  5G08G11G16G27G31                      0.000056404
  20749491.125 6    -92571.789 6    -55461.92249  20749490.69149
  23512503.664 6   -160240.145 6    -94182.73846  23512500.02046
  21480758.102 6     12059.848 6      7832.42247  21480753.67647
  20114917.906 7    -15665.422 7    -10479.08249  20114916.36349
  23470921.555 5     55199.047 5     26206.72747  23470920.63347
 20  5 16  1 38 14.0000000  0  6G08G11G16G26G27G31                   0.000055803
  20749009.148 6    -95107.191 6    -57437.56649  20749008.63749
  23511673.758 4   -164603.920 4    -97583.08446  23511669.14146
  21480810.563 6     12335.188 6      8046.96547  21480806.20347
  22877605.90616     28063.57016     14856.99257  22877606.96957
  20114839.984 6    -16075.219 6    -10798.40649  20114838.46149
  23471199.414 4     56659.852 4     27345.03147  23471198.93447
 20  5 16  1 38 15.0000000  0  6G08G11G16G26G27G31                   0.000055204
  20748526.719 6    -97643.000 6    -59413.51249  20748526.12549
  23510843.93811                   -100983.97356  23510838.91856
  21480862.414 6     12609.695 6      8260.86347  21480858.82447
  22877754.539 6     28842.496 6     15463.91047  22877755.93847
  20114761.820 6    -16485.254 6    -11117.90649  20114760.07849
  23471477.22711                     28482.96956  23471476.42256
 20  5 16  1 38 16.0000000  0  6G08G11G16G26G27G31                   0.000054594
  20748044.102 6   -100178.941 6    -61389.57849  20748043.21149
  23510011.703 5                                
  21480914.305 6     12883.699 6      8474.36747  21480910.96947
  22877903.242 6     29620.914 6     16070.44947  22877903.51247
  20114683.578 6    -16895.328 6    -11437.44949  20114682.16449
  23471757.969 1                     29620.49246  23471754.46146
 20  5 16  1 38 17.0000000  0  6G08G11G16G26G27G31                   0.000053995
  20747561.453 6   -102715.180 6    -63365.87149  20747560.64549
  23509180.477 5                                
  21480966.445 6     13156.887 6      8687.23447  21480962.87147
  22878051.109 6     30398.367 6     16676.24647  22878051.26647
  20114605.313 6    -17305.656 6    -11757.19149  20114604.53549
  23472037.51611                     30757.70756  23472032.00856
 20  5 16  1 38 18.0000000  0  5G08G11G16G26G27                      0.000053394
  20747078.766 6   -105251.410 6    -65342.15249  20747078.35949
  23508349.984 5                                
  21481018.445 6     13429.539 6      8899.69547  21481014.91047
  22878198.633 6     31175.262 6     17281.62147  22878198.99247
  20114527.711 6    -17715.969 6    -12076.91849  20114526.68449
 20  5 16  1 38 19.0000000  0  6G04G08G11G16G26G27                   0.000052794
  21428240.18815    -17245.39115     -8636.72356  21428238.42656
  20746596.125 6   -107787.613 6    -67318.40649  20746595.23449
  23507519.180 5                                
  21481070.148 6     13701.793 6      9111.84447  21481066.56347
  22878346.328 6     31951.676 6     17886.62947  22878346.64847
  20114449.555 6    -18126.164 6    -12396.55149  20114448.20749
 20  5 16  1 38 20.0000000  0  7G04G08G09G11G16G26G27                0.000052193
  21428145.797 5    -17738.621 5     -9021.05546  21428144.64546
  20746113.477 6   -110323.910 6    -69294.74249  20746112.86749
  23066068.75813    -79162.38713    -43219.93856  23066067.77356
  23506687.633 5   -190800.695 5                
  21481121.555 6     13973.410 6      9323.50847  21481118.05147
  22878493.938 6     32727.430 6     18491.12147  22878494.12147
  20114371.289 6    -18536.410 6    -12716.22749  20114369.96949
 20  5 16  1 38 21.0000000  0  7G04G08G09G11G16G26G27                0.000051603
  21428052.195 5    -18232.031 5     -9405.52746  21428050.24646
  20745630.773 6   -112860.469 6    -71271.27749  20745629.91849
  23065616.766 3    -81534.883 3    -45068.65246  23065616.23846
  23505856.555 4   -195168.879 4                
  21481172.867 6     14244.309 6      9534.60547  21481169.73047
  22878641.078 6     33502.344 6     19094.94147  22878641.80147
  20114292.961 6    -18946.895 6    -13036.08249  20114291.98049
 20  5 16  1 38 22.0000000  0  7G04G08G09G11G16G26G27                0.000051003
  21427958.211 5    -18725.449 5     -9790.01246  21427956.37946
  20745147.914 6   -115397.082 6    -73247.86349  20745147.23849
  23065165.875 3    -83907.445 3    -46917.40246  23065164.95746
  23505025.008 5   -199537.660 5                
  21481223.859 6     14514.664 6      9745.27347  21481221.25847
  22878789.148 6     34276.625 6     19698.26247  22878789.09447
  20114215.250 6    -19357.340 6    -13355.91449  20114214.10549
 20  5 16  1 38 23.0000000  0  7G04G08G09G11G16G26G27                0.000050400
  21427864.406 5    -19218.664 5    -10174.33646  21427862.85946
  20744665.359 6   -117933.539 6    -75224.32849  20744664.71949
  23064715.023 3    -86279.836 3    -48766.02046  23064713.42246
  23504194.109 5   -203906.695 5                
  21481275.680 6     14784.695 6      9955.68047  21481272.59847
  22878935.922 6     35050.508 6     20301.29347  22878936.04747
  20114136.953 6    -19767.570 6    -13675.57449  20114135.82849
 20  5 16  1 38 24.0000000  0  7G04G08G09G11G16G26G27                0.000049799
  21427771.094 5    -19711.809 5    -10558.61346  21427769.12546
  20744182.586 6   -120469.984 6    -77200.78949  20744182.07449
  23064263.031 3    -88652.156 3    -50614.57446  23064261.70746
  23503362.461 5   -208276.211 5                
  21481327.344 6     15054.250 6     10165.72747  21481324.02047
  22879082.391 5     35823.902 5     20903.95746  22879082.96946
  20114058.984 6    -20177.719 6    -13995.16849  20114057.89149
 20  5 16  1 38 25.0000000  0  7G04G08G09G11G16G26G27                0.000049196
  21427676.656 5    -20204.723 5    -10942.69546  21427674.83246
  20743700.156 6   -123006.297 6    -79177.13749  20743699.21549
  23063812.164 3    -91024.363 3    -52463.07046  23063810.26246
  23502530.188 5   -212646.078 5                
  21481378.234 6     15323.492 6     10375.52047  21481375.44947
  22879230.008 5     36596.871 5     21506.27046  22879230.33246
  20113981.094 6    -20587.711 6    -14314.64549  20113979.81649
 20  5 16  1 38 26.0000000  0  7G04G08G09G11G16G26G27                0.000048594
  21427583.063 5    -20697.570 5    -11326.74246  21427581.37546
  20743217.688 6   -125542.523 6    -81153.41449  20743217.09849
  23063359.391 2    -93396.566 2    -54311.52046  23063358.75846
  23501698.523 4   -217016.320 4                
  21481429.023 6     15592.301 6     10584.97747  21481426.63747
  22879377.172 6     37369.375 6     22108.20347  22879376.91847
  20113903.359 6    -20997.563 6    -14634.01649  20113902.10249
 20  5 16  1 38 27.0000000  0  7G04G08G09G11G16G26G27                0.000047989
  21427489.516 5    -21190.324 5    -11710.70346  21427487.63346
  20742734.711 6   -128078.777 6    -83129.71149  20742733.98849
  23062908.461 3    -95768.664 3    -56159.89546  23062907.26246
  23500866.672 4   -221387.086 4                
  21481479.992 6     15860.613 6     10794.06647  21481477.37147
  22879524.484 6     38141.277 6     22709.66847  22879523.98447
  20113824.930 6    -21407.348 6    -14953.32449  20113823.79349
 20  5 16  1 38 28.0000000  0  7G04G08G09G11G16G26G27                0.000047386
  21427395.148 5    -21682.996 5    -12094.60246  21427393.80546
  20742252.133 6   -130614.992 6    -85105.98849  20742251.62549
  23062457.047 3    -98140.785 3    -58008.30146  23062455.62146
  23500035.391 5   -225758.254 5                
  21481531.094 6     16128.500 6     11002.80947  21481528.25047
  22879670.492 6     38912.684 6     23310.74647  22879670.76247
  20113747.273 6    -21817.047 6    -15272.57449  20113746.06349
 20  5 16  1 38 29.0000000  0  7G04G08G09G11G16G26G27                0.000046782
  21427302.063 5    -22175.320 5    -12478.23446  21427299.94146
  20741769.578 6   -133150.926 6    -87082.03949  20741768.79349
  23062005.914 3   -100512.625 3    -59856.49646  23062004.32846
  23499203.758 5   -230129.602 5                
  21481582.227 6     16396.176 6     11211.38747  21481579.39847
  22879817.203 6     39683.805 6     23911.62547  22879817.70747
  20113669.742 6    -22226.398 6    -15591.55149  20113667.93449
 20  5 16  1 38 30.0000000  0  7G04G08G09G11G16G26G27                0.000046179
  21427208.297 5    -22667.371 5    -12861.64546  21427206.52746
  20741287.406 6   -135686.629 6    -89057.91049  20741286.55549
  23061554.352 3   -102884.191 3    -61704.46546  23061552.86746
  23498371.625 5   -234501.258 5                
  21481633.477 6     16663.586 6     11419.75847  21481630.18847
  22879963.969 6     40454.590 6     24512.23047  22879964.13747
  20113591.883 6    -22635.465 6    -15910.30549  20113590.09849
 20  5 16  1 38 31.0000000  0  7G04G08G09G11G16G26G27                0.000045574
  21427115.070 5    -23159.113 5    -13244.81647  21427112.89847
  20740804.742 6   -138222.102 6    -91033.60549  20740804.07849
  23061102.828 3   -105255.480 3    -63552.23446  23061101.84446
  23497540.359 4   -238873.103 4                
  21481684.172 6     16930.793 6     11627.96547  21481681.30947
  22880110.391 6     41225.098 6     25112.62947  22880110.59447
  20113513.789 6    -23044.250 6    -16228.84049  20113512.12149
 20  5 16  1 38 32.0000000  0  7G04G08G09G11G16G26G27                0.000044970
  21427020.766 5    -23650.715 5    -13627.87946  21427019.13746
  20740322.453 6   -140757.477 6    -93009.21949  20740321.35249
  23060651.773 3   -107626.707 3    -65399.96146  23060650.43846
  23496708.023 4   -243245.273 4                
  21481734.641 6     17197.582 6     11835.84847  21481731.55547
  22880257.055 6     41995.098 6     25712.63347  22880257.03147
  20113435.945 6    -23452.863 6    -16547.24249  20113434.41049
 20  5 16  1 38 33.0000000  0  7G04G08G09G11G16G26G27                0.000044365
  21426927.078 5    -24142.207 5    -14010.85946  21426926.11746
  20739840.023 6   -143292.797 6    -94984.79349  20739839.22749
  23060200.258 3   -109997.848 3    -67247.60946  23060199.32846
  23495875.320 4   -247617.879 4                
  21481785.039 6     17463.961 6     12043.42247  21481782.40247
  22880403.563 6     42764.598 6     26312.24247  22880403.28547
  20113358.141 6    -23861.359 6    -16865.54749  20113356.98849
 20  5 16  1 38 34.0000000  0  7G04G08G09G11G16G26G27                0.000043760
  21426833.813 5    -24633.195 5    -14393.44146  21426832.53546
  20739357.352 6   -145827.695 6    -96960.04349  20739356.48449
  23059749.195 3   -112368.613 3    -69094.96546  23059747.78146
  23495044.000 5   -251990.598 5                
  21481836.008 6     17730.242 6     12250.91047  21481833.07047
  22880549.859 6     43533.984 6     26911.76647  22880550.26247
  20113280.586 6    -24269.422 6    -17183.51649  20113279.38349
 20  5 16  1 38 35.0000000  0  7G04G08G09G11G16G26G27                0.000043156
  21426740.828 5    -25124.086 5    -14775.95346  21426738.96546
  20738874.758 6   -148362.520 6    -98935.23049  20738874.19949
  23059297.938 3   -114739.246 3    -70942.20346  23059296.50846
  23494211.305 5   -256363.684 5                
  21481886.820 6     17996.117 6     12458.09047  21481883.64847
  22880696.813 6     44302.879 6     27510.91447  22880696.30147
  20113202.703 6    -24677.320 6    -17501.36749  20113201.72749
 20  5 16  1 38 36.0000000  0  7G04G08G09G11G16G26G27                0.000042549
  21426647.281 5    -25614.652 5    -15158.22346  21426645.55546
  20738392.773 6   -150897.090 6   -100910.22349  20738392.09049
  23058847.391 3   -117109.652 3    -72789.27046  23058845.61346
  23493379.477 5   -260736.965 5                
  21481937.367 6     18261.793 6     12665.11747  21481934.45747
  22880842.586 6     45071.500 6     28109.84446  22880842.60946
  20113125.102 6    -25084.898 6    -17818.95749  20113123.85249
 20  5 16  1 38 37.0000000  0  7G04G08G09G11G16G26G27                0.000041945
  21426553.508 6    -26104.887 6    -15540.22346  21426552.10246
  20737910.023 6   -153431.363 6   -102884.98449  20737909.79749
  23058396.023 3   -119479.730 3    -74636.08246  23058394.53546
  23492547.164 5   -265110.480 5                
  21481987.398 6     18527.281 6     12871.98847  21481985.02347
  22880989.141 6     45839.852 6     28708.55546  22880988.86346
  20113047.398 6    -25492.148 6    -18136.29349  20113046.75049
 20  5 16  1 38 38.0000000  0  7G04G08G09G11G16G26G27                0.000041338
  21426460.766 5    -26594.898 5    -15922.05146  21426458.91446
  20737427.930 6   -155965.539 6   -104859.66049  20737427.59849
  23057945.398 3   -121849.730 3    -76482.83246  23057944.00846
  23491715.750 5   -269484.234 5                
  21482038.242 6     18792.465 6     13078.62547  21482035.14147
  22881135.484 6     46607.879 6     29307.02047  22881135.01647
  20112970.063 7    -25899.234 7    -18453.50049  20112968.84849
 20  5 16  1 38 39.0000000  0  7G04G08G09G11G16G26G27                0.000040733
  21426367.383 5    -27084.598 5    -16303.62946  21426365.78546
  20736945.914 6   -158499.398 6   -106834.08649  20736945.41849
  23057493.719 3   -124219.398 3    -78329.36346  23057492.97346
  23490883.570 6   -273858.266 6                
  21482088.609 6     19057.387 6     13285.06347  21482085.47347
  22881281.039 5     47375.461 5     29905.16847  22881281.40247
  20112892.930 7    -26305.961 7    -18770.41849  20112891.64549
 20  5 16  1 38 40.0000000  0  8G04G08G09G11G16G26G27G31             0.000040127
  21426274.180 5    -27573.941 5    -16684.93846  21426272.62946
  20736463.945 6   -161033.000 6   -108808.32049  20736463.30549
  23057043.227 3   -126588.813 3    -80175.69546  23057041.57446
  23490051.031 6   -278232.430 6                
  21482138.719 6     19322.121 6     13491.34847  21482135.95347
  22881427.109 5     48142.887 5     30503.19947  22881427.53147
  20112815.602 7    -26712.348 7    -19087.08649  20112814.75049
  23478408.00016                                
 20  5 16  1 38 41.0000000  0  8G04G08G09G11G16G26G27G31             0.000039520
  21426181.289 5    -28062.918 5    -17065.96946  21426179.91846
  20735981.430 7   -163566.270 7   -110782.30149  20735981.45349
  23056593.117 3   -128957.840 3    -82021.69146  23056590.95746
  23489218.164 6   -282606.773 6                
  21482189.266 6     19586.703 6     13697.51247  21482186.35247
  22881573.273 5     48910.000 5     31100.95347  22881574.22747
  20112738.023 7    -27118.324 7    -19403.43049  20112737.32449
  23478684.742 6                     33255.16658  23478682.79358
 20  5 16  1 38 42.0000000  0  8G04G08G09G11G16G26G27G31             0.000038914
  21426088.023 5    -28551.590 5    -17446.75446  21426086.75046
  20735499.438 7   -166099.289 7   -112756.09049  20735498.99249
  23056142.086 3   -131326.594 3    -83867.46946  23056140.19946
  23488385.563 6   -286981.355 6   -122104.13357  23488381.73857
  21482240.031 6     19851.027 6     13903.48047  21482236.82447
  22881718.938 5     49676.848 5     31698.48847  22881720.00047
  20112661.320 7    -27524.031 7    -19719.57449  20112659.75449
  23478962.156 6                     34389.35447  23478960.24647
 20  5 16  1 38 43.0000000  0  8G04G08G09G11G16G26G27G31             0.000038307
  21425995.484 5    -29040.035 5    -17827.37146  21425993.62546
  20735018.039 7   -168632.145 7   -114729.75049  20735017.25849
  23055691.148 3   -133695.199 3    -85713.12946  23055689.53946
  23487552.969 6   -291356.238 6   -125513.14547  23487549.76647
  21482290.023 6     20115.066 6     14109.21947  21482287.03147
  22881865.086 5     50443.324 5     32295.73847  22881866.41847
  20112584.203 7    -27929.484 7    -20035.51249  20112582.39549
  23479239.211 6      7880.805 6     35523.48247  23479237.61347
 20  5 16  1 38 44.0000000  0  8G04G08G09G11G16G26G27G31             0.000037701
  21425902.336 5    -29528.039 5    -18207.62946  21425900.70346
  20734536.023 7   -171164.590 7   -116703.08249  20734535.27349
  23055240.523 2   -136063.441 2    -87558.50446  23055239.60246
  23486720.578 6   -295731.184 6   -128922.20347  23486716.87147
  21482339.883 6     20379.008 6     14314.89147  21482337.22347
  22882009.844 5     51209.629 5     32892.85547  22882011.80147
  20112507.023 7    -28334.492 7    -20351.10249  20112505.65249
  23479515.617 6      9336.379 6     36657.64847  23479514.72747
 20  5 16  1 38 45.0000000  0  8G04G08G09G11G16G26G27G31             0.000037092
  21425810.008 5    -30015.660 5    -18587.59846  21425807.73446
  20734053.883 6   -173696.816 6   -118676.24249  20734053.40649
  23054789.914 2   -138431.379 2    -89403.64846  23054788.80146
  23485887.875 6   -300106.320 6   -132331.39547  23485884.48047
  21482390.172 6     20642.750 6     14520.40647  21482387.32847
  22882156.055 4     51975.652 4     33489.74647  22882157.89847
  20112429.805 7    -28739.172 7    -20666.44149  20112428.28949
  23479793.195 6     10791.930 6     37791.86747  23479791.69947
 20  5 16  1 38 46.0000000  0  8G04G08G09G11G16G26G27G31             0.000036486
  21425717.453 5    -30502.863 5    -18967.23446  21425715.10946
  20733572.156 7   -176228.582 7   -120649.04749  20733571.54349
  23054338.977 2   -140798.891 2    -91248.45746  23054338.74246
  23485055.445 5   -304481.496 5   -135740.61347  23485052.02747
  21482441.188 6     20906.410 6     14725.85247  21482437.32447
  22882302.477 4     52741.512 4     34086.51247  22882303.75047
  20112353.063 7    -29143.371 7    -20981.40249  20112351.44149
  23480069.930 6     12247.648 6     38926.21147  23480068.65647
 20  5 16  1 38 47.0000000  0  8G04G08G09G11G16G26G27G31             0.000035879
  21425624.969 4    -30989.738 4    -19346.62146  21425622.62146
  20733090.664 6   -178760.113 6   -122621.66449  20733090.05149
  23053889.188 3   -143166.121 3    -93093.05146  23053888.07846
  23484223.109 6   -308856.918 6   -139150.02747  23484219.21547
  21482491.313 6     21169.840 6     14931.11747  21482487.86347
  22882448.469 5     53507.113 5     34683.07047  22882449.43047
  20112276.219 7    -29547.254 7    -21296.11349  20112274.82049
  23480347.500 6     13703.328 6     40060.51247  23480345.37147
 20  5 16  1 38 48.0000000  0  8G04G08G09G11G16G26G27G31             0.000035271
  21425531.883 5    -31476.195 5    -19725.68046  21425530.07446
  20732608.680 6   -181291.301 6   -124594.02049  20732608.12149
  23053438.367 3   -145533.020 3    -94937.38746  23053437.08246
  23483389.648 6   -313232.457 6   -142559.53947  23483386.46547
  21482541.234 6     21433.137 6     15136.28547  21482537.58647
  22882593.359 5     54272.484 5     35279.46947  22882595.00047
  20112199.484 7    -29950.734 7    -21610.51649  20112197.90649
  23480624.117 6     15159.074 6     41194.85947  23480622.48847
 20  5 16  1 38 49.0000000  0  8G04G08G09G11G16G26G27G31             0.000034664
  21425439.664 5    -31962.414 5    -20104.54346  21425437.74646
  20732127.141 6   -183822.281 6   -126566.21149  20732126.62549
  23052988.055 3   -147899.699 3    -96781.55546  23052986.66446
  23482557.039 6   -317608.266 6   -145969.24247  23482554.27047
  21482591.891 6     21696.176 6     15341.26247  21482587.71147
  22882738.836 5     55037.539 5     35875.61347  22882740.77047
  20112122.836 7    -30353.957 7    -21924.71549  20112120.95349
  23480900.672 5     16614.734 5     42329.14147  23480899.89847
 20  5 16  1 38 50.0000000  0  8G04G08G09G11G16G26G27G31             0.000034056
  21425347.672 5    -32448.203 5    -20483.08646  21425344.84846
  20731645.492 6   -186352.863 6   -128538.10249  20731644.91049
  23052538.078 3   -150265.945 3    -98625.38746  23052536.70346
  23481724.516 6   -321984.180 6   -149379.05147  23481721.49247
  21482641.313 6     21959.078 6     15546.12947  21482637.44547
  22882884.617 5     55802.363 5     36471.57047  22882886.14847
  20112045.852 7    -30756.734 7    -22238.57049  20112044.57049
  23481178.266 5     18070.520 5     43463.51247  23481176.84847
 20  5 16  1 38 51.0000000  0  8G04G08G09G11G16G26G27G31             0.000033449
  21425255.422 5    -32933.500 5    -20861.24246  21425252.78946
  20731164.109 6   -188883.082 6   -130509.70349  20731163.50049
  23052086.992 3   -152631.859 3   -100468.95746  23052086.30946
  23480892.109 6   -326360.145 6   -152788.89846  23480888.53946
  21482691.539 6     22221.902 6     15750.92247  21482687.77747
  22883030.227 5     56567.086 5     37067.46547  22883031.63347
  20111969.688 7    -31159.090 7    -22552.10249  20111967.89149
  23481455.164 5     19526.387 5     44597.94947  23481454.13747
 20  5 16  1 38 52.0000000  0  8G04G08G09G11G16G26G27G31             0.000032841
  21425162.328 5    -33418.691 5    -21239.32446  21425160.45346
  20730682.156 6   -191413.191 6   -132481.21949  20730681.85949
  23051637.914 3   -154997.637 3   -102312.42646  23051636.07446
  23480059.297 6   -330736.492 6   -156199.04746  23480055.74646
  21482741.711 6     22484.332 6     15955.41847  21482737.56347
  22883175.961 5     57331.273 5     37662.94147  22883177.45747
  20111893.258 7    -31561.293 7    -22865.50449  20111891.46149
  23481732.336 5     20982.090 5     45732.25847  23481730.94147
 20  5 16  1 38 53.0000000  0  8G04G08G09G11G16G26G27G31             0.000032232
  21425070.398 5    -33903.492 5    -21617.08646  21425068.10946
  20730201.375 7   -193942.984 7   -134452.48849  20730200.47349
  23051187.648 3   -157363.102 3   -104155.64546  23051186.59846
  23479226.188 6   -335113.004 6   -159609.32047  23479222.73047
  21482790.930 6     22746.629 6     16159.80947  21482787.44547
  22883321.484 5     58095.270 5     38258.26247  22883322.73047
  20111816.547 7    -31963.113 7    -23178.60549  20111814.74649
  23482009.242 5     22437.809 5     46866.57847  23482008.42247
 20  5 16  1 38 54.0000000  0  8G04G08G09G11G16G26G27G31             0.000031624
  21424978.828 5    -34387.898 5    -21994.53946  21424976.16846
  20729719.758 7   -196472.430 7   -136423.47349  20729718.78549
  23050737.992 3   -159728.160 3   -105998.55546  23050736.22346
  23478393.508 6   -339489.605 6   -163019.65247  23478390.26647
  21482840.281 6     23008.738 6     16364.04347  21482837.11347
  22883466.617 5     58859.066 5     38853.43047  22883468.42247
  20111740.063 7    -32364.516 7    -23491.38349  20111738.72749
  23482285.977 5     23893.621 5     48000.98047  23482285.31647
 20  5 16  1 38 55.0000000  0  8G04G08G09G11G16G26G27G31             0.000031015
  21424885.742 5    -34871.941 5    -22371.71546  21424883.97346
  20729238.500 6   -199001.555 6   -138394.20349  20729237.77349
  23050287.445 3   -162092.977 3   -107841.27746  23050286.42246
  23477560.453 6   -343866.430 6   -166430.16847  23477557.63747
  21482890.258 6     23270.707 6     16568.17247  21482887.35547
  22883611.969 5     59622.613 5     39448.40246  22883613.55946
  20111664.070 7    -32765.602 7    -23803.92249  20111662.12549
  23482563.734 5     25349.441 5     49135.38347  23482562.34047
 20  5 16  1 38 56.0000000  0  8G04G08G09G11G16G26G27G31             0.000030407
  21424794.242 5    -35355.578 5    -22748.59046  21424791.74246
  20728756.773 6   -201530.332 6   -140364.69149  20728756.67249
  23049837.250 3   -164457.418 3   -109683.69946  23049836.65246
  23476727.570 6   -348243.348 6   -169840.74647  23476724.56347
  21482940.383 6     23532.512 6     16772.17647  21482936.98847
  22883756.898 5     60385.914 5     40043.17646  22883759.00446
  20111587.820 7    -33166.258 7    -24116.12549  20111585.68449
  23482840.797 5     26805.348 5     50269.85247  23482839.46147
 20  5 16  1 38 57.0000000  0  8G04G08G09G11G16G26G27G31             0.000029799
  21424701.977 5    -35838.809 5    -23125.13746  21424699.62146
  20728276.438 6   -204058.727 6   -142334.87149  20728275.78149
  23049387.883 3   -166821.496 3   -111525.84446  23049386.69546
  23475894.875 6   -352620.355 6   -173251.39147  23475891.47747
  21482990.148 6     23794.250 6     16976.12547  21482987.03547
  22883901.938 5     61149.074 5     40637.84446  22883903.43046
  20111511.625 7    -33566.461 7    -24427.96949  20111509.97749
  23483117.531 6     28261.352 6     51404.39547  23483115.99247
 20  5 16  1 38 58.0000000  0  8G04G08G09G11G16G26G27G31             0.000029188
  21424610.039 4    -36321.566 4    -23501.31346  21424608.07846
  20727795.258 6   -206586.793 6   -144304.80149  20727794.39849
  23048937.734 4   -169185.160 4   -113367.66046  23048937.00446
  23475062.242 6   -356997.469 6   -176662.12547  23475058.63347
  21483040.313 6     24055.867 6     17179.98847  21483036.56347
  22884047.320 5     61912.066 5     41232.37546  22884048.50846
  20111435.281 6    -33966.258 6    -24739.50049  20111433.65649
  23483394.805 6     29717.465 6     52539.03147  23483393.44947
 20  5 16  1 38 59.0000000  0  8G04G08G09G11G16G26G27G31             0.000028580
  21424518.117 5    -36803.965 5    -23877.20346  21424516.80546
  20727314.195 6   -209114.508 6   -146274.44549  20727313.48849
  23048488.305 4   -171548.457 4   -115209.19946  23048487.29346
  23474229.383 6   -361374.703 6   -180072.96546  23474225.75846
  21483089.711 6     24317.301 6     17383.70347  21483086.74247
  22884191.609 5     62674.789 5     41826.69147  22884194.03547
  20111359.258 7    -34365.672 7    -25050.73449  20111357.47749
  23483672.156 6     31173.602 6     53673.68447  23483670.03947
 20  5 16  1 39  0.0000000  0  8G04G08G09G11G16G26G27G31             0.000027971
  21424427.078 5    -37285.902 5    -24252.73846  21424424.63346
  20726833.406 6   -211641.844 6   -148243.79749  20726832.62149
  23048038.305 4   -173911.449 4   -117050.48446  23048038.02046
  23473395.117 6   -365752.059 6   -183483.88747  23473392.60547
  21483139.633 6     24578.656 6     17587.35547  21483136.36747
  22884336.055 5     63437.355 5     42420.89146  22884339.14546
  20111283.719 7    -34764.656 7    -25361.63349  20111282.00449
  23483949.117 6     32629.797 6     54808.37947  23483947.21147
 20  5 16  1 39  1.0000000  0  8G04G08G09G11G16G26G27G31             0.000027361
  21424334.797 5    -37767.449 5    -24627.97346  21424333.24246
  20726352.109 6   -214168.793 6   -150212.84849  20726351.54349
  23047589.313 4   -176273.984 4   -118891.43046  23047588.26646
  23472562.594 6   -370129.496 6   -186894.87946  23472559.33646
  21483189.516 6     24839.910 6     17790.92647  21483186.08647
  22884481.609 5     64199.711 5     43014.94946  22884484.31346
  20111207.547 7    -35163.184 7    -25672.17649  20111206.14849
  23484226.047 6     34086.164 6     55943.21147  23484224.60247
 20  5 16  1 39  2.0000000  0  8G04G08G09G11G16G26G27G31             0.000026752
  21424243.453 5    -38248.508 5    -25002.82846  21424241.66046
  20725871.469 6   -216695.340 6   -152181.58249  20725871.06649
  23047138.859 3   -178636.117 3   -120732.04346  23047138.87146
  23471729.906 6   -374506.965 6   -190305.89547  23471726.57847
  21483238.734 6     25101.082 6     17994.43847  21483235.33247
  22884627.086 5     64962.008 5     43608.96146  22884629.15246
  20111132.070 7    -35561.238 7    -25982.34449  20111130.27749
  23484503.422 6     35542.641 6     57078.12947  23484501.62947
 20  5 16  1 39  3.0000000  0  8G04G08G09G11G16G26G27G31             0.000026142
  21424151.039 4    -38729.133 4    -25377.33646  21424149.92246
  20725390.930 6   -219221.551 6   -154150.05949  20725390.47349
  23046690.156 4   -180997.922 4   -122572.41046  23046689.45346
  23470896.250 6   -378884.598 6   -193717.03146  23470893.50446
  21483288.930 6     25362.117 6     18197.85247  21483285.27047
  22884771.922 4     65724.035 4     44202.75846  22884774.03546
  20111056.258 7    -35958.914 7    -26292.22349  20111054.55549
  23484780.516 6     36999.188 6     58213.10247  23484778.74247
 20  5 16  1 39  4.0000000  0  8G04G08G09G11G16G26G27G31             0.000025532
  21424060.516 4    -39209.422 4    -25751.59046  21424058.74646
  20724910.086 7   -221747.438 7   -156118.27749  20724909.60249
  23046240.508 4   -183359.418 4   -124412.54747  23046239.57847
  23470063.758 6   -383262.344 6   -197128.25846  23470060.67246
  21483338.086 6     25623.004 6     18401.12947  21483334.78147
  22884917.422 4     66485.848 4     44796.37946  22884919.20746
  20110980.531 7    -36356.203 7    -26601.80149  20110979.06649
  23485057.711 6     38455.773 6     59348.10547  23485055.92247
 20  5 16  1 39  5.0000000  0  8G04G08G09G11G16G26G27G31             0.000024923
  21423969.039 4    -39689.309 4    -26125.54346  21423967.29746
  20724429.820 6   -224272.973 6   -158086.22349  20724428.82049
  23045791.055 4   -185720.512 4   -126252.35547  23045790.82447
  23469230.672 6   -387640.258 6   -200539.60946  23469227.59446
  21483388.195 6     25883.727 6     18604.28947  21483384.65647
  22885062.156 4     67247.434 4     45389.81646  22885064.00446
  20110904.820 7    -36753.117 7    -26911.08249  20110903.19149
  23485334.914 6     39912.402 6     60483.13747  23485333.46947
 20  5 16  1 39  6.0000000  0  8G04G08G09G11G16G26G27G31             0.000024313
  21423878.172 5    -40168.750 5    -26499.13346  21423876.23446
  20723949.328 6   -226798.074 6   -160053.83649  20723948.16449
  23045341.891 4   -188081.176 4   -128091.83646  23045341.86346
  23468396.859 6   -392018.207 6   -203950.99246  23468394.29346
  21483437.758 6     26144.398 6     18807.40647  21483434.30147
  22885207.031 4     68008.879 4     45983.15247  22885208.68447
  20110829.844 7    -37149.535 7    -27219.97749  20110828.07449
  23485612.445 5     41369.211 5     61618.31347  23485610.50047
 20  5 16  1 39  7.0000000  0  8G04G08G09G11G16G26G27G31             0.000023703
  21423786.547 5    -40647.699 5    -26872.33246  21423784.86746
  20723468.734 6   -229322.801 6   -162021.16049  20723467.73849
  23044892.891 3   -190441.508 3   -129931.05146  23044892.94146
  23467564.055 6   -396396.250 6   -207362.46146  23467561.28546
  21483487.781 6     26404.969 6     19010.44947  21483484.07047
  22885351.359 4     68770.176 4     46576.37146  22885353.46146
  20110754.273 7    -37545.512 7    -27528.53549  20110752.56649
  23485889.484 5     42826.113 5     62753.56347  23485887.86747
 20  5 16  1 39  8.0000000  0  8G04G08G09G11G16G26G27G31             0.000023092
  21423695.422 4    -41126.281 4    -27245.24246  21423693.62946
  20722988.023 6   -231847.199 6   -163988.22349  20722987.62549
  23044442.922 4   -192801.453 4   -131769.96946  23044443.52046
  23466731.094 6   -400774.410 6   -210774.02046  23466728.24246
  21483536.906 6     26665.395 6     19213.37147  21483533.58247
  22885496.281 4     69531.250 4     47169.41446  22885498.17246
  20110679.016 7    -37941.117 7    -27836.79749  20110677.22349
  23486166.523 6     44283.059 6     63888.84047  23486164.91047
 20  5 16  1 39  9.0000000  0  8G04G08G09G11G16G26G27G31             0.000022482
  21423604.805 4    -41604.410 4    -27617.81346  21423602.29346
  20722508.016 6   -234371.219 6   -165954.99649  20722507.21549
  23043994.805 3   -195161.012 3   -133608.58646  23043994.49646
  23465898.313 6   -405152.633 6   -214185.61746  23465894.98046
  21483586.625 6     26925.738 6     19416.23447  21483583.42647
  22885641.211 4     70292.191 4     47762.35946  22885642.73446
  20110604.047 7    -38336.262 7    -28144.70349  20110602.07849
  23486443.797 6     45740.109 6     65024.19947  23486442.15247
 20  5 16  1 39 10.0000000  0  8G04G08G09G11G16G26G27G31             0.000021872
  21423514.000 4    -42082.098 4    -27990.04346  21423511.60246
  20722027.781 6   -236894.859 6   -167921.46949  20722026.98049
  23043545.820 3   -197520.148 3   -135446.88346  23043545.59046
  23465065.547 6   -409530.961 6   -217597.30946  23465061.88346
  21483636.172 6     27185.957 6     19619.00847  21483632.75047
  22885786.172 4     71052.949 4     48355.14846  22885787.55546
  20110528.594 7    -38730.961 7    -28452.26249  20110527.24649
  23486721.750 6     47197.277 6     66159.65647  23486719.51247
 20  5 16  1 39 11.0000000  0  8G04G08G09G11G16G26G27G31             0.000021261
  21423422.961 4    -42559.402 4    -28361.97346  21423421.02046
  20721547.242 6   -239418.129 6   -169887.65649  20721546.80949
  23043096.969 3   -199878.965 3   -137284.91846  23043096.85246
  23464231.578 6   -413909.402 6   -221009.07846  23464228.51646
  21483685.992 6     27446.055 6     19821.68447  21483682.27747
  22885931.703 4     71813.488 4     48947.76646  22885932.58646
  20110453.734 7    -39125.262 7    -28759.50849  20110451.74249
  23486998.688 6     48654.535 6     67295.18447  23486996.95347
 20  5 16  1 39 12.0000000  0  8G04G08G09G11G16G26G27G31             0.000020651
  21423331.844 4    -43036.375 4    -28733.64846  21423329.97346
  20721067.555 6   -241941.121 6   -171853.61749  20721066.56649
  23042648.805 3   -202237.473 3   -139122.71947  23042648.31347
  23463398.109 6   -418288.047 6   -224421.00446  23463395.73846
  21483735.172 6     27705.922 6     20024.17647  21483731.44947
  22886076.016 4     72573.742 4     49540.16046  22886076.87946
  20110378.734 7    -39519.234 7    -29066.49649  20110376.84049
  23487275.852 6     50111.770 6     68430.69147  23487274.48047
 20  5 16  1 39 13.0000000  0  8G04G08G09G11G16G26G27G31             0.000020041
  21423241.641 5    -43512.723 5    -29104.81646  21423239.46146
  20720587.703 6   -244463.590 6   -173819.18049  20720586.69549
  23042199.492 3   -204595.410 3   -140960.06647  23042199.42647
  23462564.922 6   -422666.613 6   -227832.87146  23462562.28546
  21483784.742 6     27965.848 6     20226.71947  21483781.55547
  22886220.656 4     73333.992 4     50132.56646  22886221.75846
  20110304.102 7    -39912.621 7    -29373.03149  20110302.09449
  23487553.352 6     51569.277 6     69566.40647  23487551.48847
 20  5 16  1 39 14.0000000  0  8G04G08G09G11G16G26G27G31             0.000019430
  21423150.680 4    -43988.641 4    -29475.64146  21423148.96946
  20720107.578 6   -246985.668 6   -175784.43049  20720106.80949
  23041750.594 3   -206952.992 3   -142797.14547  23041750.96547
  23461731.742 6   -427045.273 6   -231244.82446  23461729.33646
  21483833.695 6     28225.672 6     20429.18047  21483830.66847
  22886364.984 4     74094.023 4     50724.79346  22886366.11346
  20110229.008 7    -40305.555 7    -29679.21149  20110227.48449
  23487830.578 6     53026.867 6     70702.19547  23487828.89547
 20  5 16  1 39 15.0000000  0  8G04G08G09G11G16G26G27G31             0.000018818
  21423060.328 4    -44464.133 4    -29846.16446  21423058.54746
  20719627.594 6   -249507.371 6   -177749.38749  20719626.91849
  23041301.742 3   -209310.188 3   -144633.91847  23041302.09847
  23460898.609 6   -431424.008 6   -234656.81346  23460895.56646
  21483883.102 6     28485.398 6     20631.56347  21483879.96147
  22886510.617 5     74853.961 5     51316.96547  22886511.14547
  20110154.289 7    -40698.070 7    -29985.06649  20110152.76649
  23488107.953 6     54484.574 6     71838.07047  23488106.19547
 20  5 16  1 39 16.0000000  0  8G04G08G09G11G16G26G27G31             0.000018208
  21422970.289 5    -44939.145 5    -30216.30946  21422968.39846
  20719147.789 6   -252028.656 6   -179714.02349  20719147.23449
  23040853.695 3   -211666.934 3   -146470.34846  23040853.75446
  23460065.320 6   -435802.789 6   -238068.85546  23460062.02746
  21483932.070 6     28745.078 6     20833.90647  21483929.57847
  22886654.125 4     75613.723 4     51908.98046  22886655.91046
  20110079.844 7    -41090.098 7    -30290.54349  20110077.98049
  23488386.070 6     55942.410 6     72974.04747  23488383.48047
 20  5 16  1 39 17.0000000  0  8G04G08G09G11G16G26G27G31             0.000017597
  21422880.070 5    -45413.766 5    -30586.14546  21422878.11746
  20718667.992 6   -254549.605 6   -181678.40249  20718667.30949
  23040404.734 3   -214023.344 3   -148306.51246  23040405.80146
  23459231.805 6   -440181.715 6   -241481.00446  23459228.73846
  21483981.883 6     29004.590 6     21036.12547  21483978.66047
  22886799.367 5     76373.262 5     52500.82046  22886800.07446
  20110005.125 7    -41481.730 7    -30595.71149  20110003.35549
  23488663.047 6     57400.309 6     74110.06347  23488660.93447
 20  5 16  1 39 18.0000000  0  8G04G08G09G11G16G26G27G31             0.000016985
  21422789.219 5    -45888.043 5    -30955.71546  21422787.45346
  20718188.484 6   -257070.250 6   -183642.54749  20718187.91849
  23039955.336 2   -216379.453 2   -150142.44946  23039957.03146
  23458398.703 6   -444560.773 6   -244893.25046  23458395.80146
  21484031.906 6     29263.949 6     21238.22747  21484028.29347
  22886943.734 5     77132.555 5     53092.47347  22886944.61747
  20109930.914 7    -41873.012 7    -30900.60949  20109929.30949
  23488940.008 6     58858.242 6     75246.10947  23488938.46947
 20  5 16  1 39 19.0000000  0  8G04G08G09G11G16G26G27G31             0.000016373
  21422699.563 5    -46361.895 5    -31324.95346  21422697.45746
  20717708.711 6   -259590.566 6   -185606.43449  20717708.13749
  23039508.883 2   -218735.203 2   -151978.10246  23039508.75446
  23457565.625 6   -448940.031 6   -248305.64846  23457562.44146
  21484080.680 6     29523.160 6     21440.20347  21484077.24647
  22887088.344 5     77891.629 5     53683.95347  22887088.91847
  20109856.656 7    -42263.879 7    -31205.17649  20109854.71149
  23489218.109 6     60316.227 6     76382.19947  23489216.00847
 20  5 16  1 39 20.0000000  0  8G04G08G09G11G16G26G27G31             0.000015762
  21422609.328 5    -46835.406 5    -31693.91846  21422606.77346
  20717229.383 6   -262110.559 6   -187570.05949  20717228.48849
  23039059.602 2   -221090.633 2   -153813.50846  23039061.02046
  23456731.961 6   -453319.363 6   -251718.11746  23456728.82846
  21484130.180 6     29782.188 6     21642.03947  21484126.78547
  22887233.219 5     78650.465 5     54275.26247  22887233.45747
  20109782.164 7    -42654.387 7    -31509.47349  20109780.58249
  23489495.359 6     61774.246 6     77518.32047  23489493.56347
 20  5 16  1 39 21.0000000  0  8G04G08G09G11G16G26G27G31             0.000015150
  21422519.336 5    -47308.379 5    -32062.46146  21422517.00846
  20716749.891 6   -264630.094 6   -189533.33249  20716749.39849
  23038611.688 2   -223445.574 2   -155648.52347  23038612.71947
  23455898.969 6   -457698.738 6   -255130.62546  23455895.78546
  21484179.625 6     30041.203 6     21843.87547  21484176.26647
  22887376.938 5     79409.238 5     54866.50447  22887378.02347
  20109707.859 7    -43044.367 7    -31813.34849  20109706.63749
  23489772.992 6     63232.465 6     78654.59047  23489770.86347
 20  5 16  1 39 22.0000000  0  8G04G08G09G11G16G26G27G31             0.000014538
  21422429.102 5    -47780.898 5    -32430.66446  21422427.16446
  20716270.422 6   -267149.230 6   -191496.29349  20716269.89549
  23038163.453 2   -225800.133 2   -157483.24646  23038164.53946
  23455065.492 6   -462078.211 6   -258543.20746  23455062.25446
  21484228.750 6     30300.125 6     22045.63347  21484225.26247
  22887520.984 5     80167.777 5     55457.57047  22887522.37147
  20109634.031 7    -43433.938 7    -32116.91449  20109632.22749
  23490050.547 6     64690.750 6     79790.90647  23490048.39147
 20  5 16  1 39 23.0000000  0  8G04G08G09G11G16G26G27G31             0.000013926
  21422339.484 5    -48253.020 5    -32798.56346  21422337.34846
  20715791.281 6   -269668.000 6   -193458.96949  20715790.46549
  23037716.352 3   -228154.320 3   -159317.67646  23037716.46546
  23454231.836 6   -466457.742 6   -261955.83647  23454228.99647
  21484278.219 6     30558.918 6     22247.28947  21484274.68447
  22887665.195 5     80926.215 5     56048.56346  22887666.85546
  20109559.609 7    -43823.082 7    -32420.14149  20109558.25049
  23490327.594 6     66149.188 6     80927.35247  23490326.25047
 20  5 16  1 39 24.0000000  0  8G04G08G09G11G16G26G27G31             0.000013315
  21422250.344 5    -48724.570 5    -33166.01246  21422247.78146
  20715311.734 6   -272186.238 6   -195421.23849  20715311.06349
  23037268.547 2   -230507.918 2   -161151.64547  23037268.83647
  23453398.625 6   -470837.223 6   -265368.41847  23453395.30147
  21484327.320 6     30817.766 6     22448.98847  21484323.95347
  22887809.586 5     81684.609 5     56639.52047  22887810.96147
  20109485.734 7    -44211.617 7    -32722.89549  20109484.08649
  23490605.156 6     67607.836 6     82063.95347  23490603.65247
 20  5 16  1 39 25.0000000  0  8G04G08G09G11G16G26G27G31             0.000012703
  21422160.211 5    -49195.754 5    -33533.18046  21422157.95746
  20714832.531 6   -274704.188 6   -197383.27749  20714831.90649
  23036820.734 3   -232861.328 3   -162985.47747  23036820.79347
  23452564.969 6   -475216.906 6   -268781.16047  23452562.23447
  21484376.242 6     31076.398 6     22650.52747  21484372.71547
  22887953.516 5     82442.707 5     57230.23447  22887954.93047
  20109411.883 7    -44599.828 7    -33025.39549  20109410.13749
  23490882.703 6     69066.488 6     83200.57447  23490881.00047
 20  5 16  1 39 26.0000000  0  8G04G08G09G11G16G26G27G31             0.000012091
  21422070.656 5    -49666.547 5    -33900.02746  21422068.35546
  20714353.703 6   -277221.770 6   -199345.03149  20714353.23849
  23036373.375 2   -235214.316 2   -164818.97347  23036373.39547
  23451731.727 5   -479596.711 5   -272193.98046  23451728.50446
  21484425.547 6     31334.914 6     22851.96947  21484422.00447
  22888097.320 5     83200.602 5     57820.81346  22888099.46946
  20109337.977 7    -44987.609 7    -33327.56349  20109336.24649
  23491160.727 6     70525.242 6     84337.26647  23491159.03547
 20  5 16  1 39 27.0000000  0  8G04G08G09G11G16G26G27G31             0.000011478
  21421981.102 5    -50136.895 5    -34266.52746  21421978.72346
  20713874.570 7   -279739.016 7   -201306.52349  20713873.95349
  23035925.305 3   -237566.914 3   -166652.16047  23035925.62547
  23450897.930 6   -483976.590 6   -275606.87546  23450894.81646
  21484474.727 6     31593.277 6     23053.28147  21484470.94547
  22888241.813 5     83958.297 5     58411.22747  22888243.69547
  20109264.438 7    -45375.004 7    -33629.42649  20109262.77349
  23491438.211 6     71984.063 6     85474.00847  23491436.30947
 20  5 16  1 39 28.0000000  0  8G04G08G09G11G16G26G27G31             0.000010866
  21421891.844 5    -50606.680 5    -34632.58646  21421889.74246
  20713395.797 6   -282255.691 6   -203267.57049  20713395.16849
  23035477.820 3   -239918.934 3   -168484.90647  23035478.12547
  23450065.117 6   -488356.367 6   -279019.69146  23450061.63746
  21484524.242 6     31851.758 6     23254.69947  21484520.26647
  22888386.281 5     84716.027 5     59001.66447  22888388.29747
  20109190.211 7    -45761.785 7    -33930.81649  20109189.49249
  23491715.453 6     73443.172 6     86610.96147  23491714.23847
 20  5 16  1 39 29.0000000  0  8G04G08G09G11G16G26G27G31             0.000010254
  21421802.477 5    -51075.957 5    -34998.25446  21421800.31646
  20712916.844 6   -284771.938 6   -205228.28949  20712916.22749
  23035029.859 3   -242270.602 3   -170317.37146  23035030.48046
  23449231.609 6   -492736.219 6   -282432.56646  23449228.30946
  21484573.289 6     32110.148 6     23456.04347  21484569.35947
  22888530.742 5     85473.629 5     59592.00447  22888532.61747
  20109117.094 7    -46148.086 7    -34231.82449  20109115.52749
  23491993.430 6     74902.422 6     87748.02347  23491991.92247
 20  5 16  1 39 30.0000000  0  8G04G08G09G11G16G26G27G31             0.000009642
  21421713.445 5    -51544.723 5    -35363.52346  21421710.85246
  20712438.266 6   -287287.742 6   -207188.64849  20712437.73049
  23034582.422 3   -244621.738 3   -172149.43847  23034583.00447
  23448398.070 6   -497116.074 6   -285845.43447  23448394.89547
  21484622.227 6     32368.504 6     23657.36347  21484618.89847
  22888673.938 5     86231.098 5     60182.23447  22888676.44947
  20109043.789 7    -46533.863 7    -34532.43049  20109042.18049
  23492271.531 6     76361.824 6     88885.21947  23492269.75847
 20  5 16  1 39 31.0000000  0  8G04G08G09G11G16G26G27G31             0.000009029
  21421624.094 5    -52013.039 5    -35728.45346  21421621.89846
  20711959.438 6   -289803.125 6   -209148.69149  20711959.05149
  23034135.328 3   -246972.496 3   -173981.19547  23034135.91447
  23447564.336 6   -501495.984 6   -289258.35947  23447561.05147
  21484670.992 6     32626.793 6     23858.62147  21484668.06347
  22888818.438 5     86988.438 5     60772.36347  22888820.94147
  20108970.492 7    -46919.215 7    -34832.70349  20108969.02749
  23492549.805 6     77821.355 6     90022.51647  23492547.30547
 20  5 16  1 39 32.0000000  0  8G04G08G09G11G16G26G27G31             0.000008415
  21421535.484 5    -52480.738 5    -36092.90246  21421533.37146
  20711480.961 6   -292317.980 6   -211108.32049  20711480.48849
  23033688.242 3   -249322.680 3   -175812.50847  23033688.16847
  23446730.977 6   -505875.816 6   -292671.21547  23446727.76247
  21484720.680 6     32885.176 6     24059.95747  21484717.33247
  22888963.273 5     87745.754 5     61362.48047  22888965.09447
  20108897.211 7    -47303.918 7    -35132.47749  20108896.02049
  23492826.922 6     79281.168 6     91160.03947  23492825.22347
 20  5 16  1 39 33.0000000  0  8G04G08G09G11G16G26G27G31             0.000007803
  21421446.234 5    -52947.879 5    -36456.91846  21421444.19146
  20711002.766 6   -294832.316 6   -213067.53549  20711001.97349
  23033241.109 3   -251672.352 3   -177643.43047  23033241.56347
  23445897.258 6   -510255.641 6   -296084.07047  23445894.39847
  21484769.578 6     33143.539 6     24261.27747  21484766.44147
  22889107.555 5     88502.999 5     61952.54047  22889109.48847
  20108824.016 7    -47688.102 7    -35431.84449  20108822.63749
  23493105.133 6     80741.203 6     92297.73447  23493102.98447
 20  5 16  1 39 34.0000000  0  8G04G08G09G11G16G26G27G31             0.000007191
  21421357.375 5    -53414.629 5    -36820.62146  21421355.06646
  20710524.313 6   -297346.324 6   -215026.50449  20710523.54349
  23032793.688 3   -254021.656 3   -179474.05547  23032794.09847
  23445063.797 6   -514635.563 6   -299496.99646  23445060.80146
  21484818.758 6     33401.781 6     24462.51247  21484815.50847
  22889251.727 5     89260.086 5     62542.48447  22889253.19547
  20108751.109 7    -48071.859 7    -35730.87149  20108749.99249
  23493382.828 6     82201.289 6     93435.46547  23493380.58247
 20  5 16  1 39 35.0000000  0  8G04G08G09G11G16G26G27G31             0.000006578
  21421268.109 5    -53881.008 5    -37184.03146  21421266.68046
  20710045.930 6   -299859.973 6   -216985.19549  20710044.84849
  23032346.883 3   -256370.602 3   -181304.39847  23032347.23447
  23444230.594 6   -519015.605 6   -302910.00846  23444227.34846
  21484867.594 6     33659.871 6     24663.61747  21484864.68847
  22889395.445 5     90016.969 5     63132.26647  22889397.59847
  20108678.313 7    -48455.238 7    -36029.61349  20108676.56349
  23493660.625 6     83661.461 6     94573.25847  23493658.42247
 20  5 16  1 39 36.0000000  0  8G04G08G09G11G16G26G27G31             0.000005964
  21421180.156 5    -54346.969 5    -37547.12146  21421177.87946
  20709567.633 6   -302373.352 6   -218943.67249  20709567.12949
  23031900.266 3   -258719.297 3   -183134.54347  23031900.35947
  23443396.969 5   -523395.820 5   -306323.15646  23443394.18846
  21484917.234 6     33917.762 6     24864.57047  21484913.31347
  22889539.578 5     90773.566 5     63721.81647  22889541.69547
  20108605.375 7    -48838.281 7    -36328.08249  20108604.09049
  23493938.805 6     85121.621 6     95711.04347  23493936.24647
 20  5 16  1 39 37.0000000  0  8G04G08G09G11G16G26G27G31             0.000005352
  21421090.797 5    -54812.547 5    -37909.91046  21421089.39546
  20709089.508 6   -304886.340 6   -220901.84449  20709088.52049
  23031453.211 3   -261067.570 3   -184964.35947  23031453.85947
  23442563.594 6   -527776.137 6   -309736.38746  23442560.30146
  21484966.258 6     34175.590 6     25065.47747  21484962.72347
  22889683.359 5     91529.973 5     64311.22347  22889685.35947
  20108532.609 7    -49220.852 7    -36626.19549  20108530.88749
  23494216.484 6     86581.906 6     96848.92247  23494214.56647
 20  5 16  1 39 38.0000000  0  8G04G08G09G11G16G26G27G31             0.000004738
  21421002.984 5    -55277.547 5    -38272.24246  21421001.03946
  20708611.688 6   -307398.797 6   -222859.59449  20708610.69149
  23031006.281 3   -263415.238 3   -186793.71547  23031006.75847
  23441729.992 6   -532156.363 6   -313149.55946  23441727.12146
  21485015.391 6     34433.441 6     25266.40647  21485011.57047
  22889827.305 5     92286.426 5     64900.66847  22889829.45747
  20108459.883 7    -49602.832 7    -36923.84049  20108458.69949
  23494494.328 6     88042.445 6     97987.00447  23494492.13347
 20  5 16  1 39 39.0000000  0  8G04G08G09G11G16G26G27G31             0.000004126
  21420914.578 5    -55742.063 5    -38634.19946  21420913.02746
  20708133.195 6   -309910.848 6   -224817.04349  20708132.64549
  23030559.766 3   -265762.574 3   -188622.80947  23030560.43847
  23440896.281 6   -536536.664 6   -316562.77346  23440893.09046
  21485064.594 6     34691.188 6     25467.24647  21485060.69947
  22889971.289 5     93042.633 5     65489.91847  22889973.52747
  20108387.344 7    -49984.391 7    -37221.16449  20108386.15649
  23494772.500 6     89503.082 6     99125.16047  23494769.77347
 20  5 16  1 39 40.0000000  0  8G04G08G09G11G16G26G27G31             0.000003511
  21420825.828 5    -56206.133 5    -38995.80146  21420824.82846
  20707655.375 6   -312422.500 6   -226774.17249  20707655.00449
  23030112.578 3   -268109.516 3   -190451.59447  23030113.30147
  23440062.641 6   -540917.012 6   -319976.03546  23440059.85246
  21485113.680 6     34948.887 6     25668.05147  21485109.48847
  22890115.297 5     93798.746 5     66079.09447  22890117.37947
  20108314.719 7    -50365.480 7    -37518.11349  20108313.28949
  23495050.133 6     90963.859 6    100263.42647  23495048.08647
 20  5 16  1 39 41.0000000  0  8G04G08G09G11G16G26G27G31             0.000002899
  21420737.539 5    -56669.652 5    -39356.99646  21420736.27046
  20707177.609 6   -314933.676 6   -228730.93449  20707176.94549
  23029666.633 3   -270455.891 3   -192279.94147  23029666.94947
  23439229.047 5   -545297.398 5   -323389.33246  23439225.91446
  21485162.328 6     35206.582 6     25868.85547  21485158.58247
  22890259.211 5     94554.777 5     66668.20347  22890261.09847
  20108242.336 7    -50746.035 7    -37814.64849  20108240.98449
  23495327.852 6     92424.855 6    101401.86347  23495326.00047
 20  5 16  1 39 42.0000000  0  8G04G08G09G11G16G26G27G31             0.000002285
  21420649.578 5    -57132.664 5    -39717.78146  21420648.24246
  20706700.047 6   -317444.324 6   -230687.27749  20706699.36349
  23029220.102 3   -272801.867 3   -194107.97347  23029220.45747
  23438395.820 5   -549677.691 5   -326802.53546  23438392.28946
  21485211.445 6     35464.270 6     26069.64547  21485207.96547
  22890402.828 5     95310.754 5     67257.28147  22890404.98847
  20108169.953 7    -51126.059 7    -38110.77349  20108168.94549
  23495606.461 6     93886.047 6    102540.44947  23495604.34847
 20  5 16  1 39 43.0000000  0  8G04G08G09G11G16G26G27G31             0.000001671
  21420561.711 5    -57595.227 5    -40078.23046  21420559.76246
  20706221.859 6   -319954.641 6   -232643.37149  20706221.51249
  23028773.297 3   -275147.387 3   -195935.64547  23028773.78547
  23437561.844 5   -554058.121 5   -330215.85246  23437558.73846
  21485260.242 6     35721.848 6     26270.35247  21485256.87547
  22890546.836 5     96066.516 5     67846.18447  22890549.20347
  20108097.789 7    -51505.645 7    -38406.55549  20108096.09849
  23495884.242 6     95347.313 6    103679.09847  23495882.20747
 20  5 16  1 39 44.0000000  0  8G04G08G09G11G16G26G27G31             0.000001059
  21420473.750 5    -58057.285 5    -40438.28146  21420472.35946
  20705744.391 6   -322464.477 6   -234599.08249  20705743.93049
  23028326.945 3   -277492.465 3   -197762.98447  23028327.48047
  23436728.406 5   -558438.563 5   -333629.17646  23436725.37146
  21485309.500 6     35979.371 6     26471.02347  21485305.98447
  22890690.086 5     96822.211 5     68435.03147  22890692.56347
  20108025.703 7    -51884.754 7    -38701.96549  20108024.42649
  23496162.617 6     96808.742 6    104817.87147  23496160.18447
 20  5 16  1 39 45.0000000  0  8G04G08G09G11G16G26G27G31             0.000000444
  21420386.047 5    -58519.023 5    -40798.07846  21420384.40646
  20705266.789 7   -324974.004 7   -236554.56349  20705266.14549
  23027881.344 3   -279837.246 3   -199590.09047  23027881.57047
  23435894.313 5   -562819.172 5   -337042.64846  23435891.39146
  21485358.219 6     36236.742 6     26671.57447  21485355.32447
  22890833.836 5     97577.648 5     69023.67647  22890836.82847
  20107953.648 7    -52263.484 7    -38997.08249  20107952.05149
  23496440.344 6     98270.219 6    105956.68447  23496438.57447
 20  5 16  1 39 46.0000000  0  8G04G08G09G11G16G26G27G31            -0.000000170
  21420298.539 4    -58980.066 4    -41157.33247  21420296.68447
  20704789.375 7   -327482.953 7   -238509.58249  20704788.96549
  23027435.016 3   -282181.402 3   -201416.70347  23027435.87947
  23435061.578 5   -567199.641 5   -340456.01246  23435057.93046
  21485407.531 6     36494.211 6     26872.19947  21485404.10247
  22890977.305 5     98333.105 5     69612.34047  22890980.28947
  20107881.273 7    -52641.563 7    -39291.69149  20107880.09049
  23496718.641 6     99732.008 6    107095.73847  23496716.83647
 20  5 16  1 39 47.0000000  0  8G04G08G09G11G16G26G27G31            -0.000000784
  21420211.219 5    -59440.750 5    -41516.30546  21420209.09446
  20704311.977 7   -329991.551 7   -240464.33249  20704311.42249
  23026989.422 3   -284525.191 3   -203243.03547  23026989.47347
  23434227.781 5   -571580.211 5   -343869.43446  23434224.14146
  21485456.008 6     36751.535 6     27072.71547  21485452.75047
  22891121.555 5     99088.355 5     70200.84047  22891123.88747
  20107809.742 7    -53019.258 7    -39586.00049  20107808.78149
  23496996.977 6    101193.852 6    108234.84447  23496995.14147
 20  5 16  1 39 48.0000000  0  8G04G08G09G11G16G26G27G31            -0.000001398
  21420123.273 5    -59900.922 5    -41874.88346  21420121.54746
  20703834.797 7   -332499.758 7   -242418.78549  20703834.10549
  23026543.453 3   -286868.633 3   -205069.09047  23026543.54747
  23433393.852 5   -575960.879 5   -347282.94946  23433390.51246
  21485505.633 6     37008.801 6     27273.18847  21485501.87547
  22891265.438 5     99843.477 5     70789.25847  22891267.60547
  20107737.766 7    -53396.473 7    -39879.94149  20107736.54349
  23497275.211 6    102655.828 6    109374.03547  23497272.94547
 20  5 16  1 39 49.0000000  0  8G04G08G09G11G16G26G27G31            -0.000002012
  21420035.781 5    -60360.617 5    -42233.08646  21420034.20346
  20703357.094 7   -335007.477 7   -244372.85249  20703357.00049
  23026096.820 3   -289211.508 3   -206894.70747  23026097.72747
  23432560.703 5   -580341.535 5   -350696.45346  23432557.21146
  21485554.500 6     37266.031 6     27473.62147  21485550.57847
  22891408.672 5    100598.477 5     71377.57047  22891411.49647
  20107666.383 7    -53773.207 7    -40173.49649  20107664.78949
  23497553.633 6    104117.992 6    110513.37947  23497551.32847
 20  5 16  1 39 50.0000000  0  8G04G08G09G11G16G26G27G31            -0.000002626
  21419948.008 5    -60819.852 5    -42590.92646  21419946.92246
  20702880.383 7   -337514.840 7   -246326.63349  20702879.67649
  23025652.203 3   -291554.047 3   -208720.05547  23025651.80947
  23431726.813 5   -584722.266 5   -354110.00446  23431723.52046
  21485603.570 6     37523.156 6     27673.98047  21485599.82447
  22891552.781 5    101353.336 5     71965.77047  22891554.87147
  20107594.742 7    -54149.477 7    -40466.69549  20107593.52349
  23497832.086 6    105580.258 6    111652.80947  23497829.48847
 20  5 16  1 39 51.0000000  0  8G04G08G09G11G16G26G27G31            -0.000003241
  21419860.813 5    -61278.602 5    -42948.39846  21419859.51646
  20702403.289 7   -340021.707 7   -248280.04349  20702402.87149
  23025206.320 3   -293896.035 3   -210544.98847  23025206.46547
  23430892.742 5   -589102.965 5   -357523.53146  23430889.80546
  21485652.156 6     37780.273 6     27874.32447  21485648.78147
  22891695.867 5    102108.109 5     72553.91847  22891698.62547
  20107523.625 7    -54525.211 7    -40759.47749  20107522.14149
  23498110.188 6    107042.719 6    112792.39147  23498107.72747
 20  5 16  1 39 52.0000000  0  8G04G08G09G11G16G26G27G31            -0.000003855
  21419773.688 5    -61736.777 5    -43305.41046  21419772.57046
  20701925.875 7   -342528.105 7   -250233.07849  20701925.35549
  23024760.820 3   -296237.613 3   -212369.60247  23024760.50847
  23430059.219 5   -593483.684 5   -360937.07846  23430056.37946
  21485701.578 6     38037.383 6     28074.67647  21485697.98847
  22891839.813 5    102862.785 5     73141.97747  22891842.39547
  20107452.078 7    -54900.434 7    -41051.85949  20107450.60949
  23498388.523 6    108505.371 6    113932.12147  23498385.88747
 20  5 16  1 39 53.0000000  0  8G04G08G09G11G16G26G27G31            -0.000004469
  21419686.570 5    -62194.344 5    -43661.95346  21419685.39846
  20701449.086 7   -345033.934 7   -252185.66849  20701448.70349
  23024315.102 3   -298578.566 3   -214193.71947  23024315.39547
  23429225.969 5   -597864.277 5   -364350.52347  23429222.93447
  21485749.945 6     38294.566 6     28275.08247  21485746.49247
  22891983.008 5    103617.484 5     73730.05147  22891986.20747
  20107380.625 7    -55275.043 7    -41343.75849  20107379.41049
  23498666.680 6    109968.320 6    115072.07447  23498664.52047
 20  5 16  1 39 54.0000000  0  8G04G08G09G11G16G26G27G31            -0.000005083
  21419599.953 5    -62651.441 5    -44018.12146  21419598.32846
  20700972.641 7   -347539.348 7   -254137.93849  20700972.48049
  23023869.836 3   -300919.109 3   -216017.52747  23023869.85547
  23428391.672 5   -602244.938 5   -367764.02746  23428389.23846
  21485799.133 6     38551.711 6     28475.45747  21485795.71947
  22892127.203 5    104372.051 5     74318.02347  22892130.04747
  20107309.570 7    -55649.160 7    -41635.27749  20107308.25049
  23498945.133 6    111431.414 6    116212.14847  23498942.62147
 20  5 16  1 39 55.0000000  0  8G04G08G09G11G16G26G27G31            -0.000005697
  21419512.469 5    -63108.145 5    -44374.00446  21419511.28146
  20700495.672 7   -350044.422 7   -256089.94149  20700495.35549
  23023424.492 3   -303259.316 3   -217841.06647  23023424.38347
  23427558.180 5   -606625.715 5   -371177.62146  23427555.45746
  21485848.156 6     38808.699 6     28675.71947  21485844.57847
  22892270.180 5    105126.391 5     74905.82446  22892273.18446
  20107238.383 7    -56022.875 7    -41926.49249  20107236.69949
  23499223.742 6    112894.559 6    117352.25447  23499221.37947
 20  5 16  1 39 56.0000000  0  8G04G08G09G11G16G26G27G31            -0.000006311
  21419425.875 5    -63564.344 5    -44729.48046  21419424.27746
  20700019.320 7   -352549.039 7   -258041.59049  20700019.09849
  23022978.578 3   -305599.070 3   -219664.24647  23022978.99247
  23426724.672 5   -611006.500 5   -374591.21946  23426721.87146
  21485896.805 6     39065.633 6     28875.92247  21485893.29747
  22892413.609 5    105880.660 5     75493.56347  22892416.76647
  20107167.344 7    -56396.121 7    -42217.33649  20107166.09449
  23499501.859 6    114357.871 6    118492.48847  23499499.60547
 20  5 16  1 39 57.0000000  0  8G04G08G09G11G16G26G27G31            -0.000006927
  21419338.750 5    -64020.234 5    -45084.72746  21419338.02346
  20699542.398 7   -355053.375 7   -259993.02749  20699542.46949
  23022534.305 3   -307938.512 3   -221487.19147  23022533.44147
  23425891.438 5   -615387.520 5   -378004.99646  23425888.24646
  21485945.734 6     39322.371 6     29075.97747  21485942.33647
  22892557.797 5    106634.613 5     76081.05146  22892560.15646
  20107096.195 7    -56769.039 7    -42507.91449  20107095.13749
  23499780.820 6    115821.152 6    119632.69947  23499778.34847
 20  5 16  1 39 58.0000000  0  8G04G08G09G11G16G26G27G31            -0.000007542
  21419252.555 5    -64475.727 5    -45439.65246  21419251.34846
  20699066.297 6   -357557.371 6   -261944.18849  20699065.52349
  23022089.250 3   -310277.625 3   -223309.87147  23022089.00847
  23425057.953 5   -619768.641 5   -381418.85946  23425054.37546
  21485994.359 6     39578.977 6     29275.92647  21485991.14147
  22892701.289 5    107388.375 5     76668.39546  22892703.70346
  20107025.484 7    -57141.555 7    -42798.19149  20107023.75049
  23500058.969 6    117284.539 6    120773.00047  23500056.64847
 20  5 16  1 39 59.0000000  0  8G04G08G09G11G16G26G27G31            -0.000008156
  21419166.102 5    -64930.590 5    -45794.08646  21419164.68446
  20698590.023 7   -360060.816 7   -263894.93049  20698589.43849
  23021644.406 3   -312616.129 3   -225132.08247  23021643.64147
  23424224.180 5   -624149.641 5   -384832.63746  23424221.00046
  21486043.383 6     39835.641 6     29475.92247  21486040.12147
  22892844.539 5    108142.137 5     77255.74247  22892847.32047
  20106954.711 7    -57513.426 7    -43087.96149  20106953.44149
  23500337.508 6    118748.219 6    121913.52747  23500335.18447
 20  5 16  1 40  0.0000000  0  8G04G08G09G11G16G26G27G31            -0.000008772
  21419079.117 5    -65385.000 5    -46148.16846  21419078.39146
  20698113.414 6   -362563.895 6   -265845.37949  20698113.55149
  23021199.461 4   -314954.262 4   -226954.00847  23021198.86747
  23423390.023 5   -628530.742 5   -388246.47746  23423387.41046
  21486091.883 6     40092.219 6     29675.85547  21486088.77347
  22892988.180 5    108895.769 5     77842.99647  22892990.14847
  20106884.273 7    -57884.906 7    -43377.42249  20106883.30949
  23500616.258 6    120211.953 6    123054.10247  23500613.65647
 20  5 16  1 40  1.0000000  0  8G04G08G09G11G16G26G27G31            -0.000009386
  21418992.805 5    -65838.961 5    -46501.89546  21418991.80946
  20697637.320 6   -365066.539 6   -267795.48849  20697636.85949
  23020754.844 3   -317291.965 3   -228775.60247  23020753.89847
  23422556.125 5   -632911.895 5   -391660.35546  23422553.18846
  21486140.867 6     40348.734 6     29875.73847  21486137.71947
  22893131.305 5    109649.184 5     78430.07047  22893133.56647
  20106813.797 7    -58255.910 7    -43666.52049  20106812.15249
  23500894.555 6    121675.859 6    124194.80547  23500892.27347
 20  5 16  1 40  2.0000000  0  8G04G08G09G11G16G26G27G31            -0.000010002
  21418906.977 5    -66292.406 5    -46855.23446  21418905.91446
  20697161.273 6   -367568.715 6   -269745.24249  20697160.93449
  23020309.688 4   -319629.215 4   -230596.84447  23020308.91447
  23421722.508 5   -637293.039 5   -395074.24246  23421719.99246
  21486189.922 6     40605.203 6     30075.58247  21486186.32047
  22893274.805 5    110402.559 5     79017.10946  22893276.95746
  20106742.992 7    -58626.383 7    -43955.20349  20106741.62149
  23501173.078 6    123139.938 6    125335.64847  23501170.78947
 20  5 16  1 40  3.0000000  0  8G04G08G09G11G16G26G27G31            -0.000010616
  21418821.148 5    -66745.492 5    -47208.29746  21418819.59446
  20696685.086 6   -370070.570 6   -271694.73849  20696684.65649
  23019864.922 4   -321966.129 4   -232417.81647  23019864.30547
  23420889.539 5   -641674.316 5   -398488.23046  23420885.89846
  21486239.016 6     40861.555 6     30275.33247  21486235.31647
  22893418.000 5    111155.703 5     79603.97347  22893420.39147
  20106672.539 7    -58996.477 7    -44243.58649  20106671.19149
  23501452.273 6    124604.055 6    126476.51647  23501449.59047
 20  5 16  1 40  4.0000000  0  8G04G08G09G11G16G26G27G31            -0.000011232
  21418735.078 5    -67198.074 5    -47560.94946  21418733.59846
  20696208.711 6   -372572.008 6   -273643.91049  20696208.96149
  23019420.102 4   -324302.613 4   -234238.45347  23019419.49247
  23420055.383 5   -646055.648 5   -401902.25446  23420052.47346
  21486287.328 6     41117.801 6     30475.00047  21486284.18047
  22893561.508 5    111908.703 5     80190.72347  22893563.40647
  20106602.125 7    -59366.121 7    -44531.61749  20106600.68449
  23501730.414 6    126068.332 6    127617.51647  23501728.18447
 20  5 16  1 40  5.0000000  0  8G04G08G09G11G16G26G27G31            -0.000011847
  21418648.906 5    -67650.082 5    -47913.17246  21418647.59846
  20695733.117 6   -375072.891 6   -275592.64849  20695732.85249
  23018976.086 3   -326638.523 3   -236058.64147  23018975.16447
  23419221.203 5   -650436.883 5   -405316.19546  23419218.96146
  21486336.578 6     41374.129 6     30674.73847  21486332.60247
  22893704.875 5    112661.727 5     80777.50047  22893706.50447
  20106532.203 7    -59735.145 7    -44819.16849  20106530.91049
  23502008.945 6    127532.875 6    128758.71947  23502006.52047
 20  5 16  1 40  6.0000000  0  8G04G08G09G11G16G26G27G31            -0.000012463
  21418562.156 5    -68101.582 5    -48264.98446  21418561.15246
  20695257.383 6   -377573.375 6   -277541.07849  20695257.16849
  23018530.969 4   -328974.000 4   -237878.49247  23018530.81647
  23418387.258 5   -654818.145 5   -408730.16046  23418384.81346
  21486385.234 6     41630.395 6     30874.43047  21486381.42647
  22893847.734 5    113414.605 5     81364.14847  22893850.15247
  20106461.680 7    -60103.711 7    -45106.35949  20106460.28549
  23502288.273 6    128997.527 6    129900.00047  23502285.79747
 20  5 16  1 40  7.0000000  0  8G04G08G09G11G16G26G27G31            -0.000013079
  21418476.961 5    -68552.758 5    -48616.53546  21418475.49246
  20694781.055 6   -380073.578 6   -279489.28949  20694781.39149
  23018087.164 3   -331309.180 3   -239698.11347  23018086.34447
  23417554.289 5   -659199.652 5   -412144.31647  23417551.31347
  21486434.188 6     41886.473 6     31073.95747  21486430.59047
  22893990.781 5    114167.176 5     81950.56346  22893992.52346
  20106391.695 7    -60471.941 7    -45393.28949  20106390.50849
  23502566.867 6    130462.195 6    131041.29347  23502564.16047
 20  5 16  1 40  8.0000000  0  8G04G08G09G11G16G26G27G31            -0.000013695
  21418390.016 5    -69003.332 5    -48967.63746  21418390.13346
  20694305.617 6   -382573.211 6   -281437.05949  20694305.59049
  23017642.742 3   -333643.797 3   -241517.30147  23017641.96947
  23416719.891 5   -663581.000 5   -415558.36346  23416717.31646
  21486483.172 6     42142.629 6     31273.56347  21486479.05547
  22894134.563 5    114919.777 5     82536.99646  22894136.19946
  20106321.602 7    -60839.555 7    -45679.74249  20106320.46549
  23502845.383 6    131927.156 6    132182.81647  23502842.59047
 20  5 16  1 40  9.0000000  0  8G04G08G09G11G16G26G27G31            -0.000014309
  21418304.820 5    -69453.336 5    -49318.29346  21418304.55546
  20693829.984 6   -385072.293 6   -283384.39149  20693830.24649
  23017197.898 3   -335977.910 3   -243336.09047  23017197.58247
  23415886.078 5   -667962.352 5   -418972.39546  23415883.66046
  21486531.305 6     42398.770 6     31473.16047  21486528.19547
  22894277.836 5    115672.332 5     83123.40246  22894278.87546
  20106251.820 7    -61206.598 7    -45965.74649  20106250.23049
  23503123.875 6    133392.344 6    133324.51647  23503121.58247
 20  5 16  1 40 10.0000000  0  8G04G08G09G11G16G26G27G31            -0.000014925
  21418219.719 5    -69902.848 5    -49668.55546  21418218.64546
  20693354.688 6   -387570.969 6   -285331.40649  20693354.39849
  23016754.008 3   -338311.508 3   -245154.48047  23016753.60947
  23415052.758 5   -672343.676 5   -422386.40246  23415049.90246
  21486580.109 6     42654.934 6     31672.77347  21486576.43447
  22894420.867 5    116424.816 5     83709.75446  22894421.87146
  20106182.344 7    -61573.145 7    -46251.37549  20106180.37149
  23503402.383 6    134857.695 6    134466.34847  23503399.89847
 20  5 16  1 40 11.0000000  0  8G04G08G09G11G16G26G27G31            -0.000015541
  21418134.328 5    -70351.777 5    -50018.37146  21418132.91846
  20692879.180 6   -390069.109 6   -287278.02049  20692879.05549
  23016310.641 3   -340644.652 3   -246972.50847  23016309.72747
  23414218.766 5   -676724.984 5   -425800.42246  23414215.87546
  21486629.313 6     42911.082 6     31872.35947  21486625.44947
  22894564.742 5    117177.215 5     84296.03946  22894565.31346
  20106112.797 7    -61939.141 7    -46536.56649  20106111.16849
  23503682.039 6    136323.242 6    135608.34047  23503679.30147
 20  5 16  1 40 12.0000000  0  8G04G08G09G11G16G26G27G31            -0.000016157
  21418049.008 5    -70800.277 5    -50367.84846  21418047.82846
  20692404.148 6   -392566.875 6   -289224.32849  20692403.80149
  23015866.734 4   -342977.371 4   -248790.21147  23015865.65247
  23413385.391 5   -681106.340 5   -429214.46546  23413382.34446
  21486677.477 6     43167.129 6     32071.87947  21486673.80147
  22894706.945 5    117929.434 5     84882.17246  22894708.14546
  20106043.016 7    -62304.691 7    -46821.40649  20106041.39549
  23503960.523 6    137788.930 6    136750.43447  23503958.13747
 20  5 16  1 40 13.0000000  0  8G04G08G09G11G16G26G27G31            -0.000016773
  21417963.867 5    -71248.238 5    -50716.91846  21417962.20746
  20691928.805 6   -395064.156 6   -291170.25849  20691928.44549
  23015422.648 3   -345309.637 3   -250607.55547  23015421.82847
  23412551.266 5   -685487.703 5   -432628.52346  23412548.92246
  21486726.492 6     43423.184 6     32271.39847  21486722.77747
  22894850.445 5    118681.617 5     85468.29746  22894851.13746
  20105973.477 7    -62669.711 7    -47105.83649  20105972.32849
  23504239.914 6    139254.832 6    137892.69947  23504237.21147
 20  5 16  1 40 14.0000000  0  8G04G08G09G11G16G26G27G31            -0.000017389
  21417879.016 5    -71695.672 5    -51065.55946  21417877.55546
  20691453.711 6   -397560.883 6   -293115.75049  20691453.33649
  23014978.508 4   -347641.363 4   -252424.46947  23014978.28547
  23411718.180 5   -689868.996 5   -436042.50446  23411714.85246
  21486774.945 6     43679.293 6     32470.98047  21486770.90647
  22894992.555 5    119433.742 5     86054.37146  22894994.34446
  20105904.156 7    -63034.172 7    -47389.81649  20105902.69949
  23504518.930 6    140720.930 6    139035.12547  23504516.02747
 20  5 16  1 40 15.0000000  0  8G04G08G09G11G16G26G27G31            -0.000018005
  21417793.531 5    -72142.605 5    -51413.80546  21417792.27046
  20690978.617 6   -400057.262 6   -295060.96949  20690978.46549
  23014535.023 3   -349972.656 3   -254241.05547  23014534.33647
  23410885.039 5   -694250.391 5   -439456.55946  23410881.16046
  21486824.031 6     43935.293 6     32670.46147  21486820.21147
  22895137.148 5    120185.738 5     86640.34846  22895137.02346
  20105834.445 7    -63398.172 7    -47673.44549  20105833.60549
  23504797.484 6    142187.176 6    140177.66847  23504794.98847
 20  5 16  1 40 16.0000000  0  8G04G08G09G11G16G26G27G31            -0.000018621
  21417709.180 5    -72589.168 5    -51761.77346  21417707.12946
  20690503.461 6   -402553.313 6   -297005.94549  20690503.51649
  23014091.266 3   -352303.586 3   -256057.37147  23014091.06647
  23410050.313 5   -698631.840 5   -442870.67646  23410047.68446
  21486872.258 6     44191.133 6     32869.80947  21486868.68447
  22895279.063 5    120937.461 5     87226.10246  22895280.36346
  20105765.875 7    -63761.773 7    -47956.77749  20105764.22349
  23505076.820 6    143653.500 6    141320.25047  23505074.32847
 20  5 16  1 40 17.0000000  0  8G04G08G09G11G16G26G27G31            -0.000019238
  21417623.898 5    -73035.273 5    -52109.40646  21417622.46546
  20690029.156 6   -405048.938 6   -298950.60249  20690028.92249
  23013647.805 3   -354634.090 3   -257873.36347  23013647.68847
  23409216.758 5   -703013.391 5   -446284.88746  23409213.74646
  21486921.250 6     44446.863 6     33069.07447  21486917.52347
  22895422.273 5    121689.063 5     87811.75846  22895422.94546
  20105696.477 7    -64124.953 7    -48239.78949  20105695.14849
  23505355.172 6    145119.887 6    142462.87547  23505353.24247
 20  5 16  1 40 18.0000000  0  8G04G08G09G11G16G26G27G31            -0.000019854
  21417538.492 5    -73480.945 5    -52456.69146  21417537.65246
  20689554.008 6   -407544.176 6   -300894.94949  20689553.83649
  23013204.977 3   -356964.266 3   -259689.09447  23013204.10547
  23408382.641 5   -707394.984 5   -449699.11746  23408380.19146
  21486970.016 6     44702.543 6     33268.30147  21486965.85547
  22895565.609 5    122440.531 5     88397.31646  22895566.63346
  20105627.367 7    -64487.664 7    -48522.42249  20105625.77349
  23505635.172 6    146586.414 6    143605.61747  23505632.63747
 20  5 16  1 40 19.0000000  0  8G04G08G09G11G16G26G27G31            -0.000020470
  21417454.609 5    -73926.082 5    -52803.55146  21417452.84846
  20689079.117 6   -410038.961 6   -302838.94149  20689079.05549
  23012761.125 3   -359293.902 3   -261504.39147  23012760.39147
  23407549.000 5   -711776.621 5   -453113.39146  23407546.09846
  21487018.172 6     44958.164 6     33467.47747  21487014.55547
  22895708.250 5    123191.836 5     88982.73846  22895709.30146
  20105558.508 7    -64849.891 7    -48804.68049  20105557.39849
  23505914.297 6    148053.121 6    144748.50047  23505911.78947
 20  5 16  1 40 20.0000000  0  8G04G08G09G11G16G26G27G31            -0.000021086
  21417369.523 5    -74370.797 5    -53150.08646  21417367.86746
  20688604.586 6   -412533.320 6   -304782.59849  20688604.21549
  23012317.875 3   -361623.141 3   -263319.37547  23012317.56347
  23406715.117 5   -716158.281 5   -456527.67646  23406712.46146
  21487067.016 6     45213.723 6     33666.60547  21487063.14847
  22895851.711 4    123943.051 4     89568.10246  22895852.08646
  20105489.523 7    -65211.633 7    -49086.55949  20105487.92249
  23506193.094 6    149519.953 6    145891.48447  23506190.62947
 20  5 16  1 40 21.0000000  0  8G04G08G09G11G16G26G27G31            -0.000021702
  21417284.875 5    -74814.961 5    -53496.17646  21417283.50846
  20688130.289 6   -415027.180 6   -306725.86749  20688129.77349
  23011874.367 3   -363951.891 3   -265133.98847  23011874.59047
  23405881.844 5   -720539.887 5   -459941.91046  23405878.58246
  21487115.695 6     45469.305 6     33865.76647  21487111.16447
  22895994.234 5    124694.191 5     90153.40646  22895994.64546
  20105421.055 7    -65572.855 7    -49368.03549  20105419.18449
  23506472.461 6    150986.996 6    147034.63747  23506469.98847
 20  5 16  1 40 22.0000000  0  8G04G08G09G11G16G26G27G31            -0.000022320
  21417200.492 5    -75258.570 5    -53841.84046  21417198.77046
  20687655.625 6   -417520.594 6   -308668.78949  20687655.48849
  23011431.820 3   -366280.152 3   -266948.21947  23011431.02747
  23405047.891 5   -724921.531 5   -463356.17246  23405044.68846
  21487164.430 6     45724.824 6     34064.87547  21487160.00847
  22896137.367 5    125445.230 5     90738.62946  22896137.27746
  20105352.258 7    -65933.543 7    -49649.08649  20105350.57049
  23506751.461 5    152454.207 5    148177.92247  23506749.33247
 20  5 16  1 40 23.0000000  0  8G04G08G09G11G16G26G27G31            -0.000022936
  21417116.406 5    -75701.719 5    -54187.15646  21417114.73446
  20687180.961 6   -420013.523 6   -310611.32849  20687180.38749
  23010989.117 3   -368607.957 3   -268762.09447  23010988.28547
  23404213.750 5   -729303.156 5   -466770.41446  23404210.95346
  21487212.578 6     45980.348 6     34263.98847  21487208.21947
  22896280.250 5    126196.188 5     91323.78946  22896280.47746
  20105283.656 7    -66293.727 7    -49929.75049  20105281.95349
  23507030.344 6    153921.613 6    149321.35247  23507028.40247
 20  5 16  1 40 24.0000000  0  8G04G08G09G11G16G26G27G31            -0.000023552
  21417032.328 5    -76144.266 5    -54531.99246  21417030.66446
  20686707.141 6   -422505.945 6   -312553.47349  20686706.50849
  23010546.594 3   -370935.242 3   -270575.57047  23010545.09047
  23403379.648 5   -733684.746 5   -470184.64147  23403377.05947
  21487261.961 6     46235.906 6     34463.11747  21487257.41847
  22896423.039 5    126947.082 5     91908.89546  22896423.23846
  20105215.156 7    -66653.352 7    -50209.97349  20105213.77749
  23507309.688 6    155389.246 6    150464.96547  23507307.87147
 20  5 16  1 40 25.0000000  0  8G04G08G09G11G16G26G27G31            -0.000024170
  21416947.438 5    -76586.406 5    -54876.53146  21416946.18446
  20686232.570 6   -424998.023 6   -314495.35549  20686232.46949
  23010103.914 3   -373262.141 3   -272388.74247  23010102.65647
  23402546.094 5   -738066.449 5   -473598.95747  23402543.78947
  21487310.258 6     46491.305 6     34662.12947  21487305.82847
  22896566.109 5    127697.820 5     92493.87947  22896566.19147
  20105147.094 7    -67012.566 7    -50489.87949  20105145.25449
  23507589.281 6    156856.961 6    151608.63347  23507586.74647
 20  5 16  1 40 26.0000000  0  8G04G08G09G11G16G26G27G31            -0.000024786
  21416864.148 5    -77028.020 5    -55220.65246  21416862.23046
  20685758.547 6   -427489.598 6   -316436.83649  20685758.26649
  23009661.047 3   -375588.531 3   -274201.51247  23009660.02047
  23401712.367 5   -742448.098 5   -477013.23046  23401709.64846
  21487359.008 6     46746.723 6     34861.16047  21487354.62147
  22896709.008 5    128448.465 5     93078.79346  22896708.77746
  20105078.680 7    -67371.230 7    -50769.35949  20105077.07449
  23507869.047 6    158324.891 6    152752.47347  23507866.03547
 20  5 16  1 40 27.0000000  0  8G04G08G09G11G16G26G27G31            -0.000025404
  21416779.938 5    -77469.156 5    -55564.39146  21416778.40246
  20685284.750 6   -429980.770 6   -318378.01249  20685284.44549
  23009218.180 3   -377914.492 3   -276013.94947  23009217.31647
  23400878.133 5   -746829.789 5   -480427.54347  23400875.98047
  21487407.055 6     47002.066 6     35060.13747  21487403.53147
  22896851.711 5    129198.969 5     93663.60546  22896851.78546
  20105010.625 7    -67729.434 7    -51048.48049  20105009.02349
  23508148.266 6    159792.965 6    153896.42647  23508146.06647
 20  5 16  1 40 28.0000000  0  8G04G08G09G11G16G26G27G31            -0.000026020
  21416696.922 5    -77909.715 5    -55907.68846  21416694.30946
  20684810.828 6   -432471.426 6   -320318.78549  20684810.57049
  23008775.609 3   -380240.008 3   -277826.03947  23008774.85947
  23400044.727 5   -751211.484 5   -483841.85246  23400042.21946
  21487455.891 6     47257.453 6     35259.13347  21487451.81347
  22896994.602 5    129949.449 5     94248.38346  22896994.96146
  20104942.672 7    -68087.070 7    -51327.15249  20104940.74249
  23508427.523 6    161261.242 6    155040.52747  23508425.17647
 20  5 16  1 40 29.0000000  0  8G04G08G09G11G16G26G27G31            -0.000026638
  21416612.383 5    -78349.746 5    -56250.57046  21416610.57446
  20684336.766 6   -434961.574 6   -322259.15649  20684336.35949
  23008332.898 3   -382564.930 3   -279637.66447  23008332.41447
  23399210.797 5   -755593.063 5   -487256.06347  23399207.96947
  21487504.242 6     47512.852 6     35458.14547  21487500.21547
  22897137.391 5    130699.867 5     94833.12146  22897137.77346
  20104874.695 7    -68444.156 7    -51605.40649  20104872.78549
  23508707.289 6    162729.770 6    156184.84047  23508704.85947
 20  5 16  1 40 30.0000000  0  8G04G08G09G11G16G26G27G31            -0.000027254
  21416528.734 5    -78789.230 5    -56593.02346  21416527.09446
  20683862.664 6   -437451.285 6   -324199.19149  20683862.66049
  23007890.672 3   -384889.387 3   -281448.93447  23007890.08247
  23398377.164 5   -759974.730 5   -490670.35547  23398374.65247
  21487553.156 6     47768.211 6     35657.11747  21487548.93447
  22897279.914 5    131450.172 5     95417.77047  22897280.77347
  20104806.547 7    -68800.746 7    -51883.26649  20104804.96149
  23508986.344 6    164198.461 6    157329.27747  23508984.10947
 20  5 16  1 40 31.0000000  0  8G04G08G09G11G16G26G27G31            -0.000027872
  21416445.328 5    -79228.266 5    -56935.12946  21416443.43446
  20683389.086 6   -439940.496 6   -326138.83249  20683388.81649
  23007448.680 3   -387213.422 3   -283259.86347  23007447.97747
  23397543.008 5   -764356.371 5   -494084.61346  23397541.04346
  21487601.602 6     48023.543 6     35856.08247  21487597.36747
  22897423.063 5    132200.453 5     96002.39547  22897423.22347
  20104739.039 7    -69156.813 7    -52160.71949  20104736.63349
  23509265.570 6    165667.328 6    158473.84047  23509263.50047
 20  5 16  1 40 32.0000000  0  8G04G08G09G11G16G26G27G31            -0.000028488
  21416361.945 5    -79666.785 5    -57276.82846  21416360.02346
  20682915.563 6   -442429.297 6   -328078.16049  20682915.06349
  23007006.352 4   -389536.953 4   -285070.40247  23007005.46947
  23396709.375 5   -768738.031 5   -497498.89147  23396706.92647
  21487650.266 6     48278.789 6     36054.98447  21487645.97347
  22897566.094 5    132950.555 5     96586.89047  22897566.43047
  20104670.922 7    -69512.406 7    -52437.80949  20104669.40249
  23509545.359 6    167136.309 6    159618.49647  23509543.42247
 20  5 16  1 40 33.0000000  0  8G04G08G09G11G16G26G27G31            -0.000029106
  21416278.039 5    -80104.871 5    -57618.20346  21416276.54346
  20682441.953 6   -444917.688 6   -330017.16849  20682442.21949
  23006563.906 3   -391860.137 3   -286880.67647  23006563.71947
  23395875.578 5   -773119.781 5   -500913.24246  23395873.59446
  21487699.133 6     48533.977 6     36253.82447  21487694.57847
  22897708.219 5    133700.461 5     97171.23446  22897709.24646
  20104603.719 7    -69867.578 7    -52714.56649  20104601.84449
  23509825.508 6    168605.441 6    160763.27747  23509822.52347
 20  5 16  1 40 34.0000000  0  8G04G08G09G11G16G26G27G31            -0.000029724
  21416194.320 5    -80542.402 5    -57959.14146  21416192.89546
  20681968.359 6   -447405.594 6   -331955.79749  20681968.10249
  23006122.344 3   -394182.840 3   -288690.57447  23006121.35547
  23395042.242 5   -777501.449 5   -504327.52346  23395039.12146
  21487747.164 6     48789.145 6     36452.65647  21487743.05147
  22897851.203 4    134450.379 4     97755.58646  22897851.97346
  20104536.258 7    -70222.172 7    -52990.87549  20104534.62949
  23510104.859 6    170074.781 6    161908.21947  23510102.31347
 20  5 16  1 40 35.0000000  0  8G04G08G09G11G16G26G27G31            -0.000030340
  21416112.133 5    -80979.465 5    -58299.71146  21416110.20746
  20681495.313 6   -449893.098 6   -333894.10949  20681495.06649
  23005680.172 3   -396505.078 3   -290500.10247  23005679.80547
  23394207.914 5   -781883.234 5   -507741.89846  23394205.38346
  21487796.211 6     49044.234 6     36651.42647  21487791.82847
  22897993.375 4    135200.066 4     98339.76646  22897994.80946
  20104468.219 7    -70576.359 7    -53266.86749  20104467.12949
  23510384.516 6    171544.242 6    163053.25447  23510382.04747
 20  5 16  1 40 36.0000000  0  8G04G08G09G11G16G26G27G31            -0.000030958
  21416028.531 5    -81416.031 5    -58639.89846  21416026.67246
  20681021.898 6   -452380.121 6   -335832.04749  20681021.80949
  23005237.758 3   -398826.828 3   -292309.25447  23005238.26247
  23393374.352 5   -786264.977 5   -511156.24646  23393371.64846
  21487845.031 6     49299.324 6     36850.19947  21487840.28947
  22898135.414 5    135949.699 5     98923.89846  22898137.27346
  20104401.484 7    -70929.988 7    -53542.41849  20104399.76249
  23510664.188 6    173013.898 6    164198.43847  23510661.59847
 20  5 16  1 40 37.0000000  0  8G04G08G09G11G16G26G27G31            -0.000031576
  21415946.047 5    -81852.125 5    -58979.71546  21415943.66846
  20680548.367 6   -454866.699 6   -337769.64549  20680548.58649
  23004796.523 3   -401148.121 3   -294118.05547  23004796.07047
  23392540.367 6   -790646.758 6   -514570.62147  23392537.77747
  21487893.195 6     49554.348 6     37048.91847  21487888.86347
  22898278.906 5    136699.234 5     99507.95747  22898279.66047
  20104334.297 7    -71283.133 7    -53817.59449  20104332.52349
  23510943.641 6    174483.688 6    165343.72747  23510941.37947
 20  5 16  1 40 38.0000000  0  8G04G08G09G11G16G26G27G31            -0.000032194
  21415863.063 5    -82287.684 5    -59319.10246  21415860.91846
  20680075.750 6   -457352.836 6   -339706.89549  20680075.39149
  23004354.703 3   -403469.012 3   -295926.54347  23004354.45747
  23391706.664 5   -795028.559 5   -517985.02047  23391704.15647
  21487941.430 6     49809.320 6     37247.60247  21487937.45347
  22898421.586 5    137448.637 5    100091.90247  22898422.80147
  20104267.266 7    -71635.789 7    -54092.39149  20104265.86749
  23511223.602 6    175953.672 6    166489.16847  23511221.33247
 20  5 16  1 40 39.0000000  0  8G04G08G09G11G16G26G27G31            -0.000032812
  21415780.148 5    -82722.684 5    -59658.06346  21415778.19946
  20679602.992 6   -459838.461 6   -341643.75049  20679602.87549
  23003912.711 3   -405789.355 3   -297734.60547  23003913.05947
  23390873.102 5   -799410.293 5   -521399.35246  23390870.26246
  21487989.891 6     50064.340 6     37446.31647  21487985.57847
  22898564.180 4    138198.035 4    100675.84846  22898565.16446
  20104200.289 7    -71987.891 7    -54366.76249  20104198.37149
  23511502.844 6    177423.910 6    167634.78947  23511500.89147
 20  5 16  1 40 40.0000000  0  8G04G08G09G11G16G26G27G31            -0.000033430
  21415697.453 5    -83157.301 5    -59996.72746  21415695.41446
  20679129.867 6   -462323.738 6   -343580.32849  20679129.47749
  23003471.477 3   -408109.344 3   -299542.38747  23003471.32047
  23390039.508 5   -803792.180 5   -524813.81646  23390036.31646
  21488038.656 6     50319.215 6     37644.91847  21488034.68047
  22898706.227 4    138947.188 4    101259.60946  22898707.82446
  20104133.172 7    -72339.590 7    -54640.80949  20104131.85949
  23511782.922 6    178894.148 6    168780.43447  23511780.78547
 20  5 16  1 40 41.0000000  0  8G04G08G09G11G16G26G27G31            -0.000034048
  21415614.664 5    -83591.352 5    -60334.94946  21415612.38746
  20678657.070 6   -464808.531 6   -345516.52749  20678656.93449
  23003030.586 3   -410428.809 3   -301349.76647  23003029.86747
  23389205.547 6   -808173.961 6   -528228.18846  23389202.37146
  21488086.711 6     50574.098 6     37843.52747  21488082.67247
  22898848.742 4    139696.324 4    101843.35247  22898850.35947
  20104066.242 7    -72690.727 7    -54914.42649  20104064.64549
  23512063.047 6    180364.641 6    169926.26647  23512060.58247
 20  5 16  1 40 42.0000000  0  8G04G08G09G11G16G26G27G31            -0.000034666
  21415532.555 5    -84024.855 5    -60672.75446  21415529.97746
  20678183.922 6   -467292.824 6   -347452.34049  20678183.83649
  23002588.469 3   -412747.738 3   -303156.72347  23002588.48447
  23388371.266 5   -812555.738 5   -531642.54346  23388368.53946
  21488135.469 6     50828.996 6     38042.15247  21488131.59847
  22898991.656 4    140445.387 4    102427.04347  22898992.73847
  20103999.703 7    -73041.309 7    -55187.60249  20103998.15649
  23512342.781 6    181835.348 6    171072.26647  23512340.49647
 20  5 16  1 40 43.0000000  0  8G04G08G09G11G16G26G27G31            -0.000035284
  21415449.320 5    -84457.813 5    -61010.11746  21415447.85546
  20677711.211 6   -469776.648 6   -349387.78549  20677711.27349
  23002147.039 3   -415066.168 3   -304963.29747  23002147.32047
  23387537.703 5   -816937.512 5   -535056.91046  23387535.14846
  21488183.609 6     51083.930 6     38240.80147  21488179.77747
  22899133.945 4    141194.387 4    103010.68047  22899135.24647
  20103933.078 7    -73391.367 7    -55460.38349  20103931.60549
  23512622.227 6    183306.262 6    172218.43047  23512620.39847
 20  5 16  1 40 44.0000000  0  8G04G08G09G11G16G26G27G31            -0.000035900
  21415368.000 5    -84890.137 5    -61347.00046  21415365.28946
  20677238.953 6   -472259.816 6   -351322.72349  20677238.73849
  23001706.789 3   -417383.984 3   -306769.38347  23001706.30547
  23386703.969 6   -821319.094 6   -538471.14146  23386701.04746
  21488232.273 6     51338.945 6     38439.50447  21488228.55147
  22899277.039 5    141943.453 5    103594.36347  22899278.31647
  20103866.531 7    -73740.746 7    -55732.62949  20103864.82049
  23512902.711 6    184777.535 6    173364.87547  23512900.24247
 20  5 16  1 40 45.0000000  0  8G04G08G09G11G16G26G27G31            -0.000036520
  21415285.820 5    -85322.074 5    -61683.57446  21415283.31646
  20676766.422 6   -474742.711 6   -353257.44949  20676766.43449
  23001266.047 3   -419701.527 3   -308575.26247  23001265.34047
  23385869.945 6   -825700.844 6   -541885.48447  23385867.13747
  21488280.914 6     51593.793 6     38638.09047  21488276.96147
  22899419.148 5    142692.270 5    104177.85946  22899420.64546
  20103800.336 7    -74089.793 7    -56004.60949  20103798.79349
  23513182.344 6    186248.766 6    174511.28947  23513180.48447
 20  5 16  1 40 46.0000000  0  8G04G08G09G11G16G26G27G31            -0.000037138
  21415203.281 5    -85753.492 5    -62019.73046  21415201.46546
  20676294.141 6   -477225.090 6   -355191.76249  20676294.11749
  23000824.266 3   -422018.500 3   -310380.69947  23000824.53947
  23385036.070 5   -830082.563 5   -545299.81646  23385033.70746
  21488329.688 6     51848.637 6     38836.67247  21488325.44147
  22899561.914 5    143441.023 5    104761.30547  22899563.33647
  20103734.141 7    -74438.289 7    -56276.16449  20103732.55949
  23513462.570 6    187720.266 6    175657.91447  23513460.44147
 20  5 16  1 40 47.0000000  0  8G04G08G09G11G16G26G27G31            -0.000037756
  21415121.984 5    -86184.281 5    -62355.42246  21415119.29746
  20675821.617 6   -479706.918 6   -357125.65649  20675821.99649
  23000384.031 3   -424334.980 3   -312185.75447  23000383.34847
  23384202.047 5   -834464.180 5   -548714.06646  23384199.82446
  21488378.016 6     52103.563 6     39035.32047  21488374.02047
  22899704.055 5    144189.766 5    105344.74647  22899705.72347
  20103667.539 7    -74786.199 7    -56547.27049  20103666.07449
  23513742.227 6    189192.043 6    176804.75047  23513740.68847
 20  5 16  1 40 48.0000000  0  8G04G08G09G11G16G26G27G31            -0.000038374
  21415039.617 5    -86614.645 5    -62690.76646  21415037.10546
  20675349.570 6   -482188.348 6   -359059.24249  20675349.32849
  22999943.148 3   -426650.984 3   -313990.43847  22999942.93447
  23383368.750 6   -838845.891 6   -552128.37947  23383366.19547
  21488426.516 6     52358.379 6     39233.87947  21488422.15247
  22899846.836 5    144938.348 5    105928.05146  22899848.51646
  20103601.633 7    -75133.637 7    -56817.99249  20103599.97749
  23514022.773 6    190663.887 6    177951.64547  23514020.52347
 20  5 16  1 40 49.0000000  0  8G04G08G09G11G16G26G27G31            -0.000038992
  21414957.469 5    -87044.465 5    -63025.69946  21414955.60246
  20674877.461 6   -484669.289 6   -360992.43849  20674877.34449
  22999502.125 3   -428966.527 3   -315794.75447  22999502.07047
  23382535.008 5   -843227.539 5   -555542.64846  23382532.00446
  21488475.484 6     52613.219 6     39432.44947  21488471.24247
  22899990.109 5    145686.887 5    106511.32446  22899990.89146
  20103535.625 7    -75480.543 7    -57088.31649  20103533.98449
  23514302.430 6    192135.973 6    179098.72347  23514300.72747
 20  5 16  1 40 50.0000000  0  8G04G08G09G11G16G26G27G31            -0.000039610
  21414876.289 5    -87473.883 5    -63360.30946  21414873.57046
  20674405.188 6   -487149.902 6   -362925.38749  20674405.55149
  22999062.047 3   -431281.688 3   -317598.77747  22999061.40247
  23381701.203 6   -847609.348 6   -558957.04347  23381698.03947
  21488523.719 6     52867.898 6     39630.90247  21488519.37947
  22900132.070 5    146435.168 5    107094.39346  22900133.37546
  20103469.547 7    -75827.070 7    -57358.33249  20103468.27749
  23514582.563 6    193608.090 6    180245.81647  23514580.61347
 20  5 16  1 40 51.0000000  0  8G04G08G09G11G16G26G27G31            -0.000040228
  21414794.492 5    -87902.613 5    -63694.38346  21414792.24246
  20673933.422 6   -489629.859 6   -364857.81649  20673933.56649
  22998621.797 3   -433596.258 3   -319402.33647  22998621.19147
  23380867.313 6   -851990.953 6   -562371.28147  23380864.53947
  21488572.117 6     53122.730 6     39829.47347  21488567.77047
  22900274.539 5    147183.602 5    107677.57846  22900275.67646
  20103403.773 7    -76172.914 7    -57627.82049  20103402.43849
  23514862.813 6    195080.582 6    181393.21147  23514860.62147
 20  5 16  1 40 52.0000000  0  8G04G08G09G11G16G26G27G31            -0.000040848
  21414712.977 5    -88330.676 5    -64027.92646  21414710.69146
  20673461.672 6   -492109.223 6   -366789.78949  20673461.57049
  22998181.461 3   -435910.113 3   -321205.34447  22998180.51647
  23380033.906 6   -856372.379 6   -565785.37547  23380030.82847
  21488620.453 6     53377.691 6     40028.14147  21488616.47347
  22900416.875 5    147932.078 5    108260.80546  22900417.94546
  20103337.930 7    -76518.078 7    -57896.78149  20103336.57449
  23515142.742 6    196553.402 6    182540.86747  23515140.74647
 20  5 16  1 40 53.0000000  0  8G04G08G09G11G16G26G27G31            -0.000041466
  21414632.156 5    -88758.266 5    -64361.12546  21414629.69946
  20672989.883 6   -494588.160 6   -368721.43049  20672990.18449
  22997741.078 3   -438223.617 3   -323008.07047  22997740.25447
  23379199.695 5   -860753.891 5   -569199.53546  23379197.21146
  21488668.922 6     53632.566 6     40226.74247  21488665.33647
  22900559.688 5    148680.402 5    108843.91446  22900560.42246
  20103272.313 7    -76862.809 7    -58165.39849  20103271.01649
  23515423.438 6    198026.371 6    183688.63347  23515421.05147
 20  5 16  1 40 54.0000000  0  8G04G08G09G11G16G26G27G31            -0.000042084
  21414550.180 5    -89185.414 5    -64693.96546  21414548.37546
  20672518.781 6   -497066.648 6   -370652.71949  20672518.11749
  22997301.141 3   -440536.648 3   -324810.43447  22997300.21547
  23378365.688 5   -865135.395 5   -572613.70346  23378363.20746
  21488717.352 6     53887.414 6     40425.32847  21488713.75447
  22900701.586 5    149428.598 5    109426.92646  22900702.34446
  20103207.023 7    -77207.035 7    -58433.62549  20103205.69949
  23515703.703 6    199499.477 6    184836.50847  23515701.56647
 20  5 16  1 40 55.0000000  0  8G04G08G09G11G16G26G27G31            -0.000042702
  21414468.570 5    -89612.043 5    -65026.40646  21414467.20746
  20672046.688 6   -499544.707 6   -372583.67249  20672046.87549
  22996861.445 3   -442849.254 3   -326612.45347  22996860.42647
  23377532.164 5   -869516.965 5   -576027.91047  23377528.87547
  21488766.172 6     54142.199 6     40623.86347  21488762.14547
  22900843.438 5    150176.664 5    110009.83247  22900845.08247
  20103141.578 7    -77550.789 7    -58701.48849  20103140.12949
  23515983.703 6    200972.734 6    185984.50047  23515981.49647
 20  5 16  1 40 56.0000000  0  8G04G08G09G11G16G26G27G31            -0.000043322
  21414388.016 5    -90038.133 5    -65358.42246  21414386.23046
  20671575.539 6   -502022.277 6   -374514.25449  20671575.37549
  22996420.609 4   -445161.324 4   -328414.06647  22996420.31647
  23376697.961 6   -873898.469 6   -579442.07446  23376695.75846
  21488814.484 6     54396.988 6     40822.39847  21488810.72347
  22900986.391 5    150924.684 5    110592.69547  22900987.13347
  20103076.180 6    -77893.984 6    -58968.91449  20103075.13749
  23516264.477 6    202446.215 6    187132.66847  23516262.15647
 20  5 16  1 40 57.0000000  0  8G04G08G09G11G16G26G27G31            -0.000043940
  21414307.250 5    -90463.664 5    -65689.99646  21414305.34446
  20671103.984 6   -504499.344 6   -376444.43449  20671104.16849
  22995980.805 3   -447472.883 3   -330215.28147  22995980.39847
  23375864.219 5   -878279.957 5   -582856.21547  23375861.98447
  21488863.094 6     54651.801 6     41020.95347  21488859.20347
  22901128.773 5    151672.596 5    111175.48546  22901129.64546
  20103011.117 7    -78236.633 7    -59235.91449  20103009.62149
  23516545.148 6    203919.906 6    188280.99247  23516542.62947
 20  5 16  1 40 58.0000000  0  8G04G08G09G11G16G26G27G31            -0.000044558
  21414226.383 5    -90888.805 5    -66021.28146  21414224.72346
  20670632.578 6   -506976.047 6   -378374.32849  20670632.73449
  22995540.836 3   -449784.098 3   -332016.23047  22995540.05947
  23375030.977 5   -882661.551 5   -586270.44547  23375028.40647
  21488911.555 6     54906.469 6     41219.39147  21488907.30147
  22901270.563 5    152420.378 5    111758.17746  22901272.01646
  20102946.047 7    -78578.891 7    -59502.60949  20102944.84049
  23516825.125 6    205393.656 6    189429.36747  23516822.91847
 20  5 16  1 40 59.0000000  0  8G04G08G09G11G16G26G27G31            -0.000045177
  21414145.445 5    -91313.469 5    -66352.19546  21414143.37946
  20670161.305 6   -509452.340 6   -380303.91049  20670161.27049
  22995101.828 3   -452094.891 3   -333816.85247  22995100.59047
  23374197.172 5   -887043.156 5   -589684.68447  23374194.30547
  21488959.602 6     55161.070 6     41417.78547  21488956.10547
  22901413.117 5    153168.059 5    112340.77747  22901413.85247
  20102881.234 7    -78920.672 7    -59768.93049  20102879.64849
  23517105.813 6    206867.563 6    190577.86347  23517103.79347
 20  5 16  1 41  0.0000000  0  8G04G08G09G11G16G26G27G31            -0.000045795
  21414064.758 5    -91737.551 5    -66682.64546  21414062.93846
  20669690.516 6   -511928.086 6   -382233.06649  20669690.06349
  22994662.516 3   -454405.129 3   -335617.04347  22994661.23047
  23373363.125 5   -891424.691 5   -593098.87146  23373360.79746
  21489008.320 6     55415.734 6     41616.21947  21489004.80947
  22901555.914 5    153915.680 5    112923.34047  22901556.59047
  20102815.820 7    -79261.871 7    -60034.79749  20102815.14849
  23517386.180 6    208341.691 6    191726.52747  23517383.82447
 20  5 16  1 41  1.0000000  0  8G04G08G09G11G16G26G27G31            -0.000046415
  21413984.031 5    -92160.941 5    -67012.55546  21413982.48046
  20669219.414 6   -514403.199 6   -384161.72749  20669219.24649
  22994222.578 3   -456714.676 3   -337416.68847  22994221.56347
  23372529.930 5   -895806.070 5   -596512.92647  23372526.63747
  21489056.938 6     55670.531 6     41814.76647  21489053.16847
  22901698.234 5    154663.355 5    113505.93047  22901698.79347
  20102751.156 7    -79602.398 7    -60300.14849  20102750.22349
  23517667.094 6    209816.219 6    192875.50447  23517664.73047
 20  5 16  1 41  2.0000000  0  8G04G08G09G11G16G26G27G31            -0.000047033
  21413903.641 5    -92583.797 5    -67342.06346  21413901.76246
  20668748.469 6   -516877.785 6   -386089.97749  20668748.40249
  22993782.555 4   -459023.777 4   -339215.98447  22993782.38347
  23371695.242 6   -900187.395 6   -599926.93846  23371693.02046
  21489105.195 6     55925.359 6     42013.32447  21489101.51647
  22901840.023 5    155410.996 5    114088.50447  22901840.95347
  20102686.703 7    -79942.355 7    -60565.05149  20102685.37949
  23517947.484 6    211290.957 6    194024.65247  23517945.37147
 20  5 16  1 41  3.0000000  0  8G04G08G09G11G16G26G27G31            -0.000047653
  21413823.555 5    -93006.141 5    -67671.16046  21413821.48046
  20668277.703 6   -519351.938 6   -388017.88349  20668277.95749
  22993343.273 3   -461332.395 3   -341014.90647  22993342.74247
  23370862.070 6   -904568.715 6   -603340.94947  23370859.50447
  21489154.273 6     56180.137 6     42211.84447  21489149.79347
  22901982.055 5    156158.535 5    114671.00047  22901983.19947
  20102621.672 7    -80281.828 7    -60829.57449  20102620.73849
  23518228.359 6    212765.859 6    195173.92247  23518225.97347
 20  5 16  1 41  4.0000000  0  8G04G08G09G11G16G26G27G31            -0.000048271
  21413742.656 5    -93428.152 5    -68000.00046  21413741.18846
  20667807.031 6   -521825.809 6   -389945.57849  20667806.84049
  22992904.289 3   -463640.672 3   -342813.56647  22992903.59047
  23370028.078 6   -908950.227 6   -606755.11347  23370025.59847
  21489202.336 6     56434.723 6     42410.22347  21489198.16847
  22902125.211 5    156905.797 5    115253.27047  22902125.66847
  20102557.664 7    -80620.980 7    -61093.84849  20102556.76649
  23518509.320 6    214240.742 6    196323.18047  23518506.89847
 20  5 16  1 41  5.0000000  0  8G04G08G09G11G16G26G27G31            -0.000048891
  21413663.008 5    -93849.531 5    -68328.36346  21413660.83246
  20667335.984 6   -524299.070 6   -391872.79349  20667336.02349
  22992464.836 3   -465948.391 3   -344611.79347  22992464.76247
  23369194.844 5   -913331.586 5   -610169.16847  23369191.53147
  21489250.875 7     56689.422 7     42608.68847  21489246.54347
  22902266.805 5    157653.109 5    115835.59447  22902267.52047
  20102493.102 7    -80959.461 7    -61357.59849  20102491.78949
  23518789.945 6    215715.977 6    197472.69947  23518787.41847
 20  5 16  1 41  6.0000000  0  8G04G08G09G11G16G26G27G31            -0.000049509
  21413583.328 5    -94270.281 5    -68656.21546  21413580.93846
  20666865.773 6   -526771.777 6   -393799.58249  20666865.50449
  22992026.242 3   -468255.492 3   -346409.53947  22992025.54747
  23368361.281 5   -917712.871 5   -613583.16447  23368358.18447
  21489299.758 6     56944.180 6     42807.19947  21489295.44147
  22902409.211 5    158400.414 5    116417.91846  22902409.81346
  20102428.742 7    -81297.359 7    -61620.89549  20102427.57849
  23519070.234 6    217191.438 6    198622.41047  23519068.13347
 20  5 16  1 41  7.0000000  0  8G04G08G09G11G16G26G27G31            -0.000050129
  21413503.281 5    -94690.676 5    -68983.78946  21413501.06646
  20666395.109 6   -529244.141 6   -395726.09449  20666394.89149
  22991586.680 3   -470562.313 3   -348207.05947  22991587.09047
  23367526.836 6   -922094.277 6   -616997.24247  23367524.07447
  21489347.977 6     57198.781 6     43005.59447  21489343.94547
  22902551.352 5    159147.531 5    117000.08246  22902551.46146
  20102364.586 7    -81634.879 7    -61883.90249  20102363.32849
  23519351.406 6    218666.980 6    199772.18447  23519348.91447
 20  5 16  1 41  8.0000000  0  8G04G08G09G11G16G26G27G31            -0.000050749
  21413423.328 5    -95110.453 5    -69310.87946  21413421.10946
  20665925.070 7   -531715.977 7   -397652.20749  20665924.74249
  22991148.617 4   -472868.520 4   -350004.09847  22991147.84447
  23366693.266 5   -926475.598 5   -620411.26647  23366690.37947
  21489396.641 6     57453.445 6     43204.03947  21489392.55547
  22902692.563 5    159894.566 5    117582.18846  22902693.90646
  20102300.375 7    -81971.809 7    -62146.44549  20102299.09449
  23519632.313 5    220142.770 5    200922.14847  23519629.83247
 20  5 16  1 41  9.0000000  0  8G04G08G09G11G16G26G27G31            -0.000051367
  21413343.070 5    -95529.672 5    -69637.55546  21413341.16046
  20665454.789 6   -534187.277 6   -399577.89149  20665454.56649
  22990709.266 3   -475174.199 3   -351800.73847  22990709.21947
  23365858.789 5   -930856.844 5   -623825.21547  23365856.60547
  21489445.008 6     57708.141 6     43402.50447  21489440.91047
  22902835.586 5    160641.602 5    118164.30146  22902835.93046
  20102236.406 7    -82308.129 7    -62408.51649  20102235.03549
  23519913.047 5    221618.816 5    202072.31647  23519910.33647
 20  5 16  1 41 10.0000000  0  8G04G08G09G11G16G26G27G31            -0.000051987
  21413263.055 5    -95948.375 5    -69963.81646  21413261.34046
  20664984.398 6   -536658.117 6   -401503.21949  20664984.48849
  22990270.258 3   -477479.465 3   -353597.05147  22990270.39847
  23365025.961 5   -935238.102 5   -627239.17247  23365023.16447
  21489493.570 6     57962.801 6     43600.94147  21489489.44947
  22902977.414 5    161388.563 5    118746.34847  22902978.44147
  20102172.352 7    -82643.996 7    -62670.22349  20102171.33649
  23520193.727 5    223095.066 5    203222.63347  23520191.42647
 20  5 16  1 41 11.0000000  0  8G04G08G09G11G16G26G27G31            -0.000052607
  21413183.609 5    -96366.531 5    -70289.65246  21413181.83246
  20664514.367 6   -539128.477 6   -403428.17649  20664514.07449
  22989831.688 3   -479784.160 3   -355392.91047  22989832.28947
  23364192.070 6   -939619.305 6   -630653.09047  23364189.82447
  21489541.875 6     58217.477 6     43799.38747  21489537.70747
  22903119.672 5    162135.430 5    119328.32847  22903120.23447
  20102108.477 7    -82979.285 7    -62931.49249  20102107.41449
  23520474.250 5    224571.480 5    204373.07447  23520472.41847
 20  5 16  1 41 12.0000000  0  8G04G08G09G11G16G26G27G31            -0.000053225
  21413104.570 5    -96784.070 5    -70615.01246  21413102.59046
  20664044.328 6   -541598.258 6   -405352.67649  20664044.23849
  22989393.781 3   -482088.375 3   -357188.39847  22989393.63747
  23363358.438 6   -944000.406 6   -634066.93847  23363355.69547
  21489590.055 6     58472.238 6     43997.89847  21489586.33247
  22903261.711 5    162882.348 5    119910.34047  22903262.41447
  20102045.031 7    -83313.980 7    -63192.29349  20102043.89149
  23520755.805 6    226048.211 6    205523.77047  23520753.64547
 20  5 16  1 41 13.0000000  0  8G04G08G09G11G16G26G27G31            -0.000053844
  21413024.734 5    -97201.141 5    -70940.00046  21413022.89546
  20663574.625 6   -544067.566 6   -407276.81349  20663574.28949
  22988955.742 3   -484391.988 3   -358983.41847  22988955.43047
  23362525.234 5   -948381.531 5   -637480.80147  23362522.17247
  21489638.570 6     58726.957 6     44196.38347  21489634.77047
  22903403.289 5    163629.152 5    120492.25447  22903404.44947
  20101981.703 7    -83648.156 7    -63452.68849  20101979.90649
  23521036.805 5    227525.082 5    206674.58247  23521034.74647
 20  5 16  1 41 14.0000000  0  8G04G08G09G11G16G26G27G31            -0.000054464
  21412945.422 5    -97617.594 5    -71264.51246  21412943.99646
  20663104.953 6   -546536.340 6   -409200.53949  20663104.41849
  22988517.258 3   -486695.125 3   -360778.07847  22988517.24247
  23361691.648 5   -952762.574 5   -640894.60547  23361688.44547
  21489687.602 6     58981.723 6     44394.89847  21489682.89847
  22903545.656 5    164375.926 5    121074.15647  22903546.14147
  20101918.328 7    -83981.781 7    -63712.65249  20101916.84449
  23521317.961 5    229002.227 5    207825.59047  23521315.72347
 20  5 16  1 41 15.0000000  0  8G04G08G09G11G16G26G27G31            -0.000055084
  21412866.313 5    -98033.629 5    -71588.68846  21412864.73046
  20662635.281 6   -549004.758 6   -411123.97749  20662635.11349
  22988078.898 3   -488997.883 3   -362572.44147  22988078.71947
  23360857.453 5   -957143.668 5   -644308.44547  23360854.81647
  21489735.367 6     59236.387 6     44593.33647  21489731.41047
  22903687.680 5    165122.547 5    121655.93847  22903688.33647
  20101854.383 7    -84314.941 7    -63972.26249  20101853.46949
  23521598.922 5    230479.461 5    208976.69147  23521596.81647
 20  5 16  1 41 16.0000000  0  8G04G08G09G11G16G26G27G31            -0.000055702
  21412787.383 5    -98449.031 5    -71912.37546  21412785.93846
  20662165.672 6   -551472.570 6   -413046.94949  20662164.94149
  22987640.617 3   -491300.023 3   -364366.31647  22987640.88747
  23360023.953 5   -961524.684 5   -647722.21947  23360020.97347
  21489783.953 6     59491.113 6     44791.82847  21489779.72747
  22903829.961 5    165869.168 5    122237.72747  22903830.87947
  20101791.000 7    -84647.512 7    -64231.40649  20101790.16849
  23521880.664 5    231956.984 5    210128.00447  23521877.87147
 20  5 16  1 41 17.0000000  0  8G04G08G09G11G16G26G27G31            -0.000056322
  21412708.336 5    -98863.898 5    -72235.64146  21412706.92646
  20661696.008 6   -553939.848 6   -414969.50049  20661695.48449
  22987202.211 3   -493601.656 3   -366159.79747  22987202.57047
  23359189.625 5   -965905.613 5   -651135.93847  23359187.63347
  21489832.492 6     59745.898 6     44990.35547  21489828.47347
  22903971.969 5    166615.773 5    122819.49646  22903972.90646
  20101727.938 7    -84979.488 7    -64490.09049  20101727.42649
  23522161.563 5    233434.738 5    211279.48847  23522159.39847
 20  5 16  1 41 18.0000000  0  8G04G08G09G11G16G26G27G31            -0.000056942
  21412629.977 5    -99278.230 5    -72558.49646  21412627.98046
  20661226.492 6   -556406.742 6   -416891.75849  20661226.21549
  22986764.867 3   -495902.820 3   -367952.91447  22986764.70747
  23358356.789 5   -970286.578 5   -654549.67647  23358353.74647
  21489880.664 6     60000.602 6     45188.82047  21489876.49647
  22904114.289 5    167362.215 5    123401.14146  22904115.28946
  20101664.922 7    -85311.031 7    -64748.44149  20101663.87549
  23522442.938 5    234912.660 5    212431.11747  23522440.45747
 20  5 16  1 41 19.0000000  0  8G04G08G09G11G16G26G27G31            -0.000057562
  21412550.750 5    -99692.000 5    -72880.92246  21412549.18446
  20660757.367 7   -558873.094 7   -418813.59049  20660756.82449
  22986327.313 3   -498203.480 3   -369745.64147  22986327.02747
  23357522.680 6   -974667.480 6   -657963.35547  23357520.12547
  21489929.719 6     60255.359 6     45387.33247  21489925.13747
  22904256.281 5    168108.648 5    123982.77047  22904256.73847
  20101601.789 7    -85641.980 7    -65006.32049  20101601.17649
  23522723.961 5    236390.805 5    213582.91447  23522721.76647
 20  5 16  1 41 20.0000000  0  8G04G08G09G11G16G26G27G31            -0.000058182
  21412472.938 5   -100105.317 5    -73202.98046  21412470.46146
  20660288.094 7   -561338.973 7   -420735.05549  20660287.85549
  22985889.195 3   -500503.586 3   -371537.93047  22985889.39147
  23356688.992 6   -979048.355 6   -661377.02047  23356686.59047
  21489977.938 6     60510.113 6     45585.84447  21489973.49247
  22904398.359 5    168855.012 5    124564.35546  22904398.63346
  20101538.828 7    -85972.387 7    -65263.77749  20101537.85249
  23523005.094 5    237869.145 5    214734.85947  23523003.28147
 20  5 16  1 41 21.0000000  0  8G04G08G09G11G16G26G27G31            -0.000058802
  21412394.273 5   -100518.004 5    -73524.56646  21412391.93446
  20659818.781 7   -563804.332 7   -422656.11349  20659818.44149
  22985451.734 3   -502803.258 3   -373329.87947  22985451.78947
  23355855.445 6   -983429.191 6   -664790.66447  23355853.00847
  21490026.008 6     60764.871 6     45784.35547  21490021.98047
  22904540.453 4    169601.340 4    125145.90246  22904540.72346
  20101476.180 7    -86302.262 7    -65520.82449  20101475.39149
  23523286.461 5    239347.688 5    215886.97347  23523284.37947
 20  5 16  1 41 22.0000000  0  8G04G08G09G11G16G26G27G31            -0.000059422
  21412315.344 5   -100930.340 5    -73845.85946  21412313.77346
  20659349.547 7   -566269.387 7   -424576.94149  20659349.66449
  22985014.070 3   -505102.535 3   -375121.52747  22985014.37147
  23355022.047 6   -987810.145 6   -668204.39147  23355018.81647
  21490074.594 6     61019.492 6     45982.75847  21490070.49647
  22904681.484 4    170347.434 4    125727.27046  22904682.54746
  20101413.703 7    -86631.754 7    -65777.57049  20101412.70349
  23523568.289 5    240826.313 5    217039.14547  23523565.77347
 20  5 16  1 41 23.0000000  0  8G04G08G09G11G16G26G27G31            -0.000060041
  21412236.883 5   -101342.121 5    -74166.73046  21412235.35946
  20658880.617 7   -568733.938 7   -426497.36749  20658880.35549
  22984576.242 3   -507401.305 3   -376912.77747  22984576.63747
  23354188.594 6   -992191.078 6   -671618.10247  23354185.37947
  21490123.195 6     61274.078 6     46181.13347  21490118.85947
  22904823.797 4    171093.441 4    126308.57046  22904824.44946
  20101351.391 7    -86960.715 7    -66033.90249  20101350.05549
  23523849.422 5    242305.160 5    218191.49247  23523847.47347
 20  5 16  1 41 24.0000000  0  8G04G08G09G11G16G26G27G31            -0.000060661
  21412158.711 5   -101753.352 5    -74487.16446  21412157.16846
  20658411.766 7   -571198.004 7   -428417.41049  20658411.50449
  22984139.930 3   -509699.645 3   -378703.68847  22984139.27747
  23353354.227 5   -996571.941 5   -675031.76247  23353351.50047
  21490171.617 6     61528.707 6     46379.54347  21490167.50847
  22904965.813 4    171839.410 4    126889.84047  22904966.37547
  20101288.172 7    -87289.113 7    -66289.80149  20101287.41049
  23524130.922 5    243784.184 5    219343.97747  23524128.63747
 20  5 16  1 41 25.0000000  0  8G04G08G09G11G16G26G27G31            -0.000061281
  21412080.648 5   -102164.063 5    -74807.19546  21412078.76646
  20657942.648 7   -573661.555 7   -430337.06349  20657942.84449
  22983702.406 3   -511997.391 3   -380494.14147  22983702.18047
  23352521.156 6  -1000952.813 6   -678445.42647  23352518.25047
  21490219.984 6     61783.320 6     46577.94947  21490216.16847
  22905107.508 4    172585.309 4    127471.05947  22905108.46547
  20101226.219 7    -87617.000 7    -66545.29749  20101225.43449
  23524412.242 5    245263.402 5    220496.61747  23524409.89147
 20  5 16  1 41 26.0000000  0  8G04G08G09G11G16G26G27G31            -0.000061901
  21412002.453 5   -102574.375 5    -75126.92246  21412000.66446
  20657474.000 7   -576124.762 7   -432256.44549  20657473.91049
  22983265.672 3   -514294.820 3   -382284.35247  22983264.98047
  23351687.273 6  -1005333.750 6   -681859.14147  23351684.50447
  21490269.016 6     62037.793 6     46776.23847  21490264.34847
  22905249.766 4    173331.023 4    128052.13347  22905250.76647
  20101163.945 7    -87944.508 7    -66800.50049  20101162.85249
  23524693.391 5    246742.707 5    221649.32447  23524691.25847
 20  5 16  1 41 27.0000000  0  8G04G08G09G11G16G26G27G31            -0.000062521
  21411924.820 5   -102984.076 5    -75446.16446  21411923.04346
  20657005.320 7   -578587.398 7   -434175.38349  20657005.22349
  22982828.508 3   -516591.668 3   -384074.10947  22982827.63347
  23350853.867 6  -1009714.594 6   -685272.78147  23350850.62947
  21490316.852 6     62292.363 6     46974.60247  21490313.00847
  22905391.281 4    174076.754 4    128633.23047  22905392.56647
  20101101.336 7    -88271.352 7    -67055.18849  20101100.24649
  23524974.867 5    248222.316 5    222802.27747  23524972.70347
 20  5 16  1 41 28.0000000  0  8G04G08G09G11G16G26G27G31            -0.000063141
  21411846.688 5   -103393.266 5    -75765.01646  21411845.19546
  20656536.742 7   -581049.629 7   -436094.00449  20656536.77049
  22982391.430 3   -518888.094 3   -385863.53147  22982390.87947
  23350019.805 6  -1014095.477 6   -688686.46147  23350017.00847
  21490365.750 6     62546.844 6     47172.89547  21490361.60947
  22905533.656 4    174822.328 4    129214.20346  22905534.43846
  20101039.516 6    -88597.762 6    -67309.52749  20101038.40249
  23525256.375 5    249702.031 5    223955.29747  23525254.38747
 20  5 16  1 41 29.0000000  0  8G04G08G09G11G16G26G27G31            -0.000063761
  21411769.102 5   -103801.828 5    -76083.37546  21411767.21946
  20656068.492 6   -583511.230 6   -438012.13749  20656068.32049
  22981955.180 3   -521183.855 3   -387652.43447  22981953.94147
  23349186.945 6  -1018476.211 6   -692100.01647  23349183.62547
  21490413.852 6     62801.473 6     47371.30947  21490409.79347
  22905675.180 4    175568.008 4    129795.26646  22905676.31646
  20100977.563 6    -88923.477 6    -67563.33249  20100976.68449
  23525538.305 5    251182.098 5    225108.59047  23525536.07447
 20  5 16  1 41 30.0000000  0  8G04G08G09G11G16G26G27G31            -0.000064383
  21411691.391 5   -104209.898 5    -76401.35946  21411689.23846
  20655600.164 6   -585972.402 6   -439929.93049  20655599.87549
  22981518.516 3   -523479.172 3   -389440.98447  22981517.17647
  23348353.453 6  -1022856.938 6   -695513.57047  23348349.68847
  21490462.789 6     63056.020 6     47569.65247  21490458.48447
  22905817.313 4    176313.504 4    130376.15646  22905818.51646
  20100915.648 6    -89248.734 6    -67816.77749  20100914.75849
  23525820.070 5    252662.301 5    226261.99647  23525817.74647
 20  5 16  1 41 31.0000000  0  8G04G08G09G11G16G26G27G31            -0.000065002
  21411613.961 5   -104617.508 5    -76718.97346  21411612.05546
  20655131.758 6   -588433.102 6   -441847.35549  20655131.53549
  22981081.703 3   -525774.047 3   -391229.19947  22981080.36347
  23347519.391 6  -1027237.680 6   -698927.13747  23347516.72747
  21490510.977 7     63310.531 7     47767.97747  21490506.86347
  22905958.914 4    177058.852 4    130956.94946  22905959.89146
  20100853.766 6    -89573.512 6    -68069.85249  20100852.81649
  23526102.344 5    254142.691 5    227415.55147  23526099.61747
 20  5 16  1 41 32.0000000  0  8G04G08G09G11G16G26G27G31            -0.000065622
  21411536.063 5   -105024.629 5    -77036.21546  21411534.58246
  20654663.586 6   -590893.418 6   -443764.48849  20654663.43449
  22980644.188 3   -528068.496 3   -393017.08647  22980643.75447
  23346685.188 6  -1031618.523 6   -702340.78147  23346682.81647
  21490559.547 7     63564.953 7     47966.22747  21490554.95747
  22906100.625 4    177804.168 4    131537.71146  22906101.80546
  20100792.055 6    -89897.816 6    -68322.55549  20100791.24649
  23526383.836 5    255623.172 5    228569.16047  23526381.09047
 20  5 16  1 41 33.0000000  0  8G04G08G09G11G16G26G27G31            -0.000066242
  21411458.766 5   -105431.258 5    -77353.07446  21411457.49246
  20654195.531 7   -593353.250 7   -445681.23849  20654195.28949
  22980208.430 3   -530362.512 3   -394804.63347  22980207.18047
  23345851.867 6  -1035999.324 6   -705754.38747  23345849.03947
  21490607.719 6     63819.352 6     48164.45747  21490603.62547
  22906243.148 4    178549.313 4    132118.33647  22906243.90647
  20100730.641 6    -90221.648 6    -68574.89149  20100729.60949
  23526665.320 5    257103.840 5    229722.93447  23526662.92247
 20  5 16  1 41 34.0000000  0  8G04G08G09G11G16G26G27G31            -0.000066864
  21411381.586 5   -105837.316 5    -77669.47746  21411379.71546
  20653727.461 7   -595812.594 7   -447597.61349  20653727.42649
  22979771.445 4   -532655.996 4   -396591.76647  22979771.10547
  23345018.469 6  -1040380.113 6   -709167.98847  23345015.18447
  21490656.391 6     64073.762 6     48362.69947  21490652.06347
  22906384.547 4    179294.402 4    132698.93046  22906385.59046
  20100668.711 6    -90544.922 6    -68826.79749  20100667.78549
  23526947.500 5    258584.703 5    230876.85247  23526944.92647
 20  5 16  1 41 35.0000000  0  8G04G08G09G11G16G26G27G31            -0.000067484
  21411304.047 5   -106242.957 5    -77985.57046  21411302.47746
  20653259.500 7   -598271.531 7   -449513.66449  20653259.59049
  22979335.141 3   -534949.023 3   -398378.53147  22979334.50847
  23344184.609 6  -1044760.914 6   -712581.59847  23344181.64147
  21490704.602 6     64328.109 6     48560.89147  21490700.48447
  22906526.688 4    180039.391 4    133279.44547  22906527.63347
  20100607.563 6    -90867.727 6    -69078.32849  20100606.59449
  23527229.031 5    260065.730 5    232030.89547  23527226.25447
 20  5 16  1 41 36.0000000  0  8G04G08G09G11G16G26G27G31            -0.000068104
  21411227.352 5   -106647.902 5    -78301.10946  21411225.37946
  20652791.938 6   -600729.859 6   -451429.24649  20652791.27349
  22978898.352 3   -537241.438 3   -400164.82847  22978898.35247
  23343351.430 6  -1049141.570 6   -715995.09447  23343347.91047
  21490753.125 6     64582.547 6     48759.14847  21490748.97747
  22906667.523 4    180784.398 4    133859.96947  22906669.14147
  20100545.914 6    -91189.891 6    -69329.36749  20100545.29749
  23527510.664 5    261547.047 5    233185.17247  23527508.35547
 20  5 16  1 41 37.0000000  0  8G04G08G09G11G16G26G27G31            -0.000068726
  21411150.469 5   -107052.316 5    -78616.23446  21411148.29746
  20652324.117 6   -603187.676 6   -453344.43049  20652324.12549
  22978462.172 3   -539533.371 3   -401950.75447  22978462.02747
  23342517.617 6  -1053522.180 6   -719408.54747  23342514.38747
  21490801.352 6     64837.031 6     48957.45347  21490797.48047
  22906810.352 4    181529.379 4    134440.47346  22906811.20346
  20100484.813 6    -91511.496 6    -69579.97349  20100483.72349
  23527793.133 5    263028.621 5    234339.64147  23527790.05147
 20  5 16  1 41 38.0000000  0  8G04G08G09G11G16G26G27G31            -0.000069345
  21411073.133 5   -107456.246 5    -78930.98846  21411071.39146
  20651856.602 6   -605645.094 6   -455259.29749  20651856.22349
  22978026.383 3   -541824.852 3   -403736.32447  22978025.85247
  23341683.969 6  -1057902.805 6   -722822.02347  23341680.24247
  21490849.883 6     65091.445 6     49155.69547  21490845.56347
  22906951.930 5    182274.242 5    135020.89146  22906952.63746
  20100424.117 6    -91832.637 6    -69830.21549  20100422.89149
  23528075.250 5    264510.301 5    235494.20347  23528072.27347
 20  5 16  1 41 39.0000000  0  8G04G08G09G11G16G26G27G31            -0.000069967
  21410997.281 5   -107859.766 5    -79245.41846  21410994.81346
  20651389.055 6   -608102.141 6   -457173.88349  20651388.59049
  22977590.453 3   -544115.965 3   -405521.60947  22977589.62947
  23340849.438 5  -1062283.555 5   -726235.60547  23340847.07047
  21490897.930 6     65345.730 6     49353.84447  21490894.07447
  22907092.953 5    183018.863 5    135601.11347  22907094.33247
  20100362.813 6    -92153.371 6    -70080.12949  20100362.28149
  23528357.180 5    265992.098 5    236648.84847  23528354.49247
 20  5 16  1 41 40.0000000  0  8G04G08G09G11G16G26G27G31            -0.000070587
  21410920.000 5   -108262.793 5    -79559.46946  21410918.07846
  20650921.664 6   -610558.754 6   -459088.12949  20650921.11749
  22977154.992 4   -546406.621 4   -407306.53547  22977153.81647
  23340016.641 6  -1066664.293 6   -729649.16447  23340013.98847
  21490946.422 6     65599.977 6     49551.95347  21490942.53547
  22907234.773 4    183763.395 4    136181.27047  22907236.25047
  20100302.242 7    -92473.598 7    -70329.66449  20100301.07049
  23528639.219 5    267474.023 5    237803.58647  23528636.37147
 20  5 16  1 41 41.0000000  0  8G04G08G09G11G16G26G27G31            -0.000071209
  21410843.383 5   -108665.402 5    -79873.19546  21410841.28146
  20650453.883 6   -613014.977 6   -461002.06649  20650453.92249
  22976718.523 4   -548696.871 4   -409091.14847  22976718.10947
  23339183.203 6  -1071045.102 6   -733062.77747  23339180.27347
  21490994.547 6     65854.090 6     49749.96547  21490990.66847
  22907376.430 5    184507.777 5    136761.30947  22907378.00447
  20100240.969 7    -92793.430 7    -70578.87949  20100239.79749
  23528920.906 5    268956.047 5    238958.41847  23528917.85947
 20  5 16  1 41 42.0000000  0  8G04G08G09G11G16G26G27G31            -0.000071829
  21410766.961 5   -109067.453 5    -80186.48846  21410764.83646
  20649986.633 6   -615470.672 6   -462915.59449  20649986.53549
  22976283.328 4   -550986.602 4   -410875.35247  22976282.50847
  23338349.344 6  -1075425.879 6   -736476.36347  23338346.58647
  21491043.219 6     66108.258 6     49948.01647  21491038.94947
  22907518.195 5    185252.078 5    137341.27747  22907520.09447
  20100180.367 7    -93112.660 7    -70827.62549  20100179.37549
  23529202.734 5    270438.344 5    240113.45347  23529200.43847
 20  5 16  1 41 43.0000000  0  8G04G08G09G11G16G26G27G31            -0.000072451
  21410690.750 5   -109468.977 5    -80499.35546  21410688.29746
  20649519.828 6   -617925.910 6   -464828.76249  20649519.21149
  22975847.766 4   -553275.824 4   -412659.15647  22975847.24247
  23337515.148 6  -1079806.656 6   -739889.95347  23337512.93447
  21491091.414 6     66362.379 6     50146.03547  21491087.39147
  22907660.281 5    185996.320 5    137921.19947  22907661.75447
  20100119.438 6    -93431.441 6    -71076.02749  20100118.47349
  23529485.320 5    271920.762 5    241268.59047  23529482.47347
 20  5 16  1 41 44.0000000  0  8G04G08G09G11G16G26G27G31            -0.000073072
  21410614.242 5   -109869.977 5    -80811.82446  21410612.02046
  20649052.406 7   -620380.652 7   -466741.55149  20649052.31349
  22975411.672 3   -555564.574 3   -414442.60247  22975411.34047
  23336681.961 6  -1084187.391 6   -743303.50447  23336678.93447
  21491140.133 6     66616.504 6     50344.04347  21491135.41847
  22907801.250 5    186740.508 5    138501.09047  22907802.99247
  20100059.094 7    -93749.648 7    -71323.98449  20100058.17649
  23529767.156 6    273403.430 6    242423.91847  23529764.65247
 20  5 16  1 41 45.0000000  0  8G04G08G09G11G16G26G27G31            -0.000073692
  21410538.164 5   -110270.378 5    -81123.82246  21410536.21946
  20648585.648 7   -622834.809 7   -468653.88749  20648584.93049
  22974976.555 4   -557852.742 4   -416225.59847  22974975.96547
  23335848.234 6  -1088567.977 6   -746716.94547  23335845.52347
  21491188.453 6     66870.691 6     50542.12147  21491184.24647
  22907943.203 5    187484.711 5    139080.98447  22907944.78147
  20099998.328 6    -94067.238 6    -71571.45749  20099997.60549
  23530049.516 5    274886.367 5    243579.44547  23530046.75047
 20  5 16  1 41 46.0000000  0  8G04G08G09G11G16G26G27G31            -0.000074314
  21410461.859 5   -110670.258 5    -81435.43046  21410460.23046
  20648118.578 7   -625288.555 7   -470565.89149  20648117.77749
  22974540.766 4   -560140.492 4   -418008.25447  22974540.60547
  23335014.984 6  -1092948.648 6   -750130.45347  23335012.00847
  21491236.609 6     67124.832 6     50740.14847  21491232.32847
  22908084.336 5    188228.723 5    139660.73447  22908086.43847
  20099938.414 6    -94384.387 6    -71818.58649  20099937.26649
  23530332.172 5    276369.434 5    244735.07847  23530329.36347
 20  5 16  1 41 47.0000000  0  8G04G08G09G11G16G26G27G31            -0.000074936
  21410385.688 5   -111069.621 5    -81746.62146  21410383.81346
  20647651.875 6   -627741.813 6   -472477.52049  20647651.25849
  22974106.195 4   -562427.711 4   -419790.50447  22974105.06647
  23334180.953 6  -1097329.270 6   -753543.93047  23334178.08247
  21491285.102 6     67378.961 6     50938.16847  21491280.84447
  22908226.000 5    188972.727 5    140240.46547  22908227.96947
  20099878.117 6    -94701.000 6    -72065.29749  20099876.86349
  23530614.227 5    277852.723 5    245890.88347  23530611.37547
 20  5 16  1 41 48.0000000  0  8G04G08G09G11G16G26G27G31            -0.000075556
  21410309.688 5   -111468.586 5    -82057.51246  21410308.10946
  20647185.094 7   -630194.656 7   -474388.82449  20647184.75449
  22973671.336 4   -564714.543 4   -421572.44947  22973670.33247
  23333347.563 6  -1101709.965 6   -756957.45747  23333344.66447
  21491333.898 6     67632.992 6     51136.12147  21491328.87547
  22908367.477 5    189716.555 5    140820.06647  22908369.46147
  20099817.867 6    -95017.160 6    -72311.65249  20099816.94949
  23530896.742 5    279336.102 5    247046.75847  23530893.86347
 20  5 16  1 41 49.0000000  0  8G04G08G09G11G16G26G27G31            -0.000076178
  21410234.047 5   -111867.066 5    -82368.02046  21410232.39146
  20646718.219 6   -632647.082 6   -476299.80549  20646718.06649
  22973236.555 4   -567000.926 4   -423354.05147  22973235.29747
  23332513.492 6  -1106090.680 6   -760370.99247  23332510.94547
  21491381.898 6     67886.980 6     51334.02747  21491377.49647
  22908508.781 5    190460.211 5    141399.53547  22908511.23447
  20099757.758 6    -95332.848 6    -72557.64849  20099756.88349
  23531178.359 5    280819.637 5    248202.76647  23531176.32447
 20  5 16  1 41 50.0000000  0  8G04G08G09G11G16G26G27G31            -0.000076799
  21410158.531 5   -112264.984 5    -82678.08646  21410156.34846
  20646252.195 6   -635099.055 6   -478210.43449  20646251.79349
  22972801.102 4   -569286.848 4   -425135.28547  22972800.07447
  23331680.094 6  -1110471.383 6   -763784.52747  23331677.60547
  21491429.844 6     68140.926 6     51531.90647  21491425.53947
  22908650.414 5    191203.809 5    141978.96147  22908652.96947
  20099697.961 6    -95648.055 6    -72803.25849  20099696.77349
  23531461.461 6    282303.359 6    249358.91447  23531458.41847
 20  5 16  1 41 51.0000000  0  8G04G08G09G11G16G26G27G31            -0.000077421
  21410082.469 5   -112662.247 5    -82987.63746  21410081.05946
  20645785.352 6   -637550.402 6   -480120.57849  20645784.81349
  22972365.969 4   -571572.117 4   -426916.02047  22972365.14147
  23330846.375 6  -1114851.910 6   -767197.92247  23330843.86747
  21491478.422 6     68395.020 6     51729.89847  21491474.02047
  22908792.063 5    191947.488 5    142558.45747  22908794.35947
  20099638.008 6    -95962.578 6    -73048.34449  20099637.01249
  23531743.266 6    283787.422 6    250515.32847  23531740.54747
 20  5 16  1 41 52.0000000  0  8G04G08G09G11G16G26G27G31            -0.000078043
  21410007.578 5   -113059.188 5    -83296.94146  21410005.17646
  20645318.688 6   -640001.422 6   -482030.46149  20645318.64149
  22971931.094 4   -573857.063 4   -428696.50047  22971930.28547
  23330012.781 6  -1119232.570 6   -770611.42247  23330010.20747
  21491527.125 6     68648.926 6     51927.74647  21491522.49247
  22908933.828 5    192690.938 5    143137.77347  22908935.86347
  20099578.148 6    -96276.727 6    -73293.13349  20099576.93849
  23532025.781 6    285271.520 6    251671.76647  23532023.12947
 20  5 16  1 41 53.0000000  0  8G04G08G09G11G16G26G27G31            -0.000078665
  21409932.086 5   -113455.531 5    -83605.77046  21409929.92646
  20644852.398 6   -642451.910 6   -483939.93449  20644852.19949
  22971496.727 4   -576141.449 4   -430476.54347  22971495.80547
  23329179.586 6  -1123613.180 6   -774024.89147  23329176.64547
  21491575.180 6     68902.898 6     52125.64847  21491570.48447
  22909075.156 5    193434.324 5    143717.03947  22909077.60247
  20099518.555 7    -96590.293 7    -73537.46949  20099517.44149
  23532308.297 6    286755.855 6    252828.37947  23532305.75847
 20  5 16  1 41 54.0000000  0  8G04G08G09G11G16G26G27G31            -0.000079287
  21409856.656 5   -113851.457 5    -83914.28946  21409854.62946
  20644386.406 6   -644902.039 6   -485849.12549  20644386.18049
  22971062.875 4   -578425.484 4   -432256.31647  22971061.43047
  23328346.023 6  -1127993.875 6   -777438.41447  23328343.08247
  21491623.570 6     69156.715 6     52323.43047  21491618.89847
  22909216.477 5    194177.531 5    144296.16447  22909219.07047
  20099459.031 7    -96903.508 7    -73781.53549  20099457.78949
  23532590.680 6    288240.246 6    253985.03947  23532588.37547
 20  5 16  1 41 55.0000000  0  8G04G08G09G11G16G26G27G31            -0.000079908
  21409781.617 5   -114246.879 5    -84222.41846  21409779.61346
  20643920.141 7   -647351.684 7   -487757.93449  20643919.75849
  22970627.102 4   -580709.043 4   -434035.71147  22970626.49247
  23327512.297 6  -1132374.559 6   -780851.94147  23327509.30947
  21491671.742 6     69410.523 6     52521.20347  21491667.10947
  22909357.906 5    194920.676 5    144875.23847  22909360.22747
  20099399.117 6    -97216.172 6    -74025.17249  20099398.11749
  23532873.336 6    289724.879 6    255141.89547  23532870.62547
 20  5 16  1 41 56.0000000  0  8G04G08G09G11G16G26G27G31            -0.000080530
  21409705.859 5   -114641.738 5    -84530.09846  21409704.50846
  20643454.211 7   -649800.789 7   -489666.32849  20643453.95749
  22970193.195 4   -582992.047 4   -435814.67247  22970192.25047
  23326678.750 6  -1136755.168 6   -784265.40247  23326675.59047
  21491719.883 6     69664.363 6     52719.00047  21491715.32847
  22909499.227 4    195663.758 4    145454.26247  22909502.00847
  20099340.297 6    -97528.258 6    -74268.35249  20099339.20749
  23533156.375 6    291209.715 6    256298.91047  23533153.73047
 20  5 16  1 41 57.0000000  0  8G04G08G09G11G16G26G27G31            -0.000081152
  21409631.047 5   -115036.063 5    -84837.37146  21409629.33646
  20642988.109 7   -652249.449 7   -491574.37949  20642988.01649
  22969758.367 4   -585274.555 4   -437593.25447  22969757.81647
  23325844.789 5  -1141135.750 5   -787678.84047  23325842.34447
  21491768.602 6     69918.211 6     52916.80547  21491764.02747
  22909640.563 4    196406.785 4    146033.24647  22909643.01647
  20099280.711 7    -97839.836 7    -74511.13749  20099279.36749
  23533438.523 6    292694.738 6    257456.06647  23533436.25847
 20  5 16  1 41 58.0000000  0  8G04G08G09G11G16G26G27G31            -0.000081774
  21409555.945 5   -115429.934 5    -85144.27746  21409554.15246
  20642521.977 6   -654697.688 6   -493482.09449  20642521.47349
  22969323.961 4   -587556.637 4   -439371.49647  22969323.51647
  23325011.680 6  -1145516.352 6   -791092.29347  23325008.79747
  21491817.031 6     70171.953 6     53114.52747  21491812.32447
  22909782.125 4    197149.684 4    146612.12147  22909784.68047
  20099221.797 6    -98150.957 6    -74753.57049  20099220.47349
  23533721.305 6    294179.883 6    258613.32047  23533718.61747
 20  5 16  1 41 59.0000000  0  8G04G08G09G11G16G26G27G31            -0.000082396
  21409481.648 5   -115823.277 5    -85450.77346  21409479.24246
  20642056.367 6   -657145.457 6   -495389.44149  20642055.88749
  22968889.406 3   -589838.285 3   -441149.40647  22968889.40247
  23324177.781 6  -1149896.953 6   -794505.74647  23324175.27347
  21491865.102 6     70425.668 6     53312.22747  21491860.39147
  22909923.281 4    197892.480 4    147190.92247  22909926.34847
  20099162.609 6    -98461.566 6    -74995.60549  20099161.52349
  23534004.250 6    295665.238 6    259770.73847  23534001.48447
 20  5 16  1 42  0.0000000  0  8G04G08G09G11G16G26G27G31            -0.000083017
  21409406.242 5   -116216.109 5    -85756.86746  21409404.55146
  20641590.859 6   -659592.758 6   -497296.43449  20641590.37549
  22968455.742 3   -592119.430 3   -442926.91847  22968455.27747
  23323344.391 6  -1154277.566 6   -797919.21547  23323341.17247
  21491913.563 6     70679.371 6     53509.91047  21491908.64147
  22910064.914 4    198635.148 4    147769.63347  22910067.46947
  20099103.555 7    -98771.680 7    -75237.25849  20099102.27049
  23534286.398 6    297150.746 6    260928.28147  23534284.06647
 20  5 16  1 42  1.0000000  0  8G04G08G09G11G16G26G27G31            -0.000083639
  21409332.023 5   -116608.395 5    -86062.53946  21409329.65246
  20641125.133 6   -662039.539 6   -499203.02049  20641125.13749
  22968022.078 3   -594400.004 3   -444703.99247  22968021.48447
  23322510.766 6  -1158658.086 6   -801332.60947  23322507.93847
  21491961.766 6     70933.125 6     53707.63347  21491957.00847
  22910205.945 5    199377.816 5    148348.33647  22910209.00847
  20099044.570 7    -99081.207 7    -75478.44149  20099043.45349
  23534569.820 6    298636.539 6    262086.03147  23534566.74247
 20  5 16  1 42  2.0000000  0  8G04G08G09G11G16G26G27G31            -0.000084261
  21409257.242 5   -117000.180 5    -86367.85246  21409255.20346
  20640659.797 6   -664485.852 6   -501109.22749  20640659.48449
  22967587.461 3   -596680.156 3   -446480.73047  22967587.23847
  23321677.016 6  -1163038.633 6   -804746.02347  23321674.10947
  21492010.219 6     71186.828 6     53905.32847  21492005.22347
  22910346.844 4    200120.398 4    148926.96947  22910349.75847
  20098985.828 7    -99390.246 7    -75719.25449  20098984.48449
  23534851.992 6    300122.465 6    263243.89147  23534849.37947
 20  5 16  1 42  3.0000000  0  8G04G08G09G11G16G26G27G31            -0.000084885
  21409182.797 5   -117391.457 5    -86672.73846  21409180.93446
  20640194.523 7   -666931.773 7   -503015.14849  20640194.06349
  22967154.188 4   -598959.848 4   -448257.11347  22967153.43047
  23320843.242 6  -1167419.188 6   -808159.42647  23320840.35947
  21492057.938 6     71440.453 6     54102.95347  21492053.58247
  22910488.617 4    200862.805 4    149505.46547  22910491.33247
  20098926.852 7    -99698.840 7    -75959.71949  20098925.73449
  23535135.148 6    301608.520 6    264401.84847  23535132.57847
 20  5 16  1 42  4.0000000  0  8G04G08G09G11G16G26G27G31            -0.000085506
  21409108.914 5   -117782.242 5    -86977.25846  21409106.69546
  20639728.789 7   -669377.195 7   -504920.67249  20639728.78149
  22966720.367 3   -601239.094 3   -450033.14847  22966719.60547
  23320009.914 6  -1171799.746 6   -811572.84447  23320007.18047
  21492106.422 6     71694.074 6     54300.58247  21492101.84847
  22910629.633 5    201605.176 5    150083.93847  22910632.59047
  20098868.508 7   -100006.883 7    -76199.75049  20098867.16849
  23535417.750 6    303094.766 6    265559.95347  23535415.34047
 20  5 16  1 42  5.0000000  0  8G04G08G09G11G16G26G27G31            -0.000086128
  21409034.242 5   -118172.441 5    -87281.30946  21409032.12146
  20639263.695 7   -671822.055 7   -506825.75849  20639263.74249
  22966286.563 3   -603517.730 3   -451808.71147  22966285.99247
  23319176.359 6  -1176180.184 6   -814986.15647  23319173.19947
  21492154.773 6     71947.773 6     54498.27047  21492149.98447
  22910771.031 5    202347.547 5    150662.40647  22910773.55947
  20098809.539 7   -100314.348 7    -76439.32849  20098808.62549
  23535700.789 6    304581.305 6    266718.28947  23535698.24247
 20  5 16  1 42  6.0000000  0  8G04G08G09G11G16G26G27G31            -0.000086752
  21408960.227 5   -118561.957 5    -87584.82446  21408957.82046
  20638798.344 7   -674266.301 7   -508730.36749  20638798.40249
  22965853.250 4   -605795.766 4   -453583.80547  22965852.49247
  23318342.547 6  -1180560.453 6   -818399.35547  23318339.66847
  21492203.703 6     72201.590 6     54696.05147  21492198.27047
  22910912.570 5    203089.969 5    151240.91847  22910914.58247
  20098751.203 7   -100621.145 7    -76678.39149  20098750.39549
  23535983.813 6    306068.156 6    267876.87547  23535981.38347
 20  5 16  1 42  7.0000000  0  8G04G08G09G11G16G26G27G31            -0.000087374
  21408886.258 5   -118950.941 5    -87887.93046  21408884.05146
  20638333.328 7   -676710.039 7   -510634.57849  20638333.01249
  22965420.164 4   -608073.281 4   -455358.48447  22965419.18047
  23317509.109 6  -1184940.711 6   -821812.54347  23317505.95347
  21492251.594 6     72455.398 6     54893.82047  21492246.50847
  22911053.727 4    203832.285 4    151819.34647  22911056.32047
  20098693.422 7   -100927.422 7    -76917.04749  20098692.11749
  23536266.789 6    307555.234 6    269035.64547  23536264.47347
 20  5 16  1 42  8.0000000  0  8G04G08G09G11G16G26G27G31            -0.000087996
  21408812.227 5   -119339.277 5    -88190.51646  21408810.18446
  20637868.398 7   -679153.176 7   -512538.31649  20637868.12149
  22964986.367 4   -610350.160 4   -457132.66847  22964985.81347
  23316675.563 6  -1189320.781 6   -825225.59847  23316672.74647
  21492300.125 6     72709.352 6     55091.70747  21492294.61747
  22911195.094 5    204574.742 5    152397.87947  22911197.08647
  20098635.297 7   -101233.016 7    -77155.17649  20098633.87149
  23536549.586 6    309042.625 6    270194.64847  23536547.39847
 20  5 16  1 42  9.0000000  0  8G04G08G09G11G16G26G27G31            -0.000088617
  21408738.047 5   -119727.137 5    -88492.74646  21408736.18046
  20637403.453 7   -681595.910 7   -514441.74649  20637403.35949
  22964553.383 4   -612626.613 4   -458906.52047  22964553.03147
  23315841.875 6  -1193700.914 6   -828638.68847  23315839.21947
  21492348.305 6     72963.199 6     55289.50847  21492342.62547
  22911336.219 5    205316.996 5    152976.26247  22911338.77747
  20098577.141 7   -101538.168 7    -77392.95349  20098575.86749
  23536833.102 6    310530.160 6    271353.76247  23536830.68447
 20  5 16  1 42 10.0000000  0  8G04G08G09G11G16G26G27G31            -0.000089241
  21408664.250 5   -120114.504 5    -88794.59446  21408662.56346
  20636939.094 7   -684038.223 7   -516344.84449  20636938.98449
  22964120.430 4   -614902.629 4   -460680.05147  22964119.67247
  23315008.719 6  -1198081.039 6   -832051.77747  23315005.84047
  21492396.438 6     73217.016 6     55487.28947  21492391.18847
  22911477.359 5    206059.176 5    153554.57847  22911479.38347
  20098519.109 7   -101842.867 7    -77630.38349  20098517.52749
  23537115.391 6    312017.832 6    272512.98447  23537113.84847
 20  5 16  1 42 11.0000000  0  8G04G08G09G11G16G26G27G31            -0.000089863
  21408590.617 5   -120501.484 5    -89096.12546  21408588.86746
  20636474.672 7   -686480.129 7   -518247.62549  20636474.09449
  22963686.539 3   -617178.273 3   -462453.28147  22963686.68447
  23314174.727 6  -1202461.250 6   -835464.92647  23314172.35547
  21492444.680 6     73470.711 6     55684.97347  21492439.65647
  22911618.313 5    206801.137 5    154132.72747  22911620.83647
  20098461.078 7   -102147.113 7    -77867.45349  20098459.46149
  23537398.438 6    313505.613 6    273672.28947  23537396.64847
 20  5 16  1 42 12.0000000  0  8G04G08G09G11G16G26G27G31            -0.000090487
  21408517.555 5   -120887.887 5    -89397.22346  21408515.48446
  20636009.578 6   -688921.543 6   -520150.02749  20636009.73049
  22963254.375 4   -619453.348 4   -464226.08247  22963254.07447
  23313340.883 6  -1206841.453 6   -838878.07047  23313338.69547
  21492493.125 6     73724.391 6     55882.64547  21492488.05947
  22911759.219 5    207543.039 5    154710.82847  22911761.74247
  20098403.211 7   -102450.852 7    -78104.13749  20098402.18449
  23537681.930 6    314993.559 6    274831.71147  23537679.64147
 20  5 16  1 42 13.0000000  0  8G04G08G09G11G16G26G27G31            -0.000091108
  21408444.266 5   -121273.824 5    -89697.96146  21408441.73446
  20635545.250 7   -691362.512 7   -522052.08249  20635545.61749
  22962821.078 4   -621728.051 4   -465998.57047  22962820.73047
  23312507.586 6  -1211221.633 6   -842291.19147  23312504.94547
  21492541.117 6     73978.043 6     56080.29747  21492536.12547
  22911900.734 5    208284.820 5    155288.84046  22911903.10246
  20098345.664 6   -102754.086 6    -78340.42649  20098344.07849
  23537964.859 5    316481.711 5    275991.30147  23537962.93847
 20  5 16  1 42 14.0000000  0  8G04G08G09G11G16G26G27G31            -0.000091732
  21408370.359 5   -121659.176 5    -89998.23446  21408368.68046
  20635080.820 7   -693802.957 7   -523953.73049  20635080.84049
  22962388.453 4   -624002.133 4   -467770.58647  22962388.37547
  23311674.500 5  -1215601.762 5   -845704.27747  23311671.27347
  21492589.625 6     74231.727 6     56277.97747  21492584.56647
  22912042.055 5    209026.645 5    155866.89146  22912043.59046
  20098287.984 6   -103056.750 6    -78576.26649  20098286.44149
  23538247.930 5    317970.109 5    277151.09047  23538245.66847
 20  5 16  1 42 15.0000000  0  8G04G08G09G11G16G26G27G31            -0.000092354
  21408297.500 5   -122044.096 5    -90298.17146  21408295.38746
  20634616.391 7   -696242.965 7   -525855.03149  20634616.81649
  22961955.609 4   -626275.824 4   -469542.28947  22961955.46947
  23310840.797 6  -1219981.906 6   -849117.37547  23310837.81347
  21492637.672 6     74485.355 6     56475.60547  21492632.96147
  22912183.023 4    209768.273 4    156444.77046  22912185.04746
  20098230.594 6   -103358.938 6    -78811.73449  20098228.93449
  23538531.328 5    319458.617 5    278310.96147  23538529.06647
 20  5 16  1 42 16.0000000  0  8G04G08G09G11G16G26G27G31            -0.000092976
  21408224.227 5   -122428.297 5    -90597.54346  21408222.41846
  20634152.469 7   -698682.355 7   -527755.85549  20634152.13749
  22961522.719 3   -628548.863 3   -471313.49247  22961522.80147
  23310006.648 5  -1224361.895 5   -852530.34847  23310004.38347
  21492686.141 6     74739.113 6     56673.33647  21492680.88747
  22912323.484 4    210509.957 4    157022.70347  22912326.22747
  20098173.391 6   -103660.473 6    -79046.69549  20098171.75849
  23538815.945 5    320947.480 5    279471.10547  23538812.51247
 20  5 16  1 42 17.0000000  0  8G04G08G09G11G16G26G27G31            -0.000093599
  21408151.367 5   -122811.934 5    -90896.47346  21408149.31346
  20633688.117 7   -701121.191 7   -529656.24649  20633688.11349
  22961090.797 3   -630821.336 3   -473084.25447  22961090.53547
  23309174.000 5  -1228741.754 5   -855943.22747  23309171.16447
  21492734.148 6     74992.938 6     56871.12547  21492729.21547
  22912465.141 4    211251.684 4    157600.68046  22912467.58646
  20098116.000 6   -103961.402 6    -79281.18449  20098114.57849
  23539098.023 5    322436.586 5    280631.44947  23539096.10547
 20  5 16  1 42 18.0000000  0  8G04G08G09G11G16G26G27G31            -0.000094221
  21408078.336 5   -123195.035 5    -91194.98046  21408076.16846
  20633224.008 7   -703559.582 7   -531556.28549  20633224.06649
  22960658.430 3   -633093.363 3   -474854.66447  22960658.33247
  23308339.984 5  -1233121.648 5   -859356.12547  23308337.46547
  21492782.656 6     75246.711 6     57068.87147  21492777.50847
  22912606.250 4    211993.293 4    158178.55947  22912608.41047
  20098058.813 6   -104261.863 6    -79515.30949  20098057.30549
  23539381.914 5    323925.902 5    281791.95347  23539379.34447
 20  5 16  1 42 19.0000000  0  8G04G08G09G11G16G26G27G31            -0.000094845
  21408005.461 5   -123577.629 5    -91493.12146  21408003.72746
  20632760.289 7   -705997.461 7   -533455.93449  20632760.53149
  22960226.102 3   -635364.867 3   -476624.67247  22960225.88747
  23307506.508 5  -1237501.520 5   -862769.01647  23307504.08647
  21492830.273 6     75500.488 6     57266.61347  21492825.75447
  22912747.297 4    212734.824 4    158756.37947  22912749.60247
  20098001.930 6   -104561.762 6    -79749.00049  20097999.95749
  23539665.281 5    325415.395 5    282952.60247  23539663.10247
 20  5 16  1 42 20.0000000  0  8G04G08G09G11G16G26G27G31            -0.000095469
  21407932.594 4   -123959.637 4    -91790.79346  21407931.02746
  20632296.078 7   -708434.836 7   -535355.19149  20632296.34049
  22959794.336 3   -637635.859 3   -478394.28147  22959793.94147
  23306673.047 5  -1241881.258 5   -866181.80547  23306670.81347
  21492879.102 6     75754.301 6     57464.39547  21492874.22347
  22912889.352 4    213476.375 4    159334.21547  22912890.91047
  20097944.844 6   -104861.102 6    -79982.25049  20097943.10249
  23539948.445 5    326905.164 5    284113.46147  23539946.19547
 20  5 16  1 42 21.0000000  0  8G04G08G09G11G16G26G27G31            -0.000096090
  21407860.641 5   -124341.195 5    -92088.13346  21407858.27746
  20631832.727 7   -710871.758 7   -537254.08649  20631833.16449
  22959362.391 4   -639906.313 4   -480163.46147  22959361.20347
  23305839.516 5  -1246261.051 5   -869594.62947  23305837.28547
  21492927.063 6     76008.070 6     57662.13347  21492922.57847
  22913029.281 4    214217.781 4    159911.93447  22913031.79747
  20097888.180 7   -105159.949 7    -80215.11749  20097886.46949
  23540232.031 5    328395.023 5    285274.38347  23540229.73447
 20  5 16  1 42 22.0000000  0  8G04G08G09G11G16G26G27G31            -0.000096714
  21407787.672 4   -124722.023 4    -92384.87946  21407785.61346
  20631369.031 7   -713308.055 7   -539152.50449  20631369.31349
  22958930.305 4   -642176.164 4   -481932.17247  22958929.81647
  23305005.758 5  -1250640.637 5   -873007.29347  23305004.02747
  21492975.555 6     76261.980 6     57859.98447  21492970.39547
  22913171.609 4    214959.230 4    160489.68047  22913172.35247
  20097831.445 7   -105458.137 7    -80447.47749  20097830.13349
  23540515.789 5    329885.285 5    286435.61747  23540513.28947
 20  5 16  1 42 23.0000000  0  8G04G08G09G11G16G26G27G31            -0.000097338
  21407715.430 4   -125102.465 4    -92681.30946  21407713.37946
  20630905.781 7   -715743.941 7   -541050.59849  20630905.36749
  22958498.070 3   -644445.633 3   -483700.59047  22958497.95347
  23304173.047 5  -1255020.281 5   -876420.00447  23304170.37947
  21493024.305 6     76515.797 6     58057.76247  21493019.32447
  22913312.008 4    215700.582 4    161067.34847  22913313.62947
  20097774.719 7   -105755.859 7    -80679.46949  20097772.83649
  23540798.953 5    331375.633 5    287596.92647  23540797.15647
 20  5 16  1 42 24.0000000  0  8G04G08G09G11G16G26G27G31            -0.000097960
  21407643.375 5   -125482.367 5    -92977.33246  21407641.01246
  20630442.180 7   -718179.383 7   -542948.34449  20630442.26249
  22958066.289 4   -646714.656 4   -485468.66447  22958065.80547
  23303339.438 5  -1259399.934 5   -879832.72347  23303336.62947
  21493072.375 6     76769.578 6     58255.50847  21493067.13747
  22913452.695 4    216441.836 4    161644.95347  22913454.38347
  20097718.016 7   -106053.137 7    -80911.10549  20097716.30149
  23541082.398 5    332866.129 5    288758.35247  23541080.60547
 20  5 16  1 42 25.0000000  0  8G04G08G09G11G16G26G27G31            -0.000098583
  21407570.898 4   -125861.770 4    -93272.97346  21407569.31646
  20629978.766 7   -720614.348 7   -544845.71949  20629979.04749
  22957635.063 4   -648983.180 4   -487236.35247  22957634.33647
  23302506.508 5  -1263779.609 5   -883245.44947  23302503.59047
  21493121.094 6     77023.336 6     58453.23847  21493115.78147
  22913594.188 5    217182.945 5    162222.44147  22913595.85947
  20097661.609 7   -106349.887 7    -81142.34449  20097660.36749
  23541366.172 5    334356.855 5    289919.96147  23541363.60947
 20  5 16  1 42 26.0000000  0  8G04G08G09G11G16G26G27G31            -0.000099207
  21407499.109 5   -126240.672 5    -93568.22746  21407496.71546
  20629515.445 7   -723048.863 7   -546742.74249  20629515.91449
  22957203.102 4   -651251.242 4   -489003.67647  22957202.53547
  23301672.609 5  -1268159.227 5   -886658.13347  23301670.01647
  21493169.156 6     77277.023 6     58650.91447  21493163.63747
  22913735.250 4    217923.973 4    162799.86347  22913736.79747
  20097604.852 7   -106646.145 7    -81373.19149  20097603.72749
  23541650.195 5    335847.707 5    291081.67247  23541647.22347
 20  5 16  1 42 27.0000000  0  8G04G08G09G11G16G26G27G31            -0.000099829
  21407427.219 5   -126618.964 5    -93863.00546  21407424.99646
  20629052.016 7   -725482.797 7   -548639.32049  20629052.13349
  22956771.914 3   -653518.652 3   -490770.48847  22956770.96147
  23300839.523 5  -1272538.719 5   -890070.72747  23300836.70747
  21493217.258 6     77530.859 6     58848.71147  21493212.07847
  22913876.391 5    218665.059 5    163377.33647  22913877.60547
  20097548.953 6   -106941.738 6    -81603.52749  20097547.47749
  23541933.961 5    337338.887 5    292243.61747  23541931.55147
 20  5 16  1 42 28.0000000  0  8G04G08G09G11G16G26G27G31            -0.000100452
  21407355.234 4   -126996.664 4    -94157.30546  21407352.86346
  20628588.945 7   -727916.250 7   -550535.51649  20628589.33249
  22956340.469 4   -655785.605 4   -492536.94947  22956339.89547
  23300005.961 5  -1276918.188 5   -893483.30147  23300003.25047
  21493265.523 6     77784.652 6     59046.46947  21493260.61347
  22914017.281 5    219406.047 5    163954.72347  22914019.24647
  20097492.789 6   -107236.836 6    -81833.46949  20097490.77049
  23542217.484 5    338830.273 5    293405.72747  23542215.14847
 20  5 16  1 42 29.0000000  0  8G04G08G09G11G16G26G27G31            -0.000101076
  21407283.602 4   -127373.766 4    -94451.14846  21407281.58646
  20628126.305 7   -730349.051 7   -552431.20349  20628126.38749
  22955909.289 4   -658051.879 4   -494302.88347  22955908.76647
  23299172.836 6  -1281297.500 6   -896895.75047  23299169.53547
  21493313.953 6     78038.578 6     59244.34047  21493308.66047
  22914157.773 4    220147.094 4    164532.16047  22914159.93047
  20097436.742 7   -107531.262 7    -82062.89549  20097435.40249
  23542501.359 5    340321.992 5    294568.09847  23542499.58247
 20  5 16  1 42 30.0000000  0  8G04G08G09G11G16G26G27G31            -0.000101698
  21407211.727 4   -127750.254 4    -94744.52046  21407209.62146
  20627663.422 7   -732781.367 7   -554326.51649  20627663.71149
  22955478.297 4   -660317.688 4   -496068.44547  22955477.51647
  23298339.344 6  -1285676.723 6   -900308.12547  23298336.30947
  21493362.102 6     78292.516 6     59442.21147  21493357.18847
  22914299.594 5    220888.116 5    165109.58347  22914301.18847
  20097380.555 6   -107825.141 6    -82291.89149  20097379.02349
  23542785.078 5    341813.910 5    295730.62547  23542782.91447
 20  5 16  1 42 31.0000000  0  8G04G08G09G11G16G26G27G31            -0.000102322
  21407139.984 5   -128126.426 5    -95037.64146  21407137.55146
  20627200.656 7   -735213.320 7   -556221.55149  20627200.41449
  22955047.000 4   -662583.137 4   -497833.72347  22955046.35247
  23297506.570 6  -1290056.051 6   -903720.58647  23297503.28147
  21493410.547 6     78546.324 6     59639.98047  21493405.69547
  22914440.703 5    221628.926 5    165686.84447  22914441.53147
  20097324.625 7   -108118.645 7    -82520.59449  20097323.40249
  23543069.430 5    343305.879 5    296893.19947  23543066.73047
 20  5 16  1 42 32.0000000  0  8G04G08G09G11G16G26G27G31            -0.000102945
  21407067.969 5   -128502.031 5    -95330.32446  21407066.30546
  20626738.258 7   -737644.820 7   -558116.21949  20626738.02749
  22954616.328 4   -664848.055 4   -499598.59447  22954615.16447
  23296673.023 5  -1294435.395 5   -907133.06347  23296669.79747
  21493458.680 6     78800.113 6     59837.73847  21493453.76247
  22914581.531 5    222369.656 5    166264.03147  22914582.76247
  20097269.109 7   -108411.621 7    -82748.88749  20097267.41449
  23543353.188 5    344798.082 5    298055.95347  23543350.60247
 20  5 16  1 42 33.0000000  0  8G04G08G09G11G16G26G27G31            -0.000103569
  21406997.570 5   -128877.215 5    -95622.67646  21406995.54346
  20626275.273 7   -740075.969 7   -560010.62549  20626275.44149
  22954184.867 4   -667112.605 4   -501363.18447  22954184.31347
  23295839.305 6  -1298814.844 6   -910545.62547  23295836.33647
  21493506.953 6     79053.750 6     60035.37947  21493502.05547
  22914721.961 5    223110.168 5    166841.05947  22914723.59847
  20097213.375 7   -108704.207 7    -82976.87549  20097212.19549
  23543636.914 5    346290.301 5    299218.72347  23543634.43447
 20  5 16  1 42 34.0000000  0  8G04G08G09G11G16G26G27G31            -0.000104193
  21406926.133 5   -129251.952 5    -95914.67146  21406923.72746
  20625812.758 7   -742506.664 7   -561904.67249  20625812.86349
  22953754.281 4   -669376.781 4   -503127.48047  22953753.73047
  23295006.555 6  -1303194.254 6   -913958.15647  23295003.19547
  21493555.367 6     79307.375 6     60233.00447  21493550.43847
  22914863.891 5    223850.578 5    167417.99247  22914864.69547
  20097157.617 7   -108996.301 7    -83204.47749  20097156.91849
  23543920.727 5    347782.703 5    300381.62547  23543918.85547
 20  5 16  1 42 35.0000000  0  8G04G08G09G11G16G26G27G31            -0.000104816
  21406854.945 5   -129626.129 5    -96206.22346  21406852.34446
  20625350.242 7   -744936.820 7   -563798.30549  20625350.36349
  22953322.945 4   -671640.363 4   -504891.30147  22953322.67647
  23294172.969 6  -1307573.609 6   -917370.64847  23294169.74247
  21493603.602 6     79561.008 6     60430.63747  21493598.89847
  22915003.953 5    224590.957 5    167994.91047  22915005.36347
  20097102.547 7   -109287.844 7    -83431.65249  20097101.00049
  23544205.180 5    349275.348 5    301544.71947  23544203.15647
 20  5 16  1 42 36.0000000  0  8G04G08G09G11G16G26G27G31            -0.000105440
  21406783.820 5   -129999.805 5    -96497.40246  21406781.32046
  20624888.039 7   -747366.555 7   -565691.60249  20624888.18849
  22952892.656 4   -673903.465 4   -506654.75847  22952892.41047
  23293339.320 6  -1311953.000 6   -920783.16047  23293336.77347
  21493651.469 6     79814.594 6     60628.23847  21493646.82047
  22915144.898 5    225331.234 5    168571.74247  22915146.61747
  20097047.063 7   -109578.895 7    -83658.44949  20097045.74649
  23544489.156 5    350768.160 5    302707.94147  23544487.02347
 20  5 16  1 42 37.0000000  0  8G04G08G09G11G16G26G27G31            -0.000106064
  21406712.398 5   -130372.957 5    -96788.18446  21406710.16446
  20624425.852 6   -749795.789 6   -567584.51249  20624425.91449
  22952462.688 4   -676166.109 4   -508417.85547  22952461.33647
  23292506.492 6  -1316332.309 6   -924195.61347  23292503.07047
  21493699.969 6     80068.164 6     60825.82047  21493694.66847
  22915285.695 5    226071.469 5    169148.54347  22915287.44147
  20096991.531 7   -109869.414 7    -83884.82849  20096990.28949
  23544773.344 5    352261.172 5    303871.32047  23544771.21147
 20  5 16  1 42 38.0000000  0  8G04G08G09G11G16G26G27G31            -0.000106688
  21406642.109 5   -130745.508 5    -97078.48446  21406639.35246
  20623963.414 7   -752224.500 7   -569477.01249  20623963.96149
  22952031.891 4   -678428.180 4   -510180.50847  22952030.94147
  23291672.844 6  -1320711.559 6   -927608.00847  23291669.46147
  21493747.891 6     80321.789 6     61023.45347  21493743.26247
  22915426.617 5    226811.605 5    169725.27747  22915427.84047
  20096936.633 7   -110159.363 7    -84110.76249  20096935.09849
  23545056.836 4    353754.414 4    305034.89147  23545055.18047
 20  5 16  1 42 39.0000000  0  8G04G08G09G11G16G26G27G31            -0.000107311
  21406570.531 5   -131117.547 5    -97368.37546  21406568.51246
  20623501.523 7   -754652.707 7   -571369.12149  20623501.43849
  22951601.453 4   -680689.773 4   -511942.78947  22951600.60947
  23290839.352 6  -1325090.801 6   -931020.40247  23290836.28147
  21493796.617 6     80575.426 6     61221.09447  21493791.52747
  22915567.164 5    227551.727 5    170301.99247  22915568.93847
  20096881.484 7   -110448.789 7    -84336.28949  20096880.23849
  23545342.047 5    355247.875 5    306198.62947  23545339.35547
 20  5 16  1 42 40.0000000  0  8G04G08G09G11G16G26G27G31            -0.000107935
  21406500.086 5   -131489.031 5    -97657.84046  21406497.53546
  20623039.773 7   -757080.402 7   -573260.83249  20623039.52349
  22951170.711 4   -682950.813 4   -513704.63747  22951170.62547
  23290006.109 6  -1329469.945 6   -934432.72347  23290002.80947
  21493844.727 6     80829.070 6     61418.73847  21493839.85947
  22915707.914 5    228291.816 5    170878.67647  22915709.90647
  20096826.281 7   -110737.672 7    -84561.38749  20096825.00849
  23545626.156 5    356741.539 5    307362.52747  23545623.80147
 20  5 16  1 42 41.0000000  0  8G04G08G09G11G16G26G27G31            -0.000108559
  21406428.938 5   -131860.063 5    -97946.96146  21406427.06346
  20622577.656 7   -759507.699 7   -575152.23849  20622577.78149
  22950740.367 4   -685211.434 4   -515466.16447  22950740.33247
  23289172.023 6  -1333849.152 6   -937845.09047  23289169.25847
  21493892.531 6     81082.590 6     61616.28947  21493888.09047
  22915849.211 5    229031.723 5    171455.23047  22915850.53147
  20096771.383 7   -111026.090 7    -84786.13749  20096770.25849
  23545910.492 5    358235.309 5    308526.50047  23545907.86747
 20  5 16  1 42 42.0000000  0  8G04G08G09G11G16G26G27G31            -0.000109182
  21406358.766 5   -132230.531 5    -98235.66046  21406356.85546
  20622115.789 7   -761934.469 7   -577043.22749  20622115.77049
  22950310.250 3   -687471.582 3   -517227.31647  22950310.65247
  23288339.398 6  -1338228.277 6   -941257.39147  23288336.59847
  21493940.781 6     81336.184 6     61813.90247  21493936.50047
  22915989.555 5    229771.605 5    172031.76247  22915991.60247
  20096717.086 7   -111313.973 7    -85010.45749  20096715.57049
  23546193.953 5    359729.363 5    309690.70347  23546191.94947
 20  5 16  1 42 43.0000000  0  8G04G08G09G11G16G26G27G31            -0.000109808
  21406288.680 5   -132600.629 5    -98524.03546  21406286.12946
  20621654.102 7   -764360.922 7   -578933.96949  20621653.99649
  22949880.539 3   -689731.355 3   -518988.17647  22949880.32847
  23287506.383 6  -1342607.566 6   -944669.82447  23287502.98047
  21493989.438 6     81589.590 6     62011.35547  21493984.68047
  22916130.555 5    230511.230 5    172608.09047  22916132.30947
  20096661.875 7   -111601.473 7    -85234.48449  20096660.93449
  23546478.797 5    361223.426 5    310854.89847  23546476.31347
 20  5 16  1 42 44.0000000  0  8G04G08G09G11G16G26G27G31            -0.000110432
  21406218.156 5   -132969.992 5    -98811.84846  21406215.45346
  20621192.367 7   -766786.676 7   -580824.16849  20621192.28149
  22949450.352 3   -691990.398 3   -520748.47747  22949450.44147
  23286672.617 6  -1346986.590 6   -948082.04747  23286669.62147
  21494037.148 6     81843.176 6     62208.94947  21494032.53147
  22916271.719 5    231251.004 5    173184.53147  22916273.14547
  20096606.813 7   -111888.258 7    -85457.94949  20096606.25849
  23546763.219 4    362717.863 4    312019.39147  23546761.08247
 20  5 16  1 42 45.0000000  0  8G04G08G09G11G16G26G27G31            -0.000111055
  21406148.570 5   -133338.785 5    -99099.21146  21406145.53946
  20620730.539 7   -769211.887 7   -582713.94149  20620730.75849
  22949020.328 3   -694248.906 3   -522508.35547  22949020.42647
  23285839.852 6  -1351365.523 6   -951494.19147  23285836.49247
  21494085.414 6     82096.840 6     62406.61347  21494081.02347
  22916412.234 5    231990.813 5    173761.00847  22916414.07047
  20096552.875 7   -112174.445 7    -85680.95349  20096551.55549
  23547047.875 5    364212.621 5    313184.12147  23547045.28147
 20  5 16  1 42 46.0000000  0  8G04G08G09G11G16G26G27G31            -0.000111679
  21406078.164 5   -133707.063 5    -99386.18846  21406075.73846
  20620269.664 7   -771636.645 7   -584603.35949  20620269.62149
  22948591.047 4   -696506.941 4   -524267.86747  22948590.57447
  23285005.969 6  -1355744.484 6   -954906.37547  23285002.91447
  21494133.828 6     82350.453 6     62604.23847  21494129.19547
  22916552.594 5    232730.445 5    174337.34847  22916554.81647
  20096498.297 7   -112460.145 7    -85903.57849  20096497.43849
  23547332.289 5    365707.484 5    314348.96547  23547329.83247
 20  5 16  1 42 47.0000000  0  8G04G08G09G11G16G26G27G31            -0.000112303
  21406008.453 5   -134074.820 5    -99672.76246  21406005.61746
  20619808.539 7   -774060.879 7   -586492.37149  20619808.03949
  22948161.367 4   -698764.465 4   -526026.97747  22948161.39147
  23284172.555 6  -1360123.336 6   -958318.46547  23284169.58247
  21494182.195 6     82604.086 6     62801.87947  21494177.71947
  22916693.773 5    233470.102 5    174913.69547  22916695.93447
  20096443.938 7   -112745.301 7    -86125.77749  20096443.16049
  23547616.656 5    367202.590 5    315513.98847  23547614.04747
 20  5 16  1 42 48.0000000  0  8G04G08G09G11G16G26G27G31            -0.000112928
  21405938.578 5   -134442.086 5    -99958.93846  21405935.81346
  20619347.273 7   -776484.703 7   -588381.07449  20619346.96149
  22947731.828 3   -701021.547 3   -527785.74247  22947731.19547
  23283339.859 6  -1364502.270 6   -961730.62947  23283336.29347
  21494230.086 6     82857.641 6     62999.44947  21494225.63747
  22916835.047 5    234209.586 5    175489.92247  22916836.52347
  20096389.977 7   -113029.996 7    -86347.61749  20096388.82049
  23547900.961 5    368697.816 5    316679.10547  23547898.60247
 20  5 16  1 42 49.0000000  0  8G04G08G09G11G16G26G27G31            -0.000113552
  21405869.148 5   -134808.738 5   -100244.64546  21405866.13746
  20618886.164 7   -778907.922 7   -590269.29749  20618885.76249
  22947303.180 4   -703278.020 4   -529544.03547  22947301.73447
  23282506.680 6  -1368881.035 6   -965142.64847  23282503.09447
  21494278.484 6     83111.301 6     63197.11347  21494273.98047
  22916975.438 5    234949.109 5    176066.17247  22916977.16047
  20096336.203 7   -113314.059 7    -86568.96949  20096334.81349
  23548185.820 5    370193.367 5    317844.46546  23548182.90246
 20  5 16  1 42 50.0000000  0  8G04G08G09G11G16G26G27G31            -0.000114176
  21405798.789 4   -135174.926 4   -100529.98446  21405796.33246
  20618424.719 7   -781330.750 7   -592157.20749  20618424.66049
  22946873.531 4   -705534.090 4   -531302.02047  22946872.96547
  23281673.086 6  -1373259.809 6   -968554.68847  23281669.89547
  21494326.836 6     83364.883 6     63394.71147  21494322.48047
  22917115.906 5    235688.465 5    176642.29747  22917118.00847
  20096281.906 7   -113597.672 7    -86789.96149  20096280.62149
  23548470.281 5    371689.051 5    319009.93046  23548468.21546
 20  5 16  1 42 51.0000000  0  8G04G08G09G11G16G26G27G31            -0.000114801
  21405729.047 4   -135540.672 4   -100814.96946  21405726.53146
  20617964.055 7   -783753.203 7   -594044.83649  20617963.59849
  22946444.367 4   -707789.754 4   -533059.68047  22946443.35247
  23280839.938 6  -1377638.699 6   -971966.80547  23280836.94947
  21494375.430 6     83618.340 6     63592.20747  21494370.42647
  22917256.961 5    236427.680 5    177218.31347  22917258.43847
  20096228.031 7   -113880.879 7    -87010.64149  20096227.00849
  23548754.383 5    373184.801 5    320175.45746  23548752.68446
 20  5 16  1 42 52.0000000  0  8G04G08G09G11G16G26G27G31            -0.000115425
  21405659.539 4   -135905.934 4   -101099.59046  21405657.35546
  20617503.203 7   -786175.172 7   -595932.08649  20617502.99249
  22946015.313 4   -710044.910 4   -534816.93847  22946014.74647
  23280007.055 6  -1382017.563 6   -975378.90247  23280003.48047
  21494423.250 6     83871.770 6     63789.69147  21494418.60547
  22917397.141 5    237166.816 5    177794.25847  22917399.00047
  20096174.594 6   -114163.555 6    -87230.91049  20096173.30549
  23549039.078 5    374680.766 5    321341.14147  23549037.00047
 20  5 16  1 42 53.0000000  0  8G04G08G09G11G16G26G27G31            -0.000116049
  21405589.680 4   -136270.590 4   -101383.73446  21405587.60246
  20617042.742 7   -788596.613 7   -597818.91049  20617042.00849
  22945585.516 4   -712299.582 4   -536573.82447  22945585.33647
  23279173.250 6  -1386396.336 6   -978790.92646  23279170.03946
  21494471.297 6     84125.258 6     63987.22747  21494467.30147
  22917537.523 5    237905.895 5    178370.16447  22917539.67647
  20096120.477 6   -114445.672 6    -87450.73049  20096119.36349
  23549324.102 5    376176.965 5    322507.02046  23549321.86746
 20  5 16  1 42 54.0000000  0  8G04G08G09G11G16G26G27G31            -0.000116674
  21405520.875 5   -136634.805 5   -101667.52346  21405518.41846
  20616581.641 7   -791017.621 7   -599705.39149  20616581.48049
  22945156.820 4   -714553.777 4   -538330.31347  22945156.71147
  23278340.055 6  -1390775.133 6   -982202.94946  23278336.70346
  21494519.711 6     84378.652 6     64184.68846  21494515.43446
  22917677.641 5    238644.859 5    178945.99646  22917680.56646
  20096067.172 6   -114727.340 6    -87670.19149  20096065.78949
  23549609.180 5    377673.301 5    323673.02346  23549606.58646
 20  5 16  1 42 55.0000000  0  8G04G08G09G11G16G26G27G31            -0.000117298
  21405451.930 5   -136998.371 5   -101950.80546  21405449.48046
  20616121.141 7   -793438.020 7   -601591.38749  20616120.50449
  22944728.203 4   -716807.294 4   -540086.27347  22944727.78147
  23277506.820 6  -1395153.766 6   -985614.85246  23277503.67646
  21494567.953 6     84632.207 6     64382.29346  21494564.01246
  22917818.305 5    239383.902 5    179521.89146  22917820.87946
  20096013.773 6   -115008.324 6    -87889.11749  20096012.18449
  23549894.297 5    379169.969 5    324839.28146  23549891.52046
 20  5 16  1 42 56.0000000  0  8G04G08G09G11G16G26G27G31            -0.000117922
  21405383.047 5   -137361.535 5   -102233.80946  21405380.14546
  20615660.883 7   -795858.020 7   -603477.12149  20615660.43849
  22944299.984 4   -719060.535 4   -541842.06347  22944298.76247
  23276673.398 6  -1399532.512 6   -989026.85946  23276670.41046
  21494615.648 6     84885.625 6     64579.75447  21494612.02347
  22917959.500 5    240122.676 5    180097.54746  22917961.73046
  20095960.266 6   -115288.938 6    -88107.79349  20095959.27049
  23550178.227 5    380666.680 5    326005.53146  23550176.15646
 20  5 16  1 42 57.0000000  0  8G04G08G09G11G16G26G27G31            -0.000118547
  21405314.250 4   -137724.211 4   -102516.43446  21405311.59846
  20615200.070 7   -798277.629 7   -605362.55549  20615199.85549
  22943871.352 3   -721313.316 3   -543597.50447  22943870.28947
  23275840.539 6  -1403911.273 6   -992438.90247  23275837.27747
  21494664.383 6     85138.957 6     64777.11747  21494659.89547
  22918100.375 5    240861.406 5    180673.15647  22918102.64547
  20095907.094 6   -115569.086 6    -88326.10949  20095905.22749
  23550463.320 5    382163.543 5    327171.89146  23550460.95746
 20  5 16  1 42 58.0000000  0  8G04G08G09G11G16G26G27G31            -0.000119173
  21405245.086 5   -138086.438 5   -102798.70346  21405241.98046
  20614739.508 7   -800696.766 7   -607247.61749  20614739.22349
  22943442.125 3   -723565.617 3   -545352.57447  22943441.80547
  23275007.477 6  -1408290.043 6   -995850.94147  23275003.97747
  21494711.813 6     85392.191 6     64974.43047  21494708.07047
  22918240.977 5    241599.996 5    181248.65647  22918243.01247
  20095853.680 6   -115848.738 6    -88544.05149  20095852.40249
  23550748.492 5    383660.582 5    328338.40246  23550746.11746
 20  5 16  1 42 59.0000000  0  8G04G08G09G11G16G26G27G31            -0.000119799
  21405176.094 5   -138448.070 5   -103080.50846  21405173.57846
  20614279.516 7   -803115.422 7   -609132.29749  20614279.23849
  22943013.922 4   -725817.422 4   -547107.23447  22943012.93447
  23274173.453 6  -1412668.785 6   -999262.96147  23274170.53947
  21494760.227 6     85645.496 6     65171.80147  21494756.24247
  22918380.836 5    242338.492 5    181824.09047  22918383.55147
  20095800.641 6   -116127.875 6    -88761.57049  20095799.55149
  23551033.156 5    385157.777 5    329505.03947  23551030.61347
 20  5 16  1 43  0.0000000  0  8G04G08G09G11G16G26G27G31            -0.000120422
  21405107.563 5   -138809.102 5   -103361.83246  21405104.78146
  20613819.484 7   -805533.477 7   -611016.49649  20613818.61749
  22942584.961 4   -728068.594 4   -548861.38748  22942584.51648
  23273340.648 6  -1417047.355 6  -1002674.83247  23273337.41847
  21494808.813 6     85898.875 6     65369.23047  21494804.66847
  22918520.984 4    243077.032 4    182399.56447  22918523.89147
  20095747.578 6   -116406.348 6    -88978.55949  20095746.36349
  23551317.641 5    386655.328 5    330671.96546  23551315.45346
 20  5 16  1 43  1.0000000  0  8G04G08G09G11G16G26G27G31            -0.000121048
  21405038.750 5   -139169.465 5   -103642.62946  21405035.96146
  20613359.008 7   -807950.945 7   -612900.23049  20613358.81349
  22942157.406 4   -730319.172 4   -550615.07848  22942156.42648
  23272507.031 6  -1421425.766 6  -1006086.55947  23272504.26647
  21494856.836 6     86152.395 6     65566.78147  21494852.98447
  22918661.352 4    243815.691 4    182975.15647  22918664.52747
  20095694.820 6   -116684.188 6    -89195.05549  20095693.57849
  23551602.828 5    388153.215 5    331839.14546  23551600.91046
 20  5 16  1 43  2.0000000  0  8G04G08G09G11G16G26G27G31            -0.000121672
  21404970.227 5   -139529.441 5   -103923.12546  21404967.70346
  20612899.367 7   -810368.020 7   -614783.66449  20612898.73049
  22941730.023 4   -732569.348 4   -552368.45348  22941728.26248
  23271673.953 6  -1425804.266 6  -1009498.37547  23271671.04347
  21494905.211 6     86405.777 6     65764.23847  21494901.23447
  22918801.742 4    244554.102 4    183550.56347  22918805.05947
  20095641.945 6   -116961.605 6    -89411.22349  20095640.38349
  23551887.375 5    389651.156 5    333006.37546  23551885.60946
 20  5 16  1 43  3.0000000  0  8G04G08G09G11G16G26G27G31            -0.000122297
  21404901.977 5   -139888.906 5   -104203.22346  21404899.46946
  20612439.039 7   -812784.656 7   -616666.74649  20612438.81349
  22941301.758 4   -734819.043 4   -554121.46548  22941300.22748
  23270840.789 6  -1430182.785 6  -1012910.19547  23270838.02747
  21494953.070 6     86659.090 6     65961.62547  21494949.30947
  22918942.367 4    245292.358 4    184125.83647  22918945.59047
  20095589.289 6   -117238.590 6    -89627.04749  20095588.44149
  23552172.719 5    391149.254 5    334173.72346  23552170.79346
 20  5 16  1 43  4.0000000  0  8G04G08G09G11G16G26G27G31            -0.000122923
  21404834.180 5   -140247.781 5   -104482.86746  21404831.32446
  20611979.633 7   -815200.727 7   -618549.39849  20611979.51649
  22940873.211 4   -737068.223 4   -555874.08248  22940872.76648
  23270007.594 6  -1434561.172 6  -1016321.91847  23270004.76247
  21495001.609 6     86912.508 6     66159.09847  21494997.39147
  22919082.883 4    246030.750 4    184701.19547  22919086.63347
  20095536.750 6   -117514.922 6    -89842.37549  20095535.40249
  23552458.203 5    392647.629 5    335341.29346  23552455.75046
 20  5 16  1 43  5.0000000  0  8G04G08G09G11G16G26G27G31            -0.000123547
  21404765.406 5   -140606.086 5   -104762.07046  21404763.27346
  20611520.016 7   -817616.301 7   -620431.66849  20611519.49649
  22940444.797 4   -739316.828 4   -557626.24248  22940444.55148
  23269174.586 6  -1438939.488 6  -1019733.59847  23269171.46147
  21495049.852 6     87165.918 6     66356.56647  21495045.81347
  22919223.375 4    246769.043 4    185276.49247  22919226.90247
  20095484.234 6   -117790.738 6    -90057.29749  20095483.00849
  23552743.438 5    394146.234 5    336509.03546  23552741.19146
 20  5 16  1 43  6.0000000  0  8G04G08G09G11G16G26G27G31            -0.000124172
  21404697.242 5   -140963.871 5   -105040.86346  21404694.96146
  20611060.227 7   -820031.371 7   -622313.53949  20611059.81649
  22940017.430 4   -741564.938 4   -559378.02047  22940016.62547
  23268341.406 6  -1443317.762 6  -1023145.24647  23268338.19147
  21495098.586 6     87419.363 6     66554.04747  21495094.11747
  22919363.805 3    247507.227 3    185851.69146  22919367.41846
  20095432.109 7   -118066.000 7    -90271.78549  20095430.20349
  23553028.250 5    395645.074 5    337676.96146  23553026.27346
 20  5 16  1 43  7.0000000  0  8G04G08G09G11G16G26G27G31            -0.000124798
  21404629.703 5   -141321.156 5   -105319.26646  21404626.91046
  20610600.766 7   -822446.004 7   -624195.07049  20610600.54349
  22939590.273 4   -743812.633 4   -561129.46948  22939588.65248
  23267508.539 6  -1447696.066 6  -1026556.91447  23267505.33647
  21495146.672 6     87672.738 6     66751.48047  21495142.38347
  22919504.883 4    248245.379 4    186426.86347  22919508.04347
  20095379.875 6   -118340.770 6    -90485.89549  20095378.43449
  23553313.609 4    397144.031 4    338844.97746  23553311.71546
 20  5 16  1 43  8.0000000  0  8G04G08G09G11G16G26G27G31            -0.000125423
  21404560.859 5   -141677.883 5   -105597.22746  21404559.36346
  20610141.320 7   -824860.059 7   -626076.15249  20610141.00849
  22939162.227 4   -746059.719 4   -562880.43448  22939160.90248
  23266674.992 6  -1452074.238 6  -1029968.48047  23266672.27347
  21495194.820 6     87926.184 6     66948.97347  21495190.27747
  22919645.633 3    248983.441 3    187001.98047  22919648.33647
  20095327.406 6   -118614.980 6    -90699.56649  20095326.05949
  23553598.875 5    398643.250 5    340013.19946  23553596.59846
 20  5 16  1 43  9.0000000  0  8G04G08G09G11G16G26G27G31            -0.000126047
  21404494.008 5   -142033.977 5   -105874.71146  21404491.66446
  20609682.148 7   -827273.594 7   -627956.82849  20609681.65649
  22938735.328 4   -748306.258 4   -564630.98448  22938733.83248
  23265841.680 6  -1456452.336 6  -1033379.96946  23265838.71946
  21495243.156 6     88179.660 6     67146.48847  21495238.63347
  22919785.711 3    249721.531 3    187577.11347  22919788.63747
  20095275.578 6   -118888.598 6    -90912.77349  20095274.09049
  23553883.766 5    400142.762 5    341181.64846  23553881.81646
 20  5 16  1 43 10.0000000  0  8G04G08G09G11G16G26G27G31            -0.000126673
  21404426.102 5   -142389.598 5   -106151.82046  21404423.99246
  20609223.141 7   -829686.652 7   -629837.13349  20609222.59849
  22938307.336 4   -750552.336 4   -566381.17248  22938306.16448
  23265009.156 6  -1460830.402 6  -1036791.46147  23265005.98447
  21495291.313 6     88433.086 6     67343.96547  21495286.92647
  22919925.922 3    250459.512 3    188152.16846  22919929.62146
  20095223.273 6   -119161.730 6    -91125.60249  20095222.07049
  23554169.180 5    401642.395 5    342350.18846  23554167.25446
 20  5 16  1 43 11.0000000  0  8G04G08G09G11G16G26G27G31            -0.000127298
  21404358.281 5   -142744.613 5   -106428.44946  21404356.57846
  20608764.086 7   -832099.137 7   -631716.98849  20608763.58249
  22937880.484 4   -752797.816 4   -568130.89848  22937878.68448
  23264175.852 6  -1465208.371 6  -1040202.85547  23264172.77347
  21495339.617 6     88686.629 6     67541.52347  21495334.96547
  22920066.477 3    251197.520 3    188727.25046  22920069.48846
  20095171.602 6   -119434.234 6    -91337.94549  20095170.26649
  23554455.547 5    403142.355 5    343518.98046  23554452.46546
 20  5 16  1 43 12.0000000  0  8G04G08G09G11G16G26G27G31            -0.000127924
  21404290.695 5   -143099.102 5   -106704.67646  21404289.28946
  20608304.914 7   -834511.160 7   -633596.48849  20608304.52349
  22937453.414 4   -755042.813 4   -569880.25448  22937451.81348
  23263342.648 6  -1469586.328 6  -1043614.24647  23263339.85947
  21495387.328 6     88940.148 6     67739.08247  21495383.45747
  22920207.398 3    251935.414 3    189302.24246  22920209.84846
  20095119.867 6   -119706.234 6    -91549.89149  20095118.28149
  23554740.125 5    404642.480 5    344687.89846  23554738.09046
 20  5 16  1 43 13.0000000  0  8G04G08G09G11G16G26G27G31            -0.000128550
  21404224.336 5   -143453.102 5   -106980.52046  21404221.68046
  20607845.773 7   -836922.730 7   -635475.63349  20607845.68449
  22937025.969 4   -757287.371 4   -571629.26648  22937024.54348
  23262509.852 6  -1473964.242 6  -1047025.60547  23262506.68847
  21495435.523 6     89193.617 6     67936.58647  21495431.58247
  22920347.586 3    252673.258 3    189877.18446  22920350.69146
  20095067.828 6   -119977.762 6    -91761.47349  20095066.66449
  23555026.383 5    406142.766 5    345856.95346  23555023.70746
 20  5 16  1 43 14.0000000  0  8G04G08G09G11G16G26G27G31            -0.000129175
  21404156.305 5   -143806.551 5   -107255.93446  21404154.50846
  20607386.930 7   -839333.777 7   -637354.37149  20607387.03949
  22936597.945 5   -759531.355 5   -573377.82448  22936597.87948
  23261676.750 6  -1478342.133 6  -1050436.94547  23261673.30547
  21495483.680 6     89447.098 6     68134.10547  21495480.14847
  22920487.688 3    253411.051 3    190452.09046  22920490.82446
  20095016.352 7   -120248.750 7    -91972.62949  20095015.23449
  23555311.586 5    407643.316 5    347026.21946  23555309.46546
 20  5 16  1 43 15.0000000  0  8G04G08G09G11G16G26G27G31            -0.000129799
  21404089.680 5   -144159.465 5   -107530.94146  21404087.17646
  20606927.977 7   -841744.344 7   -639232.73849  20606927.87549
  22936171.883 4   -761774.855 4   -575126.00048  22936170.64848
  23260843.367 6  -1482719.977 6  -1053848.25447  23260840.45347
  21495532.250 6     89700.563 6     68331.61347  21495528.17247
  22920628.633 3    254148.746 3    191026.92647  22920630.99647
  20094964.914 7   -120519.156 7    -92183.33249  20094963.32049
  23555597.156 5    409144.023 5    348195.59446  23555594.92246
 20  5 16  1 43 16.0000000  0  8G04G08G09G11G16G26G27G31            -0.000130424
  21404022.602 5   -144511.793 5   -107805.48846  21404020.48046
  20606469.633 7   -844154.371 7   -641110.68049  20606469.53549
  22935745.953 4   -764017.777 4   -576873.73448  22935744.28548
  23260010.250 6  -1487097.715 6  -1057259.48047  23260007.50847
  21495580.648 6     89954.098 6     68529.17247  21495576.83247
  22920768.469 3    254886.391 3    191601.71146  22920771.65246
  20094913.633 7   -120789.039 7    -92393.62949  20094912.15249
  23555883.070 5    410644.996 5    349365.18446  23555880.53146
 20  5 16  1 43 17.0000000  0  8G04G08G09G11G16G26G27G31            -0.000131050
  21403955.406 5   -144863.664 5   -108079.67246  21403953.23446
  20606011.227 7   -846563.988 7   -642988.30549  20606010.76649
  22935317.766 4   -766260.316 4   -578621.16848  22935317.46548
  23259177.203 6  -1491475.496 6  -1060670.74247  23259174.50847
  21495628.727 6     90207.535 6     68726.64547  21495625.06347
  22920909.523 3    255623.969 3    192176.45346  22920912.12946
  20094862.563 7   -121058.457 7    -92603.57049  20094861.22749
  23556168.508 5    412146.066 5    350534.83646  23556166.21946
 20  5 16  1 43 18.0000000  0  8G04G08G09G11G16G26G27G31            -0.000131676
  21403888.508 5   -145215.098 5   -108353.50446  21403886.55946
  20605552.672 7   -848973.172 7   -644865.59049  20605552.77049
  22934891.328 4   -768502.398 4   -580368.24248  22934890.62548
  23258344.211 6  -1495853.313 6  -1064082.02047  23258341.29747
  21495676.906 6     90460.879 6     68924.05147  21495673.12147
  22921049.695 4    256361.363 4    192751.05547  22921052.19147
  20094811.617 7   -121327.418 7    -92813.14849  20094809.82049
  23556454.578 5    413647.313 5    351704.63346  23556451.65646
 20  5 16  1 43 19.0000000  0  8G04G08G09G11G16G26G27G31            -0.000132301
  21403821.445 5   -145565.777 5   -108626.77046  21403819.72746
  20605094.570 7   -851381.617 7   -646742.30549  20605094.12149
  22934465.188 4   -770743.738 4   -582114.75048  22934464.21548
  23257511.555 6  -1500230.840 6  -1067493.07847  23257508.41047
  21495724.898 6     90714.504 6     69121.68847  21495721.47747
  22921189.445 4    257098.945 4    193325.79746  22921192.55146
  20094760.156 7   -121595.609 7    -93022.12949  20094758.76649
  23556740.125 5    415148.969 5    352874.75046  23556737.31346
 20  5 16  1 43 20.0000000  0  8G04G08G09G11G16G26G27G31            -0.000132927
  21403755.766 5   -145915.906 5   -108899.60246  21403753.18446
  20604636.063 7   -853789.602 7   -648618.65249  20604635.80549
  22934038.328 4   -772984.621 4   -583860.89148  22934037.74648
  23256678.477 6  -1504608.371 6  -1070904.14847  23256675.22747
  21495773.719 6     90968.086 6     69319.27747  21495769.75447
  22921330.203 4    257836.465 4    193900.48446  22921332.48446
  20094709.328 7   -121863.316 7    -93230.73449  20094707.93849
  23557025.516 5    416650.816 5    354045.02047  23557023.38347
 20  5 16  1 43 21.0000000  0  8G04G08G09G11G16G26G27G31            -0.000133553
  21403688.609 5   -146265.602 5   -109172.09446  21403686.45346
  20604178.016 7   -856197.199 7   -650494.70349  20604177.78949
  22933612.289 4   -775225.078 4   -585606.69548  22933611.46548
  23255845.492 6  -1508985.914 6  -1074315.21147  23255842.03947
  21495822.250 6     91221.566 6     69516.80547  21495817.81347
  22921471.086 4    258573.809 4    194475.02747  22921473.47747
  20094658.289 7   -122130.547 7    -93438.96149  20094656.63749
  23557312.000 5    418152.813 5    355215.41447  23557309.52047
 20  5 16  1 43 22.0000000  0  8G04G08G09G11G16G26G27G31            -0.000134178
  21403621.938 5   -146614.855 5   -109444.24246  21403620.09046
  20603719.820 7   -858604.359 7   -652370.41049  20603719.59049
  22933186.000 4   -777465.094 4   -587352.16048  22933185.30148
  23255011.852 6  -1513363.520 6  -1077726.32847  23255009.25047
  21495869.813 6     91474.953 6     69714.25047  21495866.17647
  22921611.445 4    259310.986 4    195049.45147  22921613.27747
  20094607.922 7   -122397.359 7    -93646.87149  20094606.30149
  23557597.828 5    419654.875 5    356385.83646  23557595.07846
 20  5 16  1 43 23.0000000  0  8G04G08G09G11G16G26G27G31            -0.000134804
  21403556.188 5   -146963.750 5   -109716.10246  21403553.93846
  20603261.898 7   -861011.230 7   -654245.89549  20603262.29749
  22932759.930 4   -779704.816 4   -589097.40248  22932759.44548
  23254179.313 6  -1517741.246 6  -1081137.53947  23254176.16047
  21495918.039 6     91728.211 6     69911.58647  21495914.16047
  22921751.836 4    260047.953 4    195623.71147  22921753.48447
  20094557.141 7   -122663.824 7    -93854.49649  20094555.53549
  23557883.859 5    421156.992 5    357556.31646  23557880.66046
 20  5 16  1 43 24.0000000  0  8G04G08G09G11G16G26G27G31            -0.000135429
  21403489.391 5   -147312.016 5   -109987.47746  21403487.77346
  20602803.742 7   -863417.527 7   -656120.93049  20602803.92249
  22932333.727 4   -781943.957 4   -590842.19148  22932333.40248
  23253346.188 6  -1522118.848 6  -1084548.65247  23253343.10247
  21495966.563 6     91981.520 6     70108.97347  21495962.41847
  22921891.617 4    260784.906 4    196197.96547  22921893.41847
  20094506.430 7   -122929.648 7    -94061.63349  20094504.63349
  23558169.461 5    422659.426 5    358727.03946  23558166.49646
 20  5 16  1 43 25.0000000  0  8G04G08G09G11G16G26G27G31            -0.000136057
  21403423.641 5   -147659.676 5   -110258.37546  21403421.10246
  20602346.328 7   -865823.230 7   -657995.51249  20602346.40249
  22931907.273 4   -784182.426 4   -592586.45748  22931906.96148
  23252513.102 6  -1526496.324 6  -1087959.67647  23252510.30547
  21496014.625 6     92234.906 6     70306.41047  21496010.69547
  22922030.953 4    261521.934 4    196772.27747  22922033.91847
  20094456.180 7   -123194.875 7    -94268.30549  20094454.39549
  23558455.234 5    424162.113 5    359897.95346  23558452.75446
 20  5 16  1 43 26.0000000  0  8G04G08G09G11G16G26G27G31            -0.000136683
  21403357.367 5   -148006.824 5   -110528.88346  21403355.57046
  20601888.727 7   -868228.465 7   -659869.72349  20601888.57849
  22931481.391 4   -786420.446 4   -594330.37148  22931480.79748
  23251679.914 6  -1530873.781 6  -1091370.68847  23251677.15647
  21496062.750 6     92488.285 6     70503.84847  21496059.02747
  22922171.758 4    262258.832 4    197346.48047  22922173.87547
  20094405.531 7   -123459.586 7    -94474.57449  20094404.17649
  23558741.609 5    425664.992 5    361069.02347  23558738.86347
 20  5 16  1 43 27.0000000  0  8G04G08G09G11G16G26G27G31            -0.000137308
  21403291.820 5   -148353.391 5   -110798.93446  21403289.69546
  20601430.844 7   -870633.172 7   -661743.51649  20601430.69549
  22931055.203 4   -788657.938 4   -596073.87148  22931055.30148
  23250847.352 6  -1535251.145 6  -1094781.62146  23250844.04346
  21496111.188 6     92741.691 6     70701.32047  21496107.88747
  22922311.836 5    262995.715 5    197920.66846  22922313.89846
  20094355.625 7   -123723.742 7    -94680.41049  20094353.92649
  23559027.445 5    427168.090 5    362240.27346  23559024.68446
 20  5 16  1 43 28.0000000  0  8G04G08G09G11G16G26G27G31            -0.000137934
  21403225.523 5   -148699.445 5   -111068.58246  21403223.96946
  20600973.531 7   -873037.379 7   -663616.92649  20600973.42649
  22930629.563 4   -790894.926 4   -597816.97748  22930629.45748
  23250013.984 6  -1539628.457 6  -1098192.51647  23250010.84847
  21496158.727 6     92995.121 6     70898.80147  21496155.48847
  22922451.953 4    263732.535 4    198494.81647  22922454.25847
  20094305.398 7   -123987.371 7    -94885.84049  20094303.88749
  23559313.828 5    428671.426 5    363411.70346  23559310.58246
 20  5 16  1 43 29.0000000  0  8G04G08G09G11G16G26G27G31            -0.000138559
  21403160.039 5   -149044.852 5   -111337.73446  21403158.68046
  20600515.945 7   -875440.996 7   -665489.87949  20600516.09049
  22930204.266 4   -793131.320 4   -599559.62148  22930204.22748
  23249181.563 6  -1544005.641 6  -1101603.30547  23249178.02747
  21496206.969 6     93248.625 6     71096.33247  21496203.93447
  22922591.945 4    264469.418 4    199069.00447  22922594.45747
  20094255.523 7   -124250.379 7    -95090.77349  20094253.69149
  23559599.773 5    430175.008 5    364583.32846  23559597.17646
 20  5 16  1 43 30.0000000  0  8G04G08G09G11G16G26G27G31            -0.000139187
  21403094.438 5   -149389.781 5   -111606.51646  21403092.42646
  20600058.813 7   -877844.199 7   -667362.50049  20600058.55949
  22929778.570 3   -795367.238 3   -601301.89848  22929778.75848
  23248348.367 6  -1548382.824 6  -1105014.09447  23248345.02047
  21496255.328 6     93502.063 6     71293.80147  21496252.24247
  22922733.547 4    265206.137 4    199643.07046  22922735.00846
  20094205.352 7   -124512.898 7    -95295.34049  20094203.62949
  23559886.305 5    431678.816 5    365755.12946  23559883.37146
 20  5 16  1 43 31.0000000  0  8G04G08G09G11G16G26G27G31            -0.000139812
  21403028.633 5   -149734.102 5   -111874.80946  21403026.73846
  20599602.070 7   -880246.820 7   -669234.66849  20599601.71549
  22929353.508 4   -797602.559 4   -603043.70748  22929353.38348
  23247515.523 6  -1552759.867 6  -1108424.76647  23247512.48047
  21496303.516 6     93755.648 6     71491.40247  21496300.34447
  22922872.609 4    265942.938 4    200217.19547  22922874.91847
  20094155.781 7   -124774.781 7    -95499.39849  20094154.24249
  23560172.594 5    433182.902 5    366927.14147  23560169.43047
 20  5 16  1 43 32.0000000  0  8G04G08G09G11G16G26G27G31            -0.000140438
  21402962.898 5   -150077.965 5   -112142.75046  21402961.39146
  20599144.906 7   -882649.016 7   -671106.51249  20599144.42649
  22928927.414 4   -799837.445 4   -604785.18048  22928928.07048
  23246682.695 6  -1557136.965 6  -1111835.48447  23246679.21147
  21496351.711 6     94009.094 6     71688.90247  21496348.44147
  22923013.555 5    266679.547 5    200791.17247  22923014.96947
  20094105.688 6   -125036.246 6    -95703.13349  20094104.16449
  23560458.008 5    434687.121 5    368099.25846  23560455.14546
 20  5 16  1 43 33.0000000  0  8G04G08G09G11G16G26G27G31            -0.000141064
  21402898.172 5   -150421.430 5   -112410.39146  21402896.29346
  20598687.648 7   -885050.816 7   -672978.04749  20598687.66849
  22928502.656 4   -802071.977 4   -606526.37148  22928503.07848
  23245849.695 6  -1561514.102 6  -1115246.23847  23245846.44547
  21496399.789 6     94262.449 6     71886.31647  21496396.63747
  22923152.766 5    267416.031 5    201365.05546  22923155.13346
  20094056.055 7   -125297.301 7    -95906.55949  20094054.46149
  23560744.023 5    436191.387 5    369271.40647  23560741.92647
 20  5 16  1 43 34.0000000  0  8G04G08G09G11G16G26G27G31            -0.000141691
  21402833.039 5   -150764.324 5   -112677.58646  21402830.89146
  20598230.477 7   -887452.125 7   -674849.19149  20598230.36749
  22928077.922 4   -804305.957 4   -608267.12948  22928077.27348
  23245016.617 6  -1565891.211 6  -1118656.97747  23245013.53547
  21496448.070 6     94515.781 6     72083.71947  21496444.87947
  22923293.852 5    268152.391 5    201938.84446  22923294.89846
  20094006.406 7   -125557.824 7    -96109.55549  20094004.92249
  23561030.391 5    437695.863 5    370443.71946  23561027.85946
 20  5 16  1 43 35.0000000  0  8G04G08G09G11G16G26G27G31            -0.000142317
  21402767.328 5   -151106.707 5   -112944.38346  21402765.81346
  20597773.727 7   -889852.941 7   -676719.96149  20597773.57049
  22927652.914 4   -806539.488 4   -610007.53148  22927652.27048
  23244183.000 6  -1570268.277 6  -1122067.67247  23244180.27347
  21496496.367 6     94769.113 6     72281.11347  21496493.00047
  22923433.844 5    268888.715 5    202512.60547  22923435.32047
  20093957.258 7   -125817.813 7    -96312.14549  20093955.48449
  23561316.445 5    439200.578 5    371616.22746  23561314.33246
 20  5 16  1 43 36.0000000  0  8G04G08G09G11G16G26G27G31            -0.000142944
  21402702.469 5   -151448.555 5   -113210.74646  21402700.68446
  20597317.016 7   -892253.281 7   -678590.35549  20597317.04349
  22927227.336 4   -808772.480 4   -611747.53148  22927227.49648
  23243350.641 6  -1574645.305 6  -1125478.34447  23243347.94547
  21496544.617 6     95022.457 6     72478.52347  21496541.23447
  22923573.508 5    269624.980 5    203086.32047  22923575.55947
  20093907.367 7   -126077.289 7    -96514.33649  20093906.02049
  23561603.234 5    440705.449 5    372788.85546  23561600.74646
 20  5 16  1 43 37.0000000  0  8G04G08G09G11G16G26G27G31            -0.000143570
  21402637.648 5   -151789.824 5   -113476.67646  21402635.93046
  20596860.250 7   -894653.063 7   -680460.31349  20596860.26249
  22926803.180 4   -811004.961 4   -613487.12748  22926803.02348
  23242517.727 6  -1579022.227 6  -1128888.93447  23242514.86747
  21496593.219 6     95275.855 6     72675.97747  21496589.50047
  22923713.484 5    270361.215 5    203660.00846  22923715.58646
  20093858.211 7   -126336.160 7    -96716.05149  20093856.76249
  23561889.500 5    442210.617 5    373961.71547  23561886.96947
 20  5 16  1 43 38.0000000  0  8G04G08G09G11G16G26G27G31            -0.000144196
  21402572.289 5   -152130.473 5   -113742.11746  21402570.79346
  20596404.305 7   -897052.301 7   -682329.84849  20596403.51649
  22926378.469 4   -813236.809 4   -615226.22348  22926377.87948
  23241684.875 6  -1583399.055 6  -1132299.45747  23241681.81347
  21496641.234 6     95529.277 6     72873.46147  21496637.86747
  22923853.172 5    271097.445 5    204233.69546  22923855.94546
  20093809.313 7   -126594.457 7    -96917.32049  20093807.53949
  23562175.703 5    443716.043 5    375134.77046  23562173.30946
 20  5 16  1 43 39.0000000  0  8G04G08G09G11G16G26G27G31            -0.000144823
  21402507.500 5   -152470.629 5   -114007.16446  21402506.16846
  20595947.242 7   -899451.031 7   -684198.99249  20595947.03949
  22925954.727 4   -815468.164 4   -616964.94948  22925953.24248
  23240851.844 6  -1587775.844 6  -1135709.94147  23240849.25847
  21496689.461 6     95782.742 6     73070.96547  21496685.93847
  22923994.078 5    271833.637 5    204807.34447  22923996.29347
  20093760.297 7   -126852.230 7    -97118.18849  20093758.92249
  23562462.938 5    445221.656 5    376307.96546  23562459.65646
 20  5 16  1 43 40.0000000  0  8G04G08G09G11G16G26G27G31            -0.000145449
  21402443.563 5   -152810.207 5   -114271.76246  21402441.52046
  20595490.898 7   -901849.211 7   -686067.70349  20595490.92649
  22925529.766 4   -817699.004 4   -618703.26648  22925529.04748
  23240018.563 6  -1592152.516 6  -1139120.33647  23240016.34847
  21496738.195 6     96036.227 6     73268.48847  21496734.20347
  22924134.070 5    272569.805 5    205380.98047  22924136.27747
  20093711.203 6   -127109.414 6    -97318.59049  20093709.56649
  23562749.125 5    446727.527 5    377481.35947  23562746.58247
 20  5 16  1 43 41.0000000  0  8G04G08G09G11G16G26G27G31            -0.000146076
  21402378.594 5   -153149.254 5   -114535.95746  21402377.34846
  20595034.820 7   -904246.945 7   -687936.06649  20595034.31349
  22925104.953 4   -819929.289 4   -620441.15648  22925104.82448
  23239186.203 6  -1596529.184 6  -1142530.73047  23239183.53147
  21496786.422 6     96289.684 6     73465.98447  21496782.69147
  22924273.570 5    273305.848 5    205954.50847  22924276.12947
  20093662.523 6   -127366.117 6    -97518.61349  20093661.02349
  23563035.898 5    448233.559 5    378654.88346  23563033.23846
 20  5 16  1 43 42.0000000  0  8G04G08G09G11G16G26G27G31            -0.000146702
  21402314.188 5   -153487.699 5   -114799.67246  21402313.03946
  20594578.297 7   -906644.109 7   -689803.98849  20594578.24249
  22924680.711 4   -822159.055 4   -622178.63748  22924679.82448
  23238353.484 6  -1600905.715 6  -1145941.00847  23238350.73447
  21496834.141 6     96543.195 6     73663.52047  21496830.39547
  22924414.211 5    274041.949 5    206528.10247  22924416.24647
  20093613.344 6   -127622.191 6    -97718.15649  20093612.06649
  23563322.281 5    449739.902 5    379828.65246  23563319.93446
 20  5 16  1 43 43.0000000  0  8G04G08G09G11G16G26G27G31            -0.000147329
  21402249.547 5   -153825.625 5   -115062.98446  21402248.89546
  20594122.219 7   -909040.801 7   -691671.53549  20594122.49249
  22924256.578 4   -824388.344 4   -623915.73848  22924255.84848
  23237520.539 6  -1605282.242 6  -1149351.28947  23237517.77347
  21496882.398 6     96796.730 6     73861.08647  21496878.39147
  22924553.625 5    274777.984 5    207101.62947  22924556.37147
  20093564.844 6   -127877.770 6    -97917.30549  20093563.83649
  23563608.680 5    451246.406 5    381002.53946  23563606.28546
 20  5 16  1 43 44.0000000  0  8G04G08G09G11G16G26G27G31            -0.000147955
  21402184.969 5   -154163.184 5   -115326.01646  21402184.44546
  20593666.289 7   -911437.152 7   -693538.83249  20593666.35949
  22923833.344 4   -826617.262 4   -625652.56348  22923832.09048
  23236687.461 6  -1609658.898 6  -1152761.66847  23236684.75847
  21496930.523 6     97050.063 6     74058.49647  21496926.93047
  22924693.734 5    275513.766 5    207674.96547  22924696.32047
  20093516.508 7   -128132.984 7    -98116.17649  20093514.81349
  23563896.320 5    452752.957 5    382176.48847  23563892.85547
 20  5 16  1 43 45.0000000  0  8G04G08G09G11G16G26G27G31            -0.000148582
  21402121.289 5   -154500.211 5   -115588.64846  21402120.53546
  20593210.445 7   -913833.000 7   -695405.72749  20593210.44149
  22923408.688 4   -828845.605 4   -627388.93048  22923408.12148
  23235855.313 6  -1614035.438 6  -1156171.95347  23235851.91047
  21496978.875 6     97303.449 6     74255.93847  21496975.18447
  22924833.242 4    276249.441 4    208248.21547  22924836.48447
  20093467.930 6   -128387.637 6    -98314.60949  20093467.10549
  23564182.641 5    454259.770 5    383350.62547  23564179.89547
 20  5 16  1 43 46.0000000  0  8G04G08G09G11G16G26G27G31            -0.000149210
  21402057.258 5   -154836.539 5   -115850.73046  21402056.48046
  20592754.563 7   -916228.254 7   -697272.14849  20592754.85249
  22922984.445 4   -831073.383 4   -629124.85948  22922983.73448
  23235021.750 6  -1618411.859 6  -1159582.14847  23235019.16447
  21497027.305 6     97556.922 6     74453.44947  21497023.40247
  22924972.945 4    276985.238 4    208821.56647  22924976.04747
  20093419.555 6   -128641.680 6    -98512.56349  20093418.22349
  23564469.531 5    455766.832 5    384524.96146  23564466.77046
 20  5 16  1 43 47.0000000  0  8G04G08G09G11G16G26G27G31            -0.000149836
  21401992.859 5   -155172.477 5   -116112.49646  21401992.43846
  20592299.063 7   -918623.102 7   -699138.26649  20592298.73449
  22922560.672 4   -833300.779 4   -630860.49248  22922559.84048
  23234188.984 6  -1622788.336 6  -1162992.39547  23234186.41047
  21497075.000 6     97810.285 6     74650.87947  21497071.51247
  22925113.359 4    277720.891 4    209394.79747  22925117.00847
  20093371.750 6   -128895.277 6    -98710.16849  20093369.76649
  23564756.125 5    457274.051 5    385699.40646  23564752.99646
 20  5 16  1 43 48.0000000  0  8G04G08G09G11G16G26G27G31            -0.000150463
  21401929.711 5   -155508.008 5   -116373.95746  21401928.70746
  20591843.594 7   -921017.602 7   -701004.10949  20591843.14549
  22922136.477 4   -835527.742 4   -632595.78948  22922136.40648
  23233356.313 6  -1627164.875 6  -1166402.68447  23233353.54347
  21497123.906 6     98063.531 6     74848.21547  21497119.77347
  22925252.977 4    278456.340 4    209967.85947  22925256.40647
  20093323.328 7   -129148.480 7    -98907.46949  20093321.73449
  23565042.844 4    458781.297 4    386873.88746  23565040.37946
 20  5 16  1 43 49.0000000  0  8G04G08G09G11G16G26G27G31            -0.000151091
  21401866.141 5   -155843.066 5   -116635.03546  21401864.59446
  20591387.703 7   -923411.609 7   -702869.57449  20591387.67649
  22921712.805 4   -837754.258 4   -634330.74248  22921712.39148
  23232523.563 6  -1631541.449 6  -1169812.99647  23232520.97347
  21497171.156 6     98316.727 6     75045.51247  21497168.28547
  22925392.523 3    279191.617 3    210540.80947  22925396.08647
  20093275.148 7   -129401.219 7    -99104.41049  20093273.94149
  23565329.789 5    460288.723 5    388048.51246  23565326.70746
 20  5 16  1 43 50.0000000  0  8G04G08G09G11G16G26G27G31            -0.000151716
  21401801.750 5   -156177.425 5   -116895.57346  21401800.90246
  20590932.266 7   -925805.004 7   -704734.55949  20590932.07049
  22921289.195 4   -839980.156 4   -636065.21148  22921288.85548
  23231690.609 6  -1635917.816 6  -1173223.13747  23231688.04747
  21497219.375 6     98570.055 6     75242.90647  21497216.19947
  22925532.563 3    279927.023 3    211113.84446  22925535.87546
  20093227.031 7   -129653.258 7    -99300.80149  20093225.81649
  23565616.727 5    461796.516 5    389223.41047  23565614.08247
 20  5 16  1 43 51.0000000  0  8G04G08G09G11G16G26G27G31            -0.000152344
  21401738.828 5   -156511.352 5   -117155.77046  21401737.43046
  20590476.820 7   -928197.961 7   -706599.19549  20590476.71149
  22920865.500 4   -842205.586 4   -637799.31648  22920865.22348
  23230858.297 6  -1640294.180 6  -1176633.28147  23230854.96947
  21497267.367 6     98823.313 6     75440.24247  21497264.17247
  22925673.375 3    280662.270 3    211686.75846  22925676.05546
  20093179.281 7   -129904.844 7    -99496.84049  20093178.05549
  23565903.492 5    463304.422 5    390398.40246  23565900.93846
 20  5 16  1 43 52.0000000  0  8G04G08G09G11G16G26G27G31            -0.000152971
  21401674.984 5   -156844.738 5   -117415.55946  21401674.09046
  20590021.609 7   -930590.457 7   -708463.48049  20590021.84849
  22920442.055 4   -844430.566 4   -639533.06348  22920441.95348
  23230025.039 6  -1644670.535 6  -1180043.43047  23230022.40647
  21497315.977 6     99076.547 6     75637.55947  21497312.52747
  22925812.555 3    281397.457 3    212259.64146  22925816.37146
  20093131.422 7   -130155.922 7    -99692.48849  20093130.23849
  23566190.859 5    464812.500 5    391573.52046  23566187.95746
 20  5 16  1 43 53.0000000  0  8G04G08G09G11G16G26G27G31            -0.000153599
  21401612.078 5   -157177.797 5   -117675.08646  21401610.45346
  20589566.500 7   -932982.609 7   -710327.49649  20589565.94549
  22920019.500 4   -846655.082 4   -641266.45348  22920018.48448
  23229192.664 6  -1649047.000 6  -1183453.66447  23229189.55547
  21497364.102 6     99329.652 6     75834.79347  21497360.69147
  22925952.539 3    282132.457 3    212832.37146  22925955.95746
  20093083.625 7   -130406.656 7    -99887.86349  20093082.69949
  23566477.977 5    466320.625 5    392748.68046  23566474.65246
 20  5 16  1 43 54.0000000  0  8G04G08G09G11G16G26G27G31            -0.000154224
  21401547.938 5   -157510.387 5   -117934.24246  21401547.55146
  20589111.383 7   -935374.387 7   -712191.21949  20589111.33649
  22919595.609 4   -848879.344 4   -642999.64548  22919595.13348
  23228359.367 6  -1653423.551 6  -1186863.96547  23228356.75047
  21497411.805 6     99582.590 6     76031.88747  21497408.66047
  22926093.883 3    282867.191 3    213404.88346  22926096.14846
  20093036.195 7   -130656.973 7   -100082.92249  20093034.71949
  23566765.492 5    467828.844 5    393923.91847  23566762.01647
 20  5 16  1 43 55.0000000  0  8G04G08G09G11G16G26G27G31            -0.000154852
  21401485.203 5   -157842.379 5   -118192.93846  21401484.24646
  20588656.336 7   -937765.578 7   -714054.48049  20588656.07049
  22919172.422 4   -851102.977 4   -644732.34448  22919172.06348
  23227526.500 6  -1657799.969 6  -1190274.16047  23227523.50047
  21497459.836 6     99835.633 6     76229.07447  21497456.81647
  22926232.836 3    283602.000 3    213977.46146  22926235.76646
  20092988.609 7   -130906.656 7   -100277.48049  20092987.20349
  23567052.117 5    469337.340 5    395099.36347  23567049.07047
 20  5 16  1 43 56.0000000  0  8G04G08G09G11G16G26G27G31            -0.000155481
  21401421.789 5   -158173.910 5   -118451.26646  21401420.76246
  20588201.805 7   -940156.277 7   -715917.36749  20588201.52349
  22918750.305 4   -853326.105 4   -646464.66048  22918749.14548
  23226693.727 6  -1662176.375 6  -1193684.34447  23226690.97747
  21497508.508 6    100088.613 6     76426.20747  21497505.19947
  22926372.461 3    284336.758 3    214550.00847  22926375.77047
  20092941.359 7   -131155.883 7   -100471.68049  20092939.80149
  23567339.047 5    470846.020 5    396274.96147  23567335.86347
 20  5 16  1 43 57.0000000  0  8G04G08G09G11G16G26G27G31            -0.000156107
  21401359.094 5   -158504.883 5   -118709.16446  21401357.68046
  20587746.445 7   -942546.531 7   -717779.89549  20587746.34449
  22918326.789 4   -855548.816 4   -648196.64148  22918326.46948
  23225860.773 6  -1666552.746 6  -1197094.50047  23225858.21947
  21497556.500 6    100341.574 6     76623.32447  21497553.14547
  22926512.508 3    285071.305 3    215122.38746  22926514.94546
  20092893.695 7   -131404.605 7   -100665.48449  20092892.27749
  23567626.148 5    472354.867 5    397450.69146  23567623.17246
 20  5 16  1 43 58.0000000  0  8G04G08G09G11G16G26G27G31            -0.000156734
  21401296.125 5   -158835.410 5   -118966.72346  21401294.85246
  20587291.914 7   -944936.328 7   -719642.07849  20587291.39549
  22917904.305 4   -857770.933 4   -649928.15948  22917903.44948
  23225028.234 6  -1670929.125 6  -1200504.66447  23225025.50847
  21497605.211 6    100594.520 6     76820.42647  21497601.14847
  22926652.703 3    285805.820 3    215694.73846  22926655.34846
  20092846.750 7   -131652.820 7   -100858.90249  20092845.59449
  23567913.242 5    473863.871 5    398626.54747  23567910.14847
 20  5 16  1 43 59.0000000  0  8G04G08G09G11G16G26G27G31            -0.000157364
  21401233.406 5   -159165.508 5   -119223.94146  21401232.08646
  20586837.219 7   -947325.777 7   -721503.98049  20586837.08649
  22917481.156 4   -859992.828 4   -651659.50848  22917480.61348
  23224195.750 6  -1675305.563 6  -1203914.87547  23224192.48447
  21497653.516 6    100847.332 6     77017.42247  21497649.38347
  22926791.820 3    286540.098 3    216266.91046  22926794.85246
  20092799.477 6   -131900.645 6   -101052.00849  20092798.17249
  23568200.211 5    475372.969 5    399802.46546  23568197.71146
 20  5 16  1 44  0.0000000  0  8G04G08G09G11G16G26G27G31            -0.000157991
  21401171.266 5   -159495.121 5   -119480.78146  21401169.62146
  20586382.391 7   -949714.797 7   -723365.56349  20586382.31349
  22917058.945 4   -862214.222 4   -653390.46648  22917057.83648
  23223363.133 6  -1679682.012 6  -1207325.09847  23223359.86347
  21497701.523 6    101100.059 6     77214.35247  21497697.54747
  22926932.336 3    287274.316 3    216839.03146  22926934.73846
  20092751.906 6   -132147.980 6   -101244.73849  20092750.97349
  23568487.531 5    476882.238 5    400978.51246  23568484.82846
 20  5 16  1 44  1.0000000  0  8G04G08G09G11G16G26G27G31            -0.000158619
  21401107.500 5   -159824.230 5   -119737.23446  21401106.82846
  20585927.727 7   -952103.352 7   -725226.77049  20585928.12149
  22916636.141 4   -864435.090 4   -655121.00848  22916634.88348
  23222530.336 6  -1684058.441 6  -1210735.29347  23222526.83647
  21497749.117 6    101352.781 6     77411.27747  21497745.35947
  22927071.852 3    288008.391 3    217411.03946  22927074.41446
  20092705.000 6   -132394.848 6   -101437.10549  20092703.97749
  23568775.016 5    478391.641 5    402154.66447  23568771.94547
 20  5 16  1 44  2.0000000  0  8G04G08G09G11G16G26G27G31            -0.000159246
  21401046.117 5   -160152.832 5   -119993.28146  21401044.41846
  20585473.344 7   -954491.383 7   -727087.57849  20585473.43449
  22916213.492 4   -866655.480 4   -656851.18048  22916212.16448
  23221697.203 6  -1688434.852 6  -1214145.48447  23221694.46547
  21497797.203 6    101605.484 6     77608.18847  21497793.50447
  22927211.008 3    288742.453 3    217983.03546  22927214.25446
  20092658.109 6   -132641.168 6   -101629.04349  20092656.95749
  23569062.242 5    479901.242 5    403330.97346  23569059.42246
 20  5 16  1 44  3.0000000  0  8G04G08G09G11G16G26G27G31            -0.000159874
  21400983.039 5   -160480.914 5   -120248.93046  21400982.14846
  20585018.930 7   -956878.984 7   -728948.03949  20585019.12949
  22915791.219 5   -868875.422 5   -658581.00848  22915789.98848
  23220864.383 6  -1692811.234 6  -1217555.65247  23220861.61747
  21497845.633 6    101858.152 6     77805.07447  21497841.47747
  22927351.008 3    289476.418 3    218554.96147  22927353.60547
  20092611.641 6   -132887.016 6   -101820.61349  20092610.01249
  23569349.305 5    481411.047 5    404507.44547  23569346.37547
 20  5 16  1 44  4.0000000  0  8G04G08G09G11G16G26G27G31            -0.000160501
  21400920.859 5   -160808.543 5   -120504.22746  21400919.36346
  20584565.008 7   -959266.137 7   -730808.16049  20584564.93449
  22915369.406 5   -871094.908 5   -660310.47748  22915367.96148
  23220031.578 6  -1697187.633 6  -1220965.82847  23220028.60947
  21497893.188 6    102110.770 6     78001.92647  21497889.91847
  22927490.016 3    290210.238 3    219126.77046  22927493.52746
  20092564.680 7   -133132.379 7   -102011.80149  20092563.44149
  23569637.180 5    482920.980 5    405684.02047  23569633.62147
 20  5 16  1 44  5.0000000  0  8G04G08G09G11G16G26G27G31            -0.000161131
  21400858.523 5   -161135.641 5   -120759.11346  21400857.01246
  20584110.813 7   -961652.820 7   -732667.91849  20584110.60249
  22914946.203 5   -873313.824 5   -662039.50048  22914945.67648
  23219199.313 6  -1701563.988 6  -1224375.97747  23219195.98047
  21497941.336 6    102363.359 6     78198.74647  21497937.84847
  22927629.648 4    290943.977 4    219698.50846  22927632.98846
  20092518.461 6   -133377.242 6   -102202.60549  20092516.71949
  23569923.930 5    484431.094 5    406860.73046  23569921.25846
 20  5 16  1 44  6.0000000  0  8G04G08G09G11G16G26G27G31            -0.000161758
  21400797.047 5   -161462.320 5   -121013.67646  21400795.09446
  20583656.758 7   -964039.125 7   -734527.37549  20583656.60549
  22914524.375 4   -875532.438 4   -663768.28948  22914522.91048
  23218366.203 6  -1705940.422 6  -1227786.17647  23218363.16447
  21497989.109 6    102615.828 6     78395.46947  21497985.75847
  22927770.180 4    291677.500 4    220270.08646  22927772.76246
  20092471.820 7   -133621.695 7   -102393.09449  20092470.51249
  23570211.531 5    485941.320 5    408037.53146  23570208.67646
 20  5 16  1 44  7.0000000  0  8G04G08G09G11G16G26G27G31            -0.000162386
  21400734.695 5   -161788.430 5   -121267.78946  21400733.12546
  20583202.516 7   -966424.859 7   -736386.39149  20583202.33249
  22914102.703 4   -877750.484 4   -665496.63748  22914100.79348
  23217533.828 6  -1710316.723 6  -1231196.28547  23217530.41047
  21498037.016 6    102868.371 6     78592.26247  21498033.94947
  22927909.258 4    292411.086 4    220841.70746  22927912.32046
  20092425.656 7   -133865.547 7   -102583.10549  20092424.44549
  23570498.781 5    487451.777 5    409214.50846  23570496.22746
 20  5 16  1 44  8.0000000  0  8G04G08G09G11G16G26G27G31            -0.000163015
  21400671.906 5   -162114.020 5   -121521.49646  21400671.16446
  20582748.461 7   -968810.145 7   -738245.05149  20582748.61749
  22913679.531 4   -879967.984 4   -667224.56348  22913679.04748
  23216700.891 6  -1714693.031 6  -1234606.39547  23216697.85547
  21498084.953 6    103120.867 6     78789.02047  21498081.76647
  22928048.586 4    293144.520 4    221413.21946  22928051.66046
  20092379.086 7   -134108.891 7   -102772.72349  20092377.92649
  23570786.320 5    488962.426 5    410391.64546  23570783.28946
 20  5 16  1 44  9.0000000  0  8G04G08G09G11G16G26G27G31            -0.000163643
  21400610.555 5   -162439.141 5   -121774.83646  21400609.27746
  20582294.711 7   -971194.973 7   -740103.35549  20582294.90249
  22913257.266 4   -882185.055 4   -668952.15248  22913257.11748
  23215867.297 6  -1719069.324 6  -1238016.49647  23215864.58247
  21498133.320 6    103373.344 6     78985.75847  21498130.21547
  22928189.250 4    293877.914 4    221984.69946  22928191.31346
  20092333.031 7   -134351.793 7   -102962.00049  20092331.68049
  23571073.797 5    490473.242 5    411568.89846  23571070.74646
 20  5 16  1 44 10.0000000  0  8G04G08G09G11G16G26G27G31            -0.000164270
  21400549.461 5   -162763.828 5   -122027.83646  21400547.69546
  20581841.156 7   -973579.449 7   -741961.39149  20581841.31349
  22912835.320 4   -884401.734 4   -670679.43448  22912835.28548
  23215034.984 6  -1723445.695 6  -1241426.66047  23215031.97347
  21498181.508 6    103625.664 6     79182.36747  21498178.23847
  22928328.172 4    294611.051 4    222555.97346  22928330.64546
  20092286.703 7   -134594.262 7   -103150.93449  20092285.50849
  23571361.336 5    491984.082 5    412746.18046  23571358.28546
 20  5 16  1 44 11.0000000  0  8G04G08G09G11G16G26G27G31            -0.000164900
  21400486.602 5   -163088.047 5   -122280.47746  21400485.49646
  20581387.516 7   -975963.449 7   -743819.05949  20581387.31649
  22912414.695 4   -886617.984 4   -672406.37948  22912413.27048
  23214202.344 6  -1727822.059 6  -1244836.80947  23214199.21147
  21498229.781 6    103877.949 6     79378.94147  21498226.12547
  22928467.453 4    295344.168 4    223127.23446  22928470.35546
  20092240.586 7   -134836.270 7   -103339.51649  20092239.35549
  23571649.063 5    493495.156 5    413923.64847  23571645.95347
 20  5 16  1 44 12.0000000  0  8G04G08G09G11G16G26G27G31            -0.000165527
  21400425.000 5   -163411.730 5   -122532.69146  21400424.00046
  20580933.852 7   -978346.914 7   -745676.30549  20580933.82049
  22911992.547 4   -888833.675 4   -674132.89248  22911991.83248
  23213369.461 6  -1732198.359 6  -1248246.90647  23213366.44947
  21498277.734 6    104130.273 6     79575.55947  21498273.62947
  22928607.336 4    296077.157 4    223698.38946  22928609.96546
  20092195.148 7   -135077.723 7   -103527.66449  20092193.54749
  23571936.570 5    495006.430 5    415101.26646  23571933.39546
 20  5 16  1 44 13.0000000  0  8G04G08G09G11G16G26G27G31            -0.000166157
  21400364.383 5   -163734.918 5   -122784.53146  21400362.50046
  20580480.313 7   -980729.949 7   -747533.21549  20580480.28549
  22911570.820 4   -891048.883 4   -675859.02348  22911570.50048
  23212536.578 6  -1736574.645 6  -1251657.00047  23212533.57847
  21498325.484 6    104382.527 6     79772.12147  21498322.02747
  22928746.227 4    296810.090 4    224269.50446  22928749.27746
  20092148.766 7   -135318.668 7   -103715.41449  20092147.35949
  23572223.844 5    496517.840 5    416278.98447  23572221.71947
 20  5 16  1 44 14.0000000  0  8G04G08G09G11G16G26G27G31            -0.000166786
  21400302.422 5   -164057.633 5   -123036.00046  21400301.01646
  20580026.891 7   -983112.602 7   -749389.82449  20580026.93849
  22911149.609 4   -893263.707 4   -677584.86748  22911148.43848
  23211703.875 6  -1740951.016 6  -1255067.15647  23211700.48047
  21498374.133 6    104634.668 6     79968.59047  21498369.91847
  22928885.945 4    297542.816 4    224840.45346  22928888.92246
  20092103.250 7   -135559.254 7   -103902.88749  20092101.77349
  23572512.180 5    498029.352 5    417456.79346  23572508.74246
 20  5 16  1 44 15.0000000  0  8G04G08G09G11G16G26G27G31            -0.000167414
  21400241.422 5   -164379.840 5   -123287.06646  21400239.88346
  20579573.516 7   -985494.746 7   -751246.04349  20579573.53149
  22910727.938 4   -895477.977 4   -679310.27348  22910727.41848
  23210871.055 6  -1745327.281 6  -1258477.23847  23210867.67247
  21498421.875 6    104886.840 6     80165.09047  21498417.98447
  22929025.023 4    298275.578 4    225411.44546  22929028.05146
  20092057.563 7   -135799.238 7   -104089.88749  20092056.00849
  23572799.664 5    499541.121 5    418634.79346  23572796.71146
 20  5 16  1 44 16.0000000  0  8G04G08G09G11G16G26G27G31            -0.000168043
  21400180.078 5   -164701.453 5   -123537.68446  21400178.52746
  20579120.484 7   -987876.324 7   -753101.82049  20579120.54349
  22910306.992 4   -897691.789 4   -681035.32448  22910306.31648
  23210038.789 6  -1749703.477 6  -1261887.25447  23210035.22347
  21498469.617 6    105139.066 6     80361.63347  21498465.67247
  22929164.680 4    299008.250 4    225982.35547  22929167.93047
  20092012.227 7   -136038.695 7   -104276.47349  20092010.65649
  23573087.352 5    501053.129 5    419812.97746  23573084.25846
 20  5 16  1 44 17.0000000  0  8G04G08G09G11G16G26G27G31            -0.000168673
  21400119.219 5   -165022.715 5   -123788.01646  21400117.14546
  20578667.336 7   -990257.563 7   -754957.32849  20578667.44549
  22909886.031 4   -899905.168 4   -682760.04348  22909884.85948
  23209205.734 6  -1754079.766 6  -1265297.35947  23209202.21147
  21498518.164 6    105391.098 6     80558.01647  21498513.64547
  22929304.125 4    299740.730 4    226553.11346  22929306.96946
  20091966.828 6   -136277.730 6   -104462.73049  20091965.46149
  23573374.930 5    502565.172 5    420991.18447  23573372.10547
 20  5 16  1 44 18.0000000  0  8G04G08G09G11G16G26G27G31            -0.000169300
  21400058.133 5   -165343.328 5   -124037.85246  21400056.17646
  20578214.250 7   -992638.195 7   -756812.36749  20578214.48049
  22909465.289 4   -902117.934 4   -684484.27048  22909463.81648
  23208372.711 6  -1758455.887 6  -1268707.31647  23208369.12547
  21498565.945 6    105643.289 6     80754.52347  21498561.69547
  22929443.531 4    300473.281 4    227123.92647  22929446.30547
  20091920.953 7   -136516.156 7   -104648.52049  20091919.64549
  23573662.984 5    504077.551 5    422169.66446  23573659.64546
 20  5 16  1 44 19.0000000  0  8G04G08G09G11G16G26G27G31            -0.000169930
  21399997.727 5   -165663.500 5   -124287.33646  21399995.18446
  20577761.398 7   -995018.465 7   -758667.12549  20577761.38749
  22909043.984 4   -904330.297 4   -686208.18848  22909042.62948
  23207540.445 6  -1762832.090 6  -1272117.33647  23207536.61747
  21498613.906 6    105895.348 6     80950.93447  21498610.07047
  22929583.008 4    301205.613 4    227694.57446  22929585.57446
  20091875.656 6   -136754.156 6   -104833.97349  20091874.19149
  23573950.641 5    505589.996 5    423348.18446  23573947.76246
 20  5 16  1 44 20.0000000  0  8G04G08G09G11G16G26G27G31            -0.000170559
  21399936.594 5   -165983.297 5   -124536.54746  21399934.41846
  20577308.414 7   -997398.348 7   -760521.57449  20577308.83649
  22908623.086 4   -906542.289 4   -687931.81648  22908622.16048
  23206707.383 6  -1767208.336 6  -1275527.39847  23206704.07847
  21498662.000 6    106147.281 6     81147.24247  21498657.68447
  22929722.328 4    301937.809 4    228265.11346  22929724.70346
  20091830.672 6   -136991.738 6   -105019.10549  20091829.10549
  23574238.352 5    507102.559 5    424526.79746  23574235.14146
 20  5 16  1 44 21.0000000  0  8G04G08G09G11G16G26G27G31            -0.000171188
  21399875.594 5   -166302.648 5   -124785.38346  21399873.82446
  20576855.617 7   -999777.840 7   -762375.72749  20576855.78949
  22908202.305 4   -908753.898 4   -689655.14848  22908201.13748
  23205874.148 6  -1771584.691 6  -1278937.54347  23205871.05947
  21498709.719 6    106399.051 6     81343.42247  21498705.83647
  22929860.914 4    302669.777 4    228835.47346  22929863.97346
  20091785.523 6   -137228.969 6   -105203.95749  20091784.25449
  23574526.453 5    508615.199 5    425705.48446  23574523.14146
 20  5 16  1 44 22.0000000  0  8G04G08G09G11G16G26G27G31            -0.000171818
  21399814.750 5   -166621.469 5   -125033.80146  21399812.98046
  20576403.102 7  -1002156.828 7   -764229.47749  20576402.93049
  22907781.328 4   -910965.012 4   -691378.09848  22907780.60248
  23205041.648 6  -1775960.957 6  -1282347.61347  23205038.45747
  21498758.234 6    106650.871 6     81539.64547  21498753.95747
  22930000.820 5    303401.730 5    229405.83246  22930003.27346
  20091740.531 6   -137465.621 6   -105388.35949  20091738.96949
  23574814.289 5    510128.023 5    426884.31646  23574810.75446
 20  5 16  1 44 23.0000000  0  8G04G08G09G11G16G26G27G31            -0.000172447
  21399754.773 5   -166939.750 5   -125281.81346  21399752.47746
  20575950.344 7  -1004535.313 7   -766082.84849  20575950.31649
  22907360.438 4   -913175.543 4   -693100.58648  22907359.36348
  23204208.859 6  -1780337.141 6  -1285757.63347  23204205.52347
  21498805.625 6    106902.707 6     81735.88347  21498801.78547
  22930140.242 4    304133.621 4    229976.14146  22930142.45746
  20091695.477 6   -137701.758 6   -105572.35949  20091693.84849
  23575102.125 5    511641.074 5    428063.32447  23575099.16847
 20  5 16  1 44 24.0000000  0  8G04G08G09G11G16G26G27G31            -0.000173077
  21399694.016 5   -167257.504 5   -125529.40646  21399692.21546
  20575497.867 7  -1006913.348 7   -767935.85549  20575498.09049
  22906939.609 4   -915385.652 4   -694822.74648  22906939.23448
  23203376.727 6  -1784713.340 6  -1289167.65647  23203372.77047
  21498853.750 6    107154.480 6     81932.07847  21498849.77047
  22930278.445 4    304865.418 4    230546.36346  22930281.42646
  20091650.609 6   -137937.371 6   -105755.95749  20091649.34449
  23575389.727 5    513154.273 5    429242.43846  23575386.87546
 20  5 16  1 44 25.0000000  0  8G04G08G09G11G16G26G27G31            -0.000173706
  21399633.109 5   -167574.688 5   -125776.56646  21399631.66446
  20575045.445 7  -1009290.836 7   -769788.44149  20575045.49649
  22906519.266 4   -917595.126 4   -696544.41348  22906518.22348
  23202543.078 6  -1789089.391 6  -1292577.56647  23202540.22347
  21498901.719 6    107406.332 6     82128.33247  21498897.40647
  22930418.891 4    305597.211 4    231116.59446  22930420.80946
  20091605.969 6   -138172.406 6   -105939.10249  20091604.43849
  23575677.813 5    514667.797 5    430421.80546  23575675.18446
 20  5 16  1 44 26.0000000  0  8G04G08G09G11G16G26G27G31            -0.000174335
  21399572.914 5   -167891.449 5   -126023.38746  21399571.43046
  20574592.938 7  -1011667.930 7   -771640.72749  20574592.96149
  22906099.602 4   -919804.270 4   -698265.82848  22906098.16448
  23201710.555 6  -1793465.512 6  -1295987.53547  23201707.69147
  21498949.555 6    107658.094 6     82324.50847  21498945.51647
  22930557.531 4    306328.879 4    231686.71546  22930560.02346
  20091561.047 6   -138407.027 6   -106121.92249  20091559.87949
  23575966.391 5    516181.383 5    431601.21147  23575962.91447
 20  5 16  1 44 27.0000000  0  8G04G08G09G11G16G26G27G31            -0.000174965
  21399512.758 5   -168207.691 5   -126269.81646  21399511.12546
  20574141.188 7  -1014044.570 7   -773492.65649  20574141.09449
  22905678.195 4   -922012.875 4   -699986.81648  22905677.95348
  23200877.984 6  -1797841.594 6  -1299397.45747  23200874.66047
  21498997.266 6    107909.801 6     82520.63347  21498993.43447
  22930696.672 4    307060.406 4    232256.73846  22930698.95746
  20091516.797 6   -138641.137 6   -106304.34449  20091515.00449
  23576255.063 5    517695.172 5    432780.78146  23576251.27046
 20  5 16  1 44 28.0000000  0  8G04G08G09G11G16G26G27G31            -0.000175594
  21399452.891 5   -168523.375 5   -126515.80546  21399450.71946
  20573688.438 7  -1016420.660 7   -775344.16049  20573688.81649
  22905259.023 4   -924220.938 4   -701707.39548  22905258.10948
  23200045.367 6  -1802217.629 6  -1302807.35547  23200041.95347
  21499044.938 6    108161.531 6     82716.78547  21499041.62147
  22930836.516 4    307791.930 4    232826.75046  22930837.85246
  20091472.141 6   -138874.684 6   -106486.33249  20091470.79349
  23576542.539 5    519209.172 5    433960.51646  23576539.51246
 20  5 16  1 44 29.0000000  0  8G04G08G09G11G16G26G27G31            -0.000176224
  21399393.008 5   -168838.719 5   -126761.52746  21399391.10946
  20573236.164 7  -1018796.414 7   -777195.39149  20573235.94949
  22904838.617 4   -926428.645 4   -703427.68848  22904837.28548
  23199212.250 6  -1806593.766 6  -1306217.34047  23199208.92647
  21499093.375 6    108413.152 6     82912.85247  21499089.19547
  22930975.461 4    308523.207 4    233396.57046  22930977.50046
  20091427.945 6   -139107.898 6   -106668.05549  20091426.32849
  23576830.633 5    520723.242 5    435140.32046  23576827.52346
 20  5 16  1 44 30.0000000  0  8G04G08G09G11G16G26G27G31            -0.000176853
  21399332.820 5   -169153.527 5   -127006.84846  21399331.28146
  20572784.391 6  -1021171.695 6   -779046.26649  20572784.60549
  22904418.672 4   -928635.906 4   -705147.62948  22904417.69948
  23198379.500 6  -1810969.863 6  -1309627.27747  23198376.64847
  21499141.188 6    108664.699 6     83108.86747  21499137.00047
  22931115.008 4    309254.414 4    233966.34446  22931116.39846
  20091383.336 6   -139340.586 6   -106849.37149  20091382.08649
  23577118.656 5    522237.457 5    436320.21947  23577115.60547
 20  5 16  1 44 31.0000000  0  8G04G08G09G11G16G26G27G31            -0.000177483
  21399272.898 5   -169467.777 5   -127251.71546  21399270.69546
  20572332.852 7  -1023546.469 7   -780896.73049  20572332.56649
  22903998.695 4   -930842.651 4   -706867.17848  22903997.34048
  23197546.656 6  -1815345.887 6  -1313037.16447  23197543.50847
  21499188.563 6    108916.281 6     83304.90647  21499184.94947
  22931253.867 4    309985.547 4    234536.06146  22931255.35946
  20091339.172 6   -139572.734 6   -107030.26649  20091337.84449
  23577407.234 5    523751.879 5    437500.28947  23577403.62147
 20  5 16  1 44 32.0000000  0  8G04G08G09G11G16G26G27G31            -0.000178112
  21399213.641 5   -169781.574 5   -127496.23046  21399211.60546
  20571881.039 7  -1025920.789 7   -782746.85249  20571880.72749
  22903579.336 4   -933048.875 4   -708586.31648  22903578.30148
  23196714.133 6  -1819721.918 6  -1316447.06346  23196710.52346
  21499236.781 6    109167.816 6     83500.90647  21499232.80147
  22931392.438 4    310716.617 4    235105.73046  22931394.44146
  20091294.992 6   -139804.402 6   -107210.78549  20091293.48449
  23577695.172 5    525266.488 5    438680.50047  23577692.04347
 20  5 16  1 44 33.0000000  0  8G04G08G09G11G16G26G27G31            -0.000178741
  21399153.578 5   -170094.625 5   -127740.15646  21399151.62146
  20571429.492 7  -1028294.434 7   -784596.44549  20571429.09849
  22903159.063 4   -935254.486 4   -710304.96348  22903158.30548
  23195881.688 6  -1824097.676 6  -1319856.74247  23195878.03947
  21499285.211 6    109419.555 6     83697.06347  21499280.65647
  22931532.328 4    311447.828 4    235675.49247  22931533.53147
  20091251.359 6   -140035.348 6   -107390.73849  20091249.69549
  23577983.250 5    526781.535 5    439861.05947  23577980.63347
 20  5 16  1 44 34.0000000  0  8G04G08G09G11G16G26G27G31            -0.000179373
  21399094.625 5   -170407.289 5   -127983.80146  21399092.54746
  20570977.492 7  -1030667.691 7   -786445.73449  20570977.44149
  22902739.852 4   -937459.641 4   -712023.25848  22902739.14148
  23195049.109 6  -1828473.586 6  -1323266.53947  23195045.60547
  21499333.039 6    109671.121 6     83893.10247  21499328.59047
  22931670.922 4    312178.813 4    236245.08246  22931672.64546
  20091207.273 6   -140265.930 6   -107570.41049  20091205.48449
  23578271.789 5    528296.559 5    441041.60246  23578268.77346
 20  5 16  1 44 35.0000000  0  8G04G08G09G11G16G26G27G31            -0.000180002
  21399035.180 5   -170719.387 5   -128226.98846  21399032.97746
  20570526.102 7  -1033040.449 7   -788294.64149  20570526.11349
  22902319.633 4   -939664.270 4   -713741.14848  22902319.26648
  23194215.906 6  -1832849.363 6  -1326676.23447  23194212.50447
  21499380.445 6    109922.719 6     84089.14847  21499376.44147
  22931810.164 4    312909.766 4    236814.65647  22931811.96547
  20091163.930 6   -140495.922 6   -107749.63749  20091161.92249
  23578560.195 5    529811.879 5    442222.37146  23578556.96946
 20  5 16  1 44 36.0000000  0  8G04G08G09G11G16G26G27G31            -0.000180632
  21398975.844 5   -171031.039 5   -128469.83646  21398973.68046
  20570074.672 7  -1035412.797 7   -790143.22749  20570074.25849
  22901900.602 4   -941868.492 4   -715458.72748  22901899.91848
  23193383.438 6  -1837225.176 6  -1330085.95347  23193380.15247
  21499428.016 6    110174.250 6     84285.14847  21499424.62947
  22931949.445 4    313640.543 4    237384.09447  22931951.18447
  20091120.039 6   -140725.516 6   -107928.53149  20091118.04349
  23578848.602 5    531327.293 5    443403.20746  23578845.55946
 20  5 16  1 44 37.0000000  0  8G04G08G09G11G16G26G27G31            -0.000181263
  21398916.297 5   -171342.277 5   -128712.36346  21398914.44546
  20569623.117 7  -1037784.723 7   -791991.48049  20569623.01249
  22901480.820 4   -944072.324 4   -717175.99648  22901480.41848
  23192550.820 6  -1841601.047 6  -1333495.71947  23192547.12947
  21499476.094 6    110425.652 6     84481.03947  21499471.86747
  22932088.391 4    314371.219 4    237953.44146  22932090.01646
  20091076.273 6   -140954.648 6   -108107.07849  20091074.93849
  23579136.867 5    532842.820 5    444584.12946  23579133.80946
 20  5 16  1 44 38.0000000  0  8G04G08G09G11G16G26G27G31            -0.000181892
  21398857.156 5   -171653.070 5   -128954.54746  21398855.07046
  20569171.523 7  -1040156.289 7   -793839.44949  20569171.94549
  22901061.719 4   -946275.723 4   -718892.93848  22901060.85248
  23191717.891 6  -1845976.965 6  -1336905.52047  23191714.63747
  21499523.930 6    110676.957 6     84676.85947  21499520.02347
  22932227.563 4    315101.645 4    238522.61346  22932229.13746
  20091032.813 6   -141183.398 6   -108285.32849  20091031.00449
  23579425.656 5    534358.430 5    445765.12146  23579422.43046
 20  5 16  1 44 39.0000000  0  8G04G08G09G11G16G26G27G31            -0.000182522
  21398798.117 5   -171963.422 5   -129196.37946  21398796.10246
  20568720.789 7  -1042527.414 7   -795687.08249  20568720.76249
  22900642.031 4   -948478.645 4   -720609.50848  22900642.18048
  23190885.438 6  -1850352.875 6  -1340315.32847  23190881.61347
  21499571.867 6    110928.207 6     84872.63747  21499568.20347
  22932365.820 4    315831.988 4    239091.72346  22932367.84846
  20090989.461 6   -141411.668 6   -108463.19549  20090987.93049
  23579713.820 5    535874.191 5    446946.23447  23579710.42647
 20  5 16  1 44 40.0000000  0  8G04G08G09G11G16G26G27G31            -0.000183153
  21398739.430 5   -172273.148 5   -129437.73046  21398737.14146
  20568269.461 7  -1044897.969 7   -797534.26249  20568269.45349
  22900223.375 4   -950681.066 4   -722325.67248  22900222.62548
  23190052.672 6  -1854728.691 6  -1343725.04347  23190049.44947
  21499619.703 6    111179.547 6     85068.48847  21499615.69947
  22932505.523 4    316562.391 4    239660.87546  22932507.21146
  20090945.891 6   -141639.324 6   -108640.58649  20090944.54349
  23580002.414 5    537390.227 5    448127.55546  23579999.63746
 20  5 16  1 44 41.0000000  0  8G04G08G09G11G16G26G27G31            -0.000183783
  21398680.344 5   -172582.492 5   -129678.76646  21398678.19146
  20567818.516 7  -1047268.164 7   -799381.16449  20567818.44549
  22899804.500 4   -952883.051 4   -724041.50848  22899803.83248
  23189219.938 6  -1859104.566 6  -1347134.82047  23189216.79747
  21499667.227 6    111430.758 6     85264.23847  21499663.91047
  22932644.133 4    317292.523 4    240229.80546  22932646.08646
  20090902.844 6   -141866.609 6   -108817.69549  20090901.28949
  23580290.758 5    538906.352 5    449308.94946  23580287.77046
 20  5 16  1 44 42.0000000  0  8G04G08G09G11G16G26G27G31            -0.000184414
  21398621.383 5   -172891.379 5   -129919.45746  21398618.89146
  20567367.820 7  -1049637.941 7   -801227.74649  20567367.75449
  22899385.945 4   -955084.648 4   -725757.03948  22899384.88748
  23188387.383 6  -1863480.469 6  -1350544.61347  23188383.84447
  21499714.703 6    111681.863 6     85459.91047  21499711.32047
  22932782.984 4    318022.566 4    240798.67646  22932785.17646
  20090859.695 6   -142093.430 6   -108994.43849  20090857.77049
  23580579.672 5    540422.594 5    450490.43047  23580576.54747
 20  5 16  1 44 43.0000000  0  8G04G08G09G11G16G26G27G31            -0.000185043
  21398562.555 5   -173199.695 5   -130159.70746  21398560.43446
  20566916.586 7  -1052007.191 7   -803073.91449  20566916.41449
  22898966.805 4   -957285.674 4   -727472.12648  22898965.80548
  23187554.766 6  -1867856.301 6  -1353954.35547  23187550.98047
  21499762.750 6    111933.012 6     85655.60547  21499759.58647
  22932921.680 4    318752.547 4    241367.49246  22932924.08646
  20090816.547 6   -142319.711 6   -109170.76649  20090814.81649
  23580867.977 5    541939.070 5    451672.09846  23580865.27046
 20  5 16  1 44 44.0000000  0  8G04G08G09G11G16G26G27G31            -0.000185675
  21398504.219 5   -173507.473 5   -130399.53946  21398502.08646
  20566465.773 7  -1054375.918 7   -804919.67649  20566465.86749
  22898547.648 4   -959486.172 4   -729186.80148  22898547.54748
  23186721.906 6  -1872232.039 6  -1357364.02347  23186717.98447
  21499810.469 6    112184.184 6     85851.32447  21499807.23847
  22933061.305 4    319482.504 4    241936.28546  22933062.76646
  20090773.648 6   -142545.438 6   -109346.65249  20090771.84049
  23581156.367 5    543455.758 5    452853.92646  23581153.84846
 20  5 16  1 44 45.0000000  0  8G04G08G09G11G16G26G27G31            -0.000186306
  21398445.711 5   -173814.625 5   -130638.89146  21398443.41846
  20566015.719 7  -1056744.070 7   -806764.99249  20566015.10549
  22898129.938 4   -961686.074 4   -730901.01248  22898128.58248
  23185889.297 6  -1876607.688 6  -1360773.62147  23185885.28947
  21499858.250 6    112435.438 6     86047.10247  21499854.89147
  22933200.164 4    320212.484 4    242505.09046  22933201.60246
  20090730.438 6   -142770.563 6   -109522.07449  20090729.17249
  23581445.805 5    544972.734 5    454035.98846  23581442.27346
 20  5 16  1 44 46.0000000  0  8G04G08G09G11G16G26G27G31            -0.000186935
  21398387.109 5   -174121.246 5   -130877.81646  21398385.25846
  20565564.617 7  -1059111.727 7   -808609.91449  20565564.76249
  22897711.281 5   -963885.473 5   -732614.83248  22897710.07048
  23185056.258 6  -1880983.242 6  -1364183.13347  23185052.85247
  21499906.031 6    112686.676 6     86242.87147  21499902.62547
  22933338.648 4    320942.410 4    243073.87146  22933340.58246
  20090687.992 7   -142995.145 7   -109697.07049  20090686.34849
  23581734.141 5    546489.922 5    455218.20746  23581730.93046
 20  5 16  1 44 47.0000000  0  8G04G08G09G11G16G26G27G31            -0.000187567
  21398329.203 5   -174427.313 5   -131116.30946  21398327.33246
  20565114.563 7  -1061478.867 7   -810454.44149  20565114.26249
  22897292.625 5   -966084.332 5   -734328.23048  22897291.64548
  23184223.758 6  -1885358.723 6  -1367592.60247  23184220.25047
  21499953.836 6    112937.941 6     86438.66447  21499950.72347
  22933477.781 4    321672.293 4    243642.60547  22933479.70347
  20090645.508 7   -143219.195 7   -109871.65249  20090643.70749
  23582022.773 5    548007.352 5    456400.62546  23582019.74646
 20  5 16  1 44 48.0000000  0  8G04G08G09G11G16G26G27G31            -0.000188196
  21398271.289 5   -174732.906 5   -131354.44146  21398269.31646
  20564664.078 7  -1063845.559 7   -812298.61749  20564663.46549
  22896874.922 4   -968282.742 4   -736041.27748  22896873.55948
  23183391.398 6  -1889734.172 6  -1371002.03547  23183387.87547
  21500001.820 6    113189.141 6     86634.41047  21499997.97347
  22933616.859 4    322402.070 4    244211.26647  22933618.75447
  20090602.680 6   -143442.758 6   -110045.85549  20090601.26249
  23582310.859 5    549524.914 5    457583.14146  23582308.71146
 20  5 16  1 44 49.0000000  0  8G04G08G09G11G16G26G27G31            -0.000188828
  21398213.266 5   -175038.070 5   -131592.21946  21398211.03946
  20564213.898 7  -1066211.859 7   -814142.48849  20564213.57049
  22896456.414 4   -970480.766 4   -737754.02048  22896455.15648
  23182559.047 6  -1894109.746 6  -1374411.56347  23182554.68047
  21500049.492 6    113440.238 6     86830.07047  21500045.96947
  22933755.891 4    323131.648 4    244779.77047  22933757.61747
  20090560.109 6   -143665.918 6   -110219.74249  20090558.93849
  23582600.570 5    551042.602 5    458765.77046  23582597.74246
 20  5 16  1 44 50.0000000  0  8G04G08G09G11G16G26G27G31            -0.000189459
  21398155.578 5   -175342.766 5   -131829.63746  21398153.32846
  20563763.727 7  -1068577.711 7   -815986.00849  20563763.18449
  22896038.328 4   -972678.262 4   -739466.34848  22896037.55948
  23181726.156 6  -1898485.270 6  -1377821.06346  23181722.37146
  21500097.844 6    113691.277 6     87025.68447  21500093.89847
  22933894.883 4    323861.145 4    245348.20347  22933896.58647
  20090517.969 7   -143888.602 7   -110393.27049  20090516.02049
  23582888.898 5    552560.406 5    459948.47347  23582885.97747
 20  5 16  1 44 51.0000000  0  8G04G08G09G11G16G26G27G31            -0.000190090
  21398097.734 5   -175646.953 5   -132066.67246  21398095.52746
  20563313.477 7  -1070943.105 7   -817829.17249  20563313.18849
  22895619.664 4   -974875.367 4   -741178.37548  22895618.88348
  23180893.508 6  -1902860.789 6  -1381230.55146  23180889.82846
  21500145.031 6    113942.293 6     87221.28147  21500141.59847
  22934033.602 4    324590.531 4    245916.55546  22934035.38746
  20090475.844 7   -144110.793 7   -110566.40649  20090474.16849
  23583178.602 5    554078.391 5    461131.30947  23583175.32447
 20  5 16  1 44 52.0000000  0  8G04G08G09G11G16G26G27G31            -0.000190720
  21398039.789 5   -175950.652 5   -132303.31646  21398037.58246
  20562863.438 7  -1073308.043 7   -819671.98049  20562863.37149
  22895201.789 4   -977071.945 4   -742889.98848  22895201.43848
  23180060.453 6  -1907236.250 6  -1384640.00047  23180057.10947
  21500193.219 6    114193.258 6     87416.84447  21500189.25847
  22934172.406 4    325319.848 4    246484.85247  22934173.80947
  20090433.617 7   -144332.480 7   -110739.14849  20090432.35949
  23583466.625 5    555596.547 5    462314.27347  23583463.66847
 20  5 16  1 44 53.0000000  0  8G04G08G09G11G16G26G27G31            -0.000191351
  21397982.219 5   -176253.984 5   -132539.68446  21397980.10946
  20562413.227 7  -1075672.664 7   -821514.53949  20562413.33249
  22894783.930 4   -979268.199 4   -744601.35548  22894783.24248
  23179228.141 6  -1911611.875 6  -1388049.58247  23179224.52747
  21500240.773 6    114444.059 6     87612.27747  21500237.25047
  22934311.344 5    326048.879 5    247052.92646  22934312.73446
  20090391.227 7   -144553.852 7   -110911.64549  20090389.76249
  23583755.617 5    557114.723 5    463497.26246  23583753.05546
 20  5 16  1 44 54.0000000  0  8G04G08G09G11G16G26G27G31            -0.000191982
  21397924.695 5   -176556.863 5   -132775.69146  21397922.25846
  20561963.320 7  -1078036.855 7   -823356.77049  20561963.61749
  22894366.063 4   -981464.008 4   -746312.37548  22894365.35948
  23178395.180 6  -1915987.484 6  -1391459.14847  23178391.89147
  21500288.430 6    114694.789 6     87807.66047  21500284.67647
  22934450.102 5    326777.824 5    247620.93446  22934451.37546
  20090349.156 7   -144774.730 7   -111083.75449  20090347.73049
  23584044.445 5    558633.059 5    464680.38346  23584041.94146
 20  5 16  1 44 55.0000000  0  8G04G08G09G11G16G26G27G31            -0.000192614
  21397866.984 5   -176859.375 5   -133011.41446  21397864.93846
  20561513.852 7  -1080400.695 7   -825198.71949  20561513.50049
  22893948.102 5   -983659.469 5   -748023.12148  22893947.60548
  23177562.219 6  -1920363.223 6  -1394868.81647  23177559.25447
  21500336.281 6    114945.344 6     88002.89547  21500332.68447
  22934589.117 5    327506.559 5    248188.77347  22934590.41847
  20090307.250 6   -144995.254 6   -111255.58649  20090306.19949
  23584333.438 5    560151.422 5    465863.51247  23584330.80947
 20  5 16  1 44 56.0000000  0  8G04G08G09G11G16G26G27G31            -0.000193245
  21397809.320 5   -177161.410 5   -133246.77346  21397806.86746
  20561063.922 7  -1082764.133 7   -827040.36349  20561063.93049
  22893529.938 4   -985854.469 4   -749733.51248  22893529.99648
  23176729.852 6  -1924738.941 6  -1398278.45747  23176726.71947
  21500383.586 6    115195.848 6     88198.09047  21500380.39847
  22934727.922 5    328235.145 5    248756.50846  22934728.73446
  20090265.727 6   -145215.309 6   -111427.06349  20090263.85549
  23584622.094 5    561669.938 5    467046.76646  23584619.82446
 20  5 16  1 44 57.0000000  0  8G04G08G09G11G16G26G27G31            -0.000193876
  21397751.750 5   -177462.973 5   -133481.75846  21397749.77746
  20560613.938 7  -1085127.121 7   -828881.65649  20560614.12149
  22893112.539 4   -988049.000 4   -751443.53948  22893112.07848
  23175897.289 6  -1929114.703 6  -1401688.13747  23175893.55947
  21500431.047 6    115446.277 6     88393.23047  21500428.21147
  22934866.063 5    328963.602 5    249324.13347  22934867.20747
  20090223.602 6   -145434.926 6   -111598.19149  20090221.89849
  23584911.211 5    563188.574 5    468230.11347  23584908.89147
 20  5 16  1 44 58.0000000  0  8G04G08G09G11G16G26G27G31            -0.000194508
  21397694.508 5   -177763.922 5   -133716.26646  21397692.74646
  20560165.031 7  -1087489.555 7   -830722.50849  20560164.92249
  22892695.188 4   -990243.008 4   -753153.16448  22892694.44148
  23175065.117 6  -1933490.320 6  -1405097.71947  23175061.08247
  21500478.914 6    115696.820 6     88588.46147  21500475.95747
  22935004.609 5    329692.082 5    249891.78147  22935006.18447
  20090181.977 6   -145653.918 6   -111768.84049  20090180.66849
  23585200.414 5    564707.516 5    469413.70346  23585197.73446
 20  5 16  1 44 59.0000000  0  8G04G08G09G11G16G26G27G31            -0.000195141
  21397637.359 5   -178064.555 5   -133950.52346  21397635.13746
  20559714.984 7  -1089851.688 7   -832563.13349  20559715.11749
  22892277.500 4   -992436.641 4   -754862.48448  22892277.07848
  23174232.156 6  -1937866.090 6  -1408507.41047  23174228.54747
  21500526.836 6    115947.090 6     88783.46947  21500523.13747
  22935142.883 5    330420.320 5    250459.23447  22935144.49247
  20090140.742 6   -145872.609 6   -111939.24249  20090139.11749
  23585489.477 5    566226.438 5    470597.27346  23585486.92246
 20  5 16  1 45  0.0000000  0  8G04G08G09G11G16G26G27G31            -0.000195772
  21397580.047 5   -178364.801 5   -134184.47346  21397578.29346
  20559266.086 7  -1092213.426 7   -834403.44149  20559265.40649
  22891861.172 4   -994629.949 4   -756571.56348  22891860.14548
  23173398.969 6  -1942241.914 6  -1411917.14847  23173395.69147
  21500574.234 6    116197.250 6     88978.40247  21500570.85547
  22935281.523 5    331148.336 5    251026.52047  22935283.33247
  20090099.219 6   -146090.883 6   -112109.32449  20090097.18449
  23585778.188 5    567745.445 5    471780.92647  23585776.08647
 20  5 16  1 45  1.0000000  0  8G04G08G09G11G16G26G27G31            -0.000196404
  21397523.438 5   -178664.582 5   -134418.08246  21397521.12546
  20558816.516 7  -1094574.734 7   -836243.42249  20558816.10249
  22891443.797 4   -996822.801 4   -758280.28148  22891442.71948
  23172566.320 6  -1946617.781 6  -1415326.90247  23172563.43447
  21500621.891 6    116447.352 6     89173.29347  21500618.39847
  22935419.742 5    331876.281 5    251593.73847  22935421.98447
  20090057.414 6   -146308.715 6   -112279.07049  20090056.03549
  23586067.617 5    569264.578 5    472964.66447  23586065.44547
 20  5 16  1 45  2.0000000  0  8G04G08G09G11G16G26G27G31            -0.000197035
  21397466.383 5   -178963.906 5   -134651.32446  21397464.20746
  20558367.219 7  -1096935.629 7   -838083.08649  20558367.07849
  22891026.203 5   -999015.195 5   -759988.63748  22891025.55948
  23171733.844 6  -1950993.645 6  -1418736.66047  23171730.70347
  21500669.297 6    116697.375 6     89368.10947  21500666.04747
  22935558.898 5    332604.020 5    252160.80547  22935560.56347
  20090016.070 7   -146526.082 7   -112448.44149  20090014.34449
  23586356.742 5    570783.840 5    474148.50446  23586354.24646
 20  5 16  1 45  3.0000000  0  8G04G08G09G11G16G26G27G31            -0.000197668
  21397409.461 5   -179262.813 5   -134884.23046  21397407.33246
  20557917.977 7  -1099296.168 7   -839922.46949  20557918.02349
  22890608.672 4  -1001207.266 4   -761696.74648  22890608.22748
  23170900.773 6  -1955369.656 6  -1422146.54347  23170897.80547
  21500717.055 6    116947.262 6     89562.82047  21500713.39547
  22935697.461 5    333331.570 5    252727.73047  22935698.78547
  20089975.469 6   -146743.086 6   -112617.53949  20089973.55949
  23586646.109 5    572303.207 5    475332.42646  23586643.23046
 20  5 16  1 45  4.0000000  0  8G04G08G09G11G16G26G27G31            -0.000198299
  21397352.172 5   -179561.238 5   -135116.78146  21397350.48446
  20557468.648 7  -1101656.246 7   -841761.49249  20557468.86349
  22890191.820 5  -1003398.832 5   -763404.45348  22890191.02748
  23170068.547 6  -1959745.582 6  -1425556.34447  23170065.13347
  21500764.797 6    117197.082 6     89757.49647  21500761.15647
  22935835.852 5    334059.039 5    253294.59847  22935837.71147
  20089933.594 6   -146959.602 6   -112786.25049  20089932.02049
  23586935.039 5    573822.652 5    476516.40247  23586932.50447
 20  5 16  1 45  5.0000000  0  8G04G08G09G11G16G26G27G31            -0.000198933
  21397295.813 5   -179859.109 5   -135348.88346  21397293.90646
  20557020.195 7  -1104015.797 7   -843600.10249  20557019.82049
  22889775.938 5  -1005589.852 5   -765111.74248  22889774.49248
  23169235.281 6  -1964121.422 6  -1428966.10247  23169232.41447
  21500812.477 6    117446.938 6     89952.18447  21500808.55947
  22935973.594 5    334786.488 5    253861.44147  22935976.11347
  20089892.680 6   -147175.559 6   -112954.53149  20089890.88349
  23587224.547 5    575342.418 5    477700.63747  23587221.65247
 20  5 16  1 45  6.0000000  0  8G04G08G09G11G16G26G27G31            -0.000199564
  21397239.125 5   -180156.609 5   -135580.69146  21397237.33246
  20556570.844 7  -1106375.008 7   -845438.44549  20556571.02749
  22889357.930 5  -1007780.520 5   -766818.75448  22889357.73048
  23168403.039 6  -1968497.355 6  -1432375.92646  23168399.54346
  21500859.805 6    117696.656 6     90146.77747  21500855.78547
  22936112.758 5    335513.691 5    254428.09847  22936114.26247
  20089851.297 6   -147391.148 6   -113122.52049  20089850.03149
  23587513.578 5    576862.191 5    478884.87547  23587510.77047
 20  5 16  1 45  7.0000000  0  8G04G08G09G11G16G26G27G31            -0.000200197
  21397182.313 5   -180453.723 5   -135812.20346  21397180.76246
  20556122.055 7  -1108733.863 7   -847276.51249  20556121.63349
  22888941.977 5  -1009970.805 5   -768525.46948  22888941.05148
  23167570.367 5  -1972873.410 5  -1435785.84446  23167567.12146
  21500906.977 6    117946.211 6     90341.23847  21500903.48847
  22936251.477 5    336240.707 5    254994.60547  22936252.51647
  20089810.367 6   -147606.336 6   -113290.20349  20089808.98849
  23587802.648 5    578382.070 5    480069.19147  23587799.86747
 20  5 16  1 45  8.0000000  0  8G04G08G09G11G16G26G27G31            -0.000200829
  21397126.164 5   -180750.512 5   -136043.47346  21397124.52346
  20555672.922 7  -1111092.398 7   -849114.33249  20555673.33249
  22888525.141 4  -1012160.777 4   -770231.94148  22888524.17648
  23166736.352 5  -1977249.578 5  -1439195.84046  23166734.01246
  21500954.727 6    118195.574 6     90535.54747  21500950.75847
  22936389.102 5    336967.500 5    255560.93447  22936390.84047
  20089769.836 6   -147821.191 6   -113457.61749  20089768.52049
  23588092.383 5    579901.898 5    481253.46546  23588089.37146
 20  5 16  1 45  9.0000000  0  8G04G08G09G11G16G26G27G31            -0.000201462
  21397070.086 5   -181046.992 5   -136274.49846  21397068.37946
  20555224.383 7  -1113450.746 7   -850952.01249  20555224.10549
  22888107.883 4  -1014350.492 4   -771938.21548  22888106.95748
  23165904.453 6  -1981625.949 6  -1442606.00847  23165901.34047
  21501002.016 6    118444.668 6     90729.64847  21500998.32047
  22936527.594 5    337693.930 5    256126.98847  22936528.86747
  20089729.070 6   -148035.813 6   -113624.85549  20089727.58249
  23588381.297 5    581421.680 5    482437.70347  23588378.52047
 20  5 16  1 45 10.0000000  0  8G04G08G09G11G16G26G27G31            -0.000202095
  21397013.813 5   -181342.945 5   -136505.11746  21397011.54346
  20554775.734 7  -1115808.539 7   -852789.25449  20554775.60549
  22887691.367 4  -1016539.707 4   -773644.09848  22887690.76648
  23165071.414 5  -1986002.281 5  -1446016.12947  23165068.59447
  21501049.367 6    118693.797 6     90923.77347  21501045.73847
  22936665.336 5    338420.367 5    256693.03947  22936667.51647
  20089688.000 6   -148249.863 6   -113791.65249  20089686.73849
  23588669.789 5    582941.727 5    483622.16047  23588667.91047
 20  5 16  1 45 11.0000000  0  8G04G08G09G11G16G26G27G31            -0.000202728
  21396957.734 5   -181638.406 5   -136735.34046  21396955.30946
  20554327.148 7  -1118165.859 7   -854626.12149  20554326.90649
  22887274.813 4  -1018728.431 4   -775349.58948  22887274.46548
  23164238.531 5  -1990378.578 5  -1449426.23046  23164235.57846
  21501096.391 6    118942.879 6     91117.86747  21501093.35947
  22936803.094 5    339146.625 5    257258.94947  22936805.29347
  20089647.844 6   -148463.449 6   -113958.07849  20089646.12149
  23588959.406 5    584461.910 5    484806.72347  23588957.20747
 20  5 16  1 45 12.0000000  0  8G04G08G09G11G16G26G27G31            -0.000203362
  21396901.297 5   -181933.305 5   -136965.12946  21396899.14846
  20553878.797 7  -1120522.680 7   -856462.60949  20553878.30149
  22886857.703 4  -1020916.586 4   -777054.64148  22886857.85948
  23163406.305 5  -1994754.758 5  -1452836.23846  23163403.19546
  21501143.781 6    119192.000 6     91311.98847  21501140.80547
  22936941.453 5    339872.910 5    257824.87146  22936943.55546
  20089606.813 6   -148676.469 6   -114124.07049  20089605.52349
  23589248.656 5    585982.344 5    485991.47747  23589246.08247
 20  5 16  1 45 13.0000000  0  8G04G08G09G11G16G26G27G31            -0.000203995
  21396845.938 5   -182227.496 5   -137194.36746  21396843.60946
  20553430.625 7  -1122878.816 7   -858298.55949  20553430.10249
  22886442.539 4  -1023104.070 4   -778759.17248  22886441.71948
  23162573.289 5  -1999130.695 5  -1456246.06347  23162570.21947
  21501191.508 6    119441.309 6     91506.25447  21501188.30147
  22937079.734 5    340599.320 5    258390.90647  22937081.59447
  20089566.602 6   -148888.766 6   -114289.49249  20089565.18049
  23589537.742 5    587503.160 5    487176.52347  23589535.14547
 20  5 16  1 45 14.0000000  0  8G04G08G09G11G16G26G27G31            -0.000204626
  21396789.398 5   -182521.059 5   -137423.12146  21396788.07846
  20552982.031 7  -1125234.355 7   -860134.03949  20552981.82049
  22886025.695 4  -1025290.926 4   -780463.22748  22886025.35548
  23161740.719 5  -2003506.500 5  -1459655.77747  23161738.06347
  21501238.945 6    119690.699 6     91700.57847  21501235.66047
  22937218.000 5    341325.785 5    258956.98047  22937220.32447
  20089526.414 6   -149100.469 6   -114454.45749  20089524.41849
  23589827.203 5    589024.270 5    488361.80547  23589824.90247
 20  5 16  1 45 15.0000000  0  8G04G08G09G11G16G26G27G31            -0.000205259
  21396733.555 5   -182814.129 5   -137651.48846  21396731.93846
  20552533.711 7  -1127589.449 7   -861969.18049  20552533.99249
  22885609.703 4  -1027477.352 4   -782166.93848  22885609.61748
  23160907.977 5  -2007882.309 5  -1463065.49646  23160905.19546
  21501286.445 6    119940.039 6     91894.87147  21501282.87947
  22937356.227 5    342052.102 5    259522.94947  22937358.02047
  20089485.977 6   -149311.676 6   -114619.03549  20089484.56649
  23590116.750 5    590545.539 5    489547.21547  23590114.53547
 20  5 16  1 45 16.0000000  0  8G04G08G09G11G16G26G27G31            -0.000205893
  21396677.922 5   -183106.746 5   -137879.50046  21396676.45346
  20552085.672 7  -1129944.102 7   -863803.97749  20552085.78949
  22885194.070 5  -1029663.344 5   -783870.30948  22885193.43448
  23160075.227 5  -2012258.105 5  -1466475.19946  23160072.09446
  21501334.242 6    120189.320 6     92089.11347  21501330.39147
  22937494.820 5    342778.309 5    260088.81647  22937496.72747
  20089446.063 6   -149522.449 6   -114783.27349  20089444.38749
  23590406.508 5    592066.922 5    490732.70747  23590404.15647
 20  5 16  1 45 17.0000000  0  8G04G08G09G11G16G26G27G31            -0.000206526
  21396622.242 5   -183398.820 5   -138107.09846  21396620.91846
  20551637.789 7  -1132298.227 7   -865638.35549  20551637.82049
  22884778.352 4  -1031848.726 4   -785573.20748  22884777.27748
  23159242.453 5  -2016633.824 5  -1469884.85546  23159239.41446
  21501381.844 6    120438.637 6     92283.38747  21501377.80547
  22937632.992 5    343504.477 5    260654.66447  22937634.78947
  20089406.133 7   -149732.637 7   -114947.05549  20089404.79749
  23590696.141 5    593588.539 5    491918.38747  23590693.69547
 20  5 16  1 45 18.0000000  0  8G04G08G09G11G16G26G27G31            -0.000207159
  21396567.070 5   -183690.391 5   -138334.29346  21396565.31646
  20551189.727 7  -1134651.895 7   -867472.38349  20551189.82049
  22884362.586 4  -1034033.738 4   -787275.80948  22884361.68048
  23158409.984 5  -2021009.547 5  -1473294.51246  23158407.40646
  21501429.172 6    120687.875 6     92477.59447  21501425.41047
  22937771.078 5    344230.551 5    261220.43047  22937773.11347
  20089366.063 6   -149942.379 6   -115110.49249  20089364.60249
  23590985.094 5    595110.320 5    493104.18046  23590982.86346
 20  5 16  1 45 19.0000000  0  8G04G08G09G11G16G26G27G31            -0.000207792
  21396511.508 5   -183981.520 5   -138561.14846  21396509.93446
  20550741.805 7  -1137005.168 7   -869306.10549  20550741.98449
  22883946.781 5  -1036218.242 5   -788978.02048  22883946.14148
  23157577.250 5  -2025385.266 5  -1476704.16847  23157574.35247
  21501476.375 6    120937.027 6     92671.73847  21501472.88747
  22937909.047 5    344956.438 5    261786.04747  22937910.75447
  20089325.906 6   -150151.668 6   -115273.57049  20089324.72349
  23591274.961 5    596632.250 5    494290.09446  23591272.59046
 20  5 16  1 45 20.0000000  0  8G04G08G09G11G16G26G27G31            -0.000208426
  21396456.313 5   -184272.008 5   -138787.49646  21396454.81346
  20550294.391 7  -1139357.836 7   -871139.35249  20550294.59849
  22883531.453 5  -1038402.167 5   -790679.77848  22883530.14848
  23156744.734 5  -2029760.867 5  -1480113.73847  23156742.39147
  21501523.891 6    121186.320 6     92865.98847  21501520.03547
  22938047.750 5    345682.410 5    262351.75447  22938049.32847
  20089286.469 6   -150360.344 6   -115436.17249  20089285.15249
  23591564.836 5    598154.434 5    495476.21547  23591562.37547
 20  5 16  1 45 21.0000000  0  8G04G08G09G11G16G26G27G31            -0.000209059
  21396401.148 5   -184562.063 5   -139013.52346  21396399.82446
  20549846.750 7  -1141710.102 7   -872972.29349  20549846.78949
  22883115.992 5  -1040585.645 5   -792381.18448  22883114.55948
  23155912.078 5  -2034136.477 5  -1483523.30547  23155909.21947
  21501571.555 6    121435.488 6     93060.14847  21501568.06647
  22938185.070 5    346408.234 5    262917.33247  22938187.37547
  20089247.242 6   -150568.566 6   -115598.42649  20089245.62149
  23591854.008 5    599676.801 5    496662.47747  23591851.62947
 20  5 16  1 45 22.0000000  0  8G04G08G09G11G16G26G27G31            -0.000209692
  21396346.203 5   -184851.750 5   -139239.25446  21396344.30946
  20549399.352 7  -1144062.035 7   -874804.96949  20549399.22349
  22882700.273 5  -1042768.785 5   -794082.33248  22882699.20348
  23155079.469 5  -2038512.168 5  -1486932.91846  23155076.83646
  21501619.164 6    121684.508 6     93254.19147  21501615.35547
  22938323.367 5    347133.824 5    263482.71547  22938325.15247
  20089207.398 6   -150776.430 6   -115760.39549  20089205.83649
  23592143.938 5    601199.195 5    497848.75846  23592141.89846
 20  5 16  1 45 23.0000000  0  8G04G08G09G11G16G26G27G31            -0.000210325
  21396291.320 5   -185140.895 5   -139464.56346  21396289.38746
  20548951.563 7  -1146413.480 7   -876637.25849  20548951.61349
  22882284.695 5  -1044951.434 5   -795783.10248  22882283.73448
  23154246.391 5  -2042887.813 5  -1490342.50446  23154243.77346
  21501666.250 6    121933.535 6     93448.23847  21501662.70347
  22938461.320 5    347859.379 5    264048.07447  22938463.60547
  20089167.578 6   -150983.750 6   -115921.94549  20089166.59449
  23592434.273 5    602721.781 5    499035.18846  23592431.73846
 20  5 16  1 45 24.0000000  0  8G04G08G09G11G16G26G27G31            -0.000210958
  21396236.523 5   -185429.531 5   -139689.46946  21396234.58646
  20548504.594 7  -1148764.430 7   -878469.17249  20548504.52049
  22881870.242 5  -1047133.586 5   -797483.47748  22881868.62948
  23153414.281 5  -2047263.422 5  -1493752.07446  23153411.53946
  21501714.031 6    122182.523 6     93642.25047  21501709.89547
  22938598.906 5    348584.848 5    264613.37147  22938601.32447
  20089128.359 6   -151190.609 6   -116083.13349  20089127.41049
  23592723.742 5    604244.543 5    500221.76246  23592720.96946
 20  5 16  1 45 25.0000000  0  8G04G08G09G11G16G26G27G31            -0.000211592
  21396181.117 5   -185717.828 5   -139914.11746  21396179.48446
  20548057.172 7  -1151115.031 7   -880300.80949  20548057.39149
  22881454.508 5  -1049315.340 5   -799183.55148  22881453.79748
  23152581.484 5  -2051639.133 5  -1497161.71946  23152578.69946
  21501760.859 6    122431.336 6     93836.13347  21501757.11747
  22938737.094 5    349310.043 5    265178.46147  22938739.41047
  20089089.000 6   -151397.082 6   -116244.02049  20089087.87949
  23593013.477 5    605767.348 5    501408.36346  23593011.16846
 20  5 16  1 45 26.0000000  0  8G04G08G09G11G16G26G27G31            -0.000212225
  21396126.891 5   -186005.590 5   -140138.34846  21396124.85546
  20547609.844 7  -1153465.176 7   -882132.09049  20547609.76649
  22881039.133 5  -1051496.648 5   -800883.27048  22881038.37548
  23151748.648 5  -2056014.832 5  -1500571.34846  23151746.09046
  21501808.031 6    122680.137 6     94030.00047  21501804.23047
  22938874.984 4    350035.188 4    265743.50847  22938877.39847
  20089049.875 6   -151603.082 6   -116404.54349  20089048.38749
  23593302.852 5    607290.324 5    502595.09846  23593300.86746
 20  5 16  1 45 27.0000000  0  8G04G08G09G11G16G26G27G31            -0.000212860
  21396071.672 5   -186293.035 5   -140362.32846  21396070.33646
  20547162.820 7  -1155815.000 7   -883963.12149  20547162.62549
  22880624.367 5  -1053677.609 5   -802582.71948  22880623.44548
  23150915.711 5  -2060390.621 5  -1503981.05546  23150913.19146
  21501855.188 6    122928.754 6     94223.72347  21501851.83647
  22939012.961 4    350760.088 4    266308.36847  22939014.94147
  20089010.992 6   -151808.699 6   -116564.76249  20089009.84449
  23593592.953 5    608813.344 5    503781.85946  23593590.28546
 20  5 16  1 45 28.0000000  0  8G04G08G09G11G16G26G27G31            -0.000213493
  21396016.914 5   -186579.879 5   -140585.84846  21396015.37146
  20546715.406 7  -1158164.289 7   -885793.73849  20546715.75049
  22880209.352 5  -1055858.023 5   -804281.74248  22880208.35248
  23150083.164 5  -2064766.332 5  -1507390.69146  23150080.81646
  21501903.211 6    123177.422 6     94417.49247  21501899.14547
  22939151.578 5    351484.996 5    266873.23047  22939153.09847
  20088971.703 6   -152013.773 6   -116724.56349  20088970.80949
  23593883.148 5    610336.605 5    504968.81347  23593880.19547
 20  5 16  1 45 29.0000000  0  8G04G08G09G11G16G26G27G31            -0.000214128
  21395962.203 5   -186866.449 5   -140809.15646  21395960.55946
  20546268.703 7  -1160513.332 7   -887624.15649  20546268.71549
  22879794.805 5  -1058038.156 5   -805980.54748  22879793.34448
  23149250.414 5  -2069142.203 5  -1510800.46146  23149247.87946
  21501950.422 6    123425.828 6     94611.05947  21501946.26247
  22939289.289 5    352209.563 5    267437.83547  22939291.46147
  20088933.133 6   -152218.563 6   -116884.13349  20088931.62949
  23594173.492 5    611859.824 5    506155.74246  23594170.28946
 20  5 16  1 45 30.0000000  0  8G04G08G09G11G16G26G27G31            -0.000214762
  21395908.898 5   -187152.633 5   -141032.15246  21395906.52046
  20545821.672 7  -1162862.020 7   -889454.30149  20545821.51649
  22879379.492 5  -1060217.961 5   -807679.09448  22879378.94948
  23148417.969 5  -2073518.172 5  -1514210.30547  23148415.27047
  21501997.453 6    123674.098 6     94804.51247  21501993.20347
  22939427.313 5    352933.992 5    268002.31647  22939428.75047
  20088894.430 6   -152422.984 6   -117043.42649  20088892.84049
  23594462.586 5    613383.117 5    507342.72746  23594460.08646
 20  5 16  1 45 31.0000000  0  8G04G08G09G11G16G26G27G31            -0.000215397
  21395854.289 5   -187438.520 5   -141254.91046  21395851.74246
  20545374.992 7  -1165210.414 7   -891284.21949  20545374.64849
  22878965.000 4  -1062397.406 4   -809377.36348  22878963.82448
  23147585.086 5  -2077894.309 5  -1517620.27746  23147582.48846
  21502044.656 6    123922.125 6     94997.78547  21502040.66847
  22939564.297 5    353658.082 5    268566.54747  22939566.68047
  20088855.359 6   -152627.074 6   -117202.46149  20088853.96549
  23594753.063 5    614906.355 5    508529.65647  23594749.82447
 20  5 16  1 45 32.0000000  0  8G04G08G09G11G16G26G27G31            -0.000216030
  21395799.805 5   -187723.883 5   -141477.27346  21395797.42646
  20544928.000 7  -1167558.391 7   -893113.81349  20544927.98449
  22878550.500 5  -1064576.457 5   -811075.32448  22878549.18448
  23146752.602 5  -2082270.434 5  -1521030.24647  23146749.75847
  21502091.750 6    124170.133 6     95191.03147  21502087.37947
  22939702.531 4    354382.074 4    269130.69147  22939704.41847
  20088816.789 6   -152830.734 6   -117361.15249  20088815.45349
  23595042.148 5    616429.793 5    509716.73847  23595039.97747
 20  5 16  1 45 33.0000000  0  8G04G08G09G11G16G26G27G31            -0.000216665
  21395745.227 5   -188008.867 5   -141699.34046  21395743.29746
  20544481.625 7  -1169905.906 7   -894943.05149  20544481.63749
  22878135.664 5  -1066755.043 5   -812772.92648  22878134.87548
  23145920.109 5  -2086646.590 5  -1524440.23046  23145917.28146
  21502139.039 6    124418.027 6     95384.19547  21502135.05947
  22939840.234 5    355105.906 5    269694.71547  22939842.28147
  20088777.773 6   -153033.930 6   -117519.48449  20088776.38349
  23595332.172 5    617953.324 5    510903.90247  23595329.83647
 20  5 16  1 45 34.0000000  0  8G04G08G09G11G16G26G27G31            -0.000217300
  21395690.758 5   -188293.402 5   -141921.05946  21395689.36746
  20544034.773 7  -1172253.063 7   -896772.00849  20544034.36749
  22877721.031 5  -1068933.320 5   -814470.28548  22877720.25448
  23145086.891 5  -2091022.813 5  -1527850.27347  23145084.47347
  21502186.219 6    124665.781 6     95577.24647  21502182.15647
  22939978.289 4    355829.574 4    270258.61747  22939980.14547
  20088739.328 6   -153236.742 6   -117677.52049  20088738.20749
  23595622.789 5    619476.895 5    512091.10247  23595619.49247
 20  5 16  1 45 35.0000000  0  8G04G08G09G11G16G26G27G31            -0.000217934
  21395636.570 5   -188577.523 5   -142142.45346  21395635.11346
  20543588.328 7  -1174599.766 7   -898600.60549  20543587.69549
  22877306.500 5  -1071111.055 5   -816167.22748  22877305.75448
  23144253.398 5  -2095399.020 5  -1531260.30547  23144251.57447
  21502233.375 6    124913.480 6     95770.26647  21502229.39147
  22940116.273 5    356553.125 5    270822.43447  22940117.80547
  20088700.516 6   -153439.109 6   -117835.20749  20088699.38349
  23595912.016 5    621000.664 5    513278.46147  23595909.82447
 20  5 16  1 45 36.0000000  0  8G04G08G09G11G16G26G27G31            -0.000218569
  21395582.555 5   -188861.082 5   -142363.39546  21395581.48046
  20543141.867 7  -1176945.980 7   -900428.82049  20543141.30149
  22876892.242 5  -1073288.339 5   -817863.80248  22876891.44948
  23143421.063 5  -2099775.238 5  -1534670.34046  23143418.67246
  21502280.852 6    125161.168 6     95963.26647  21502276.36347
  22940253.656 5    357276.547 5    271386.14147  22940255.39147
  20088662.289 6   -153640.930 6   -117992.47349  20088660.82449
  23596201.922 5    622524.613 5    514465.96147  23596199.75047
 20  5 16  1 45 37.0000000  0  8G04G08G09G11G16G26G27G31            -0.000219204
  21395529.148 5   -189144.238 5   -142584.03946  21395527.33646
  20542695.172 7  -1179291.871 7   -902256.78549  20542694.62549
  22876478.078 5  -1075465.184 5   -819560.04748  22876477.26648
  23142588.539 5  -2104151.504 5  -1538080.41446  23142586.38746
  21502327.188 6    125408.723 6     96156.17247  21502323.22347
  22940391.602 5    357999.836 5    271949.73447  22940392.84047
  20088624.016 6   -153842.359 6   -118149.42649  20088622.88749
  23596492.883 5    624048.625 5    515653.50046  23596489.87946
 20  5 16  1 45 38.0000000  0  8G04G08G09G11G16G26G27G31            -0.000219839
  21395474.977 5   -189427.063 5   -142804.41446  21395473.21146
  20542248.852 7  -1181637.434 7   -904084.49649  20542248.60249
  22876064.234 5  -1077641.758 5   -821256.08248  22876062.78548
  23141755.844 5  -2108527.848 5  -1541490.55947  23141753.18047
  21502374.398 6    125656.098 6     96348.93447  21502370.44547
  22940528.586 5    358722.867 5    272513.13347  22940530.29347
  20088586.234 6   -154043.488 6   -118306.15249  20088584.54749
  23596782.047 5    625572.652 5    516841.04347  23596779.79347
 20  5 16  1 45 39.0000000  0  8G04G08G09G11G16G26G27G31            -0.000220474
  21395421.555 4   -189709.570 4   -143024.55946  21395419.73446
  20541802.742 7  -1183982.676 7   -905911.96149  20541802.36749
  22875650.000 5  -1079817.957 5   -822951.82048  22875648.80948
  23140923.352 5  -2112904.352 5  -1544900.82846  23140920.78546
  21502421.922 6    125903.301 6     96541.55947  21502417.59847
  22940666.734 5    359445.660 5    273076.34447  22940668.02047
  20088547.195 6   -154244.254 6   -118462.58649  20088546.21549
  23597072.445 5    627096.727 5    518028.62547  23597069.96947
 20  5 16  1 45 40.0000000  0  8G04G08G09G11G16G26G27G31            -0.000221109
  21395367.383 4   -189991.605 4   -143244.33246  21395365.81346
  20541355.938 7  -1186327.531 7   -907739.12149  20541356.19549
  22875236.039 5  -1081993.789 5   -824647.27048  22875234.67648
  23140090.086 5  -2117280.906 5  -1548311.12946  23140087.78946
  21502468.375 6    126150.387 6     96734.09447  21502465.05547
  22940804.047 5    360168.277 5    273639.41847  22940805.75447
  20088509.531 6   -154444.602 6   -118618.69949  20088508.21549
  23597362.398 5    628620.852 5    519216.24246  23597360.18046
 20  5 16  1 45 41.0000000  0  8G04G08G09G11G16G26G27G31            -0.000221745
  21395313.813 4   -190273.195 4   -143463.75446  21395312.12546
  20540910.547 7  -1188671.910 7   -909565.91449  20540910.30949
  22874821.883 5  -1084169.105 5   -826342.32048  22874820.60248
  23139257.078 5  -2121657.441 5  -1551721.41846  23139254.84846
  21502515.188 6    126397.402 6     96926.57447  21502511.57847
  22940941.836 5    360890.797 5    274202.41447  22940943.46547
  20088471.313 6   -154644.469 6   -118774.44549  20088470.22349
  23597652.352 5    630145.191 5    520404.03147  23597650.52047
 20  5 16  1 45 42.0000000  0  8G04G08G09G11G16G26G27G31            -0.000222382
  21395260.266 5   -190554.465 5   -143682.92246  21395258.50846
  20540464.273 7  -1191016.031 7   -911392.50049  20540464.19949
  22874408.047 5  -1086344.172 5   -828037.18448  22874407.11348
  23138424.367 5  -2126034.133 5  -1555131.82846  23138422.07446
  21502562.398 6    126644.234 6     97118.91047  21502558.85947
  22941078.883 5    361613.047 5    274765.21147  22941080.61347
  20088433.305 6   -154844.035 6   -118929.95349  20088432.19549
  23597942.695 5    631669.496 5    521591.79346  23597940.34846
 20  5 16  1 45 43.0000000  0  8G04G08G09G11G16G26G27G31            -0.000223017
  21395206.805 5   -190835.289 5   -143901.75446  21395205.44546
  20540017.992 7  -1193359.770 7   -913218.78949  20540018.15649
  22873993.453 4  -1088518.828 4   -829731.72348  22873993.04748
  23137591.930 5  -2130410.891 5  -1558542.28146  23137588.69546
  21502609.328 6    126890.922 6     97311.13347  21502605.87547
  22941216.078 5    362335.102 5    275327.84847  22941218.14147
  20088395.453 6   -155043.195 6   -119085.14549  20088394.23849
  23598232.445 5    633193.895 5    522779.62946  23598230.65246
 20  5 16  1 45 44.0000000  0  8G04G08G09G11G16G26G27G31            -0.000223652
  21395153.680 4   -191115.723 4   -144120.28146  21395151.98846
  20539572.227 7  -1195703.117 7   -915044.77049  20539572.04749
  22873580.094 4  -1090693.086 4   -831425.94948  22873579.47348
  23136758.570 5  -2134787.676 5  -1561952.76647  23136756.28547
  21502656.344 6    127137.531 6     97503.29747  21502652.78147
  22941354.164 5    363057.023 5    275890.38347  22941355.26647
  20088357.750 6   -155241.949 6   -119240.01249  20088356.25449
  23598522.531 5    634718.375 5    523967.54347  23598520.10247
 20  5 16  1 45 45.0000000  0  8G04G08G09G11G16G26G27G31            -0.000224289
  21395100.219 4   -191395.641 4   -144338.40246  21395098.30146
  20539126.492 7  -1198045.973 7   -916870.37149  20539126.09849
  22873167.078 5  -1092866.844 5   -833119.78548  22873165.53148
  23135925.578 5  -2139164.418 5  -1565363.21147  23135923.85947
  21502703.258 6    127384.102 6     97695.42247  21502699.51647
  22941491.023 5    363778.867 5    276452.85547  22941492.85947
  20088320.000 6   -155440.180 6   -119394.47749  20088319.08249
  23598813.539 5    636243.043 5    525155.59447  23598810.52347
 20  5 16  1 45 46.0000000  0  8G04G08G09G11G16G26G27G31            -0.000224924
  21395047.648 5   -191675.105 5   -144556.14546  21395044.88746
  20538680.602 7  -1200388.391 7   -918695.63349  20538680.31349
  22872753.297 5  -1095040.145 5   -834813.27048  22872752.28148
  23135093.117 5  -2143541.168 5  -1568773.66046  23135090.71546
  21502749.984 6    127630.617 6     97887.51247  21502746.25447
  22941628.445 5    364500.559 5    277015.20747  22941630.14547
  20088282.375 6   -155637.957 6   -119548.59449  20088281.57449
  23599102.539 5    637767.871 5    526343.77347  23599100.82047
 20  5 16  1 45 47.0000000  0  8G04G08G09G11G16G26G27G31            -0.000225561
  21394994.375 5   -191954.102 5   -144773.55146  21394992.33646
  20538234.867 7  -1202730.398 7   -920520.57049  20538234.77749
  22872340.016 5  -1097213.023 5   -836506.41448  22872338.87148
  23134260.031 5  -2147917.945 5  -1572184.13746  23134257.81346
  21502796.961 6    127877.012 6     98079.51247  21502793.32447
  22941765.766 5    365222.102 5    277577.44947  22941767.48847
  20088244.617 6   -155835.301 6   -119702.36749  20088243.48449
  23599393.227 5    639292.813 5    527532.03947  23599390.88347
 20  5 16  1 45 48.0000000  0  8G04G08G09G11G16G26G27G31            -0.000226196
  21394940.977 5   -192232.816 5   -144990.74246  21394939.01646
  20537789.391 7  -1205072.117 7   -922345.29349  20537789.51649
  22871925.805 5  -1099385.598 5   -838199.33248  22871925.02348
  23133427.273 5  -2152294.898 5  -1575594.74247  23133425.10947
  21502844.039 6    128123.223 6     98271.37147  21502839.94147
  22941903.641 5    365943.398 5    278139.50447  22941905.14847
  20088206.680 6   -156032.348 6   -119855.91049  20088206.00049
  23599683.578 5    640817.715 5    528720.26246  23599681.02346
 20  5 16  1 45 49.0000000  0  8G04G08G09G11G16G26G27G31            -0.000226833
  21394888.328 5   -192511.066 5   -145207.55946  21394886.08246
  20537344.078 7  -1207413.414 7   -924169.67649  20537343.75849
  22871513.031 5  -1101557.758 5   -839891.92648  22871511.96148
  23132594.148 5  -2156671.820 5  -1579005.32446  23132591.97746
  21502890.875 6    128369.336 6     98463.14847  21502886.97347
  22942040.547 5    366664.523 5    278701.42247  22942042.30547
  20088169.133 6   -156228.941 6   -120009.10249  20088168.87949
  23599973.797 5    642342.773 5    529908.60947  23599971.36747
 20  5 16  1 45 50.0000000  0  8G04G08G09G11G16G26G27G31            -0.000227468
  21394836.000 5   -192788.715 5   -145423.91046  21394833.44546
  20536898.352 7  -1209754.172 7   -925993.64549  20536897.98049
  22871099.844 5  -1103729.313 5   -841584.04348  22871098.68848
  23131761.102 5  -2161048.641 5  -1582415.82846  23131758.95346
  21502937.281 6    128615.512 6     98654.96547  21502934.18047
  22942177.500 5    367385.668 5    279263.34847  22942179.27747
  20088132.414 6   -156424.957 6   -120161.84049  20088131.13349
  23600263.766 5    643868.086 5    531097.15647  23600261.45747
 20  5 16  1 45 51.0000000  0  8G04G08G09G11G16G26G27G31            -0.000228106
  21394782.930 4   -193065.926 4   -145639.91446  21394780.61346
  20536453.188 7  -1212094.469 7   -927817.25049  20536452.78149
  22870686.766 5  -1105900.422 5   -843275.82048  22870685.56648
  23130929.016 5  -2165425.445 5  -1585826.32447  23130926.16847
  21502984.453 6    128861.633 6     98846.74647  21502980.86747
  22942314.320 5    368106.688 5    279825.17647  22942316.42247
  20088094.680 6   -156620.500 6   -120314.21149  20088094.17249
  23600554.250 5    645393.547 5    532285.82047  23600551.81647
 20  5 16  1 45 52.0000000  0  8G04G08G09G11G16G26G27G31            -0.000228743
  21394729.992 5   -193342.723 5   -145855.59446  21394727.93046
  20536008.094 7  -1214434.430 7   -929640.60249  20536007.60549
  22870273.313 5  -1108071.184 5   -844967.32048  22870272.18448
  23130094.977 5  -2169802.395 5  -1589236.93047  23130092.73447
  21503031.336 6    129107.586 6     99038.39847  21503027.69147
  22942451.695 5    368827.484 5    280386.82846  22942453.35246
  20088057.773 6   -156815.676 6   -120466.30149  20088057.11349
  23600844.188 5    646919.051 5    533474.52347  23600841.78147
 20  5 16  1 45 53.0000000  0  8G04G08G09G11G16G26G27G31            -0.000229378
  21394677.969 5   -193619.219 5   -146071.04346  21394675.38346
  20535562.648 7  -1216774.105 7   -931463.72349  20535562.47349
  22869860.477 5  -1110241.625 5   -846658.58248  22869859.36348
  23129262.750 5  -2174179.438 5  -1592647.61746  23129259.71946
  21503077.734 6    129353.352 6     99229.90647  21503074.18047
  22942588.773 5    369548.031 5    280948.29347  22942591.13347
  20088020.922 6   -157010.547 6   -120618.14549  20088020.39549
  23601134.938 5    648444.547 5    534663.23047  23601132.49647
 20  5 16  1 45 54.0000000  0  8G04G08G09G11G16G26G27G31            -0.000230015
  21394624.844 5   -193895.375 5   -146286.23846  21394623.35546
  20535117.781 7  -1219113.477 7   -933286.61349  20535117.14849
  22869446.977 4  -1112411.766 4   -848349.59448  22869446.58248
  23128429.633 5  -2178556.633 5  -1596058.41446  23128427.01646
  21503124.578 6    129598.930 6     99421.27347  21503121.23847
  22942726.391 5    370268.355 5    281509.58247  22942728.07047
  20087983.953 6   -157205.090 6   -120769.73849  20087982.86749
  23601425.625 5    649970.059 5    535851.93847  23601423.19947
 20  5 16  1 45 55.0000000  0  8G04G08G09G11G16G26G27G31            -0.000230652
  21394572.234 5   -194171.078 5   -146501.09446  21394569.94546
  20534672.188 7  -1221452.410 7   -935109.15249  20534672.23849
  22869034.563 5  -1114581.469 5   -850040.27748  22869033.53548
  23127596.664 5  -2182933.844 5  -1599469.23047  23127594.11347
  21503171.352 6    129844.410 6     99612.55547  21503167.98047
  22942862.453 5    370988.508 5    282070.74647  22942864.78947
  20087946.867 6   -157399.180 6   -120920.97749  20087945.99249
  23601715.555 5    651495.711 5    537040.75047  23601713.16847
 20  5 16  1 45 56.0000000  0  8G04G08G09G11G16G26G27G31            -0.000231289
  21394520.398 5   -194446.418 5   -146715.63746  21394517.78946
  20534227.359 7  -1223791.039 7   -936931.46149  20534227.09449
  22868621.602 5  -1116750.781 5   -851730.64548  22868620.75448
  23126764.414 5  -2187311.137 5  -1602880.10947  23126761.03147
  21503218.414 6    130089.730 6     99803.71547  21503214.82847
  22942999.141 5    371708.422 5    282631.72747  22943001.96547
  20087910.008 6   -157592.895 6   -121071.92649  20087908.68449
  23602006.016 5    653021.387 5    538229.58247  23602003.43047
 20  5 16  1 45 57.0000000  0  8G04G08G09G11G16G26G27G31            -0.000231926
  21394467.445 5   -194721.266 5   -146929.80546  21394465.39146
  20533782.195 7  -1226129.211 7   -938753.41449  20533782.29749
  22868208.742 5  -1118919.668 5   -853420.68448  22868208.04748
  23125930.625 5  -2191688.441 5  -1606290.99247  23125927.94547
  21503264.914 6    130334.973 6     99994.81347  21503261.44947
  22943137.008 5    372428.266 5    283192.64547  22943139.09447
  20087873.164 6   -157786.188 6   -121222.54349  20087871.88349
  23602296.805 5    654547.199 5    539418.52047  23602293.57047
 20  5 16  1 45 58.0000000  0  8G04G08G09G11G16G26G27G31            -0.000232563
  21394414.977 5   -194995.688 5   -147143.62546  21394413.15646
  20533337.508 7  -1228467.012 7   -940575.07449  20533337.44949
  22867796.102 5  -1121088.172 5   -855110.43048  22867795.38348
  23125097.773 5  -2196065.738 5  -1609701.87947  23125095.05147
  21503311.750 6    130580.156 6    100185.85947  21503308.11347
  22943273.555 5    373147.922 5    283753.40647  22943275.46147
  20087836.477 6   -157979.008 6   -121372.79749  20087835.43849
  23602587.516 5    656073.148 5    540607.56647  23602584.00447
 20  5 16  1 45 59.0000000  0  8G04G08G09G11G16G26G27G31            -0.000233202
  21394363.250 5   -195269.656 5   -147357.10946  21394360.97746
  20532892.969 7  -1230804.363 7   -942396.39549  20532892.55149
  22867383.898 5  -1123256.164 5   -856799.77048  22867382.88748
  23124264.625 5  -2200443.109 5  -1613112.81346  23124262.53146
  21503357.984 6    130825.227 6    100376.82447  21503354.89147
  22943410.844 5    373867.469 5    284314.09047  22943412.70747
  20087800.156 6   -158171.398 6   -121522.71149  20087798.83249
  23602877.719 5    657599.184 5    541796.69147  23602874.50847
 20  5 16  1 46  0.0000000  0  8G04G08G09G11G16G26G27G31            -0.000233839
  21394311.430 5   -195543.320 5   -147570.34846  21394309.55546
  20532447.820 7  -1233141.402 7   -944217.45749  20532447.66049
  22866971.195 5  -1125423.879 5   -858488.89848  22866970.17248
  23123431.789 5  -2204820.574 5  -1616523.83246  23123429.21146
  21503404.727 6    131070.125 6    100567.65647  21503401.12947
  22943546.906 5    374586.758 5    284874.56347  22943549.40647
  20087763.492 6   -158363.473 6   -121672.37949  20087762.03949
  23603167.898 6    659125.285 6    542985.86347  23603164.68447
 20  5 16  1 46  1.0000000  0  8G04G08G09G11G16G26G27G31            -0.000234476
  21394258.977 5   -195816.359 5   -147783.10946  21394257.07846
  20532003.063 7  -1235477.875 7   -946038.09049  20532002.99649
  22866558.172 5  -1127591.020 5   -860177.58248  22866557.88348
  23122598.797 5  -2209197.930 5  -1619934.75046  23122596.40246
  21503451.297 6    131315.063 6    100758.50847  21503447.93847
  22943684.398 5    375306.055 5    285435.05547  22943687.00447
  20087727.117 6   -158554.941 6   -121821.57849  20087725.56649
  23603458.578 5    660651.609 5    544175.21547  23603455.62547
 20  5 16  1 46  2.0000000  0  8G04G08G09G11G16G26G27G31            -0.000235113
  21394207.602 5   -196089.125 5   -147995.66046  21394205.16846
  20531558.625 7  -1237814.090 7   -947858.51649  20531558.41449
  22866146.406 4  -1129757.855 4   -861866.03148  22866145.80948
  23121765.484 5  -2213575.453 5  -1623345.80546  23121763.35946
  21503497.984 6    131559.770 6    100949.19547  21503494.53147
  22943820.906 5    376025.051 5    285995.30947  22943822.91047
  20087691.094 6   -158746.133 6   -121970.55549  20087689.46549
  23603748.977 5    662177.898 5    545364.52047  23603745.82447
 20  5 16  1 46  3.0000000  0  8G04G08G09G11G16G26G27G31            -0.000235752
  21394155.156 5   -196361.551 5   -148207.94546  21394153.23046
  20531114.164 7  -1240150.020 7   -949678.72349  20531114.14149
  22865734.359 5  -1131924.370 5   -863554.21848  22865733.02048
  23120932.805 5  -2217953.113 5  -1626756.97346  23120930.28146
  21503544.578 6    131804.273 6    101139.71547  21503540.74247
  22943957.953 5    376743.793 5    286555.35946  22943959.66446
  20087654.438 6   -158937.031 6   -122119.31349  20087652.85249
  23604039.016 6    663704.184 6    546553.82447  23604036.23447
 20  5 16  1 46  4.0000000  0  8G04G08G09G11G16G26G27G31            -0.000236389
  21394103.320 5   -196633.469 5   -148419.82046  21394101.59846
  20530669.953 7  -1242485.449 7   -951498.53549  20530669.98449
  22865321.977 5  -1134090.422 5   -865242.05148  22865320.69548
  23120099.766 5  -2222330.727 5  -1630168.10246  23120096.64546
  21503590.719 6    132048.781 6    101330.24647  21503587.47747
  22944095.227 5    377462.477 5    287115.36346  22944096.76246
  20087618.367 6   -159127.355 6   -122267.61749  20087616.82449
  23604330.102 6    665230.680 6    547743.30147  23604326.80947
 20  5 16  1 46  5.0000000  0  8G04G08G09G11G16G26G27G31            -0.000237028
  21394052.234 5   -196904.816 5   -148631.26246  21394050.03546
  20530225.414 7  -1244820.344 7   -953317.93049  20530225.34049
  22864910.195 5  -1136255.922 5   -866929.44948  22864908.85548
  23119266.469 5  -2226708.215 5  -1633579.11946  23119263.89846
  21503637.508 6    132293.301 6    101520.78547  21503634.18447
  22944231.359 5    378181.070 5    287675.29346  22944233.32446
  20087581.875 6   -159317.191 6   -122415.53949  20087580.99249
  23604620.078 6    666757.402 6    548932.95347  23604617.10247
 20  5 16  1 46  6.0000000  0  8G04G08G09G11G16G26G27G31            -0.000237665
  21394000.563 5   -197175.660 5   -148842.31646  21393998.28546
  20529781.289 7  -1247154.762 7   -955136.96149  20529781.64549
  22864498.313 5  -1138420.902 5   -868616.45348  22864497.10548
  23118433.305 5  -2231085.699 5  -1636990.14846  23118430.80146
  21503683.898 6    132537.836 6    101711.33247  21503680.39147
  22944368.188 5    378899.684 5    288235.25047  22944370.17647
  20087546.070 6   -159506.496 6   -122563.04749  20087544.82449
  23604910.609 6    668284.328 6    550122.76647  23604907.69147
 20  5 16  1 46  7.0000000  0  8G04G08G09G11G16G26G27G31            -0.000238304
  21393949.117 4   -197446.008 4   -149052.97746  21393946.97746
  20529337.328 7  -1249488.727 7   -956955.62949  20529337.27349
  22864086.492 5  -1140585.418 5   -870303.08648  22864084.82848
  23117600.516 5  -2235463.160 5  -1640401.16446  23117598.08246
  21503729.617 6    132782.309 6    101901.83647  21503726.89547
  22944505.055 5    379618.152 5    288795.09447  22944506.75047
  20087510.156 6   -159695.301 6   -122710.16849  20087508.75849
  23605201.398 6    669811.391 6    551312.68047  23605198.27047
 20  5 16  1 46  8.0000000  0  8G04G08G09G11G16G26G27G31            -0.000238941
  21393897.375 5   -197715.938 5   -149263.30946  21393895.80546
  20528893.344 7  -1251822.332 7   -958774.02049  20528893.21949
  22863674.742 5  -1142749.543 5   -871989.42248  22863673.02048
  23116767.250 5  -2239840.691 5  -1643812.23046  23116764.75046
  21503776.938 6    133026.668 6    102092.24247  21503773.57847
  22944642.336 5    380336.398 5    289354.76247  22944643.39547
  20087474.297 6   -159883.727 6   -122856.99249  20087472.91849
  23605492.203 5    671338.543 5    552502.66847  23605489.30547
 20  5 16  1 46  9.0000000  0  8G04G08G09G11G16G26G27G31            -0.000239580
  21393846.469 5   -197985.637 5   -149473.46946  21393844.25446
  20528449.203 7  -1254155.660 7   -960592.19949  20528449.04749
  22863263.047 5  -1144913.426 5   -873675.57048  22863261.38348
  23115934.289 5  -2244218.402 5  -1647223.42247  23115931.86747
  21503823.117 6    133270.781 6    102282.45747  21503820.12547
  22944778.055 5    381054.398 5    289914.23447  22944779.97347
  20087438.219 6   -160071.887 6   -123003.60549  20087436.91449
  23605782.992 6    672865.676 6    553692.63747  23605779.87947
 20  5 16  1 46 10.0000000  0  8G04G08G09G11G16G26G27G31            -0.000240219
  21393795.000 5   -198255.047 5   -149683.40246  21393793.12946
  20528005.008 7  -1256488.758 7   -962410.20349  20528005.28149
  22862851.297 5  -1147077.023 5   -875361.48848  22862849.75048
  23115101.789 5  -2248596.285 5  -1650634.75446  23115098.55546
  21503869.313 6    133514.633 6    102472.46547  21503866.38347
  22944915.219 5    381772.070 5    290473.46547  22944916.43047
  20087402.977 6   -160259.777 6   -123150.01649  20087401.43849
  23606073.391 6    674392.730 6    554882.54747  23606070.47347
 20  5 16  1 46 11.0000000  0  8G04G08G09G11G16G26G27G31            -0.000240858
  21393743.898 5   -198523.867 5   -149892.86746  21393742.31346
  20527561.203 7  -1258821.336 7   -964227.79749  20527561.21149
  22862439.070 5  -1149240.078 5   -877046.98448  22862438.39148
  23114268.297 5  -2252974.090 5  -1654046.03946  23114265.75046
  21503916.305 6    133758.496 6    102662.49247  21503912.57447
  22945051.336 5    382489.695 5    291032.64547  22945053.10247
  20087367.133 6   -160447.129 6   -123296.00449  20087365.71149
  23606364.227 6    675920.012 6    556072.63747  23606361.56647
 20  5 16  1 46 12.0000000  0  8G04G08G09G11G16G26G27G31            -0.000241495
  21393693.297 5   -198792.328 5   -150102.06346  21393690.99246
  20527117.445 7  -1261153.555 7   -966045.11349  20527117.46149
  22862028.289 5  -1151402.766 5   -878732.19148  22862026.48848
  23113435.367 5  -2257351.973 5  -1657457.38746  23113432.34846
  21503962.516 6    134002.246 6    102852.42247  21503959.00847
  22945188.523 5    383207.121 5    291591.68047  22945189.75847
  20087331.273 6   -160634.094 6   -123441.69549  20087330.08649
  23606654.664 6    677447.383 6    557262.79747  23606651.87547
 20  5 16  1 46 13.0000000  0  8G04G08G09G11G16G26G27G31            -0.000242134
  21393641.891 5   -199060.336 5   -150310.90246  21393640.00046
  20526673.609 7  -1263485.320 7   -967862.07049  20526673.95749
  22861616.461 5  -1153564.969 5   -880417.02748  22861615.12148
  23112602.594 5  -2261729.859 5  -1660868.72747  23112599.59447
  21504008.695 6    134245.902 6    103042.28147  21504005.52047
  22945324.641 5    383924.422 5    292150.60547  22945325.85547
  20087296.281 6   -160820.586 6   -123587.01249  20087294.63749
  23606945.266 6    678974.887 6    558453.05547  23606942.83247
 20  5 16  1 46 14.0000000  0  8G04G08G09G11G16G26G27G31            -0.000242773
  21393591.273 5   -199327.875 5   -150519.36346  21393589.07446
  20526230.203 7  -1265816.668 7   -969678.70349  20526229.87149
  22861205.180 5  -1155726.797 5   -882101.57048  22861203.92248
  23111769.422 5  -2266107.777 5  -1664280.09446  23111766.68046
  21504055.219 6    134489.473 6    103232.07847  21504052.01247
  22945461.094 5    384641.582 5    292709.42247  22945461.95747
  20087260.500 6   -161006.648 6   -123731.99249  20087259.26249
  23607236.219 6    680502.496 6    559643.39847  23607233.68847
 20  5 16  1 46 15.0000000  0  8G04G08G09G11G16G26G27G31            -0.000243412
  21393540.227 5   -199594.980 5   -150727.50046  21393537.78946
  20525786.680 7  -1268147.602 7   -971495.01649  20525786.87949
  22860793.539 5  -1157888.184 5   -883785.76648  22860792.42648
  23110936.500 5  -2270485.676 5  -1667691.44546  23110933.30946
  21504102.000 6    134732.973 6    103421.82047  21504098.40647
  22945597.883 5    385358.621 5    293268.16447  22945598.71547
  20087225.242 6   -161192.289 6   -123876.64549  20087223.77749
  23607526.828 6    682030.230 6    560833.84047  23607524.27347
 20  5 16  1 46 16.0000000  0  8G04G08G09G11G16G26G27G31            -0.000244051
  21393489.320 5   -199861.617 5   -150935.25846  21393487.22346
  20525343.047 7  -1270478.074 7   -973310.96949  20525343.07449
  22860382.641 5  -1160049.125 5   -885469.61748  22860381.21548
  23110102.695 5  -2274863.594 5  -1671102.80546  23110100.09446
  21504147.813 6    134976.410 6    103611.51247  21504144.57447
  22945734.195 5    386075.512 5    293826.77046  22945735.07046
  20087189.922 6   -161377.445 6   -124020.93049  20087188.49249
  23607817.523 6    683558.113 6    562024.38347  23607814.69547
