     2.10           OBSERVATION DATA    Mixed(MIXED)        RINEX VERSION / TYPE
cnvtToRINEX 3.07.0  convertToRINEX OPR  19-May-20 12:30 UTC PGM / RUN BY / DATE 
----------------------------------------------------------- COMMENT             
98N0                                                        MARKER NAME         
98N0                                                        MARKER NUMBER       
GNSS Observer       Trimble                                 OBSERVER / AGENCY   
0220379195          5700                2.32                REC # / TYPE / VERS 
                    TRM39105.00                             ANT # / TYPE        
 -3050828.9091  4927926.0461  2653578.1144                  APPROX POSITION XYZ 
       -0.0460        0.0000        0.0000                  ANTENNA: DELTA H/E/N
     1     1     0                                          WAVELENGTH FACT L1/2
     4    C1    L1    L2    P2                              # / TYPES OF OBSERV 
  2020     5    16     5    12   45.0000000     GPS         TIME OF FIRST OBS   
  2020     5    16     6    21   23.0000000     GPS         TIME OF LAST OBS    
     0                                                      RCV CLOCK OFFS APPL 
    18                                                      LEAP SECONDS        
    10                                                      # OF SATELLITES     
   G01  4119  4119  4119  4119                              PRN / # OF OBS      
   G03  4119  4119  4119  4119                              PRN / # OF OBS      
   G07  4119  4119  4119  4119                              PRN / # OF OBS      
   G08  4119  4119  4109  4109                              PRN / # OF OBS      
   G11  4119  4113  4097  4097                              PRN / # OF OBS      
   G17  4097  4097  4097  4097                              PRN / # OF OBS      
   G19   574   574   574   574                              PRN / # OF OBS      
   G22  4119  4119  4119  4119                              PRN / # OF OBS      
   G28  4119  4119  4119  4119                              PRN / # OF OBS      
   G30  4119  4119  4119  4119                              PRN / # OF OBS      
CARRIER PHASE MEASUREMENTS: PHASE SHIFTS REMOVED            COMMENT             
                                                            END OF HEADER       
 20  5 16  5 12 45.0000000  0  8G01G03G07G08G11G22G28G30             0.000218805
  20177107.79717    -19560.50017     -7554.00459  20177109.41459
  23479676.07015    -82857.23815    -27108.80159  23479680.66459
  20954396.67216    -13029.33616     -4921.05559  20954395.29759
  23090964.51614     -3951.02314     -1202.30557  23090965.25057
  21171752.71116     -1354.20716      -736.07058  21171750.17258
  22729474.44516    -44750.47316    -18271.85958  22729472.14558
  23815307.22715    -64935.28515     -3677.11757  23815305.50457
  21733826.82816    -43685.87516    -13242.60559  21733827.18059
 20  5 16  5 12 46.0000000  0  8G01G03G07G08G11G22G28G30             0.000217459
  20176802.172 7    -21166.938 7     -8805.78549  20176803.88749
  23478752.961 5    -87711.605 5    -30891.42249  23478757.05149
  20954192.234 6    -14103.457 6     -5758.03149  20954190.85549
  23090916.297 4     -4202.934 4     -1398.60247  23090917.38347
  21171721.852 6     -1516.500 6      -862.53948  21171719.33248
  22728776.125 6    -48419.406 6    -21130.77048  22728774.18448
  23814424.508 5    -69571.242 5     -7289.56346  23814423.25046
  21733244.875 6    -46742.289 6    -15624.22749  21733245.12549
 20  5 16  5 12 47.0000000  0  8G01G03G07G08G11G22G28G30             0.000216110
  20176496.188 7    -22774.398 7    -10058.35249  20176498.21949
  23477829.078 5    -92567.578 5    -34675.28949  23477832.56349
  20953987.594 6    -15178.652 6     -6595.85249  20953986.52349
  23090868.555 4     -4456.566 4     -1596.22347  23090869.40247
  21171690.414 6     -1680.168 6      -990.07848  21171688.01648
  22728077.992 6    -52089.648 6    -23990.69948  22728075.69948
  23813542.109 5    -74208.934 5    -10903.34446  23813540.69546
  21732663.406 6    -49799.781 6    -18006.68449  21732663.96149
 20  5 16  5 12 48.0000000  0  8G01G03G07G08G11G22G28G30             0.000214762
  20176190.563 7    -24382.691 7    -11311.56349  20176192.26249
  23476904.531 5    -97424.969 5    -38460.26249  23476908.43049
  20953782.641 6    -16254.730 6     -7434.35549  20953781.26649
  23090819.320 4     -4711.738 4     -1795.04747  23090820.85947
  21171659.023 6     -1845.070 6     -1118.57048  21171656.72748
  22727379.203 6    -55761.059 6    -26851.54748  22727377.15648
  23812658.992 5    -78848.227 5    -14518.37947  23812658.10247
  21732080.969 6    -52858.160 6    -20389.84049  21732081.87149
 20  5 16  5 12 49.0000000  0  8G01G03G07G08G11G22G28G30             0.000213411
  20175884.352 7    -25991.734 7    -12565.35549  20175886.17249
  23475979.594 5   -102283.715 5    -42246.29749  23475983.78549
  20953577.531 6    -17331.594 6     -8273.46949  20953576.59849
  23090770.984 4     -4968.336 4     -1995.00447  23090771.92647
  21171627.727 6     -2011.105 6     -1247.94948  21171624.77048
  22726680.320 6    -59433.480 6    -29713.18448  22726678.22348
  23811776.422 5    -83488.977 5    -18134.55147  23811774.68447
  21731498.945 6    -55917.324 6    -22773.60249  21731499.44949
 20  5 16  5 12 50.0000000  0  8G01G03G07G08G11G22G28G30             0.000212061
  20175577.789 7    -27601.383 7    -13819.62549  20175579.84049
  23475054.930 5   -107143.676 5    -46033.27349  23475059.22749
  20953372.539 6    -18409.094 6     -9113.08249  20953371.31349
  23090721.484 4     -5226.262 4     -2195.98047  23090722.73047
  21171595.828 6     -2178.074 6     -1378.05148  21171593.49648
  22725981.422 6    -63106.797 6    -32575.51248  22725979.09048
  23810892.289 5    -88131.121 5    -21751.80947  23810891.42247
  21730916.898 6    -58977.141 6    -25157.88349  21730917.53549
 20  5 16  5 12 51.0000000  0  8G01G03G07G08G11G22G28G30             0.000210709
  20175271.578 7    -29211.566 7    -15074.31349  20175273.22349
  23474130.023 5   -112004.785 5    -49821.14849  23474133.90249
  20953167.523 6    -19487.188 6     -9953.15249  20953166.29349
  23090672.039 4     -5485.383 4     -2397.89147  23090673.27347
  21171563.820 6     -2346.027 6     -1508.93048  21171561.28548
  22725282.055 6    -66780.953 6    -35438.48848  22725279.59848
  23810009.125 5    -92774.516 5    -25370.03146  23810008.08246
  21730334.219 6    -62037.535 6    -27542.60549  21730334.85949
 20  5 16  5 12 52.0000000  0  8G01G03G07G08G11G22G28G30             0.000209356
  20174964.820 7    -30822.156 7    -16329.31349  20174966.95749
  23473204.477 5   -116866.859 5    -53609.77349  23473208.97349
  20952962.313 6    -20565.719 6    -10793.57049  20952961.28949
  23090622.789 4     -5745.652 4     -2600.69547  23090623.38747
  21171531.664 6     -2514.707 6     -1640.37148  21171529.57848
  22724582.922 6    -70455.801 6    -38302.00448  22724580.64848
  23809125.789 5    -97419.020 5    -28989.12947  23809124.16847
  21729752.078 6    -65098.391 6    -29927.68449  21729752.82449
 20  5 16  5 12 53.0000000  0  8G01G03G07G08G11G22G28G30             0.000208002
  20174658.500 7    -32432.941 7    -17584.47749  20174660.28149
  23472279.516 5   -121729.742 5    -57399.03149  23472283.24649
  20952757.203 6    -21644.504 6    -11634.18449  20952755.99249
  23090572.992 4     -6006.793 4     -2804.17647  23090573.64547
  21171499.555 6     -2684.016 6     -1772.30148  21171497.62148
  22723883.438 6    -74131.160 6    -41165.91848  22723880.87948
  23808241.719 5   -102064.566 5    -32609.04347  23808239.90247
  21729169.438 6    -68159.516 6    -32312.98049  21729170.18049
 20  5 16  5 12 54.0000000  0  8G01G03G07G08G11G22G28G30             0.000206650
  20174351.813 7    -34043.953 7    -18839.81349  20174353.87149
  23471353.539 5   -126593.426 5    -61188.91049  23471357.92649
  20952551.867 6    -22723.535 6    -12474.99249  20952550.52049
  23090523.680 4     -6268.879 4     -3008.41147  23090523.80547
  21171466.992 6     -2853.883 6     -1904.66048  21171464.37148
  22723184.195 6    -77807.043 6    -44030.23847  22723181.18047
  23807357.711 5   -106711.008 5    -36229.64147  23807355.75447
  21728586.930 6    -71220.863 6    -34698.44949  21728587.66449
 20  5 16  5 12 55.0000000  0  8G01G03G07G08G11G22G28G30             0.000205296
  20174045.617 7    -35655.031 7    -20095.19949  20174047.06649
  23470428.086 5   -131457.781 5    -64979.31649  23470432.12549
  20952346.609 6    -23802.680 6    -13315.88749  20952345.25849
  23090473.672 4     -6531.715 4     -3213.21947  23090473.92647
  21171434.977 6     -3024.227 6     -2037.39548  21171432.33248
  22722483.852 6    -81483.281 6    -46894.83647  22722481.94147
  23806473.141 5   -111358.246 5    -39850.86347  23806471.41047
  21728004.156 6    -74282.359 6    -37084.03149  21728005.19949
 20  5 16  5 12 56.0000000  0  8G01G03G07G08G11G22G28G30             0.000203941
  20173738.711 7    -37266.051 7    -21350.54349  20173740.78149
  23469502.180 5   -136322.668 5    -68770.13749  23469506.41849
  20952141.289 6    -24881.816 6    -14156.77049  20952140.02049
  23090423.547 4     -6795.188 4     -3418.52747  23090423.91447
  21171402.516 6     -3194.859 6     -2170.36348  21171399.79348
  22721784.852 6    -85159.738 6    -49759.60947  22721782.11747
  23805588.375 5   -116006.184 5    -43472.63747  23805586.98447
  21727421.648 6    -77343.813 6    -39469.58249  21727422.59449
 20  5 16  5 12 57.0000000  0  8G01G03G07G08G11G22G28G30             0.000202585
  20173432.203 7    -38876.824 7    -22605.69149  20173433.98849
  23468576.164 5   -141187.910 5    -72561.23049  23468580.56349
  20951935.992 6    -25960.738 6    -14997.48849  20951934.54349
  23090373.531 4     -7059.086 4     -3624.16447  23090373.31347
  21171369.695 6     -3365.637 6     -2303.43448  21171367.23448
  22721085.477 6    -88836.219 6    -52624.40247  22721082.68047
  23804704.000 5   -120654.613 5    -47094.78947  23804702.28547
  21726839.641 6    -80405.066 6    -41854.97749  21726840.08649
 20  5 16  5 12 58.0000000  0  8G01G03G07G08G11G22G28G30             0.000201231
  20173125.617 7    -40487.273 7    -23860.58649  20173127.46549
  23467651.133 5   -146053.414 5    -76352.53549  23467654.44949
  20951730.484 6    -27039.383 6    -15837.98849  20951729.43849
  23090322.438 4     -7323.383 4     -3830.10547  23090323.22347
  21171337.484 6     -3536.465 6     -2436.54748  21171334.62948
  22720385.781 6    -92512.715 6    -55489.20747  22720383.10547
  23803819.383 5   -125303.477 5    -50717.27747  23803817.48847
  21726256.461 6    -83466.051 6    -44240.16449  21726257.27049
 20  5 16  5 12 59.0000000  0  8G01G03G07G08G11G22G28G30             0.000199877
  20172819.414 7    -42097.316 7    -25115.16849  20172821.39549
  23466724.414 5   -150919.145 5    -80144.01649  23466728.57849
  20951525.492 6    -28117.684 6    -16678.22349  20951523.93049
  23090273.492 4     -7587.992 4     -4036.30147  23090272.88347
  21171304.719 6     -3707.273 6     -2569.64848  21171302.41048
  22719686.063 6    -96189.074 6    -58353.90647  22719683.80147
  23802934.266 5   -129952.660 5    -54340.01647  23802933.18447
  21725674.305 6    -86526.688 6    -46625.06649  21725675.10549
 20  5 16  5 13  0.0000000  0  8G01G03G07G08G11G22G28G30             0.000198521
  20172513.047 7    -43706.895 7    -26369.38349  20172515.03549
  23465798.352 5   -155784.953 5    -83935.55549  23465802.31349
  20951320.602 6    -29195.555 6    -17518.12949  20951318.93449
  23090221.984 4     -7852.777 4     -4242.62547  23090222.37547
  21171272.461 7     -3877.996 7     -2702.68048  21171269.99248
  22718986.617 6    -99865.297 6    -61218.49247  22718984.05947
  23802049.633 5   -134602.113 5    -57962.97347  23802048.27747
  21725092.250 6    -89586.906 6    -49009.65649  21725092.64549
 20  5 16  5 13  1.0000000  0  8G01G03G07G08G11G22G28G30             0.000197166
  20172207.000 7    -45315.887 7    -27623.14549  20172209.06349
  23464872.969 5   -160650.816 5    -87727.13349  23464876.75049
  20951115.273 6    -30272.871 6    -18357.60249  20951113.74249
  23090171.445 4     -8117.719 4     -4449.07047  23090171.94547
  21171239.625 6     -4048.551 6     -2835.58248  21171237.15248
  22718287.242 6   -103541.215 6    -64082.84448  22718284.27748
  23801165.078 5   -139251.738 5    -61586.05547  23801163.42247
  21724509.641 6    -92646.555 6    -51393.80149  21724509.90249
 20  5 16  5 13  2.0000000  0  8G01G03G07G08G11G22G28G30             0.000195810
  20171900.930 7    -46924.242 7    -28876.41049  20171902.75849
  23463947.000 5   -165516.609 5    -91518.66049  23463950.94949
  20950910.742 6    -31349.609 6    -19196.62149  20950908.76649
  23090121.492 4     -8382.661 4     -4655.50947  23090121.79747
  21171207.695 6     -4218.785 6     -2968.22748  21171205.04748
  22717587.430 6   -107216.766 6    -66946.91448  22717585.21948
  23800279.914 5   -143901.469 5    -65209.22747  23800278.82047
  21723927.320 6    -95705.617 6    -53777.49249  21723928.19149
 20  5 16  5 13  3.0000000  0  8G01G03G07G08G11G22G28G30             0.000194456
  20171595.008 7    -48531.855 7    -30129.09049  20171596.90649
  23463020.742 5   -170382.266 5    -95310.09049  23463024.77749
  20950705.641 6    -32425.641 6    -20035.09049  20950704.55949
  23090070.836 4     -8647.594 4     -4861.96147  23090070.80147
  21171175.352 6     -4388.660 6     -3100.60548  21171172.69948
  22716888.500 6   -110891.879 6    -69810.64147  22716885.75847
  23799395.484 5   -148551.199 5    -68832.38347  23799393.86747
  21723345.258 6    -98763.996 6    -56160.64549  21723346.41449
 20  5 16  5 13  4.0000000  0  8G01G03G07G08G11G22G28G30             0.000193100
  20171289.313 7    -50138.680 7    -31381.16049  20171291.19949
  23462094.914 5   -175247.727 5    -99101.35249  23462099.12549
  20950501.289 6    -33500.934 6    -20872.97749  20950499.73049
  23090020.352 4     -8912.504 4     -5068.37947  23090020.56347
  21171142.773 6     -4558.172 6     -3232.69148  21171140.46148
  22716189.352 6   -114566.523 6    -72674.00047  22716186.60547
  23798510.945 5   -153200.867 5    -72455.50047  23798508.89847
  21722763.898 6   -101821.645 6    -58543.22349  21722764.59849
 20  5 16  5 13  5.0000000  0  8G01G03G07G08G11G22G28G30             0.000191746
  20170983.773 7    -51744.613 7    -32632.54749  20170985.85549
  23461168.977 5   -180112.895 5   -102892.38749  23461173.28949
  20950296.523 6    -34575.383 6    -21710.20749  20950295.21949
  23089970.102 4     -9177.145 4     -5274.58647  23089970.38747
  21171110.930 6     -4727.129 6     -3364.35248  21171108.65248
  22715490.117 6   -118240.539 6    -75536.86748  22715487.39148
  23797625.898 5   -157850.391 5    -76078.50846  23797624.05146
  21722181.836 6   -104878.430 6    -60925.13349  21722182.96949
 20  5 16  5 13  6.0000000  0  8G01G03G07G08G11G22G28G30             0.000190392
  20170677.930 7    -53349.602 7    -33883.18449  20170680.23449
  23460243.461 5   -184977.688 5   -106683.12949  23460247.52349
  20950092.344 6    -35648.926 6    -22546.73849  20950090.93849
  23089919.523 4     -9441.555 4     -5480.62547  23089920.36747
  21171078.961 7     -4895.531 7     -3495.57448  21171076.65648
  22714790.500 6   -121913.898 6    -78399.22748  22714788.12548
  23796740.898 5   -162499.699 5    -79701.34847  23796739.35247
  21721600.203 6   -107934.309 6    -63306.33649  21721601.03149
 20  5 16  5 13  7.0000000  0  9G01G03G07G08G11G17G22G28G30          0.000189035
  20170373.086 7    -54953.594 7    -35133.04349  20170374.98049
  23459317.594 5   -189842.094 5   -110473.57049  23459321.63349
  20949888.086 7    -36721.516 7    -23382.51649  20949886.85549
  23089869.305 4     -9705.641 4     -5686.41847  23089869.71947
  21171046.977 6     -5063.320 6     -3626.31348  21171044.53148
  24146000.38315   -127499.39115    -62449.30558  24145999.90658
  22714091.250 6   -125586.566 6    -81261.04348  22714089.41048
  23795856.258 5   -167148.781 5    -83324.02047  23795854.56347
  21721019.094 6   -110989.258 6    -65686.81649  21721019.73849
 20  5 16  5 13  8.0000000  0  9G01G03G07G08G11G17G22G28G30          0.000187681
  20170067.836 7    -56556.551 7    -36382.10249  20170069.69549
  23458392.039 5   -194706.066 5   -114263.68049  23458396.32449
  20949684.055 6    -37793.098 6    -24217.52049  20949682.83649
  23089819.773 4     -9969.398 4     -5891.94547  23089819.98847
  21171015.023 6     -5230.445 6     -3756.54348  21171012.77048
  24145318.984 5   -131082.578 5    -65241.39848  24145318.46948
  22713393.492 6   -129258.480 6    -84122.26648  22713390.68848
  23794971.484 5   -171797.527 5    -86946.41447  23794970.08647
  21720437.883 6   -114043.180 6    -68066.50049  21720438.66849
 20  5 16  5 13  9.0000000  0  9G01G03G07G08G11G17G22G28G30          0.000186327
  20169762.883 7    -58158.379 7    -37630.28149  20169764.62149
  23457466.477 5   -199569.457 5   -118053.32849  23457470.57849
  20949480.320 6    -38863.586 6    -25051.66849  20949479.41049
  23089768.844 4    -10232.746 4     -6097.16047  23089769.33247
  21170983.547 6     -5396.813 6     -3886.17648  21170981.00048
  24144636.883 5   -134665.211 5    -68033.05548  24144636.52348
  22712694.734 6   -132929.566 6    -86982.85548  22712692.25848
  23794087.484 5   -176445.887 5    -90568.51647  23794085.52747
  21719856.898 6   -117096.039 6    -70445.35549  21719857.71149
 20  5 16  5 13 10.0000000  0  9G01G03G07G08G11G17G22G28G30          0.000184973
  20169458.445 7    -59759.016 7    -38877.53149  20169460.43849
  23456541.633 5   -204432.324 5   -121842.57449  23456545.17249
  20949277.156 6    -39932.953 6    -25884.94149  20949275.62149
  23089718.883 4    -10495.633 4     -6302.00447  23089719.32847
  21170952.000 7     -5562.398 7     -4015.20348  21170948.91448
  24143955.148 5   -138247.160 5    -70824.19548  24143955.09848
  22711996.336 6   -136599.777 6    -89842.75847  22711993.82447
  23793202.922 5   -181093.828 5    -94190.28947  23793201.29747
  21719276.250 6   -120147.766 6    -72823.32449  21719277.21949
 20  5 16  5 13 11.0000000  0  9G01G03G07G08G11G17G22G28G30          0.000183619
  20169154.016 7    -61358.516 7    -40123.89549  20169155.71549
  23455615.914 5   -209294.594 5   -125631.35549  23455620.02349
  20949073.789 6    -41001.223 6    -26717.35949  20949072.39149
  23089669.344 5    -10758.070 5     -6506.50447  23089669.74247
  21170920.719 6     -5727.207 6     -4143.62948  21170918.31648
  24143273.789 5   -141828.539 5    -73614.88348  24143273.60948
  22711298.047 6   -140269.098 6    -92701.96947  22711295.76247
  23792318.352 5   -185741.363 5    -97811.74247  23792316.80147
  21718695.820 6   -123198.379 6    -75200.42649  21718696.42249
 20  5 16  5 13 12.0000000  0  9G01G03G07G08G11G17G22G28G30          0.000182266
  20168849.664 7    -62956.813 7    -41369.32849  20168851.89849
  23454690.945 5   -214156.262 5   -129419.66849  23454694.60949
  20948870.688 7    -42068.332 7    -27548.87949  20948869.48449
  23089619.273 5    -11019.957 5     -6710.55547  23089619.84847
  21170889.258 6     -5891.191 6     -4271.41848  21170886.75048
  24142592.836 5   -145409.219 5    -76405.02348  24142592.54348
  22710599.352 6   -143937.527 6    -95560.48847  22710597.24647
  23791434.008 5   -190388.438 5   -101432.83647  23791432.35247
  21718115.711 6   -126247.848 6    -77576.63749  21718116.72349
 20  5 16  5 13 13.0000000  0  9G01G03G07G08G11G17G22G28G30          0.000180914
  20168546.031 7    -64553.875 7    -42613.78949  20168548.07049
  23453766.125 5   -219017.309 5   -133207.49649  23453769.80549
  20948667.922 7    -43134.270 7    -28379.47749  20948666.58249
  23089570.000 5    -11281.332 5     -6914.22747  23089569.87947
  21170858.367 6     -6054.332 6     -4398.54348  21170855.67248
  24141910.570 5   -148989.188 5    -79194.60948  24141911.09848
  22709902.086 6   -147605.027 6    -98418.27747  22709899.49647
  23790550.031 5   -195035.020 5   -105053.54747  23790548.50047
  21717535.219 6   -129296.121 6    -79951.91049  21717536.13349
 20  5 16  5 13 14.0000000  0  9G01G03G07G08G11G17G22G28G30          0.000179562
  20168242.242 7    -66149.625 7    -43857.23049  20168244.19149
  23452841.047 5   -223877.656 5   -136994.77749  23452844.61349
  20948465.305 7    -44198.898 7    -29209.05949  20948463.66049
  23089520.469 5    -11542.082 5     -7117.42647  23089520.88347
  21170827.094 6     -6216.527 6     -4524.93048  21170824.77748
  24141229.656 5   -152568.375 5    -81983.59048  24141230.21148
  22709204.164 6   -151271.473 6   -101275.25047  22709201.56347
  23789665.555 5   -199681.020 5   -108673.81647  23789664.68047
  21716955.789 6   -132343.113 6    -82326.19149  21716956.67649
 20  5 16  5 13 15.0000000  0  9G01G03G07G08G11G17G22G28G30          0.000178209
  20167938.797 7    -67744.160 7    -45099.72349  20167941.08649
  23451916.336 5   -228737.328 5   -140781.53549  23451919.94149
  20948262.688 7    -45262.355 7    -30037.73049  20948261.77049
  23089470.203 4    -11802.336 4     -7320.23046  23089471.16846
  21170796.492 6     -6377.875 6     -4650.65248  21170794.02748
  24140549.008 5   -156146.895 5    -84772.04348  24140549.25848
  22708506.688 6   -154936.984 6   -104131.49647  22708504.40247
  23788782.156 5   -204326.547 5   -112293.70747  23788780.39547
  21716376.148 6   -135388.949 6    -84699.57449  21716376.73449
 20  5 16  5 13 16.0000000  0  9G01G03G07G08G11G17G22G28G30          0.000176857
  20167635.773 7    -69337.375 7    -46341.19549  20167637.56349
  23450991.516 5   -233596.277 5   -144567.72749  23450995.52049
  20948060.617 7    -46324.563 7    -30865.42249  20948059.39549
  23089421.391 4    -12061.949 4     -7522.51646  23089421.89846
  21170766.336 6     -6538.297 6     -4775.65248  21170763.60948
  24139868.367 4   -159724.617 4    -87559.87548  24139868.91848
  22707809.492 6   -158601.535 6   -106986.98447  22707806.71147
  23787897.375 5   -208971.469 5   -115913.12146  23787896.60246
  21715796.797 6   -138433.508 6    -87071.96149  21715797.48049
 20  5 16  5 13 17.0000000  0  9G01G03G07G08G11G17G22G28G30          0.000175507
  20167332.781 7    -70929.273 7    -47581.63349  20167334.94949
  23450066.820 5   -238454.508 5   -148353.35549  23450070.81649
  20947858.516 6    -47385.492 6    -31692.12149  20947857.48449
  23089372.023 4    -12320.969 4     -7724.36346  23089372.67646
  21170735.984 6     -6697.770 6     -4899.91848  21170733.39148
  24139187.539 5   -163301.543 5    -90347.08248  24139187.60948
  22707112.477 6   -162264.996 6   -109841.62547  22707109.73447
  23787014.016 5   -213615.820 5   -119532.09447  23787012.36347
  21715217.719 6   -141476.793 6    -89443.35249  21715218.36749
 20  5 16  5 13 18.0000000  0  9G01G03G07G08G11G17G22G28G30          0.000174156
  20167030.000 7    -72519.785 7    -48820.99249  20167031.92649
  23449142.547 5   -243311.957 5   -152138.37149  23449146.66049
  20947657.039 7    -48445.070 7    -32517.76649  20947656.06649
  23089323.758 4    -12579.281 4     -7925.65646  23089323.32446
  21170705.648 6     -6856.262 6     -5023.41448  21170703.09448
  24138507.242 5   -166877.613 5    -93133.62948  24138507.19148
  22706415.633 6   -165927.375 6   -112695.43047  22706412.96147
  23786130.602 5   -218259.527 5   -123150.57047  23786128.91447
  21714638.914 6   -144518.738 6    -91813.69949  21714639.44549
 20  5 16  5 13 19.0000000  0  9G01G03G07G08G11G17G22G28G30          0.000172806
  20166727.633 7    -74108.891 7    -50059.25849  20166729.74249
  23448218.500 5   -248168.586 5   -155922.75849  23448222.28949
  20947455.945 7    -49503.305 7    -33342.36749  20947454.62949
  23089274.492 4    -12836.914 4     -8126.41446  23089274.48046
  21170675.414 6     -7013.719 6     -5146.11348  21170673.29748
  24137826.414 5   -170452.809 5    -95919.49248  24137827.25448
  22705718.859 6   -169588.660 6   -115548.37947  22705716.35547
  23785246.664 5   -222902.633 5   -126768.58247  23785245.46147
  21714059.992 6   -147559.313 6    -94182.98049  21714060.79349
 20  5 16  5 13 20.0000000  0  9G01G03G07G08G11G17G22G28G30          0.000171457
  20166425.711 7    -75696.586 7    -51296.42649  20166427.73449
  23447294.563 5   -253024.375 5   -159706.48849  23447298.32049
  20947254.688 7    -50560.156 7    -34165.89149  20947253.42649
  23089225.086 4    -13093.777 4     -8326.56646  23089225.34446
  21170646.258 6     -7170.109 6     -5267.98448  21170643.50448
  24137146.883 5   -174027.105 5    -98704.66848  24137146.78548
  22705021.969 6   -173248.805 6   -118400.43448  22705019.76648
  23784363.852 5   -227544.988 5   -130386.00447  23784362.21147
  21713482.102 6   -150598.484 6    -96551.16849  21713482.68049
 20  5 16  5 13 21.0000000  0  9G01G03G07G08G11G17G22G28G30          0.000170107
  20166123.609 7    -77282.883 7    -52532.50049  20166125.69149
  23446370.625 5   -257879.387 5   -163489.61349  23446374.23849
  20947053.906 7    -51615.652 7    -34988.35549  20947052.58249
  23089176.227 4    -13349.965 4     -8526.18446  23089176.83646
  21170616.305 6     -7325.523 6     -5389.08648  21170614.16448
  24136466.477 5   -177600.609 5   -101489.21948  24136466.82848
  22704326.094 6   -176907.840 6   -121251.63747  22704323.63347
  23783479.875 5   -232186.711 5   -134002.92247  23783478.58247
  21712904.000 6   -153636.367 6    -98918.35249  21712904.34849
 20  5 16  5 13 22.0000000  0  9G01G03G07G08G11G17G22G28G30          0.000168758
  20165822.117 7    -78867.859 7    -53767.54349  20165823.77049
  23445447.016 5   -262733.672 5   -167272.17249  23445450.43049
  20946853.180 7    -52669.867 7    -35809.82049  20946851.59449
  23089127.492 4    -13605.488 4     -8725.28946  23089128.30146
  21170586.891 6     -7479.973 6     -5509.43448  21170584.42648
  24135786.852 5   -181173.242 5   -104273.08648  24135786.73848
  22703629.922 6   -180565.852 6   -124102.03548  22703627.29348
  23782596.711 5   -236827.832 5   -137619.36747  23782595.55947
  21712326.008 6   -156672.949 6   -101284.52049  21712326.91849
 20  5 16  5 13 23.0000000  0  9G01G03G07G08G11G17G22G28G30          0.000167410
  20165520.906 7    -80451.391 7    -55001.46549  20165522.78149
  23444523.172 5   -267587.066 5   -171054.03949  23444526.90249
  20946652.852 7    -53722.684 7    -36630.20749  20946651.83649
  23089078.961 4    -13860.297 4     -8923.83247  23089079.52347
  21170558.133 6     -7633.348 6     -5628.94148  21170555.70748
  24135107.313 5   -184745.023 5   -107056.28948  24135107.41048
  22702933.977 6   -184222.684 6   -126951.51247  22702931.68447
  23781713.992 5   -241468.270 5   -141235.28547  23781712.53947
  21711747.445 6   -159708.102 6   -103649.57049  21711748.71549
 20  5 16  5 13 24.0000000  0  9G01G03G07G08G11G17G22G28G30          0.000166063
  20165219.852 7    -82033.469 7    -56234.25849  20165221.85949
  23443599.578 5   -272439.656 5   -174835.27349  23443603.68849
  20946452.969 7    -54774.113 7    -37449.50849  20946451.62149
  23089030.750 4    -14114.398 4     -9121.83646  23089031.25046
  21170528.773 6     -7785.684 6     -5747.64848  21170525.84848
  24134427.672 5   -188315.813 5   -109838.72348  24134427.99248
  22702237.656 5   -187878.395 5   -129800.12147  22702235.32847
  23780831.141 5   -246108.016 5   -144850.69147  23780829.65647
  21711171.125 6   -162741.891 6   -106013.56349  21711171.98849
 20  5 16  5 13 25.0000000  0  9G01G03G07G08G11G17G22G28G30          0.000164715
  20164919.117 7    -83614.184 7    -57465.98049  20164920.83649
  23442676.836 5   -277291.414 5   -178615.85549  23442680.17649
  20946252.992 7    -55824.184 7    -38267.74649  20946251.57049
  23088982.586 4    -14367.727 4     -9319.22346  23088983.03546
  21170499.961 6     -7936.992 6     -5865.55948  21170497.57048
  24133748.328 5   -191885.809 5   -112620.53148  24133748.41048
  22701542.797 5   -191533.016 5   -132647.88348  22701540.20348
  23779947.938 5   -250747.102 5   -148465.56647  23779946.55147
  21710594.055 6   -165774.297 6   -108376.48049  21710595.11749
 20  5 16  5 13 26.0000000  0  9G01G03G07G08G11G17G22G28G30          0.000163368
  20164618.430 7    -85193.516 7    -58696.63349  20164620.57449
  23441753.883 5   -282142.387 5   -182395.83249  23441757.37949
  20946053.148 7    -56872.938 7    -39084.95749  20946052.45349
  23088934.352 4    -14620.438 4     -9516.13746  23088934.60246
  21170471.469 6     -8087.328 6     -5982.70348  21170468.63748
  24133069.633 5   -195454.982 5   -115401.70248  24133069.35948
  22700847.633 5   -195186.535 5   -135494.77748  22700845.39148
  23779065.008 5   -255385.555 5   -152079.94547  23779063.98447
  21710017.148 6   -168805.406 6   -110738.38349  21710018.00849
 20  5 16  5 13 27.0000000  0  9G01G03G07G08G11G17G22G28G30          0.000162022
  20164318.242 7    -86771.371 7    -59926.13349  20164319.91849
  23440830.297 5   -286992.484 5   -186175.13349  23440835.00049
  20945854.234 7    -57920.246 7    -39901.03949  20945853.05949
  23088886.320 3    -14872.328 3     -9712.41846  23088886.95346
  21170442.867 7     -8236.551 7     -6098.98048  21170440.52048
  24132390.078 5   -199023.164 5   -118182.10948  24132390.69548
  22700152.125 6   -198838.859 6   -138340.73848  22700150.18448
  23778183.234 5   -260023.273 5   -155693.76247  23778181.86347
  21709440.508 6   -171835.074 6   -113099.16049  21709441.45349
 20  5 16  5 13 28.0000000  0  9G01G03G07G08G11G17G22G28G30          0.000160677
  20164018.297 7    -88347.793 7    -61154.50849  20164019.98449
  23439908.273 5   -291841.734 5   -189953.77049  23439911.85949
  20945655.055 7    -58966.180 7    -40716.05149  20945653.86749
  23088838.734 4    -15123.520 4     -9908.15646  23088839.27046
  21170414.859 7     -8384.723 7     -6214.44548  21170412.28148
  24131711.461 5   -202590.445 5   -120961.81648  24131711.40648
  22699457.773 6   -202490.055 6   -141185.82848  22699455.21948
  23777300.336 5   -264660.285 5   -159307.01647  23777299.17247
  21708864.516 6   -174863.324 6   -115458.83249  21708865.36349
 20  5 16  5 13 29.0000000  0  9G01G03G07G08G11G17G22G28G30          0.000159330
  20163718.469 7    -89922.781 7    -62381.77749  20163720.22749
  23438985.188 5   -296690.180 5   -193731.77349  23438988.77349
  20945456.156 7    -60010.723 7    -41529.97749  20945455.05549
  23088791.961 4    -15373.938 4    -10103.28946  23088791.16446
  21170386.680 6     -8531.855 6     -6329.09848  21170384.48048
  24131032.672 5   -206156.816 5   -123740.80948  24131033.34448
  22698762.922 5   -206140.090 5   -144030.00047  22698760.77047
  23776418.477 5   -269296.605 5   -162919.73047  23776416.80947
  21708288.438 6   -177890.227 6   -117817.46149  21708289.00449
 20  5 16  5 13 30.0000000  0  9G01G03G07G08G11G17G22G28G30          0.000157986
  20163419.000 7    -91496.348 7    -63607.93449  20163420.50049
  23438062.859 5   -301537.754 5   -197509.10249  23438066.52049
  20945257.883 6    -61053.891 6    -42342.84049  20945256.57049
  23088744.375 4    -15623.685 4    -10297.89846  23088743.70746
  21170359.031 6     -8677.957 6     -6442.94548  21170356.60248
  24130354.078 5   -209722.320 5   -126519.11748  24130354.51248
  22698069.023 5   -209789.027 5   -146873.32047  22698066.75847
  23775536.383 5   -273932.270 5   -166531.93047  23775535.06347
  21707712.742 6   -180915.742 6   -120175.00849  21707713.39149
 20  5 16  5 13 31.0000000  0  9G01G03G07G08G11G17G22G28G30          0.000156641
  20163119.984 7    -93068.539 7    -64833.01649  20163122.14149
  23437140.414 5   -306384.543 5   -201285.82049  23437144.32449
  20945059.516 7    -62095.707 7    -43154.64849  20945058.19949
  23088696.953 3    -15872.684 3    -10491.91046  23088696.25846
  21170331.258 6     -8823.051 6     -6556.00448  21170329.12548
  24129675.695 5   -213286.984 5   -129296.77348  24129675.96148
  22697374.461 5   -213436.852 5   -149715.78547  22697372.27047
  23774654.102 5   -278567.270 5   -170143.62146  23774652.85946
  21707137.195 6   -183939.918 6   -122531.50449  21707137.66849
 20  5 16  5 13 32.0000000  0  9G01G03G07G08G11G17G22G28G30          0.000155298
  20162820.984 7    -94639.301 7    -66056.98849  20162822.76649
  23436218.688 5   -311230.520 5   -205061.89849  23436222.41049
  20944861.656 7    -63136.152 7    -43965.38749  20944860.35549
  23088648.547 4    -16121.000 4    -10685.40646  23088648.89546
  21170303.781 6     -8967.105 6     -6668.25848  21170301.48848
  24128998.281 5   -216850.742 5   -132073.72348  24128998.51648
  22696680.398 5   -217083.527 5   -152557.34847  22696678.08247
  23773771.883 5   -283201.598 5   -173754.78547  23773770.78947
  21706561.992 6   -186962.715 6   -124886.93449  21706563.00849
 20  5 16  5 13 33.0000000  0  9G01G03G07G08G11G17G22G28G30          0.000153954
  20162522.227 7    -96208.621 7    -67279.83649  20162524.50449
  23435296.297 5   -316075.609 5   -208837.28549  23435300.16049
  20944663.961 7    -64175.199 7    -44775.03549  20944662.75049
  23088602.141 4    -16368.512 4    -10878.29346  23088601.84846
  21170276.523 6     -9110.102 6     -6779.67648  21170274.56348
  24128319.344 5   -220413.551 5   -134849.93448  24128320.02748
  22695986.953 5   -220729.070 5   -155398.03547  22695984.41047
  23772890.805 5   -287835.215 5   -177365.39847  23772889.12947
  21705986.984 6   -189984.102 6   -127241.26649  21705987.83649
 20  5 16  5 13 34.0000000  0  9G01G03G07G08G11G17G22G28G30          0.000152611
  20162224.016 7    -97776.535 7    -68501.59049  20162225.89549
  23434374.648 5   -320919.879 5   -212612.03949  23434378.25849
  20944466.328 7    -65212.859 7    -45583.60549  20944464.89549
  23088554.898 3    -16615.293 3    -11070.58246  23088555.07846
  21170249.766 6     -9252.023 6     -6890.26248  21170246.89148
  24127641.656 5   -223975.508 5   -137625.47748  24127642.21148
  22695293.602 6   -224373.496 6   -158237.84847  22695290.81347
  23772008.938 5   -292468.152 5   -180975.47347  23772007.39147
  21705412.578 6   -193004.113 6   -129594.52349  21705413.07849
 20  5 16  5 13 35.0000000  0  9G01G03G07G08G11G17G22G28G30          0.000151268
  20161926.172 7    -99343.035 7    -69722.23449  20161927.89849
  23433452.656 5   -325763.359 5   -216386.17649  23433456.42649
  20944269.328 7    -66249.164 7    -46391.11749  20944267.96949
  23088507.805 4    -16861.465 4    -11262.40646  23088508.59446
  21170223.117 6     -9392.969 6     -7000.09848  21170220.62948
  24126963.359 5   -227536.582 5   -140400.33248  24126964.64548
  22694600.094 5   -228016.773 5   -161076.75847  22694597.77047
  23771127.813 5   -297100.418 5   -184585.03547  23771125.83647
  21704837.641 6   -196022.781 6   -131946.73449  21704838.67649
 20  5 16  5 13 36.0000000  0  9G01G03G07G08G11G17G22G28G30          0.000149927
  20161628.195 7   -100908.238 7    -70941.87149  20161630.00449
  23432531.297 5   -330606.109 5   -220159.74249  23432534.74249
  20944072.039 7    -67284.215 7    -47197.65249  20944070.45749
  23088461.484 4    -17107.000 4    -11453.72347  23088461.59047
  21170195.781 6     -9532.977 6     -7109.19948  21170193.77748
  24126286.789 5   -231096.895 5   -143174.60548  24126286.89548
  22693907.133 5   -231659.066 5   -163914.91847  22693904.97747
  23770245.711 5   -301732.063 5   -188194.10247  23770244.91047
  21704263.922 6   -199040.184 6   -134297.95749  21704264.49249
 20  5 16  5 13 37.0000000  0  9G01G03G07G08G11G17G22G28G30          0.000148584
  20161330.672 7   -102472.086 7    -72160.45349  20161332.62149
  23431609.867 5   -335448.070 5   -223932.69549  23431613.38749
  20943875.367 7    -68317.957 7    -48003.16449  20943874.26649
  23088415.344 4    -17351.793 4    -11644.47147  23088415.24247
  21170170.055 6     -9672.000 6     -7217.53548  21170167.41848
  24125609.375 5   -234656.348 5   -145948.20348  24125609.43048
  22693214.102 6   -235300.250 6   -166752.20747  22693211.80547
  23769364.297 5   -306363.195 5   -191802.78147  23769363.11747
  21703689.602 6   -202056.266 6   -136648.14849  21703690.44149
 20  5 16  5 13 38.0000000  0  9G01G03G07G08G11G17G22G28G30          0.000147243
  20161032.961 7   -104034.543 7    -73377.96549  20161035.10949
  23430688.078 5   -340289.273 5   -227705.06349  23430692.21149
  20943678.930 7    -69350.359 7    -48807.63749  20943677.94149
  23088368.172 2    -17595.984 2    -11834.74246  23088368.74246
  21170143.867 6     -9809.980 6     -7325.04348  21170141.07848
  24124931.977 5   -238214.953 5   -148721.13348  24124932.08648
  22692521.375 6   -238940.344 6   -169588.65247  22692519.37547
  23768483.305 6   -310993.594 6   -195410.89147  23768482.43047
  21703115.625 6   -205070.988 6   -138997.27749  21703116.81349
 20  5 16  5 13 39.0000000  0  9G01G03G07G08G11G17G22G28G30          0.000145903
  20160736.047 7   -105595.641 7    -74594.40649  20160737.77049
  23429767.828 5   -345129.668 5   -231476.78549  23429771.12549
  20943482.820 7    -70381.430 7    -49611.06649  20943481.56649
  23088321.766 2    -17839.480 2    -12024.47746  23088322.29346
  21170117.766 6     -9947.016 6     -7431.82048  21170115.14548
  24124255.203 5   -241772.746 5   -151493.44148  24124255.27348
  22691828.719 6   -242579.375 6   -172424.27047  22691826.55547
  23767602.570 5   -315623.406 5   -199018.53147  23767601.17247
  21702542.492 6   -208084.406 6   -141345.40649  21702543.24249
 20  5 16  5 13 40.0000000  0  9G01G03G07G08G11G17G22G28G30          0.000144564
  20160439.242 7   -107155.398 7    -75809.80549  20160441.47349
  23428846.102 5   -349969.328 5   -235247.94949  23428850.11749
  20943286.680 7    -71411.195 7    -50413.48049  20943285.36349
  23088275.789 3    -18082.355 3    -12213.71546  23088276.14546
  21170091.797 6    -10083.094 6     -7537.85948  21170089.46948
  24123578.055 5   -245329.711 5   -154265.09448  24123578.08648
  22691136.820 6   -246217.344 6   -175259.04747  22691133.96547
  23766721.734 5   -320252.617 5   -202625.69947  23766720.62147
  21701969.336 6   -211096.508 6   -143692.49649  21701969.79349
 20  5 16  5 13 41.0000000  0  9G01G03G07G08G11G17G22G28G30          0.000143223
  20160142.594 7   -108713.805 7    -77024.14549  20160144.94949
  23427925.391 5   -354808.219 5   -239018.50049  23427928.89849
  20943091.172 6    -72439.660 6    -51214.88349  20943089.56649
  23088229.844 2    -18324.496 2    -12402.38746  23088230.14546
  21170065.969 6    -10218.172 6     -7643.10948  21170063.57048
  24122901.156 5   -248885.855 5   -157036.12148  24122901.27048
  22690444.891 6   -249854.258 6   -178093.00447  22690442.33647
  23765840.695 6   -324881.199 6   -206232.38747  23765839.48847
  21701396.500 6   -214107.301 6   -146038.57449  21701397.28949
 20  5 16  5 13 42.0000000  0  9G01G03G07G08G11G17G22G28G30          0.000141884
  20159846.375 7   -110270.879 7    -78237.44149  20159848.55149
  23427005.203 5   -359646.363 5   -242788.48848  23427008.53148
  20942895.695 6    -73466.859 6    -52015.30149  20942893.71549
  23088184.180 2    -18566.145 2    -12590.70346  23088184.27746
  21170039.930 6    -10352.301 6     -7747.62148  21170037.82848
  24122224.547 5   -252441.250 5   -159806.55148  24122224.73448
  22689752.789 6   -253490.125 6   -180926.13747  22689750.20347
  23764960.219 5   -329509.211 5   -209838.62947  23764958.68447
  21700824.078 6   -217116.820 6   -148383.66049  21700824.25849
 20  5 16  5 13 43.0000000  0  9G01G03G07G08G11G17G22G28G30          0.000140545
  20159550.281 7   -111826.613 7    -79449.70349  20159551.99649
  23426084.609 5   -364483.762 5   -246557.89848  23426088.09848
  20942700.320 6    -74492.734 6    -52814.68449  20942698.80149
  23088137.813 4    -18806.996 4    -12778.39146  23088138.56646
  21170015.094 6    -10485.543 6     -7851.44548  21170012.70748
  24121548.211 5   -255995.773 5   -162576.28548  24121548.44148
  22689060.578 6   -257124.930 6   -183758.44547  22689058.73447
  23764079.500 5   -334136.598 5   -213444.37947  23764078.39547
  21700251.414 6   -220125.063 6   -150727.75849  21700251.82049
 20  5 16  5 13 44.0000000  0  9G01G03G07G08G11G17G22G28G30          0.000139206
  20159254.750 7   -113380.996 7    -80660.90649  20159256.59049
  23425163.688 5   -369320.418 5   -250326.72748  23425167.30548
  20942505.391 6    -75517.316 6    -53613.06649  20942504.04749
  23088092.688 4    -19047.301 4    -12965.67246  23088092.85946
  21169989.695 6    -10617.754 6     -7954.47748  21169987.07848
  24120871.797 5   -259549.531 5   -165345.44948  24120871.59448
  22688369.555 6   -260758.680 6   -186589.93447  22688367.28547
  23763199.117 5   -338763.391 5   -217049.66847  23763198.17647
  21699679.102 6   -223131.977 6   -153070.80549  21699679.68449
 20  5 16  5 13 45.0000000  0  9G01G03G07G08G11G17G22G28G30          0.000137867
  20158959.023 7   -114934.184 7    -81871.18049  20158961.10949
  23424243.859 5   -374156.438 5   -254095.05148  23424246.84848
  20942310.828 6    -76540.770 6    -54410.56349  20942309.41449
  23088046.906 3    -19287.020 3    -13152.46146  23088047.12146
  21169965.031 6    -10749.125 6     -8056.84448  21169962.36348
  24120196.398 5   -263102.578 5   -168114.06348  24120195.44148
  22687678.289 6   -264391.539 6   -189420.74247  22687676.09047
  23762318.750 5   -343389.664 5   -220654.55947  23762317.17247
  21699107.172 6   -226137.715 6   -155412.94549  21699107.45749
 20  5 16  5 13 46.0000000  0  9G01G03G07G08G11G17G22G28G30          0.000136530
  20158663.719 7   -116486.113 7    -83080.47349  20158665.86349
  23423323.711 5   -378991.801 5   -257862.85248  23423327.43048
  20942116.031 6    -77562.984 6    -55207.09449  20942114.20749
  23088001.406 3    -19526.203 3    -13338.83246  23088001.74246
  21169939.859 6    -10879.621 6     -8158.52348  21169937.38348
  24119519.906 5   -266654.910 5   -170882.10548  24119519.52348
  22686987.211 6   -268023.387 6   -192250.75047  22686985.19547
  23761438.148 5   -348015.496 5   -224259.10247  23761437.29347
  21698535.703 6   -229142.273 6   -157754.16049  21698536.03949
 20  5 16  5 13 47.0000000  0  9G01G03G07G08G11G17G22G28G30          0.000135193
  20158368.594 7   -118036.691 7    -84288.71949  20158370.95749
  23422403.273 5   -383826.402 5   -261630.06348  23422407.22348
  20941921.789 6    -78583.879 6    -56002.59449  20941920.33649
  23087956.102 2    -19764.754 2    -13524.70346  23087956.32846
  21169915.703 6    -11009.180 6     -8259.47348  21169912.78948
  24118843.875 5   -270206.418 5   -173649.49248  24118843.92248
  22686296.000 6   -271654.191 6   -195079.96547  22686294.37547
  23760558.055 5   -352640.684 5   -227863.13747  23760557.48447
  21697964.133 6   -232145.531 6   -160094.36749  21697964.54749
 20  5 16  5 13 48.0000000  0  9G01G03G07G08G11G17G22G28G30          0.000133856
  20158073.547 7   -119586.055 7    -85496.02049  20158075.36749
  23421483.672 5   -388660.324 5   -265396.75848  23421487.07848
  20941728.031 6    -79603.605 6    -56797.19549  20941726.19149
  23087910.172 2    -20002.734 2    -13710.12946  23087911.19546
  21169891.086 6    -11137.871 6     -8359.75448  21169888.75048
  24118167.563 5   -273757.203 5   -176416.33648  24118167.90648
  22685605.383 6   -275284.059 6   -197908.43847  22685603.36747
  23759678.070 5   -357265.355 5   -231466.78547  23759677.29747
  21697392.617 6   -235147.578 6   -162433.62549  21697393.48449
 20  5 16  5 13 49.0000000  0  9G01G03G07G08G11G17G22G28G30          0.000132519
  20157779.063 7   -121134.219 7    -86702.37949  20157781.12149
  23420563.805 5   -393493.723 5   -269163.05548  23420567.07848
  20941534.023 6    -80622.207 6    -57590.91449  20941532.64149
  23087865.117 1    -20240.316 1    -13895.28546  23087866.01646
  21169866.383 6    -11265.777 6     -8459.42248  21169863.94148
  24117492.664 5   -277307.445 5   -179182.77048  24117491.96548
  22684915.047 6   -278913.043 6   -200736.22347  22684913.13747
  23758798.070 5   -361889.605 5   -235070.10547  23758797.31347
  21696821.805 6   -238148.473 6   -164771.98049  21696822.54749
 20  5 16  5 13 50.0000000  0  9G01G03G07G08G11G17G22G28G30          0.000131182
  20157484.766 7   -122681.176 7    -87907.80149  20157486.68449
  23419643.992 5   -398326.457 5   -272928.81348  23419647.68448
  20941340.570 6    -81639.602 6    -58383.68049  20941338.79349
  23087819.828 2    -20477.316 2    -14079.96146  23087820.67246
  21169842.500 6    -11392.859 6     -8558.44948  21169839.84848
  24116817.734 5   -280856.906 5   -181948.57448  24116817.17648
  22684223.820 6   -282541.066 6   -203563.25047  22684222.23847
  23757918.313 5   -366513.398 5   -238673.05147  23757917.14147
  21696250.422 6   -241148.223 6   -167109.45349  21696251.64849
 20  5 16  5 13 51.0000000  0  9G01G03G07G08G11G17G22G28G30          0.000129847
  20157190.898 7   -124226.855 7    -89112.22349  20157192.43049
  23418724.719 5   -403158.500 5   -276694.03148  23418727.88748
  20941147.227 6    -82655.754 6    -59175.48449  20941145.50049
  23087775.750 2    -20713.719 2    -14264.15246  23087775.91446
  21169818.430 6    -11519.027 6     -8656.76248  21169816.14548
  24116142.219 5   -284405.652 5   -184713.83248  24116141.78548
  22683534.227 6   -286168.156 6   -206389.54747  22683531.81647
  23757038.719 5   -371136.625 5   -242275.57447  23757037.43447
  21695680.328 6   -244146.723 6   -169445.94949  21695680.73049
 20  5 16  5 13 52.0000000  0  9G01G03G07G08G11G17G22G28G30          0.000128511
  20156896.664 7   -125771.355 7    -90315.73049  20156898.50849
  23417806.195 5   -407989.922 5   -280458.77048  23417808.67248
  20940954.164 6    -83670.758 6    -59966.39849  20940952.94149
  23087730.898 1    -20949.633 1    -14447.98046  23087731.09046
  21169794.711 6    -11644.367 6     -8754.43448  21169791.93448
  24115467.031 5   -287953.695 5   -187478.54348  24115465.94548
  22682843.922 6   -289794.270 6   -209215.09047  22682841.98447
  23756159.438 5   -375759.383 5   -245877.72747  23756157.47747
  21695109.781 6   -247144.066 6   -171781.54749  21695110.53549
 20  5 16  5 13 53.0000000  0  9G01G03G07G08G11G17G22G28G30          0.000127176
  20156603.125 7   -127314.676 7    -91518.32049  20156605.11749
  23416886.117 5   -412820.789 5   -284223.08248  23416889.19948
  20940761.141 6    -84684.672 6    -60756.45749  20940759.65649
  23087685.977 2    -21185.133 2    -14631.50046  23087686.41446
  21169770.672 6    -11768.941 6     -8851.51248  21169768.30948
  24114792.094 5   -291501.148 5   -190242.78948  24114791.30948
  22682154.445 6   -293419.566 6   -212039.98847  22682151.96947
  23755279.555 5   -380381.766 5   -249479.57847  23755278.16847
  21694539.867 6   -250140.293 6   -174116.26649  21694540.56649
 20  5 16  5 13 54.0000000  0  9G01G03G07G08G11G17G22G28G30          0.000125839
  20156309.508 7   -128856.832 7    -92720.00449  20156311.48449
  23415967.188 5   -417651.031 5   -287986.90248  23415970.15648
  20940568.227 6    -85697.426 6    -61545.61749  20940566.47749
  23087640.789 2    -21420.109 2    -14814.59446  23087641.38746
  21169747.313 6    -11892.699 6     -8947.94548  21169744.89548
  24114116.898 5   -295047.922 5   -193006.51248  24114116.12148
  22681464.703 6   -297043.914 6   -214864.15247  22681462.63347
  23754400.359 5   -385003.664 5   -253081.05547  23754398.86747
  21693969.617 6   -253135.367 6   -176450.09049  21693970.46549
 20  5 16  5 13 55.0000000  0  9G01G03G07G08G11G17G22G28G30          0.000124506
  20156016.461 7   -130397.785 7    -93920.74649  20156018.47749
  23415047.734 5   -422480.727 5   -291750.29748  23415051.23048
  20940375.547 6    -86709.035 6    -62333.89149  20940374.03549
  23087595.578 2    -21654.645 2    -14997.34046  23087596.91446
  21169723.797 6    -12015.652 6     -9043.75048  21169721.51648
  24113442.227 5   -298594.039 5   -195769.71148  24113441.25048
  22680775.047 5   -300667.383 5   -217687.63747  22680772.75047
  23753520.688 6   -389625.117 6   -256682.18847  23753519.55147
  21693400.078 6   -256129.309 6   -178783.03149  21693400.94149
 20  5 16  5 13 56.0000000  0  9G01G03G07G08G11G17G22G28G30          0.000123171
  20155723.539 7   -131937.566 7    -95120.57449  20155725.51649
  23414128.906 5   -427309.816 5   -295513.20748  23414132.40248
  20940183.648 6    -87719.539 6    -63121.29349  20940182.21549
  23087550.844 2    -21888.652 2    -15179.67246  23087552.36346
  21169700.406 6    -12137.836 6     -9138.95748  21169697.71148
  24112767.805 5   -302139.539 5   -198532.44548  24112766.64548
  22680085.609 6   -304289.977 6   -220510.43847  22680083.23847
  23752641.289 6   -394246.133 6   -260282.97347  23752640.42647
  21692830.289 6   -259122.117 6   -181115.09049  21692831.17649
 20  5 16  5 13 57.0000000  0  9G01G03G07G08G11G17G22G28G30          0.000121838
  20155430.820 7   -133476.199 7    -96319.50449  20155432.46149
  23413209.914 5   -432138.297 5   -299275.65248  23413213.00448
  20939991.398 6    -88728.910 6    -63907.81649  20939989.85949
  23087506.594 2    -22122.152 2    -15361.64146  23087508.15646
  21169677.453 6    -12259.227 6     -9233.55148  21169675.19948
  24112093.313 5   -305684.387 5   -201294.66048  24112092.05148
  22679396.555 6   -307911.672 6   -223332.53547  22679394.22347
  23751761.805 5   -398866.707 5   -263883.43447  23751760.78547
  21692261.227 6   -262113.809 6   -183446.27749  21692262.12149
 20  5 16  5 13 58.0000000  0  9G01G03G07G08G11G17G22G28G30          0.000120504
  20155137.961 7   -135013.691 7    -97517.55149  20155139.99249
  23412291.227 5   -436966.254 5   -303037.69548  23412294.82048
  20939799.641 7    -89737.191 7    -64693.49649  20939798.33649
  23087461.961 2    -22355.250 2    -15543.28946  23087463.55146
  21169654.531 6    -12379.848 6     -9327.53548  21169651.50048
  24111418.594 5   -309228.645 5   -204056.41448  24111417.32048
  22678707.469 6   -311532.516 6   -226153.97748  22678704.88748
  23750883.320 6   -403486.898 6   -267483.57847  23750881.60247
  21691692.016 6   -265104.395 6   -185776.60949  21691692.63349
 20  5 16  5 13 59.0000000  0  9G01G03G07G08G11G17G22G28G30          0.000119171
  20154845.602 7   -136549.988 7    -98714.66449  20154847.82449
  23411372.391 5   -441793.582 5   -306799.24648  23411375.71548
  20939607.852 7    -90744.332 7    -65478.28549  20939606.29349
  23087417.695 2    -22587.848 2    -15724.50846  23087419.95346
  21169631.859 6    -12499.660 6     -9420.89848  21169629.33248
  24110744.031 5   -312772.273 5   -206817.68848  24110743.32048
  22678018.891 6   -315152.488 6   -228974.72747  22678016.37147
  23750003.516 6   -408106.645 6   -271083.38347  23750002.31647
  21691123.430 6   -268093.863 6   -188106.05949  21691123.75849
 20  5 16  5 14  0.0000000  0  9G01G03G07G08G11G17G22G28G30          0.000117838
  20154553.602 7   -138085.195 7    -99910.93049  20154555.60949
  23410453.867 5   -446620.402 5   -310560.43048  23410457.36748
  20939416.523 7    -91750.426 7    -66262.26649  20939415.08649
  23087374.352 1    -22820.063 1    -15905.45346  23087375.78946
  21169609.016 6    -12618.746 6     -9513.69148  21169606.65248
  24110070.234 5   -316315.285 5   -209578.49248  24110068.88348
  22677329.320 6   -318771.621 6   -231794.83247  22677327.55147
  23749125.383 5   -412726.043 5   -274682.91047  23749123.86347
  21690554.922 6   -271082.234 6   -190434.66849  21690555.74249
 20  5 16  5 14  1.0000000  0  9G01G03G07G08G11G17G22G28G30          0.000116505
  20154261.430 7   -139619.234 7   -101106.28949  20154263.72749
  23409535.531 5   -451446.680 5   -314321.17648  23409538.59048
  20939225.172 6    -92755.406 6    -67045.37149  20939223.84049
  23087330.648 1    -23051.844 1    -16086.05546  23087331.60246
  21169586.445 6    -12737.109 6     -9605.92648  21169584.28548
  24109396.281 5   -319857.703 5   -212338.81348  24109395.14848
  22676641.547 6   -322389.914 6   -234614.27747  22676639.34047
  23748246.164 6   -417345.020 6   -278282.11747  23748244.68447
  21689986.102 6   -274069.531 6   -192762.42649  21689986.70349
 20  5 16  5 14  2.0000000  0  9G01G03G07G08G11G17G22G28G30          0.000115171
  20153969.695 7   -141152.195 7   -102300.80149  20153971.91449
  23408617.617 5   -456272.445 5   -318081.51648  23408620.81348
  20939033.852 7    -93759.348 7    -67827.66049  20939032.61349
  23087285.523 1    -23283.156 1    -16266.30946  23087287.32846
  21169563.891 6    -12854.742 6     -9697.59048  21169561.69548
  24108722.516 5   -323399.516 5   -215098.66448  24108721.22348
  22675953.023 5   -326007.371 5   -237433.06647  22675950.72747
  23747366.867 5   -421963.629 5   -281881.02747  23747366.16047
  21689417.922 6   -277055.766 6   -195089.36749  21689418.48049
 20  5 16  5 14  3.0000000  0  9G01G03G07G08G11G17G22G28G30          0.000113840
  20153678.453 7   -142684.004 7   -103494.42249  20153680.74649
  23407698.898 5   -461097.602 5   -321841.37948  23407702.55148
  20938843.102 7    -94762.145 7    -68609.06649  20938841.36349
  23087241.305 1    -23514.063 1    -16446.26645  23087243.70345
  21169541.938 6    -12971.570 6     -9788.62548  21169539.05548
  24108048.414 5   -326940.758 5   -217858.08648  24108047.08248
  22675265.094 6   -329623.977 6   -240251.20747  22675262.69147
  23746487.930 5   -426581.797 5   -285479.60947  23746486.88347
  21688850.188 6   -280040.871 6   -197415.42249  21688850.55149
 20  5 16  5 14  4.0000000  0  9G01G03G07G08G11G17G22G28G30          0.000112507
  20153387.164 7   -144214.711 7   -104687.18049  20153389.03149
  23406780.695 5   -465922.281 5   -325600.86348  23406784.73448
  20938652.711 6    -95763.938 6    -69389.68849  20938650.75449
  23087197.813 2    -23744.543 2    -16625.85545  23087199.57045
  21169519.938 6    -13087.707 6     -9879.12148  21169517.25048
  24107374.961 5   -330481.367 5   -220616.99648  24107373.36348
  22674576.734 6   -333239.746 6   -243068.68847  22674574.22347
  23745609.070 6   -431199.625 6   -289077.91447  23745608.52747
  21688282.141 6   -283024.922 6   -199740.66449  21688282.75449
 20  5 16  5 14  5.0000000  0  9G01G03G07G08G11G17G22G28G30          0.000111176
  20153096.086 7   -145744.316 7   -105879.08649  20153098.03949
  23405862.820 5   -470746.441 5   -329359.93848  23405866.33648
  20938462.180 6    -96764.645 6    -70169.45749  20938460.63349
  23087154.742 2    -23974.645 2    -16805.15245  23087155.63345
  21169497.563 6    -13203.133 6     -9969.06348  21169495.45748
  24106701.422 5   -334021.449 5   -223375.50048  24106700.06348
  22673889.242 6   -336854.742 6   -245885.57047  22673886.59847
  23744731.172 5   -435817.086 5   -292675.93447  23744729.48047
  21687714.563 6   -286007.922 6   -202065.07449  21687715.10549
 20  5 16  5 14  6.0000000  0  9G01G03G07G08G11G17G22G28G30          0.000109844
  20152805.055 7   -147272.797 7   -107070.10549  20152806.98449
  23404944.883 5   -475570.031 5   -333118.56348  23404948.18848
  20938272.227 6    -97764.262 6    -70948.38349  20938270.33249
  23087112.023 2    -24204.352 2    -16984.14145  23087111.89545
  21169476.211 6    -13317.777 6    -10058.39548  21169473.66448
  24106027.789 5   -337560.934 5   -226133.55148  24106026.27748
  22673201.188 6   -340468.848 6   -248701.75847  22673198.68447
  23743852.203 5   -440434.141 5   -296273.62947  23743850.89147
  21687147.016 6   -288989.813 6   -204388.63349  21687147.49249
 20  5 16  5 14  7.0000000  0  9G01G03G07G08G11G17G22G28G30          0.000108513
  20152514.375 7   -148800.133 7   -108260.23849  20152516.62549
  23404027.586 5   -480393.109 5   -336876.80949  23404030.45749
  20938081.930 7    -98762.813 7    -71726.47349  20938080.32449
  23087067.594 1    -24433.477 1    -17162.66445  23087068.42645
  21169454.250 6    -13431.707 6    -10147.17248  21169451.50048
  24105353.688 5   -341099.797 5   -228891.11348  24105352.88748
  22672513.773 6   -344082.141 6   -251517.30947  22672510.98847
  23742973.508 5   -445050.836 5   -299871.04747  23742972.72747
  21686579.664 6   -291970.633 6   -206711.34449  21686580.25449
 20  5 16  5 14  8.0000000  0  9G01G03G07G08G11G17G22G28G30          0.000107183
  20152224.125 7   -150326.484 7   -109449.59849  20152226.12549
  23403110.125 5   -485215.742 5   -340634.70749  23403112.84449
  20937892.211 7    -99760.402 7    -72503.82049  20937890.37949
  23087022.656 1    -24662.340 1    -17340.98445  23087025.17645
  21169432.781 6    -13544.988 6    -10235.44948  21169430.33648
  24104681.297 5   -344638.199 5   -231648.32848  24104679.50848
  22671826.039 6   -347694.676 6   -254332.27347  22671823.49247
  23742094.773 5   -449667.203 5   -303468.22347  23742094.20747
  21686013.016 6   -294950.484 6   -209033.29749  21686013.28149
 20  5 16  5 14  9.0000000  0  9G01G03G07G08G11G17G22G28G30          0.000105852
  20151933.914 7   -151851.727 7   -110638.09849  20151935.94949
  23402192.352 5   -490037.949 5   -344392.26648  23402195.65648
  20937702.297 7   -100756.965 7    -73280.35949  20937701.06349
  23086980.789 1    -24890.883 1    -17519.08645  23086980.95345
  21169411.375 6    -13657.570 6    -10323.17648  21169408.82448
  24104008.023 5   -348176.051 5   -234405.11348  24104006.58648
  22671139.102 6   -351306.434 6   -257146.63348  22671136.70348
  23741216.672 5   -454283.273 5   -307065.17247  23741215.80147
  21685446.211 6   -297929.336 6   -211354.47749  21685446.43449
 20  5 16  5 14 10.0000000  0  9G01G03G07G08G11G17G22G28G30          0.000104525
  20151643.781 7   -153375.922 7   -111825.78949  20151646.16449
  23401274.539 5   -494859.613 5   -348149.35248  23401277.86348
  20937513.164 6   -101752.492 6    -74056.08649  20937512.10249
  23086940.50811    -25119.13311    -17696.89155  23086938.48455
  21169389.602 6    -13769.480 6    -10410.37148  21169387.57448
  24103334.219 6   -351713.371 6   -237161.48849  24103333.45349
  22670451.992 6   -354917.414 6   -259960.39148  22670449.48048
  23740338.594 6   -458899.023 6   -310661.85547  23740337.67647
  21684879.398 6   -300907.098 6   -213674.79349  21684880.03149
 20  5 16  5 14 11.0000000  0  9G01G03G07G08G11G17G22G28G30          0.000103191
  20151353.766 7   -154899.098 7   -113012.68849  20151356.47749
  23400356.594 4   -499680.840 4   -351906.11348  23400360.30548
  20937323.883 6   -102747.035 6    -74831.04749  20937322.41449
  23086898.000 1    -25346.914 1                
  21169368.727 6    -13880.742 6    -10497.07448  21169366.48448
  24102661.578 6   -355250.211 6   -239917.47749  24102660.58649
  22669765.000 6   -358527.660 6   -262773.57048  22669762.35948
  23739460.398 6   -463514.449 6   -314258.29347  23739459.11347
  21684312.594 6   -303883.906 6   -215994.37149  21684313.23849
 20  5 16  5 14 12.0000000  0  9G01G03G07G08G11G17G22G28G30          0.000101862
  20151064.281 7   -156421.266 7   -114198.78949  20151065.93849
  23399439.242 5   -504501.629 5   -355662.56348  23399443.09848
  20937134.992 6   -103740.609 6    -75605.26249  20937133.48449
  23086853.836 1    -25574.477 1                
  21169347.258 6    -13991.375 6    -10583.27348  21169345.26648
  24101987.891 6   -358786.555 6   -242673.07449  24101988.08649
  22669078.094 6   -362137.156 6   -265586.16048  22669075.35548
  23738581.992 6   -468129.594 6   -317854.50447  23738580.64547
  21683746.453 6   -306859.715 6   -218313.18449  21683747.24649
 20  5 16  5 14 13.0000000  0  9G01G03G07G08G11G17G22G28G30          0.000100533
  20150774.938 7   -157942.438 7   -115384.11749  20150776.85949
  23398522.406 5   -509322.012 5   -359418.71148  23398525.89848
  20936946.172 6   -104733.262 6    -76378.75449  20936944.24249
  23086811.766 1    -25801.637 1                
  21169326.539 6    -14101.422 6    -10669.02348  21169324.51248
  24101315.289 6   -362322.434 6   -245428.30549  24101315.39849
  22668391.250 6   -365745.980 6   -268398.22748  22668388.88748
  23737703.266 6   -472744.527 6   -321450.55147  23737702.52347
  21683180.484 6   -309834.621 6   -220631.29349  21683181.02349
 20  5 16  5 14 14.0000000  0  9G01G03G07G08G11G17G22G28G30          0.000099203
  20150485.688 7   -159462.609 7   -116568.67249  20150487.53549
  23397604.453 5   -514141.977 5   -363174.53548  23397608.42648
  20936757.313 6   -105724.922 6    -77151.47749  20936756.13349
  23086768.930 1    -26028.555 1                
  21169305.781 6    -14210.789 6    -10754.25448  21169303.81648
  24100642.688 6   -365857.820 6   -248183.14149  24100642.73049
  22667704.469 6   -369354.059 6   -271209.71548  22667702.43448
  23736825.594 6   -477359.141 6   -325046.35247  23736824.73047
  21682613.898 6   -312808.512 6   -222948.62149  21682614.87949
 20  5 16  5 14 15.0000000  0  9G01G03G07G08G11G17G22G28G30          0.000097874
  20150196.391 7   -160981.781 7   -117752.44149  20150198.21149
  23396688.016 4   -518961.508 4   -366930.02748  23396691.05148
  20936568.773 6   -106715.629 6    -77923.45749  20936566.90649
  23086726.680 1    -26255.113 1                
  21169285.266 6    -14319.578 6    -10839.02048  21169283.10248
  24099969.828 6   -369392.750 6   -250937.62549  24099969.49249
  22667018.102 6   -372961.414 6   -274020.63748  22667015.81348
  23735947.180 6   -481973.496 6   -328641.95747  23735946.48847
  21682049.086 6   -315781.461 6   -225265.20349  21682049.57449
 20  5 16  5 14 16.0000000  0  9G01G03G07G08G11G17G22G28G30          0.000096546
  20149907.328 7   -162499.949 7   -118935.43049  20149909.73049
  23395770.563 5   -523780.626 5   -370685.18648  23395774.24248
  20936380.172 6   -107705.387 6    -78694.69949  20936378.89549
  23086684.594 1    -26481.375 1                
  21169264.555 6    -14427.742 6    -10923.30548  21169262.39148
  24099297.750 6   -372927.203 6   -253691.73849  24099297.07849
  22666332.172 6   -376568.055 6   -276831.00448  22666329.28948
  23735069.258 6   -486587.602 6   -332237.36747  23735068.45347
  21681483.063 6   -318753.445 6   -227581.03549  21681483.61749
 20  5 16  5 14 17.0000000  0  9G01G03G07G08G11G17G22G28G30          0.000095217
  20149618.781 7   -164017.148 7   -120117.66049  20149620.14549
  23394853.758 5   -528599.301 5   -374440.01648  23394856.88748
  20936192.516 7   -108694.148 7    -79465.17249  20936190.39149
  23086637.258 3    -26707.313 3                
  21169244.656 6    -14535.348 6    -11007.15648  21169241.94548
  24098625.133 6   -376461.168 6   -256445.46549  24098624.37549
  22665645.813 6   -380173.953 6   -279640.78948  22665642.97348
  23734191.063 5   -491201.375 5   -335832.51647  23734190.40647
  21680918.164 6   -321724.414 6   -229896.09049  21680918.28949
 20  5 16  5 14 18.0000000  0  9G01G03G07G08G11G17G22G28G30          0.000093887
  20149330.328 7   -165533.250 7   -121299.03149  20149331.92249
  23393937.133 5   -533417.578 5   -378194.53548  23393940.47748
  20936004.227 7   -109681.949 7    -80234.90249  20936002.33649
  23086592.070 4    -26932.926 4                
  21169224.148 6    -14642.211 6    -11090.43448  21169221.42648
  24097952.859 6   -379994.656 6   -259198.80948  24097952.43048
  22664960.102 6   -383779.125 6   -282450.00048  22664957.27748
  23733312.859 5   -495814.871 5   -339427.44147  23733312.34847
  21680352.109 6   -324694.438 6   -232210.41049  21680353.17249
 20  5 16  5 14 19.0000000  0  9G01G03G07G08G11G17G22G28G30          0.000092560
  20149042.031 7   -167048.422 7   -122479.68849  20149043.59049
  23393020.094 5   -538235.457 5   -381948.72748  23393023.64548
  20935816.445 7   -110668.848 7    -81003.92249  20935814.59049
  23086549.031 4    -27158.238 4                
  21169203.914 6    -14748.508 6    -11173.26648  21169201.47348
  24097280.336 6   -383527.699 6   -261951.82048  24097279.95348
  22664274.250 6   -387383.621 6   -285258.69147  22664271.35247
  23732435.422 5   -500428.164 5   -343022.21147  23732434.78947
  21679787.695 6   -327663.535 6   -234523.99649  21679788.45749
 20  5 16  5 14 20.0000000  0  9G01G03G07G08G11G17G22G28G30          0.000091232
  20148753.719 7   -168562.613 7   -123659.56649  20148755.53549
  23392103.328 5   -543052.906 5   -385702.57849  23392106.77749
  20935628.969 7   -111654.785 7    -81772.18449  20935627.47349
  23086506.078 4    -27383.281 4                
  21169183.859 6    -14854.211 6    -11255.63348  21169180.92248
  24096607.766 6   -387060.289 6   -264704.48048  24096607.23848
  22663587.813 6   -390987.387 6   -288066.81647  22663585.84447
  23731557.789 5   -505041.215 5   -346616.79747  23731556.25447
  21679223.125 6   -330631.707 6   -236836.85949  21679223.58649
 20  5 16  5 14 21.0000000  0  9G01G03G07G08G11G17G22G28G30          0.000089903
  20148466.016 7   -170075.797 7   -124838.67649  20148467.43049
  23391187.313 5   -547869.973 5   -389456.13749  23391190.35549
  20935441.141 6   -112639.809 6    -82539.73049  20935439.69949
  23086463.656 4    -27608.023 4    -17802.39556  23086458.16456
  21169163.977 6    -14959.289 6    -11337.51648  21169161.16448
  24095935.828 6   -390592.406 6   -267456.78149  24095935.28149
  22662902.141 6   -394590.473 6   -290874.41848  22662899.85948
  23730680.305 5   -509653.984 5   -350211.15247  23730678.75447
  21678657.773 6   -333598.906 6   -239148.96149  21678658.47349
 20  5 16  5 14 22.0000000  0  9G01G03G07G08G11G17G22G28G30          0.000088575
  20148178.227 7   -171588.012 7   -126017.02749  20148179.80149
  23390270.242 5   -552686.613 5   -393209.35549  23390273.98849
  20935253.961 6   -113623.867 6    -83306.53149  20935252.34049
  23086420.383 4    -27832.488 4    -17977.30947  23086416.53947
  21169143.609 6    -15063.762 6    -11418.92248  21169141.38748
  24095263.695 6   -394124.105 6   -270208.75848  24095262.98448
  22662216.992 6   -398192.836 6   -293681.45747  22662214.60947
  23729801.891 5   -514266.543 5   -353805.35547  23729800.88347
  21678093.906 6   -336565.172 6   -241460.33249  21678094.34049
 20  5 16  5 14 23.0000000  0  9G01G03G07G08G11G17G22G28G30          0.000087248
  20147890.320 7   -173099.309 7   -127194.66849  20147892.42649
  23389353.695 5   -557502.949 5   -396962.33649  23389356.89549
  20935066.789 6   -114607.066 6    -84072.65249  20935065.19549
  23086377.180 4    -28056.762 4    -18152.06347  23086374.42647
  21169124.016 6    -15167.703 6    -11499.91448  21169121.65248
  24094591.703 6   -397655.383 6   -272960.41448  24094591.35548
  22661531.359 6   -401794.598 6   -296488.02747  22661528.64147
  23728924.469 5   -518878.887 5   -357399.38747  23728923.03547
  21677529.688 6   -339530.555 6   -243771.01649  21677530.17249
 20  5 16  5 14 24.0000000  0  9G01G03G07G08G11G17G22G28G30          0.000085920
  20147603.297 7   -174609.691 7   -128371.58249  20147605.10949
  23388437.258 5   -562318.930 5   -400715.04749  23388440.51649
  20934880.148 6   -115589.391 6    -84838.10549  20934878.19149
  23086334.664 4    -28280.813 4    -18326.64846  23086332.42646
  21169104.156 6    -15271.094 6    -11580.47748  21169101.88348
  24093920.242 6   -401186.273 6   -275711.75849  24093919.54349
  22660846.133 6   -405395.684 6   -299294.06648  22660843.35948
  23728046.945 5   -523491.055 5   -360993.28147  23728045.51647
  21676965.125 6   -342495.066 6   -246081.03149  21676966.30549
 20  5 16  5 14 25.0000000  0  9G01G03G07G08G11G17G22G28G30          0.000084595
  20147316.133 7   -176119.098 7   -129547.74649  20147317.48049
  23387521.625 5   -567134.523 5   -404467.45749  23387524.46149
  20934692.867 6   -116570.797 6    -85602.83649  20934691.36749
  23086292.414 4    -28504.559 4    -18501.00446  23086290.35946
  21169084.695 6    -15373.922 6    -11660.59848  21169082.16448
  24093248.148 6   -404716.746 6   -278462.77349  24093247.87949
  22660161.141 6   -408996.121 6   -302099.59848  22660158.40648
  23727169.000 5   -528102.996 5   -364587.00847  23727167.87947
  21676401.336 6   -345458.648 6   -248390.32049  21676401.89849
 20  5 16  5 14 26.0000000  0  9G01G03G07G08G11G17G22G28G30          0.000083267
  20147029.094 7   -177627.609 7   -130723.20349  20147030.26649
  23386604.789 5   -571949.813 5   -408219.62549  23386607.66449
  20934506.547 6   -117551.324 6    -86366.88749  20934505.30149
  23086249.578 4    -28728.137 4    -18675.23046  23086248.73446
  21169065.359 6    -15476.223 6    -11740.31348  21169062.92248
  24092576.469 6   -408246.820 6   -281213.47349  24092576.28949
  22659476.219 6   -412595.918 6   -304904.63748  22659473.41848
  23726291.531 5   -532714.754 5   -368180.58247  23726290.26247
  21675837.500 6   -348421.375 6   -250698.94149  21675838.12149
 20  5 16  5 14 27.0000000  0  9G01G03G07G08G11G17G22G28G30          0.000081940
  20146742.172 7   -179135.211 7   -131897.96149  20146743.58249
  23385688.641 5   -576764.758 5   -411971.53149  23385691.65649
  20934319.828 6   -118531.004 6    -87130.27749  20934318.64149
  23086206.875 4    -28951.469 4    -18849.25847  23086206.53147
  21169045.781 6    -15578.008 6    -11819.62548  21169043.32848
  24091904.750 6   -411776.551 6   -283963.91449  24091904.16849
  22658791.086 6   -416195.070 6   -307709.16848  22658788.30148
  23725413.828 5   -537326.348 5   -371774.03947  23725413.07047
  21675273.703 6   -351383.219 6   -253006.86749  21675274.79749
 20  5 16  5 14 28.0000000  0  9G01G03G07G08G11G17G22G28G30          0.000080614
  20146455.070 7   -180641.785 7   -133071.91049  20146457.00849
  23384772.242 5   -581579.250 5   -415723.08249  23384775.17649
  20934134.039 6   -119509.699 6    -87892.89849  20934132.21949
  23086164.656 4    -29174.457 4    -19023.01647  23086164.69547
  21169026.672 6    -15679.121 6    -11898.41848  21169023.94948
  24091232.953 6   -415305.750 6   -286713.93849  24091232.37949
  22658106.828 6   -419793.477 6   -310513.12548  22658103.65648
  23724536.703 5   -541937.609 5   -375367.23047  23724535.50447
  21674710.117 6   -354344.078 6   -255314.03549  21674711.09449
 20  5 16  5 14 29.0000000  0  9G01G03G07G08G11G17G22G28G30          0.000079287
  20146168.766 7   -182147.363 7   -134245.09449  20146170.41849
  23383856.117 5   -586393.379 5   -419474.34849  23383859.60949
  20933947.844 6   -120487.465 6    -88654.79349  20933946.27749
  23086122.109 4    -29397.160 4    -19196.55147  23086122.25847
  21169007.609 6    -15779.633 6    -11976.74248  21169004.87948
  24090561.602 6   -418834.520 6   -289463.62949  24090561.34449
  22657421.820 6   -423391.195 6   -313316.54348  22657418.97348
  23723659.109 5   -546548.648 5   -378960.25047  23723658.15247
  21674147.195 6   -357303.988 6   -257620.45749  21674148.00849
 20  5 16  5 14 30.0000000  0  9G01G03G07G08G11G17G22G28G30          0.000077961
  20145882.602 7   -183652.059 7   -135417.58649  20145884.25449
  23382940.328 5   -591207.125 5   -423225.32449  23382943.12149
  20933761.914 6   -121464.359 6    -89416.00849  20933760.47349
  23086079.797 4    -29619.691 4    -19369.95747  23086080.15647
  21168988.406 6    -15879.629 6    -12054.66048  21168985.81348
  24089890.289 6   -422362.898 6   -292213.01249  24089889.40249
  22656737.609 6   -426988.293 6   -316119.46948  22656734.58248
  23722781.992 5   -551159.512 5   -382553.13747  23722780.76647
  21673584.141 6   -360263.027 6   -259926.20349  21673584.87949
 20  5 16  5 14 31.0000000  0  9G01G03G07G08G11G17G22G28G30          0.000076635
  20145596.234 7   -185155.781 7   -136589.31649  20145597.99649
  23382024.359 5   -596020.523 5   -426976.02349  23382027.26649
  20933576.016 6   -122440.336 6    -90176.50449  20933574.93049
  23086037.711 4    -29841.938 4    -19543.12147  23086038.59047
  21168969.641 6    -15979.066 6    -12132.14848  21168967.04348
  24089219.461 6   -425890.863 6   -294962.07449  24089218.50449
  22656052.586 6   -430584.684 6   -318921.84848  22656050.46948
  23721904.539 5   -555770.141 5   -386145.83647  23721903.32447
  21673020.914 6   -363221.145 6   -262231.22349  21673022.02049
 20  5 16  5 14 32.0000000  0  9G01G03G07G08G11G17G22G28G30          0.000075310
  20145310.453 7   -186658.652 7   -137760.38349  20145311.93849
  23381108.570 5   -600833.645 5   -430726.50849  23381111.28549
  20933390.500 6   -123415.508 6    -90936.38749  20933389.01249
  23085995.383 3    -30064.004 3    -19716.15246  23085996.21146
  21168951.133 6    -16078.008 6    -12209.24248  21168948.56348
  24088548.234 6   -429418.480 6   -297710.86749  24088547.06349
  22655368.961 6   -434180.535 6   -321723.80948  22655365.98048
  23721026.906 5   -560380.684 5   -389738.46947  23721025.77047
  21672457.953 6   -366178.473 6   -264535.64149  21672459.13349
 20  5 16  5 14 33.0000000  0  9G01G03G07G08G11G17G22G28G30          0.000073982
  20145024.305 7   -188160.629 7   -138930.75849  20145025.89549
  23380192.773 5   -605646.465 5   -434476.75049  23380195.57849
  20933205.266 6   -124389.836 6    -91695.60249  20933203.65649
  23085953.305 3    -30285.918 3    -19889.07846  23085954.02346
  21168932.156 6    -16176.441 6    -12285.94148  21168929.87948
  24087876.898 6   -432945.746 6   -300459.38349  24087875.90249
  22654684.828 6   -437775.766 6   -324525.28548  22654681.81348
  23720149.602 5   -564991.059 5   -393330.96947  23720148.64547
  21671895.914 6   -369134.918 6   -266839.36349  21671896.15249
 20  5 16  5 14 34.0000000  0  9G01G03G07G08G11G17G22G28G30          0.000072657
  20144738.609 7   -189661.703 7   -140100.42649  20144740.21549
  23379277.102 5   -610458.953 5   -438226.73849  23379279.71549
  20933020.180 6   -125363.301 6    -92454.14849  20933018.39149
  23085910.813 3    -30507.574 3    -20061.80146  23085912.02046
  21168913.281 6    -16274.344 6    -12362.23048  21168910.69948
  24087205.594 6   -436472.637 6   -303207.60549  24087204.50449
  22654000.672 6   -441370.352 6   -327326.26248  22653997.55948
  23719271.828 5   -569601.207 5   -396923.28547  23719271.58247
  21671333.375 6   -372090.500 6   -269142.41849  21671334.09449
 20  5 16  5 14 35.0000000  0  9G01G03G07G08G11G17G22G28G30          0.000071331
  20144453.539 7   -191161.902 7   -141269.41449  20144454.78149
  23378361.352 5   -615271.117 5   -441976.46549  23378363.72749
  20932834.945 6   -126335.910 6    -93212.03149  20932833.44549
  23085869.063 3    -30729.129 3    -20234.45346  23085870.19946
  21168894.805 6    -16371.746 6    -12438.13348  21168892.76648
  24086534.336 6   -439999.164 6   -305955.54749  24086533.91449
  22653316.977 6   -444964.336 6   -330126.76648  22653313.95348
  23718395.039 5   -574211.285 5   -400515.54747  23718393.96947
  21670771.102 6   -375045.250 6   -271444.82049  21670771.87149
 20  5 16  5 14 36.0000000  0  9G01G03G07G08G11G17G22G28G30          0.000070007
  20144168.258 7   -192661.242 7   -142437.72349  20144169.41449
  23377445.992 5   -620083.031 5   -445726.00049  23377448.20749
  20932650.133 6   -127307.738 6    -93969.30149  20932648.56349
  23085826.813 3    -30950.465 3    -20406.91046  23085827.98446
  21168876.477 6    -16468.688 6    -12513.68448  21168874.10548
  24085863.703 6   -443525.379 6   -308703.24249  24085862.68849
  22652633.164 6   -448557.770 6   -332926.84048  22652629.96948
  23717517.813 5   -578821.207 5   -404107.69147  23717516.61347
  21670208.789 6   -377999.168 6   -273746.57849  21670209.67249
 20  5 16  5 14 37.0000000  0  9G01G03G07G08G11G17G22G28G30          0.000068682
  20143882.930 7   -194159.676 7   -143605.33649  20143884.49249
  23376529.891 5   -624894.605 5   -449475.28549  23376532.75849
  20932465.383 6   -128278.676 6    -94725.87949  20932463.43449
  23085784.906 3    -31171.602 3    -20579.22746  23085786.22746
  21168858.148 6    -16565.094 6    -12588.80148  21168855.45348
  24085191.859 6   -447051.211 6   -311450.64549  24085191.56649
  22651949.281 6   -452150.559 6   -335726.42248  22651946.20348
  23716640.148 5   -583430.949 5   -407699.69947  23716639.79347
  21669646.898 6   -380952.219 6   -276047.65649  21669647.64149
 20  5 16  5 14 38.0000000  0  9G01G03G07G08G11G17G22G28G30          0.000067356
  20143598.164 7   -195657.203 7   -144772.24649  20143599.37149
  23375614.367 5   -629705.852 5   -453224.30549  23375617.34849
  20932281.031 6   -129248.762 6    -95481.78949  20932278.87149
  23085742.242 3    -31392.516 3    -20751.36746  23085744.31346
  21168840.188 6    -16660.992 6    -12663.52348  21168837.50048
  24084521.211 6   -450576.672 6   -314197.76249  24084520.58649
  22651265.531 6   -455742.750 6   -338525.52748  22651262.64148
  23715763.305 5   -588040.520 5   -411291.57447  23715762.39847
  21669085.008 6   -383904.406 6   -278348.06349  21669086.04349
 20  5 16  5 14 39.0000000  0  9G01G03G07G08G11G17G22G28G30          0.000066032
  20143313.383 7   -197153.801 7   -145938.42649  20143314.67649
  23374698.805 5   -634516.770 5   -456973.07049  23374701.55549
  20932096.367 6   -130217.965 6    -96237.01249  20932094.59849
  23085700.406 2    -31613.199 2    -20923.31646  23085702.56346
  21168821.547 6    -16756.340 6    -12737.81648  21168819.16448
  24083850.711 5   -454101.719 5   -316944.55149  24083849.73449
  22650582.539 6   -459334.262 6   -341324.11348  22650579.50448
  23714886.063 5   -592649.898 5   -414883.30547  23714885.63347
  21668523.547 6   -386855.734 6   -280647.80149  21668524.12949
 20  5 16  5 14 40.0000000  0  9G01G03G07G08G11G17G22G28G30          0.000064707
  20143028.727 7   -198649.453 7   -147103.86749  20143029.85549
  23373783.305 5   -639327.297 5   -460721.53149  23373786.21949
  20931911.773 6   -131186.250 6    -96991.52349  20931910.38749
  23085658.828 3    -31833.609 3    -21095.06646  23085660.53546
  21168803.758 6    -16851.129 6    -12811.67648  21168801.44148
  24083179.766 5   -457626.398 5   -319691.06349  24083179.41849
  22649899.008 6   -462925.133 6   -344122.19548  22649895.56648
  23714008.859 5   -597259.043 5   -418474.84447  23714008.10247
  21667962.297 6   -389806.102 6   -282946.79349  21667963.05549
 20  5 16  5 14 41.0000000  0  9G01G03G07G08G11G17G22G28G30          0.000063381
  20142744.313 7   -200144.234 7   -148268.62949  20142745.71949
  23372867.805 5   -644137.531 5   -464469.77049  23372871.26249
  20931727.867 6   -132153.695 6    -97745.37949  20931726.20349
  23085617.539 3    -32053.852 3    -21266.69946  23085618.81646
  21168785.555 6    -16945.402 6    -12885.14148  21168783.84448
  24082509.469 6   -461150.695 6   -322437.26249  24082508.53949
  22649215.820 6   -466515.379 6   -346919.78548  22649212.66048
  23713132.078 5   -601868.047 5   -422066.27347  23713130.86347
  21667400.773 6   -392755.656 6   -285245.14149  21667401.64849
 20  5 16  5 14 42.0000000  0  9G01G03G07G08G11G17G22G28G30          0.000062057
  20142459.898 7   -201638.133 7   -149432.71149  20142461.23449
  23371952.219 5   -648947.457 5   -468217.76249  23371955.91849
  20931544.047 6   -133120.316 6    -98498.59049  20931542.57849
  23085575.594 3    -32273.895 3    -21438.17246  23085577.09846
  21168767.797 6    -17039.164 6    -12958.19948  21168765.85948
  24081838.320 6   -464674.625 6   -325183.18049  24081837.97749
  22648532.852 6   -470105.012 6   -349716.89848  22648529.58648
  23712254.844 5   -606476.910 5   -425657.59047  23712253.54347
  21666839.500 6   -395704.363 6   -287542.83249  21666840.57849
 20  5 16  5 14 43.0000000  0  9G01G03G07G08G11G17G22G28G30          0.000060734
  20142175.641 7   -203131.207 7   -150596.14849  20142177.05549
  23371037.234 5   -653757.145 5   -471965.57449  23371040.73849
  20931359.984 6   -134086.180 6    -99251.21949  20931358.14849
  23085532.828 3    -32493.859 3    -21609.57846  23085535.18446
  21168750.289 6    -17132.531 6    -13030.95348  21168747.57048
  24081167.563 6   -468198.281 6   -327928.88349  24081166.94949
  22647850.070 6   -473694.141 6   -352513.62148  22647846.48048
  23711378.641 5   -611085.695 5   -429248.85547  23711376.75847
  21666278.672 6   -398652.285 6   -289839.91849  21666279.69149
 20  5 16  5 14 44.0000000  0  9G01G03G07G08G11G17G22G28G30          0.000059408
  20141891.859 7   -204623.367 7   -151758.87149  20141893.12149
  23370122.063 5   -658566.500 5   -475713.12149  23370125.23449
  20931176.344 6   -135051.168 6   -100003.15649  20931174.57049
  23085491.383 3    -32713.555 3    -21780.76646  23085493.65246
  21168732.203 6    -17225.355 6    -13103.28548  21168729.82848
  24080497.547 6   -471721.539 6   -330674.27748  24080496.64848
  22647166.641 6   -477282.629 6   -355309.84448  22647163.37148
  23710501.320 6   -615694.293 6   -432839.96947  23710499.54747
  21665718.180 6   -401599.355 6   -292136.33249  21665719.13349
 20  5 16  5 14 45.0000000  0  9G01G03G07G08G11G17G22G28G30          0.000058084
  20141607.922 7   -206114.676 7   -152920.93049  20141609.30149
  23369206.602 5   -663375.582 5   -479460.46149  23369210.08649
  20930993.133 6   -136015.344 6   -100754.45749  20930991.15649
  23085449.438 3    -32933.113 3    -21951.85246  23085451.62146
  21168715.016 6    -17317.707 6    -13175.24648  21168712.63748
  24079827.406 6   -475244.492 6   -333419.43448  24079826.18848
  22646484.234 6   -480870.516 6   -358105.60548  22646481.12148
  23709624.555 5   -620302.766 5   -436430.99247  23709622.77347
  21665157.414 6   -404545.578 6   -294432.09849  21665158.36349
 20  5 16  5 14 46.0000000  0  9G01G03G07G08G11G17G22G28G30          0.000056761
  20141324.305 7   -207605.148 7   -154082.33649  20141325.76249
  23368291.578 5   -668184.395 5   -483207.58649  23368294.91049
  20930809.945 6   -136978.727 6   -101505.15249  20930807.92249
  23085407.625 3    -33152.477 3    -22122.78146  23085410.00046
  21168697.477 6    -17409.566 6    -13246.82848  21168694.64548
  24079156.469 6   -478767.109 6   -336164.32049  24079155.95749
  22645801.852 6   -484457.844 6   -360900.91848  22645798.46148
  23708747.156 5   -624911.133 5   -440021.92647  23708745.38747
  21664597.086 6   -407491.008 6   -296727.23849  21664597.81649
 20  5 16  5 14 47.0000000  0  9G01G03G07G08G11G17G22G28G30          0.000055437
  20141040.906 7   -209094.723 7   -155243.03949  20141042.51649
  23367377.094 5   -672992.898 5   -486954.47349  23367379.98849
  20930626.789 6   -137941.246 6   -102255.16849  20930624.88749
  23085366.211 3    -33371.707 3    -22293.60946  23085368.12946
  21168680.023 6    -17500.945 6    -13318.03548  21168677.68448
  24078486.820 6   -482289.359 6   -338908.93448  24078485.64548
  22645118.633 6   -488044.570 6   -363695.77048  22645115.57048
  23707870.570 5   -629519.328 5   -443612.72747  23707869.40647
  21664036.656 6   -410435.586 6   -299021.71549  21664037.55149
 20  5 16  5 14 48.0000000  0  9G01G03G07G08G11G17G22G28G30          0.000054113
  20140757.328 7   -210583.406 7   -156403.05949  20140759.06349
  23366462.188 5   -677801.070 5   -490701.09449  23366465.23449
  20930443.555 6   -138902.941 6   -103004.53949  20930442.29749
  23085324.547 3    -33590.734 3    -22464.27746  23085326.42246
  21168662.633 6    -17591.805 6    -13388.84048  21168660.75848
  24077816.391 6   -485811.273 6   -341653.28549  24077815.96549
  22644436.789 6   -491630.691 6   -366490.14848  22644433.47348
  23706993.594 5   -634127.391 5   -447203.41847  23706992.42247
  21663476.313 6   -413379.313 6   -301315.52749  21663477.55949
 20  5 16  5 14 49.0000000  0  9G01G03G07G08G11G17G22G28G30          0.000052790
  20140474.641 7   -212071.215 7   -157562.38349  20140475.89149
  23365547.094 5   -682608.949 5   -494447.48449  23365550.36349
  20930260.734 6   -139863.777 6   -103753.25049  20930258.84049
  23085283.023 3    -33809.516 3    -22634.75446  23085285.00846
  21168645.742 6    -17682.152 6    -13459.24248  21168643.41448
  24077146.453 6   -489332.828 6   -344397.35249  24077145.14549
  22643753.922 6   -495216.199 6   -369284.04748  22643751.18848
  23706116.492 5   -638735.258 5   -450793.95747  23706115.40247
  21662916.438 6   -416322.188 6   -303608.68049  21662917.49649
 20  5 16  5 14 50.0000000  0  9G01G03G07G08G11G17G22G28G30          0.000051466
  20140191.836 7   -213558.148 7   -158721.03949  20140193.14549
  23364631.961 5   -687416.492 5   -498193.61749  23364635.29349
  20930077.992 6   -140823.773 6   -104501.30149  20930076.35549
  23085241.383 3    -34028.145 3    -22805.11746  23085243.37546
  21168628.289 6    -17771.988 6    -13529.24248  21168626.26648
  24076475.758 6   -492854.023 6   -347141.14149  24076475.59849
  22643072.117 6   -498801.090 6   -372077.46948  22643069.10548
  23705239.766 5   -643342.988 5   -454384.39547  23705238.83647
  21662356.141 6   -419264.199 6   -305901.15249  21662357.17649
 20  5 16  5 14 51.0000000  0  9G01G03G07G08G11G17G22G28G30          0.000050144
  20139908.688 7   -215044.176 7   -159878.97749  20139910.07849
  23363717.516 5   -692223.758 5   -501939.53149  23363720.81349
  20929895.711 6   -141782.941 6   -105248.70749  20929893.61349
  23085200.133 3    -34246.523 3    -22975.28146  23085201.88346
  21168611.086 6    -17861.293 6    -13598.83248  21168609.32848
  24075806.102 6   -496374.832 6   -349884.62149  24075805.34049
  22642389.695 6   -502385.359 6   -374870.40648  22642387.07848
  23704362.516 5   -647950.555 5   -457974.69947  23704361.92247
  21661796.484 6   -422205.367 6   -308192.96949  21661797.60949
 20  5 16  5 14 52.0000000  0  9G01G03G07G08G11G17G22G28G30          0.000048820
  20139626.195 7   -216529.375 7   -161036.27749  20139627.55149
  23362802.672 5   -697030.746 5   -505685.23849  23362805.75849
  20929712.930 6   -142741.320 6   -105995.49249  20929711.41449
  23085158.063 3    -34464.820 3    -23145.38746  23085160.48446
  21168594.500 6    -17950.211 6    -13668.11748  21168592.65248
  24075136.383 6   -499895.355 6   -352627.88349  24075134.96549
  22641708.141 6   -505969.063 6   -377662.90248  22641705.15248
  23703486.297 5   -652558.020 5   -461564.93047  23703485.43447
  21661237.984 6   -425145.766 6   -310484.19149  21661238.36749
 20  5 16  5 14 53.0000000  0  9G01G03G07G08G11G17G22G28G30          0.000047497
  20139343.617 7   -218013.754 7   -162192.93449  20139345.18449
  23361888.305 5   -701837.516 5   -509430.77349  23361891.14149
  20929530.992 6   -143698.906 6   -106741.66449  20929529.06349
  23085116.531 3    -34682.984 3    -23315.38346  23085118.82446
  21168577.211 6    -18038.652 6    -13737.03148  21168575.32448
  24074466.188 6   -503415.590 6   -355370.93049  24074465.36349
  22641026.070 6   -509552.254 6   -380455.00048  22641022.95748
  23702609.625 5   -657165.398 5   -465155.10247  23702608.44547
  21660677.852 6   -428085.336 6   -312774.77049  21660678.98449
 20  5 16  5 14 54.0000000  0  9G01G03G07G08G11G17G22G28G30          0.000046175
  20139061.539 7   -219497.285 7   -163348.93849  20139062.95749
  23360972.781 5   -706643.988 5   -513176.08249  23360976.37149
  20929348.766 6   -144655.715 6   -107487.22349  20929347.19949
  23085075.508 3    -34900.945 3    -23485.21946  23085077.08646
  21168560.938 6    -18126.637 6    -13805.59048  21168558.48048
  24073796.820 6   -506935.516 6   -358113.73049  24073795.61349
  22640344.414 6   -513134.871 6   -383246.64548  22640340.98448
  23701732.984 5   -661772.676 5   -468745.19547  23701731.67647
  21660118.602 6   -431024.125 6   -315064.73849  21660119.69549
 20  5 16  5 14 55.0000000  0  9G01G03G07G08G11G17G22G28G30          0.000044853
  20138779.273 7   -220980.055 7   -164504.34449  20138780.58649
  23360058.680 5   -711450.301 5   -516921.25849  23360061.76249
  20929166.672 6   -145611.781 6   -108232.21549  20929165.12149
  23085033.953 3    -35118.879 3    -23655.04346  23085035.87946
  21168544.211 6    -18214.266 6    -13873.87948  21168541.87548
  24073126.703 6   -510455.242 6   -360856.36749  24073125.75449
  22639662.617 6   -516716.996 6   -386037.91448  22639659.77348
  23700855.820 5   -666379.949 5   -472335.28147  23700854.86747
  21659559.313 6   -433962.207 6   -317354.14849  21659560.46149
 20  5 16  5 14 56.0000000  0  9G01G03G07G08G11G17G22G28G30          0.000043530
  20138497.094 7   -222461.938 7   -165659.05949  20138498.66849
  23359144.453 5   -716256.250 5   -520666.15249  23359147.85249
  20928985.164 6   -146567.000 6   -108976.54749  20928983.02349
  23084992.266 3    -35336.621 3    -23824.71546  23084994.26646
  21168527.664 6    -18301.336 6    -13941.71948  21168525.07448
  24072456.625 6   -513974.566 6   -363598.69949  24072455.94949
  22638981.211 6   -520298.512 6   -388828.70348  22638978.44948
  23699978.977 5   -670987.000 5   -475925.19147  23699977.81347
  21659000.563 6   -436899.387 6   -319642.86349  21659001.59449
 20  5 16  5 14 57.0000000  0  9G01G03G07G08G11G17G22G28G30          0.000042206
  20138215.266 7   -223942.895 7   -166813.05549  20138216.54749
  23358229.469 5   -721061.918 5   -524410.83249  23358233.17649
  20928803.492 6   -147521.379 6   -109720.22349  20928801.86349
  23084950.961 4    -35554.094 4    -23994.16846  23084952.81646
  21168511.039 6    -18387.930 6    -14009.19148  21168508.44148
  24071786.875 6   -517493.516 6   -366340.73448  24071785.88748
  22638299.617 6   -523879.398 6   -391619.00048  22638296.84448
  23699102.219 5   -675593.898 5   -479514.98447  23699101.21147
  21658441.734 6   -439835.738 6   -321930.93049  21658443.01249
 20  5 16  5 14 58.0000000  0  9G01G03G07G08G11G17G22G28G30          0.000040884
  20137933.867 7   -225423.043 7   -167966.42249  20137934.86349
  23357315.813 5   -725867.313 5   -528155.29349  23357318.59849
  20928622.227 7   -148474.965 7   -110463.27749  20928620.46949
  23084909.422 4    -35771.414 4    -24163.51246  23084911.55546
  21168494.695 6    -18474.031 6    -14076.28548  21168492.29748
  24071117.484 6   -521012.156 6   -369082.52748  24071116.60248
  22637618.609 6   -527459.723 6   -394408.86348  22637615.35948
  23698225.453 5   -680200.707 5   -483104.70747  23698224.55947
  21657883.188 6   -442771.266 6   -324218.35949  21657884.36349
 20  5 16  5 14 59.0000000  0  9G01G03G07G08G11G17G22G28G30          0.000039562
  20137652.156 7   -226902.340 7   -169119.11749  20137653.47349
  23356400.594 5   -730672.457 5   -531899.55549  23356403.94949
  20928440.719 7   -149427.734 7   -111205.69149  20928438.83649
  23084868.008 4    -35988.660 4    -24332.79746  23084870.54346
  21168478.531 6    -18559.711 6    -14143.05548  21168476.33248
  24070447.766 6   -524530.527 6   -371824.11748  24070446.85548
  22636937.227 6   -531039.484 6   -397198.28148  22636934.38348
  23697349.039 5   -684807.414 5   -486694.35247  23697348.18847
  21657324.555 6   -445705.996 6   -326505.16049  21657325.63349
 20  5 16  5 15  0.0000000  0  9G01G03G07G08G11G17G22G28G30          0.000038240
  20137371.039 7   -228380.805 7   -170271.16849  20137372.36749
  23355486.414 5   -735477.313 5   -535643.59049  23355489.87149
  20928259.625 7   -150379.727 7   -111947.50449  20928257.83249
  23084827.164 4    -36205.695 4    -24501.91046  23084829.38746
  21168462.055 6    -18644.910 6    -14209.44948  21168460.16448
  24069778.500 6   -528048.543 6   -374565.42248  24069777.40648
  22636255.922 6   -534618.668 6   -399987.26248  22636253.38348
  23696471.953 5   -689413.961 5   -490283.85947  23696471.05547
  21656766.508 6   -448639.914 6   -328791.32849  21656767.68049
 20  5 16  5 15  1.0000000  0  9G01G03G07G08G11G17G22G28G30          0.000036919
  20137089.961 7   -229858.504 7   -171422.62149  20137090.76249
  23354572.234 5   -740281.988 5   -539387.48049  23354575.63349
  20928078.695 7   -151331.004 7   -112688.76649  20928077.00449
  23084785.039 4    -36422.703 4    -24671.00846  23084787.75446
  21168446.297 6    -18729.727 6    -14275.53548  21168443.87548
  24069108.742 6   -531566.348 6   -377306.57048  24069108.02748
  22635575.133 6   -538197.395 6   -402775.87548  22635572.60248
  23695596.063 5   -694020.535 5   -493873.39547  23695594.76247
  21656208.445 6   -451573.141 6   -331076.95749  21656209.31349
 20  5 16  5 15  2.0000000  0  9G01G03G07G08G11G17G22G28G30          0.000035595
  20136808.656 7   -231335.379 7   -172573.43849  20136809.98449
  23353657.711 5   -745086.422 5   -543131.18449  23353661.44549
  20927897.781 6   -152281.492 6   -113429.40649  20927895.89549
  23084743.734 4    -36639.563 4    -24839.99646  23084746.75846
  21168430.109 6    -18814.094 6    -14341.27348  21168427.39148
  24068439.875 6   -535083.840 6   -380047.46948  24068438.37548
  22634894.133 6   -541775.527 6   -405564.03548  22634891.05948
  23694719.523 5   -698626.977 5   -497462.82847  23694718.12947
  21655650.406 6   -454505.516 6   -333361.92649  21655651.29749
 20  5 16  5 15  3.0000000  0  9G01G03G07G08G11G17G22G28G30          0.000034275
  20136527.820 7   -232811.406 7   -173723.58249  20136529.05149
  23352743.641 5   -749890.582 5   -546874.68849  23352746.80949
  20927717.109 7   -153231.160 7   -114169.40649  20927715.12549
  23084701.977 4    -36856.273 4    -25008.87146  23084705.42246
  21168414.180 6    -18898.012 6    -14406.66448  21168412.04748
  24067770.938 6   -538601.027 6   -382788.13748  24067769.06348
  22634213.383 6   -545353.125 6   -408351.78148  22634210.48448
  23693842.727 5   -703233.324 5   -501052.19547  23693841.58647
  21655092.656 6   -457437.121 6   -335646.29749  21655093.50449
 20  5 16  5 15  4.0000000  0  9G01G03G07G08G11G17G22G28G30          0.000032951
  20136247.109 7   -234286.570 7   -174873.05949  20136248.32449
  23351829.094 5   -754694.457 5   -550617.95749  23351832.96949
  20927536.336 7   -154180.039 7   -114908.79749  20927534.88349
  23084662.133 4    -37072.797 4    -25177.58246  23084664.33646
  21168398.109 6    -18981.469 6    -14471.70348  21168396.10948
  24067101.336 6   -542117.875 6   -385528.53948  24067099.66048
  22633532.891 6   -548930.137 6   -411139.06348  22633529.89548
  23692966.234 5   -707839.547 5   -504641.45747  23692965.04747
  21654534.594 6   -460367.898 6   -337930.02349  21654535.81349
 20  5 16  5 15  5.0000000  0  9G01G03G07G08G11G17G22G28G30          0.000031631
  20135966.797 7   -235760.922 7   -176021.91049  20135968.21949
  23350915.234 5   -759498.105 5   -554361.05949  23350918.93449
  20927356.148 7   -155128.172 7   -115647.60549  20927354.62949
  23084620.383 3    -37289.254 3    -25346.24246  23084623.11746
  21168382.445 7    -19064.508 7    -14536.41048  21168379.78948
  24066432.156 6   -545634.461 6   -388268.73848  24066430.48848
  22632851.680 6   -552506.629 6   -413925.94148  22632849.34048
  23692089.328 5   -712445.684 5   -508230.64847  23692088.63347
  21653976.945 6   -463297.922 6   -340213.15249  21653978.15649
 20  5 16  5 15  6.0000000  0  9G01G03G07G08G11G17G22G28G30          0.000030310
  20135686.078 7   -237234.445 7   -177170.11349  20135687.69549
  23350001.656 5   -764301.480 5   -558103.94549  23350005.18849
  20927175.656 7   -156075.477 7   -116385.76649  20927174.21949
  23084579.656 3    -37505.543 3    -25514.78546  23084582.00446
  21168366.750 7    -19147.023 7    -14600.70348  21168364.38348
  24065763.031 6   -549150.727 6   -391008.68848  24065761.35248
  22632171.813 6   -556082.527 6   -416712.35948  22632168.78548
  23691213.461 5   -717051.707 5   -511819.75447  23691212.09047
  21653419.508 6   -466227.121 6   -342495.64849  21653420.89549
 20  5 16  5 15  7.0000000  0  9G01G03G07G08G11G17G22G28G30          0.000028988
  20135405.922 7   -238707.172 7   -178317.68849  20135407.23449
  23349087.461 5   -769104.633 5   -561846.65649  23349091.14849
  20926995.555 7   -157022.039 7   -117123.34849  20926994.03549
  23084537.938 4    -37721.746 4    -25683.25846  23084540.86346
  21168350.984 6    -19229.191 6    -14664.73848  21168348.80548
  24065094.133 6   -552666.730 6   -393748.43048  24065092.27748
  22631491.422 6   -559657.926 6   -419498.37948  22631488.09848
  23690336.391 5   -721657.672 5   -515408.81647  23690335.25847
  21652862.156 6   -469155.578 6   -344777.56649  21652863.43849
 20  5 16  5 15  8.0000000  0  9G01G03G07G08G11G17G22G28G30          0.000027666
  20135125.875 7   -240179.086 7   -179464.63749  20135126.89549
  23348173.648 5   -773907.512 5   -565589.16449  23348176.95349
  20926815.297 7   -157967.820 7   -117860.32449  20926813.93049
  23084497.156 3    -37937.785 3    -25851.61746  23084499.75846
  21168335.305 6    -19310.883 6    -14728.39148  21168332.98048
  24064425.188 6   -556182.410 6   -396487.92248  24064423.43848
  22630810.852 6   -563232.758 6   -422283.95348  22630808.21148
  23689460.117 5   -726263.492 5   -518997.77347  23689458.93047
  21652305.305 6   -472083.211 6   -347058.84049  21652306.57049
 20  5 16  5 15  9.0000000  0  9G01G03G07G08G11G17G22G28G30          0.000026346
  20134846.023 7   -241650.105 7   -180610.88749  20134847.43849
  23347259.266 5   -778710.137 5   -569331.46549  23347263.25849
  20926635.758 7   -158912.777 7   -118596.65649  20926634.18449
  23084455.867 3    -38153.680 3    -26019.84446  23084458.68046
  21168320.047 6    -19392.090 6    -14791.66848  21168317.61348
  24063755.609 6   -559697.758 6   -399227.15248  24063754.64148
  22630131.055 6   -566806.988 6   -425069.07048  22630128.30548
  23688583.820 5   -730869.219 5   -522586.64547  23688582.81347
  21651748.570 6   -475010.047 6   -349339.48849  21651749.84449
 20  5 16  5 15 10.0000000  0  9G01G03G07G08G11G17G22G28G30          0.000025024
  20134566.266 7   -243120.293 7   -181756.48849  20134567.21549
  23346345.938 5   -783512.441 5   -573073.52349  23346348.86749
  20926456.055 6   -159856.918 6   -119332.34449  20926454.48449
  23084414.813 3    -38369.414 3    -26187.93846  23084417.80146
  21168304.898 6    -19472.844 6    -14854.59048  21168302.37148
  24063086.914 5   -563212.797 5   -401966.14849  24063085.63349
  22629451.008 6   -570380.652 6   -427853.74248  22629448.29348
  23687707.555 5   -735474.820 5   -526175.41847  23687706.08247
  21651191.578 6   -477936.047 6   -351619.48849  21651192.47749
 20  5 16  5 15 11.0000000  0  9G01G03G07G08G11G17G22G28G30          0.000023703
  20134286.797 7   -244589.590 7   -182901.39849  20134287.93849
  23345432.078 5   -788314.461 5   -576815.34449  23345435.62549
  20926276.742 7   -160800.246 7   -120067.41449  20926274.98049
  23084372.922 3    -38584.922 3    -26355.87146  23084376.87146
  21168289.703 6    -19553.066 6    -14917.10548  21168287.19548
  24062418.141 6   -566727.492 6   -404704.87149  24062416.77049
  22628770.859 6   -573953.695 6   -430637.93448  22628768.30148
  23686831.211 5   -740080.238 5   -529764.05146  23686829.45746
  21650635.031 6   -480861.188 6   -353898.82049  21650636.03949
 20  5 16  5 15 12.0000000  0  9G01G03G07G08G11G17G22G28G30          0.000022383
  20134006.953 7   -246058.020 7   -184045.62149  20134008.20749
  23344518.125 5   -793116.156 5   -580556.93049  23344521.75449
  20926097.461 7   -161742.719 7   -120801.80549  20926095.67249
  23084333.391 3    -38800.289 3    -26523.69546  23084335.85946
  21168274.469 7    -19632.820 7    -14979.24648  21168272.06348
  24061749.492 6   -570241.809 6   -407443.29349  24061748.41449
  22628091.070 6   -577526.164 6   -433421.68448  22628088.43848
  23685954.500 5   -744685.539 5   -533352.60247  23685953.36347
  21650078.641 6   -483785.535 6   -356177.53949  21650079.52349
 20  5 16  5 15 13.0000000  0  9G01G03G07G08G11G17G22G28G30          0.000021061
  20133727.648 7   -247525.598 7   -185189.18849  20133728.99249
  23343604.391 5   -797917.617 5   -584298.32849  23343608.23849
  20925918.375 7   -162684.406 7   -121535.59449  20925916.23449
  23084291.602 3    -39015.484 3    -26691.38346  23084294.82046
  21168259.063 7    -19712.102 7    -15041.02748  21168256.77748
  24061080.789 6   -573755.832 6   -410181.49249  24061079.50449
  22627411.344 6   -581098.051 6   -436204.96948  22627408.69148
  23685078.359 5   -749290.723 5   -536941.07447  23685076.65247
  21649522.516 6   -486709.023 6   -358455.57849  21649523.34049
 20  5 16  5 15 14.0000000  0  9G01G03G07G08G11G17G22G28G30          0.000019741
  20133448.836 7   -248992.395 7   -186332.15249  20133449.88749
  23342690.672 5   -802718.848 5   -588039.54349  23342694.26649
  20925739.188 7   -163625.348 7   -122268.78949  20925737.29749
  23084251.820 4    -39230.563 4    -26858.98046  23084254.12146
  21168244.141 7    -19790.969 7    -15102.48048  21168241.73048
  24060412.320 6   -577269.598 6   -412919.49249  24060411.18449
  22626731.797 6   -584669.422 6   -438987.84848  22626728.96148
  23684201.805 5   -753895.828 5   -540529.46547  23684200.13347
  21648965.805 6   -489631.770 6   -360733.04749  21648966.97349
 20  5 16  5 15 15.0000000  0  9G01G03G07G08G11G17G22G28G30          0.000018421
  20133169.664 7   -250458.406 7   -187474.49649  20133171.25849
  23341777.430 5   -807519.879 5   -591780.60949  23341780.84049
  20925560.164 7   -164565.563 7   -123001.43049  20925558.24249
  23084211.039 4    -39445.559 4    -27026.52046  23084213.00446
  21168229.391 7    -19869.465 7    -15163.65248  21168226.84848
  24059743.922 6   -580783.094 6   -415657.27749  24059742.82049
  22626052.180 6   -588240.285 6   -441770.32848  22626049.46148
  23683326.273 5   -758500.910 5   -544117.84447  23683324.04347
  21648409.688 6   -492553.793 6   -363009.94949  21648410.80949
 20  5 16  5 15 16.0000000  0  9G01G03G07G08G11G17G22G28G30          0.000017101
  20132891.156 7   -251923.652 7   -188616.25449  20132892.28149
  23340863.859 5   -812320.664 5   -595521.47349  23340867.36349
  20925381.289 6   -165505.047 6   -123733.49649  20925379.63749
  23084169.578 3    -39660.480 3    -27193.99246  23084172.22746
  21168214.148 6    -19947.527 6    -15224.47348  21168212.30948
  24059075.180 6   -584296.328 6   -418394.86349  24059073.91449
  22625372.602 6   -591810.641 6   -444552.42648  22625369.87948
  23682449.203 5   -763105.910 5   -547706.14847  23682447.97347
  21647854.039 6   -495475.051 6   -365286.25849  21647855.07049
 20  5 16  5 15 17.0000000  0  9G01G03G07G08G11G17G22G28G30          0.000015779
  20132612.250 7   -253388.074 7   -189757.35549  20132613.36349
  23339950.359 5   -817121.289 5   -599262.21949  23339953.62549
  20925202.836 6   -166443.762 6   -124464.96149  20925201.10249
  23084128.352 4    -39875.297 4    -27361.38346  23084131.20346
  21168199.742 6    -20025.223 6    -15285.02048  21168197.74648
  24058406.484 6   -587809.320 6   -421132.25449  24058405.46149
  22624693.188 6   -595380.473 6   -447334.11348  22624690.48848
  23681573.375 5   -767710.871 5   -551294.42647  23681571.59047
  21647298.500 6   -498395.543 6   -367561.96949  21647299.73849
 20  5 16  5 15 18.0000000  0  9G01G03G07G08G11G17G22G28G30          0.000014460
  20132333.453 7   -254851.746 7   -190897.88349  20132335.03949
  23339036.664 5   -821921.621 5   -603002.73849  23339040.44949
  20925024.203 6   -167381.754 6   -125195.86349  20925022.75049
  23084087.938 4    -40090.008 4    -27528.68846  23084090.46946
  21168184.859 7    -20102.473 7    -15345.21548  21168182.44948
  24057738.156 6   -591322.035 6   -423869.44149  24057737.17249
  22624013.938 6   -598949.805 6   -450115.41048  22624011.56348
  23680696.867 5   -772315.754 5   -554882.64847  23680695.11747
  21646742.766 6   -501315.297 6   -369837.09449  21646743.84449
 20  5 16  5 15 19.0000000  0  9G01G03G07G08G11G17G22G28G30          0.000013140
  20132055.141 7   -256314.656 7   -192037.80949  20132056.96949
  23338123.453 5   -826721.844 5   -606743.17649  23338127.16049
  20924845.734 6   -168319.027 6   -125926.20749  20924843.93449
  23084046.883 4    -40304.668 4    -27695.95346  23084049.89846
  21168170.391 6    -20179.375 6    -15405.14148  21168168.02348
  24057069.898 6   -594834.559 6   -426606.46949  24057068.88349
  22623334.930 6   -602518.664 6   -452896.34448  22623332.30148
  23679820.820 5   -776920.641 5   -558470.87947  23679818.90247
  21646187.180 6   -504234.367 6   -372111.69949  21646188.58249
 20  5 16  5 15 20.0000000  0  9G01G03G07G08G11G17G22G28G30          0.000011820
  20131776.844 7   -257776.781 7   -193177.12149  20131778.06349
  23337210.430 5   -831521.781 5   -610483.38349  23337213.65249
  20924667.625 6   -169255.574 6   -126655.98849  20924666.17249
  23084006.125 4    -40519.273 4    -27863.17646  23084008.83246
  21168155.898 6    -20255.887 6    -15464.76248  21168153.26248
  24056401.508 6   -598346.824 6   -429343.29749  24056400.60249
  22622656.281 6   -606086.988 6   -455676.84848  22622653.11348
  23678944.031 5   -781525.434 5   -562059.03147  23678942.62147
  21645631.844 6   -507152.652 6   -374385.68849  21645633.30949
 20  5 16  5 15 21.0000000  0  9G01G03G07G08G11G17G22G28G30          0.000010500
  20131498.766 7   -259238.129 7   -194315.83249  20131500.22749
  23336296.570 5   -836321.586 5   -614223.49249  23336299.94149
  20924489.570 6   -170191.355 6   -127385.16449  20924487.78149
  23083965.750 4    -40733.742 4    -28030.29346  23083968.13346
  21168141.523 6    -20331.961 6    -15524.03548  21168139.13348
  24055732.578 6   -601858.809 6   -432079.91049  24055732.04349
  22621977.070 6   -609654.816 6   -458456.97348  22621974.20748
  23678068.383 5   -786130.191 5   -565647.15247  23678066.64847
  21645077.258 6   -510070.168 6   -376659.07849  21645077.86349
 20  5 16  5 15 22.0000000  0  9G01G03G07G08G11G17G22G28G30          0.000009180
  20131220.977 7   -260698.695 7   -195453.93849  20131222.46149
  23335383.258 5   -841121.176 5   -617963.43449  23335386.95349
  20924311.531 6   -171126.449 6   -128113.80949  20924309.74249
  23083924.445 4    -40948.176 4    -28197.38746  23083927.50046
  21168126.859 6    -20407.695 6    -15583.05148  21168124.96948
  24055064.570 6   -605370.570 6   -434816.35249  24055063.64549
  22621298.297 6   -613222.168 6   -461236.73048  22621295.50048
  23677192.102 5   -790734.918 5   -569235.24647  23677190.40647
  21644521.688 6   -512986.977 6   -378931.90649  21644522.87149
 20  5 16  5 15 23.0000000  0  9G01G03G07G08G11G17G22G28G30          0.000007860
  20130943.477 7   -262158.488 7   -196591.44149  20130944.90649
  23334470.172 5   -845920.563 5   -621703.21549  23334473.50049
  20924134.039 6   -172060.785 6   -128841.86749  20924131.93049
  23083884.203 4    -41162.453 4    -28364.36746  23083886.73846
  21168112.758 6    -20483.023 6    -15641.75048  21168110.09848
  24054396.094 6   -608882.113 6   -437552.61749  24054395.52049
  22620619.586 6   -616788.992 6   -464016.07048  22620616.67248
  23676315.570 5   -795339.609 5   -572823.32047  23676313.59447
  21643966.781 6   -515903.074 6   -381204.19549  21643967.73449
 20  5 16  5 15 24.0000000  0  9G01G03G07G08G11G17G22G28G30          0.000006540
  20130665.836 7   -263617.531 7   -197728.36349  20130666.82449
  23333556.703 5   -850719.750 5   -625442.84049  23333559.90649
  20923956.242 6   -172994.410 6   -129569.36749  20923954.32449
  23083843.102 4    -41376.727 4    -28531.34446  23083845.76646
  21168098.141 6    -20557.965 6    -15700.14148  21168096.44548
  24053728.641 6   -612393.371 6   -440288.65249  24053728.04349
  22619940.703 6   -620355.348 6   -466795.04748  22619937.91048
  23675439.336 5   -799944.246 5   -576411.36347  23675437.61347
  21643411.852 6   -518818.414 6   -383475.89549  21643412.92249
 20  5 16  5 15 25.0000000  0  9G01G03G07G08G11G17G22G28G30          0.000005220
  20130388.117 7   -265075.691 7   -198864.59049  20130389.62949
  23332643.922 5   -855518.633 5   -629182.22749  23332646.68449
  20923778.805 7   -173927.219 7   -130296.23049  20923777.34049
  23083802.633 4    -41590.781 4    -28698.13746  23083805.17246
  21168084.328 7    -20632.438 7    -15758.18448  21168081.54348
  24053060.430 6   -615904.336 6   -443024.46149  24053059.31649
  22619262.211 6   -623921.098 6   -469573.55548  22619259.48048
  23674563.602 5   -804548.738 5   -579999.28147  23674561.55947
  21642857.055 6   -521732.910 6   -385746.92649  21642858.28149
 20  5 16  5 15 26.0000000  0  9G01G03G07G08G11G17G22G28G30          0.000003901
  20130110.734 7   -266533.145 7   -200000.27049  20130111.77749
  23331730.586 5   -860317.379 5   -632921.51649  23331733.80149
  20923601.406 6   -174859.355 6   -131022.57449  20923599.53549
  23083761.750 4    -41804.816 4    -28864.91846  23083764.16846
  21168070.195 6    -20706.555 6    -15815.94148  21168068.20348
  24052392.195 6   -619415.121 6   -445760.13749  24052391.58249
  22618583.914 6   -627486.383 6   -472351.69948  22618581.25048
  23673687.336 5   -809153.254 5   -583587.20347  23673685.39547
  21642303.016 6   -524646.730 6   -388017.43849  21642304.05149
 20  5 16  5 15 27.0000000  0  9G01G03G07G08G11G17G22G28G30          0.000002581
  20129833.781 7   -267989.730 7   -201135.27049  20129835.13749
  23330817.445 5   -865115.840 5   -636660.57049  23330820.50049
  20923424.133 6   -175790.668 6   -131748.27349  20923422.19149
  23083721.367 4    -42018.711 4    -29031.58246  23083723.39846
  21168056.359 6    -20780.191 6    -15873.32048  21168053.79348
  24051724.195 6   -622925.523 6   -448495.51249  24051723.27349
  22617905.547 6   -631051.113 6   -475129.41048  22617902.53548
  23672810.953 5   -813757.629 5   -587175.03147  23672808.91847
  21641748.602 6   -527559.734 6   -390287.31349  21641750.22349
 20  5 16  5 15 28.0000000  0  9G01G03G07G08G11G17G22G28G30          0.000001261
  20129556.578 7   -269445.555 7   -202269.68049  20129557.76649
  23329904.070 5   -869914.109 5   -640399.47749  23329907.48449
  20923246.781 6   -176721.262 6   -132473.41849  20923244.98449
  23083680.711 4    -42232.461 4    -29198.14846  23083683.20346
  21168042.156 6    -20853.449 6    -15930.40248  21168040.16448
  24051056.352 6   -626435.730 6   -451230.73849  24051055.16849
  22617227.477 6   -634615.301 6   -477906.69948  22617224.63348
  23671934.133 5   -818361.961 5   -590762.81347  23671932.85547
  21641194.289 6   -530472.012 6   -392556.62149  21641195.56649
 20  5 16  5 15 29.0000000  0  9G01G03G07G08G11G17G22G28G30         -0.000000057
  20129279.586 7   -270900.660 7   -203403.53149  20129280.93049
  23328990.781 5   -874712.188 5   -644138.23849  23328994.59849
  20923070.109 6   -177651.148 6   -133198.00449  20923068.18049
  23083639.641 4    -42446.262 4    -29364.74646  23083642.41046
  21168028.016 6    -20926.379 6    -15987.23048  21168026.17648
  24050388.109 6   -629945.695 6   -453965.77349  24050387.35249
  22616549.180 6   -638179.066 6   -480683.66048  22616546.21148
  23671058.570 5   -822966.277 5   -594350.59447  23671056.88347
  21640640.453 6   -533383.555 6   -394825.35549  21640641.66849
 20  5 16  5 15 30.0000000  0  9G01G03G07G08G11G17G22G28G30         -0.000001377
  20129002.828 7   -272354.977 7   -204536.75849  20129004.23449
  23328078.273 5   -879510.070 5   -647876.84849  23328081.38349
  20922893.203 7   -178580.305 7   -133922.02349  20922891.33649
  23083598.953 4    -42659.934 4    -29531.24246  23083601.53546
  21168014.563 6    -20998.852 6    -16043.69948  21168012.52348
  24049720.930 6   -633455.387 6   -456700.59849  24049719.53149
  22615871.570 6   -641742.309 6   -483460.21148  22615868.18448
  23670181.914 5   -827570.516 5   -597938.31647  23670180.31347
  21640086.453 6   -536294.371 6   -397093.52049  21640087.69549
 20  5 16  5 15 31.0000000  0  9G01G03G07G08G11G17G22G28G30         -0.000002695
  20128726.344 7   -273808.488 7   -205669.36349  20128727.92249
  23327164.867 5   -884307.723 5   -651615.27349  23327168.85249
  20922716.469 7   -179508.715 7   -134645.46149  20922714.85549
  23083557.914 4    -42873.484 4    -29697.64846  23083561.27046
  21168001.133 6    -21070.984 6    -16099.91048  21167998.52348
  24049052.852 6   -636964.836 6   -459435.23449  24049051.62149
  22615193.234 6   -645305.020 6   -486236.34848  22615190.03548
  23669305.898 5   -832174.734 5   -601526.01647  23669304.42647
  21639532.484 6   -539204.457 6   -399361.12149  21639534.02349
 20  5 16  5 15 32.0000000  0  9G01G03G07G08G11G17G22G28G30         -0.000004015
  20128450.219 7   -275261.203 7   -206801.35549  20128451.56649
  23326252.195 5   -889105.152 5   -655353.53149  23326255.53949
  20922539.602 6   -180436.359 6   -135368.30149  20922538.82049
  23083517.344 4    -43086.941 4    -29863.98446  23083520.48446
  21167986.844 6    -21142.645 6    -16155.75448  21167984.99648
  24048385.375 6   -640474.031 6   -462169.66849  24048384.09449
  22614515.328 6   -648867.223 6   -489012.08648  22614512.10948
  23668430.023 5   -836778.883 5   -605113.66447  23668428.27347
  21638978.828 6   -542113.727 6   -401628.08649  21638980.57849
 20  5 16  5 15 33.0000000  0  9G01G03G07G08G11G17G22G28G30         -0.000005335
  20128173.508 7   -276713.055 7   -207932.66449  20128174.83249
  23325339.344 5   -893902.242 5   -659091.52749  23325342.66049
  20922363.320 7   -181363.191 7   -136090.51249  20922361.93049
  23083477.242 4    -43300.219 4    -30030.17246  23083479.48046
  21167973.602 6    -21213.840 6    -16211.23448  21167971.68848
  24047717.594 6   -643982.867 6   -464903.82449  24047716.09449
  22613837.563 6   -652428.816 6   -491787.35248  22613834.52748
  23667553.977 5   -841382.898 5   -608701.21147  23667552.09047
  21638425.758 6   -545022.184 6   -403894.41849  21638426.71149
 20  5 16  5 15 34.0000000  0  9G01G03G07G08G11G17G22G28G30         -0.000006653
  20127897.250 7   -278164.180 7   -209063.41049  20127898.72349
  23324426.469 5   -898699.242 5   -662829.44549  23324429.60549
  20922187.398 7   -182289.355 7   -136812.19149  20922185.61349
  23083436.266 4    -43513.480 4    -30196.34846  23083439.07846
  21167960.391 6    -21284.703 6    -16266.44948  21167958.07448
  24047049.773 6   -647491.539 6   -467637.85549  24047048.75049
  22613160.031 6   -655989.977 6   -494562.27348  22613157.09048
  23666677.688 5   -845986.875 5   -612288.72347  23666676.48847
  21637872.195 6   -547929.949 6   -406160.21149  21637873.35949
 20  5 16  5 15 35.0000000  0  9G01G03G07G08G11G17G22G28G30         -0.000007973
  20127621.484 7   -279614.563 7   -210193.58249  20127622.89549
  23323513.820 5   -903496.035 5   -666567.20749  23323517.11349
  20922011.000 6   -183214.809 6   -137533.32849  20922009.25849
  23083396.000 4    -43726.691 4    -30362.47746  23083398.46146
  21167946.484 6    -21355.195 6    -16321.37948  21167944.38748
  24046382.281 6   -650999.969 6   -470371.69549  24046381.00449
  22612481.922 6   -659550.625 6   -497336.81348  22612479.39148
  23665801.188 5   -850590.824 5   -615876.21947  23665800.23047
  21637318.961 6   -550836.984 6   -408425.43849  21637319.99649
 20  5 16  5 15 36.0000000  0  9G01G03G07G08G11G17G22G28G30         -0.000009291
  20127345.859 7   -281064.109 7   -211323.09849  20127346.87949
  23322601.531 5   -908292.586 5   -670304.77049  23322604.22749
  20921835.500 7   -184139.480 7   -138253.84849  20921833.71549
  23083355.820 4    -43939.762 4    -30528.50446  23083357.76246
  21167933.430 6    -21425.250 6    -16375.96548  21167931.50048
  24045714.805 6   -654508.109 6   -473105.30549  24045713.46549
  22611804.664 6   -663110.734 6   -500110.92648  22611802.00048
  23664925.383 5   -855194.723 5   -619463.68447  23664923.95347
  21636766.078 6   -553743.266 6   -410690.07449  21636767.18049
 20  5 16  5 15 37.0000000  0  9G01G03G07G08G11G17G22G28G30         -0.000010609
  20127070.102 7   -282512.832 7   -212451.97349  20127071.09049
  23321688.703 5   -913088.852 5   -674042.12149  23321691.66049
  20921659.508 6   -185063.355 6   -138973.75449  20921657.73049
  23083315.070 4    -44152.633 4    -30694.36746  23083317.50046
  21167920.234 6    -21494.848 6    -16430.19548  21167917.71148
  24045047.500 6   -658015.906 6   -475838.66049  24045045.61749
  22611127.719 6   -666670.281 6   -502884.60248  22611124.71548
  23664049.453 5   -859798.488 5   -623051.04347  23664047.98047
  21636212.953 6   -556648.711 6   -412954.05549  21636214.33249
 20  5 16  5 15 38.0000000  0  9G01G03G07G08G11G17G22G28G30         -0.000011929
  20126794.344 7   -283960.734 7   -213580.20749  20126795.81349
  23320775.602 5   -917884.871 5   -677779.27049  23320779.30949
  20921483.867 6   -185986.453 6   -139693.05549  20921482.31649
  23083274.422 4    -44365.395 4    -30860.16046  23083276.73846
  21167906.992 6    -21563.992 6    -16484.08248  21167904.49248
  24044379.703 6   -661523.434 6   -478571.80149  24044378.25849
  22610449.992 6   -670229.301 6   -505657.85948  22610447.35248
  23663173.242 5   -864402.172 5   -626638.30547  23663171.54747
  21635660.203 6   -559553.398 6   -415217.44949  21635661.57449
 20  5 16  5 15 39.0000000  0  9G01G03G07G08G11G17G22G28G30         -0.000013247
  20126519.102 7   -285407.891 7   -214707.86349  20126520.43849
  23319862.898 5   -922680.742 5   -681516.30949  23319866.47749
  20921308.438 6   -186908.883 6   -140411.83649  20921306.57449
  23083233.922 4    -44578.168 4    -31025.96946  23083236.64846
  21167894.258 6    -21632.809 6    -16537.70748  21167891.68048
  24043712.117 6   -665030.766 6   -481304.78949  24043710.73849
  22609772.656 6   -673787.828 6   -508430.73848  22609769.52348
  23662296.773 5   -869005.852 5   -630225.59447  23662295.77747
  21635107.406 6   -562457.363 6   -417480.27749  21635108.64849
 20  5 16  5 15 40.0000000  0  9G01G03G07G08G11G17G22G28G30         -0.000014565
  20126243.813 7   -286854.301 7   -215834.93849  20126245.23849
  23318950.484 5   -927476.387 5   -685253.17249  23318953.86749
  20921133.102 6   -187830.574 6   -141130.04749  20921131.19549
  23083193.125 4    -44790.836 4    -31191.68446  23083195.99246
  21167880.633 7    -21701.219 7    -16591.01248  21167878.26648
  24043044.922 5   -668537.848 5   -484037.57849  24043043.35949
  22609095.773 6   -677345.863 6   -511203.23048  22609092.85248
  23661421.172 5   -873609.465 5   -633812.82047  23661419.56647
  21634555.273 6   -565360.613 6   -419742.55149  21634556.43849
 20  5 16  5 15 41.0000000  0  9G01G03G07G08G11G17G22G28G30         -0.000015882
  20125968.867 7   -288299.906 7   -216961.38749  20125970.14149
  23318037.656 5   -932271.840 5   -688989.87549  23318041.65649
  20920957.805 6   -188751.527 6   -141847.67249  20920956.21549
  23083152.586 4    -45003.371 4    -31357.30946  23083155.81646
  21167867.648 6    -21769.234 6    -16644.01648  21167865.57848
  24042376.992 6   -672044.672 6   -486770.17249  24042376.03949
  22608418.555 6   -680903.387 6   -513975.32048  22608415.90648
  23660544.758 5   -878213.051 5   -637400.02047  23660543.59447
  21634002.703 6   -568263.098 6   -422004.22349  21634004.39549
 20  5 16  5 15 42.0000000  0  9G01G03G07G08G11G17G22G28G30         -0.000017200
  20125693.906 7   -289744.746 7   -218087.23849  20125695.05949
  23317125.359 5   -937067.066 5   -692726.41849  23317128.97749
  20920782.547 6   -189671.766 6   -142564.74249  20920780.85549
  23083111.719 4    -45215.848 4    -31522.87546  23083114.97346
  21167854.641 6    -21836.852 6    -16696.70348  21167852.85248
  24041709.742 6   -675551.266 6   -489502.58649  24041708.48849
  22607742.320 6   -684460.395 6   -516747.02048  22607739.16848
  23659669.133 5   -882816.559 5   -640987.17247  23659667.32447
  21633450.680 6   -571164.855 6   -424265.33649  21633452.16849
 20  5 16  5 15 43.0000000  0  9G01G03G07G08G11G17G22G28G30         -0.000018520
  20125418.961 7   -291188.754 7   -219212.43849  20125420.09849
  23316212.555 5   -941862.027 5   -696462.74249  23316216.89549
  20920607.742 6   -190591.188 6   -143281.16849  20920605.94949
  23083071.320 4    -45428.148 4    -31688.31346  23083074.77046
  21167842.352 6    -21904.039 6    -16749.05948  21167839.71948
  24041042.227 6   -679057.527 6   -492234.73849  24041041.47749
  22607064.938 6   -688016.855 6   -519518.27348  22607062.46148
  23658793.141 5   -887419.977 5   -644574.25047  23658791.23047
  21632898.305 6   -574065.781 6   -426525.79349  21632899.58249
 20  5 16  5 15 44.0000000  0  9G01G03G07G08G11G17G22G28G30         -0.000019838
  20125144.438 7   -292631.965 7   -220337.01649  20125145.80949
  23315300.078 5   -946656.777 5   -700198.91049  23315304.19149
  20920432.484 7   -191509.883 7   -143997.03549  20920430.83649
  23083031.242 4    -45640.395 4    -31853.69546  23083034.27046
  21167829.719 6    -21970.801 6    -16801.07048  21167827.25448
  24040375.414 6   -682563.555 6   -494966.70349  24040374.25849
  22606388.523 6   -691572.777 6   -522289.12948  22606385.55948
  23657917.453 5   -892023.289 5   -648161.25047  23657915.18047
  21632346.852 6   -576965.969 6   -428785.68449  21632348.11349
 20  5 16  5 15 45.0000000  0  9G01G03G07G08G11G17G22G28G30         -0.000021156
  20124869.898 7   -294074.379 7   -221460.97349  20124871.21149
  23314388.109 5   -951451.285 5   -703934.89149  23314391.49249
  20920258.031 6   -192427.809 6   -144712.30949  20920256.51649
  23082990.891 3    -45852.492 3    -32018.95346  23082993.88746
  21167816.906 6    -22037.129 6    -16852.75848  21167815.20348
  24039708.359 5   -686069.273 5   -497698.43049  24039707.05149
  22605712.172 6   -695128.168 6   -525059.56348  22605709.39848
  23657041.367 5   -896626.563 5   -651748.22747  23657039.26247
  21631795.008 6   -579865.383 6   -431044.97349  21631796.19549
 20  5 16  5 15 46.0000000  0  9G01G03G07G08G11G17G22G28G30         -0.000022474
  20124595.445 7   -295515.969 7   -222584.28949  20124596.92249
  23313476.180 5   -956245.527 5   -707670.66449  23313479.87149
  20920083.656 6   -193344.941 6   -145426.95749  20920081.80949
  23082950.461 3    -46064.480 3    -32184.14846  23082953.66446
  21167804.438 6    -22103.031 6    -16904.11748  21167802.14148
  24039041.445 6   -689574.711 6   -500429.93849  24039040.09049
  22605035.609 6   -698682.984 6   -527829.55548  22605033.13348
  23656165.352 5   -901229.742 5   -655335.11347  23656163.44947
  21631243.766 6   -582764.004 6   -433303.63749  21631244.63349
 20  5 16  5 15 47.0000000  0  9G01G03G07G08G11G17G22G28G30         -0.000023790
  20124321.695 7   -296956.723 7   -223706.95749  20124322.74649
  23312563.453 5   -961039.504 5   -711406.22749  23312567.68049
  20919909.172 6   -194261.297 6   -146141.00049  20919907.53549
  23082909.398 3    -46276.316 3    -32349.21546  23082913.22746
  21167791.813 6    -22168.492 6    -16955.12548  21167789.68448
  24038374.125 6   -693079.859 6   -503161.21549  24038373.14149
  22604359.516 6   -702237.270 6   -530599.12948  22604356.17248
  23655289.414 5   -905832.770 5   -658921.88747  23655287.66447
  21630691.914 6   -585661.813 6   -435561.67249  21630693.38349
 20  5 16  5 15 48.0000000  0  9G01G03G07G08G11G17G22G28G30         -0.000025108
  20124047.609 7   -298396.766 7   -224829.06649  20124048.67249
  23311651.148 5   -965833.324 5   -715141.66449  23311655.20349
  20919735.023 6   -195176.992 6   -146854.52749  20919733.41849
  23082869.984 3    -46488.125 3    -32514.25846  23082873.23446
  21167779.641 6    -22233.629 6    -17005.88348  21167777.48048
  24037707.000 6   -696584.773 6   -505892.31349  24037706.41449
  22603682.867 6   -705791.082 6   -533368.33648  22603680.49648
  23654413.469 5   -910435.848 5   -662508.69547  23654411.55947
  21630140.852 6   -588558.953 6   -437819.18449  21630141.71949
 20  5 16  5 15 49.0000000  0  9G01G03G07G08G11G17G22G28G30         -0.000026426
  20123773.711 7   -299836.023 7   -225950.56649  20123774.91449
  23310739.148 5   -970626.949 5   -718876.95349  23310743.30549
  20919561.031 7   -196091.957 7   -147567.49249  20919559.17649
  23082830.336 3    -46699.828 3    -32679.22346  23082832.56346
  21167767.102 6    -22298.383 6    -17056.34848  21167765.44548
  24037040.523 6   -700089.477 6   -508623.25049  24037038.91449
  22603006.992 6   -709344.414 6   -536137.16048  22603003.90648
  23653537.633 5   -915038.867 5   -666095.46546  23653535.89546
  21629589.492 6   -591455.336 6   -440076.10249  21629590.64149
 20  5 16  5 15 50.0000000  0  9G01G03G07G08G11G17G22G28G30         -0.000027744
  20123499.891 7   -301274.492 7   -227071.45349  20123500.86749
  23309827.258 5   -975420.340 5   -722612.05949  23309831.03149
  20919386.797 7   -197006.145 7   -148279.85249  20919385.05949
  23082790.383 3    -46911.434 3    -32844.12946  23082792.24246
  21167755.109 6    -22362.715 6    -17106.47748  21167752.74248
  24036373.148 6   -703593.926 6   -511353.99249  24036371.80149
  22602330.680 6   -712897.203 6   -538905.57048  22602328.01648
  23652661.578 5   -919641.809 5   -669682.16846  23652659.59846
  21629038.758 6   -594350.965 6   -442332.43849  21629039.63349
 20  5 16  5 15 51.0000000  0  9G01G03G07G08G11G17G22G28G30         -0.000029062
  20123226.391 7   -302712.172 7   -228191.72349  20123227.39849
  23308914.977 5   -980213.512 5   -726347.00049  23308918.58249
  20919213.266 7   -197919.602 7   -148991.63749  20919211.65649
  23082749.523 3    -47122.980 3    -33008.96946  23082751.94946
  21167742.883 6    -22426.660 6    -17156.30148  21167740.77748
  24035706.266 6   -707098.074 6   -514084.49649  24035705.11749
  22601654.820 6   -716449.480 6   -541673.57048  22601651.67648
  23651785.594 5   -924244.707 5   -673268.84447  23651784.06647
  21628487.492 6   -597245.828 6   -444588.18049  21628488.84049
 20  5 16  5 15 52.0000000  0  9G01G03G07G08G11G17G22G28G30         -0.000030378
  20122952.773 7   -304149.031 7   -229311.35549  20122954.16049
  23308002.648 5   -985006.434 5   -730081.73849  23308006.44949
  20919039.328 7   -198832.309 7   -149702.83249  20919037.80549
  23082709.133 3    -47334.375 3    -33173.68446  23082711.89546
  21167730.727 6    -22490.141 6    -17205.76648  21167728.80948
  24035039.484 6   -710601.980 6   -516814.80549  24035038.33649
  22600979.117 6   -720001.219 6   -544441.16048  22600976.40648
  23650910.438 5   -928847.508 5   -676855.44547  23650908.04347
  21627936.625 6   -600139.938 6   -446843.32849  21627938.02049
 20  5 16  5 15 53.0000000  0  9G01G03G07G08G11G17G22G28G30         -0.000031696
  20122679.422 7   -305585.133 7   -230430.39549  20122680.39849
  23307091.125 5   -989799.156 5   -733816.32449  23307094.63349
  20918865.813 6   -199744.262 6   -150413.44949  20918864.02049
  23082669.070 3    -47545.711 3    -33338.35946  23082671.52046
  21167718.617 6    -22553.258 6    -17254.94948  21167716.84048
  24034373.125 6   -714105.633 6   -519544.93049  24034371.70749
  22600303.258 6   -723552.430 6   -547208.34048  22600300.70348
  23650034.008 5   -933450.262 5   -680442.01247  23650032.19947
  21627386.313 6   -603033.293 6   -449097.89149  21627387.66849
 20  5 16  5 15 54.0000000  0  9G01G03G07G08G11G17G22G28G30         -0.000033014
  20122406.484 7   -307020.426 7   -231548.80949  20122407.62549
  23306178.781 5   -994591.668 5   -737550.74249  23306182.65649
  20918692.523 6   -200655.492 6   -151123.50049  20918690.69949
  23082629.094 3    -47756.930 3    -33502.94546  23082631.22346
  21167706.633 6    -22615.949 6    -17303.79748  21167704.39848
  24033706.492 6   -717609.012 6   -522274.84049  24033705.49649
  22599627.336 6   -727103.113 6   -549975.10948  22599624.30148
  23649157.523 5   -938052.938 5   -684028.51247  23649155.74247
  21626836.031 6   -605925.887 6   -451351.86349  21626836.95349
 20  5 16  5 15 55.0000000  0  9G01G03G07G08G11G17G22G28G30         -0.000034330
  20122133.445 7   -308454.934 7   -232666.59849  20122134.91849
  23305266.766 5   -999383.930 5   -741284.96949  23305270.59449
  20918519.367 6   -201565.965 6   -151832.96149  20918517.46549
  23082588.977 3    -47968.063 3    -33667.45746  23082591.26246
  21167695.039 6    -22678.230 6    -17352.33248  21167692.70748
  24033039.500 6   -721112.129 6   -525004.54349  24033038.66049
  22598952.000 6   -730653.297 6   -552741.48448  22598949.18048
  23648282.008 5   -942655.586 5   -687614.98847  23648280.15247
  21626285.320 6   -608817.715 6   -453605.23449  21626286.98849
 20  5 16  5 15 56.0000000  0  9G01G03G07G08G11G17G22G28G30         -0.000035648
  20121860.617 7   -309888.586 7   -233783.73849  20121861.80949
  23304355.453 5  -1004175.930 5   -745018.99649  23304358.59449
  20918345.945 7   -202475.617 7   -152541.78949  20918344.35949
  23082548.641 3    -48178.922 3    -33831.76646  23082551.16046
  21167682.914 6    -22740.043 6    -17400.49648  21167681.13348
  24032373.461 6   -724614.906 6   -527733.98049  24032372.10249
  22598276.570 6   -734202.895 6   -555507.39848  22598274.02748
  23647406.039 5   -947258.063 5   -691201.32847  23647404.27747
  21625735.492 6   -611708.723 6   -455857.96949  21625736.34049
 20  5 16  5 15 57.0000000  0  9G01G03G07G08G11G17G22G28G30         -0.000036964
  20121587.969 7   -311321.496 7   -234900.28949  20121589.05949
  23303443.195 5  -1008967.691 5   -748752.83249  23303447.17249
  20918173.203 6   -203384.582 6   -153250.07449  20918171.29349
  23082508.297 3    -48389.852 3    -33996.11746  23082510.22346
  21167671.297 6    -22801.488 6    -17448.38348  21167669.02348
  24031707.016 6   -728117.461 6   -530463.24649  24031705.53149
  22597601.039 6   -737752.004 6   -558272.94548  22597598.35248
  23646530.383 5   -951860.520 5   -694787.65247  23646528.16847
  21625185.344 6   -614598.988 6   -458110.12549  21625186.69549
 20  5 16  5 15 58.0000000  0  9G01G03G07G08G11G17G22G28G30         -0.000038280
  20121315.023 7   -312753.641 7   -236016.24649  20121316.44549
  23302531.133 5  -1013759.293 5   -752486.54749  23302534.98449
  20918000.523 7   -204292.816 7   -153957.78949  20917998.80949
  23082468.180 3    -48600.629 3    -34160.36746  23082470.62146
  21167659.922 6    -22862.563 6    -17495.97348  21167657.50048
  24031040.195 6   -731619.805 6   -533192.34049  24031039.22349
  22596925.805 6   -741300.613 6   -561038.09448  22596922.96548
  23645654.320 5   -956462.961 5   -698373.98047  23645652.49247
  21624635.742 6   -617488.566 6   -460361.74649  21624636.89849
 20  5 16  5 15 59.0000000  0  9G01G03G07G08G11G17G22G28G30         -0.000039598
  20121043.031 7   -314185.004 7   -237131.59049  20121044.16449
  23301619.391 5  -1018550.699 5   -756220.10949  23301623.18049
  20917827.445 7   -205200.316 7   -154664.92649  20917826.07049
  23082427.688 3    -48811.320 3    -34324.53946  23082430.52046
  21167648.547 6    -22923.238 6    -17543.24648  21167646.10948
  24030374.008 6   -735121.898 6   -535921.24249  24030373.02049
  22596250.281 6   -744848.707 6   -563802.84048  22596247.91848
  23644778.664 5   -961065.352 5   -701960.26247  23644776.98047
  21624085.859 6   -620377.371 6   -462612.76249  21624087.09849
 20  5 16  5 16  0.0000000  0  9G01G03G07G08G11G17G22G28G30         -0.000040915
  20120771.031 7   -315615.598 7   -238246.34049  20120771.94149
  23300708.141 5  -1023341.848 5   -759953.46949  23300711.40249
  20917655.008 7   -206107.098 7   -155371.51249  20917653.57049
  23082387.805 3    -49021.953 3    -34488.67246  23082390.50446
  21167637.086 6    -22983.508 6    -17590.21948  21167634.59048
  24029707.461 6   -738623.723 6   -538649.93449  24029706.51249
  22595575.211 6   -748396.313 6   -566567.20348  22595572.73048
  23643902.695 5   -965667.680 5   -705546.49647  23643900.99647
  21623535.906 6   -623265.441 6   -464863.20749  21623537.84849
 20  5 16  5 16  1.0000000  0  9G01G03G07G08G11G17G22G28G30         -0.000042231
  20120498.742 7   -317045.348 7   -239360.43049  20120499.89149
  23299796.109 5  -1028132.754 5   -763686.64549  23299800.00849
  20917482.656 7   -207013.066 7   -156077.47349  20917480.80149
  23082347.750 3    -49232.434 3    -34652.69546  23082350.30546
  21167625.508 6    -23043.352 6    -17636.85248  21167623.41048
  24029041.172 6   -742125.254 6   -541378.39849  24029040.02349
  22594900.344 6   -751943.336 6   -569331.11748  22594897.68848
  23643027.359 5   -970269.867 5   -709132.61347  23643025.24647
  21622986.906 6   -626152.695 6   -467113.01249  21622988.10549
 20  5 16  5 16  2.0000000  0  9G01G03G07G08G11G17G22G28G30         -0.000043547
  20120226.734 7   -318474.289 7   -240473.89149  20120227.79749
  23298885.063 5  -1032923.395 5   -767419.60949  23298888.16849
  20917310.719 7   -207918.293 7   -156782.84449  20917308.74249
  23082308.305 3    -49442.793 3    -34816.60546  23082310.35946
  21167613.914 6    -23102.738 6    -17683.12148  21167611.64848
  24028374.430 6   -745626.492 6   -544106.63349  24028373.58249
  22594225.727 6   -755489.820 6   -572094.60948  22594223.02048
  23642151.625 5   -974872.000 5   -712718.69947  23642149.55947
  21622437.453 6   -629039.180 6   -469362.21949  21622438.34849
 20  5 16  5 16  3.0000000  0  9G01G03G07G08G11G17G22G28G30         -0.000044865
  20119955.000 7   -319902.422 7   -241586.72749  20119956.14549
  23297973.508 5  -1037713.797 5   -771152.39149  23297976.69549
  20917138.250 7   -208822.746 7   -157487.60949  20917136.45749
  23082268.539 4    -49653.027 4    -34980.42246  23082270.00846
  21167602.938 6    -23161.695 6    -17729.06648  21167600.36348
  24027708.531 6   -749127.441 6   -546834.64149  24027707.54749
  22593550.938 6   -759035.734 6   -574857.66048  22593548.14848
  23641276.133 5   -979474.023 5   -716304.68846  23641273.91446
  21621888.727 6   -631924.891 6   -471610.82049  21621889.62549
 20  5 16  5 16  4.0000000  0  9G01G03G07G08G11G17G22G28G30         -0.000046181
  20119683.359 7   -321329.746 7   -242698.92649  20119684.36749
  23297061.000 5  -1042503.996 5   -774885.00849  23297064.68049
  20916966.797 7   -209726.441 7   -158191.78949  20916964.89849
  23082228.406 3    -49863.164 3    -35144.17646  23082230.60946
  21167591.961 6    -23220.230 6    -17774.67248  21167589.12548
  24027042.305 6   -752628.125 6   -549562.44549  24027041.69149
  22592876.336 6   -762581.172 6   -577620.34048  22592873.37148
  23640400.406 5   -984075.957 5   -719890.61346  23640397.97746
  21621339.242 6   -634809.836 6   -473858.82849  21621340.69949
 20  5 16  5 16  5.0000000  0  9G01G03G07G08G11G17G22G28G30         -0.000047497
  20119411.859 7   -322756.398 7   -243810.60549  20119413.31349
  23296149.594 5  -1047294.043 5   -778617.51249  23296153.53549
  20916794.750 7   -210629.500 7   -158895.47749  20916792.49249
  23082189.133 4    -50073.281 4    -35307.89846  23082190.66446
  21167580.836 6    -23278.457 6    -17820.04748  21167578.42248
  24026376.063 5   -756128.637 5   -552290.12949  24026374.98049
  22592201.672 6   -766126.148 6   -580382.66448  22592199.15248
  23639524.383 5   -988677.934 5   -723476.57447  23639522.55147
  21620790.133 6   -637694.102 6   -476106.30549  21620791.60949
 20  5 16  5 16  6.0000000  0  9G01G03G07G08G11G17G22G28G30         -0.000048813
  20119140.602 7   -324182.230 7   -244921.64549  20119141.81349
  23295238.352 5  -1052083.836 5   -782349.81649  23295241.81349
  20916622.969 7   -211531.789 7   -159598.55949  20916621.43049
  23082148.172 4    -50283.320 4    -35471.57846  23082150.24646
  21167569.625 6    -23336.301 6    -17865.11748  21167567.33248
  24025710.156 5   -759628.879 5   -555017.59049  24025709.43049
  22591526.977 6   -769670.605 6   -583144.57848  22591524.39548
  23638648.352 5   -993279.859 5   -727062.50047  23638646.22747
  21620242.078 6   -640577.605 6   -478353.19549  21620243.19149
 20  5 16  5 16  7.0000000  0  9G01G03G07G08G11G17G22G28G30         -0.000050129
  20118869.266 7   -325607.281 7   -246032.07049  20118870.41449
  23294326.727 5  -1056873.402 5   -786081.94549  23294330.36349
  20916451.273 7   -212433.352 7   -160301.07449  20916449.60249
  23082108.633 4    -50493.242 4    -35635.15646  23082110.88746
  21167558.867 6    -23393.723 6    -17909.86348  21167556.48048
  24025044.391 6   -763128.852 6   -557744.84449  24025043.58249
  22590852.602 6   -773214.516 6   -585906.06348  22590850.27048
  23637773.383 5   -997881.723 5   -730648.37147  23637771.10947
  21619693.305 6   -643460.336 6   -480599.48849  21619694.14549
 20  5 16  5 16  8.0000000  0  9G01G03G07G08G11G17G22G28G30         -0.000051445
  20118598.578 7   -327031.551 7   -247141.89549  20118599.65249
  23293415.359 5  -1061662.777 5   -789813.92649  23293418.88749
  20916280.125 7   -213334.137 7   -161002.98849  20916278.13749
  23082067.859 4    -50703.086 4    -35798.67646  23082070.46946
  21167548.023 6    -23450.723 6    -17954.28148  21167545.75448
  24024378.125 6   -766628.566 6   -560471.89149  24024377.39849
  22590178.625 6   -776757.914 6   -588667.14848  22590175.76648
  23636897.141 5  -1002483.484 5   -734234.16047  23636895.27747
  21619144.852 6   -646342.328 6   -482845.19549  21619146.22349
 20  5 16  5 16  9.0000000  0  9G01G03G07G08G11G17G22G28G30         -0.000052761
  20118327.500 7   -328454.984 7   -248251.05549  20118328.59849
  23292504.367 5  -1066451.883 5   -793545.69549  23292507.80149
  20916108.234 7   -214234.184 7   -161704.32049  20916106.85249
  23082028.641 3    -50912.793 3    -35962.07846  23082031.18046
  21167537.117 7    -23507.297 7    -17998.36348  21167534.64148
  24023712.211 6   -770128.020 6   -563198.73449  24023711.45749
  22589504.305 6   -780300.766 6   -591427.81648  22589501.80148
  23636021.641 5  -1007085.195 5   -737819.90647  23636019.94147
  21618596.719 6   -649223.547 6   -485090.30549  21618597.48049
 20  5 16  5 16 10.0000000  0  9G01G03G07G08G11G17G22G28G30         -0.000054077
  20118056.758 7   -329877.688 7   -249359.65649  20118057.74249
  23291593.133 5  -1071240.809 5   -797277.32849  23291596.48049
  20915937.523 7   -215133.500 7   -162405.08649  20915936.11349
  23081988.398 3    -51122.430 3    -36125.43446  23081991.26246
  21167526.594 6    -23563.516 6    -18042.17648  21167524.05148
  24023046.164 6   -773627.211 6   -565925.37549  24023045.68449
  22588829.742 6   -783843.113 6   -594188.09048  22588827.39148
  23635146.594 5  -1011686.836 5   -741405.59847  23635144.12147
  21618048.305 6   -652104.027 6   -487334.83249  21618049.53949
 20  5 16  5 16 11.0000000  0  9G01G03G07G08G11G17G22G28G30         -0.000055393
  20117786.055 7   -331299.641 7   -250467.67249  20117787.14849
  23290681.742 5  -1076029.520 5   -801008.78949  23290685.44949
  20915766.609 7   -216032.137 7   -163105.33249  20915764.72749
  23081948.258 3    -51332.031 3    -36288.77046  23081950.87946
  21167515.867 6    -23619.336 6    -18085.67248  21167513.65248
  24022380.703 6   -777126.199 6   -568651.85949  24022379.78949
  22588155.742 6   -787384.957 6   -596947.96548  22588153.46148
  23634270.711 5  -1016288.492 5   -744991.30147  23634268.59047
  21617500.633 6   -654983.777 6   -489578.79349  21617501.64849
 20  5 16  5 16 12.0000000  0  9G01G03G07G08G11G17G22G28G30         -0.000056707
  20117515.844 7   -332720.824 7   -251575.09049  20117516.77349
  23289770.500 5  -1080818.055 5   -804740.10949  23289773.98049
  20915595.750 7   -216930.004 7   -163804.96549  20915593.98849
  23081908.867 3    -51541.445 3    -36451.94946  23081910.90646
  21167505.180 6    -23674.781 6    -18128.87548  21167502.96948
  24021714.531 6   -780624.941 6   -571378.15249  24021713.68849
  22587482.070 6   -790926.309 6   -599707.46548  22587479.69948
  23633394.891 5  -1020890.039 5   -748576.92247  23633393.02747
  21616952.656 6   -657862.820 6   -491822.21149  21616953.88749
 20  5 16  5 16 13.0000000  0  9G01G03G07G08G11G17G22G28G30         -0.000058023
  20117245.477 7   -334141.215 7   -252681.88749  20117246.79349
  23288859.102 5  -1085606.340 5   -808471.24249  23288862.98849
  20915425.063 7   -217827.168 7   -164504.05549  20915422.97349
  23081869.359 4    -51750.828 4    -36615.09446  23081871.14546
  21167494.563 6    -23729.832 6    -18171.77048  21167492.19148
  24021049.367 6   -784123.406 6   -574104.22749  24021048.38349
  22586808.516 6   -794467.141 6   -602466.55148  22586805.99248
  23632518.898 5  -1025491.574 5   -752162.54347  23632517.25047
  21616405.078 6   -660741.094 6   -494065.02049  21616405.87149
 20  5 16  5 16 14.0000000  0  9G01G03G07G08G11G17G22G28G30         -0.000059340
  20116975.078 7   -335560.820 7   -253788.07449  20116976.25049
  23287947.977 5  -1090394.422 5   -812202.21149  23287951.84049
  20915254.422 7   -218723.594 7   -165202.57449  20915252.54749
  23081828.789 3    -51960.117 3    -36778.16446  23081831.43046
  21167484.430 6    -23784.465 6    -18214.34448  21167482.13348
  24020383.414 6   -787621.625 6   -576830.10549  24020382.59449
  22586134.234 6   -798007.445 6   -605225.23048  22586132.02048
  23631643.844 5  -1030093.016 5   -755748.07847  23631641.52747
  21615857.477 6   -663618.598 6   -496307.23049  21615858.83649
 20  5 16  5 16 15.0000000  0  9G01G03G07G08G11G17G22G28G30         -0.000060654
  20116705.344 7   -336979.566 7   -254893.59449  20116706.41849
  23287037.391 5  -1095182.199 5   -815932.94949  23287041.18849
  20915083.727 7   -219619.191 7   -165900.44949  20915082.27049
  23081789.258 3    -52169.191 3    -36941.07446  23081792.13746
  21167474.125 6    -23838.637 6    -18256.55948  21167471.78148
  24019717.742 6   -791119.516 6   -579555.73049  24019716.98449
  22585461.148 6   -801547.156 6   -607983.44148  22585458.40248
  23630768.102 5  -1034694.328 5   -759333.51247  23630765.94147
  21615310.211 6   -666495.285 6   -498548.80149  21615310.78949
 20  5 16  5 16 16.0000000  0  9G01G03G07G08G11G17G22G28G30         -0.000061970
  20116435.594 7   -338397.570 7   -255998.53149  20116436.61349
  23286126.016 5  -1099969.805 5   -819663.54749  23286129.81649
  20914913.766 7   -220514.098 7   -166597.77349  20914911.80149
  23081749.781 3    -52378.258 3    -37104.00846  23081752.05546
  21167463.664 6    -23892.457 6    -18298.49248  21167461.45748
  24019052.180 6   -794617.199 6   -582281.19949  24019051.53549
  22584787.617 6   -805086.395 6   -610741.29348  22584784.97348
  23629892.328 5  -1039295.660 5   -762918.96947  23629890.66847
  21614762.500 6   -669371.281 6   -500789.84049  21614763.88349
 20  5 16  5 16 17.0000000  0  9G01G03G07G08G11G17G22G28G30         -0.000063286
  20116165.820 7   -339814.836 7   -257102.89149  20116166.96949
  23285214.859 5  -1104757.258 5   -823394.03149  23285218.85549
  20914743.305 6   -221408.313 6   -167294.56649  20914741.52049
  23081709.773 3    -52587.301 3    -37266.89546  23081711.82046
  21167453.508 6    -23945.934 6    -18340.16848  21167451.31648
  24018386.813 6   -798114.672 6   -585006.50049  24018386.00849
  22584113.758 6   -808625.191 6   -613498.79748  22584111.46548
  23629017.125 5  -1043896.945 5   -766504.38347  23629015.12547
  21614215.523 6   -672246.523 6   -503030.28949  21614216.38749
 20  5 16  5 16 18.0000000  0  9G01G03G07G08G11G17G22G28G30         -0.000064600
  20115896.195 7   -341231.301 7   -258206.63749  20115897.88749
  23284304.156 5  -1109544.418 5   -827124.28149  23284308.23849
  20914573.297 7   -222301.813 7   -167990.79749  20914571.30149
  23081669.570 3    -52796.195 3    -37429.67646  23081672.44146
  21167443.586 6    -23999.012 6    -18381.52748  21167441.41048
  24017720.875 6   -801611.891 6   -587731.60949  24017720.20749
  22583440.695 6   -812163.418 6   -616255.85248  22583438.65648
  23628141.047 5  -1048498.172 5   -770089.75847  23628139.28947
  21613668.227 6   -675121.020 6   -505270.15649  21613669.92249
 20  5 16  5 16 19.0000000  0  9G01G03G07G08G11G17G22G28G30         -0.000065916
  20115626.891 7   -342646.988 7   -259309.76249  20115627.94149
  23283392.891 5  -1114331.371 5   -830854.37149  23283396.50049
  20914403.727 7   -223194.520 7   -168686.42249  20914402.10949
  23081629.719 3    -53004.984 3    -37592.37546  23081632.57446
  21167433.656 6    -24051.668 6    -18422.55948  21167431.33248
  24017055.516 6   -805108.820 6   -590456.48449  24017055.03949
  22582767.563 6   -815701.148 6   -619012.52048  22582765.17648
  23627265.820 5  -1053099.320 5   -773675.06347  23627264.00047
  21613121.141 6   -677994.758 6   -507509.44149  21613122.59449
 20  5 16  5 16 20.0000000  0  9G01G03G07G08G11G17G22G28G30         -0.000067230
  20115357.539 7   -344061.906 7   -260412.29749  20115358.71149
  23282482.242 5  -1119118.148 5   -834584.32449  23282486.27749
  20914233.961 7   -224086.535 7   -169381.49649  20914232.20349
  23081590.367 3    -53213.738 3    -37755.03546  23081592.96946
  21167423.633 6    -24103.973 6    -18463.31648  21167421.39548
  24016389.922 6   -808605.551 6   -593181.21149  24016389.60249
  22582094.266 6   -819238.391 6   -621768.81648  22582092.08648
  23626390.141 5  -1057700.465 5   -777260.36747  23626388.43447
  21612574.531 6   -680867.793 6   -509748.16849  21612575.89849
 20  5 16  5 16 21.0000000  0  9G01G03G07G08G11G17G22G28G30         -0.000068544
  20115088.578 7   -345476.145 7   -261514.30149  20115089.47749
  23281570.930 5  -1123904.824 5   -838314.20349  23281575.18849
  20914064.234 7   -224977.926 7   -170076.08649  20914062.50049
  23081550.641 3    -53422.496 3    -37917.69946  23081553.04746
  21167413.555 6    -24155.953 6    -18503.82048  21167411.33248
  24015724.906 6   -812102.137 6   -595905.82049  24015724.32449
  22581421.234 6   -822775.223 6   -624524.78948  22581419.11748
  23625514.922 5  -1062301.613 5   -780845.67247  23625512.63347
  21612027.945 6   -683740.141 6   -511986.35949  21612029.18849
 20  5 16  5 16 22.0000000  0  9G01G03G07G08G11G17G22G28G30         -0.000069860
  20114819.398 7   -346889.594 7   -262615.69149  20114820.49249
  23280660.664 5  -1128691.195 5   -842043.84049  23280664.14149
  20913894.633 6   -225868.555 6   -170770.08649  20913893.25049
  23081510.703 3    -53631.168 3    -38080.28946  23081513.41046
  21167403.727 6    -24207.527 6    -18544.00848  21167401.66448
  24015059.258 6   -815598.410 6   -598630.18849  24015059.06349
  22580748.094 6   -826311.480 6   -627280.31648  22580745.87948
  23624638.906 5  -1066902.719 5   -784430.94547  23624636.85547
  21611481.727 6   -686611.762 6   -514223.98849  21611483.27049
 20  5 16  5 16 23.0000000  0  9G01G03G07G08G11G17G22G28G30         -0.000071175
  20114550.938 7   -348302.270 7   -263716.47749  20114551.57849
  23279749.688 5  -1133477.418 5   -845773.37149  23279753.84849
  20913725.141 6   -226758.441 6   -171463.50849  20913723.65649
  23081471.500 3    -53839.738 3    -38242.81646  23081473.46946
  21167393.859 6    -24258.715 6    -18583.88748  21167391.74248
  24014394.008 6   -819094.461 6   -601354.37949  24014393.69549
  22580075.734 6   -829847.262 6   -630035.46948  22580073.31648
  23623763.891 5  -1071503.762 5   -788016.16847  23623761.65247
  21610935.328 6   -689482.598 6   -516461.00449  21610936.94149
 20  5 16  5 16 24.0000000  0  9G01G03G07G08G11G17G22G28G30         -0.000072491
  20114281.773 7   -349714.199 7   -264816.68049  20114283.19949
  23278838.930 5  -1138263.430 5   -849502.72749  23278843.09449
  20913556.172 7   -227647.633 7   -172156.38349  20913554.16049
  23081431.781 3    -54048.203 3    -38405.25046  23081434.13346
  21167384.773 6    -24309.531 6    -18623.48848  21167382.12948
  24013729.086 6   -822590.289 6   -604078.40249  24013728.38349
  22579402.898 6   -833382.555 6   -632790.24248  22579400.46948
  23622888.789 5  -1076104.766 5   -791601.35947  23622886.24647
  21610389.445 6   -692352.719 6   -518697.45749  21610390.43049
 20  5 16  5 16 25.0000000  0  9G01G03G07G08G11G17G22G28G30         -0.000073805
  20114013.344 7   -351125.387 7   -265916.30549  20114014.53949
  23277927.766 5  -1143049.270 5   -853231.94149  23277931.88349
  20913386.938 7   -228536.129 7   -172848.72349  20913385.52349
  23081391.914 3    -54256.660 3    -38567.67246  23081394.37546
  21167374.688 6    -24359.996 6    -18662.81648  21167372.13348
  24013063.609 6   -826085.910 6   -606802.26249  24013063.09849
  22578730.070 6   -836917.359 6   -635544.63748  22578728.08648
  23622012.625 6  -1080705.773 6   -795186.55947  23622010.27347
  21609843.367 6   -695222.148 6   -520933.37949  21609844.88349
 20  5 16  5 16 26.0000000  0  9G01G03G07G08G11G17G22G28G30         -0.000075119
  20113744.930 7   -352535.801 7   -267015.33249  20113746.09049
  23277017.633 5  -1147834.875 5   -856960.98049  23277021.35249
  20913218.250 7   -229423.891 7   -173540.48849  20913216.71549
  23081352.227 3    -54465.008 3    -38730.02346  23081354.55546
  21167365.367 6    -24410.059 6    -18701.82848  21167362.92648
  24012398.547 6   -829581.277 6   -609525.92249  24012397.87949
  22578057.617 6   -840451.660 6   -638298.62548  22578055.78948
  23621137.313 5  -1085306.711 5   -798771.70347  23621134.95747
  21609297.688 6   -698090.824 6   -523168.70349  21609298.29349
 20  5 16  5 16 27.0000000  0  9G01G03G07G08G11G17G22G28G30         -0.000076433
  20113476.664 7   -353945.461 7   -268113.76649  20113477.72749
  23276106.969 5  -1152620.293 5   -860689.87949  23276110.77049
  20913049.414 7   -230310.938 7   -174231.69549  20913047.81349
  23081312.305 3    -54673.301 3    -38892.33246  23081315.36746
  21167356.078 6    -24459.762 6    -18740.55948  21167353.59048
  24011733.531 6   -833076.430 6   -612249.41849  24011733.03549
  22577385.203 6   -843985.484 6   -641052.25448  22577382.74248
  23620261.617 5  -1089907.598 5   -802356.82047  23620259.57847
  21608751.891 6   -700958.797 6   -525403.48849  21608752.99249
 20  5 16  5 16 28.0000000  0  9G01G03G07G08G11G17G22G28G30         -0.000077747
  20113208.633 7   -355354.328 7   -269211.58649  20113209.87949
  23275197.023 6  -1157405.488 6   -864418.60249  23275200.10949
  20912880.695 7   -231197.246 7   -174922.32049  20912878.75849
  23081272.594 3    -54881.484 3    -39054.55946  23081275.16846
  21167346.188 6    -24509.020 6    -18778.94548  21167344.03548
  24011068.508 6   -836571.270 6   -614972.66849  24011067.80949
  22576713.031 6   -847518.750 6   -643805.45348  22576710.24648
  23619386.219 6  -1094508.453 6   -805941.90247  23619383.53547
  21608206.180 6   -703825.969 6   -527637.65649  21608206.88749
 20  5 16  5 16 29.0000000  0  9G01G03G07G08G11G17G22G28G30         -0.000079063
  20112940.695 7   -356762.473 7   -270308.84449  20112942.02049
  23274285.484 5  -1162190.516 5   -868147.19949  23274289.70349
  20912711.992 7   -232082.871 7   -175612.41849  20912710.58249
  23081233.055 3    -55089.664 3    -39216.78146  23081236.10546
  21167337.141 6    -24557.965 6    -18817.08648  21167334.53948
  24010403.523 6   -840065.941 6   -617695.79749  24010403.23049
  22576040.555 6   -851051.566 6   -646558.29348  22576038.10548
  23618510.336 6  -1099109.262 6   -809526.95747  23618508.40247
  21607660.563 6   -706692.453 6   -529871.28149  21607661.55949
 20  5 16  5 16 30.0000000  0  9G01G03G07G08G11G17G22G28G30         -0.000080378
  20112673.219 7   -358169.871 7   -271405.52349  20112673.97749
  23273375.414 5  -1166975.355 5   -871875.63349  23273379.18449
  20912544.047 7   -232967.820 7   -176301.99249  20912542.05949
  23081193.352 3    -55297.789 3    -39378.96146  23081196.29346
  21167327.914 6    -24606.570 6    -18854.95348  21167325.47348
  24009738.859 5   -843560.414 5   -620418.76249  24009737.96949
  22575368.547 6   -854583.918 6   -649310.77748  22575365.97348
  23617635.094 5  -1103710.086 5   -813112.02047  23617633.13747
  21607115.211 6   -709558.254 6   -532104.37149  21607116.52349
 20  5 16  5 16 31.0000000  0  9G01G03G07G08G11G17G22G28G30         -0.000081692
  20112404.914 7   -359576.484 7   -272501.57849  20112406.12549
  23272464.953 5  -1171759.945 5   -875603.88749  23272468.98449
  20912375.570 7   -233851.992 7   -176990.95749  20912373.85549
  23081153.867 3    -55505.801 3    -39541.05546  23081156.56646
  21167318.586 6    -24654.730 6    -18892.48448  21167315.98848
  24009073.531 6   -847054.605 6   -623141.50049  24009072.82049
  22574696.156 6   -858115.727 6   -652062.84048  22574694.26648
  23616759.320 6  -1108310.809 6   -816697.00447  23616757.28147
  21606570.211 6   -712423.262 6   -534336.84449  21606571.43849
 20  5 16  5 16 32.0000000  0  9G01G03G07G08G11G17G22G28G30         -0.000083006
  20112137.508 7   -360982.305 7   -273597.02349  20112139.03149
  23271554.586 5  -1176544.332 5   -879331.98049  23271557.93849
  20912207.461 7   -234735.441 7   -177679.35549  20912205.72349
  23081114.430 3    -55713.727 3    -39703.07846  23081116.87546
  21167309.633 6    -24702.492 6    -18929.70348  21167307.38748
  24008408.617 6   -850548.539 6   -625864.03949  24008408.12149
  22574024.203 6   -861647.012 6   -654814.49248  22574021.66448
  23615883.977 6  -1112911.488 6   -820281.93847  23615881.30947
  21606025.000 6   -715287.520 6   -536568.73449  21606026.23049
 20  5 16  5 16 33.0000000  0  9G01G03G07G08G11G17G22G28G30         -0.000084320
  20111870.148 7   -362387.328 7   -274691.84049  20111871.50849
  23270643.883 5  -1181328.504 5   -883059.89849  23270648.07449
  20912039.313 7   -235618.141 7   -178367.18049  20912037.73449
  23081075.625 3    -55921.496 3    -39864.98046  23081077.40646
  21167300.625 6    -24749.859 6    -18966.60548  21167298.53948
  24007744.133 5   -854042.203 5   -628586.37549  24007743.24649
  22573352.969 6   -865177.781 6   -657565.73848  22573350.14548
  23615008.219 5  -1117512.098 5   -823866.82447  23615006.38347
  21605480.125 6   -718151.043 6   -538800.05549  21605481.46949
 20  5 16  5 16 34.0000000  0  9G01G03G07G08G11G17G22G28G30         -0.000085634
  20111602.984 7   -363791.598 7   -275786.07849  20111604.51649
  23269733.875 5  -1186112.441 5   -886787.64149  23269737.83649
  20911871.727 7   -236500.105 7   -179054.42649  20911870.12149
  23081035.641 3    -56129.227 3    -40026.82846  23081037.53946
  21167291.609 6    -24796.844 6    -19003.21948  21167289.22348
  24007078.813 5   -857535.637 5   -631308.52749  24007078.26649
  22572680.820 6   -868708.012 6   -660316.56648  22572677.91048
  23614132.750 5  -1122112.641 5   -827451.66847  23614131.04347
  21604935.250 6   -721013.809 6   -541030.77349  21604936.25449
 20  5 16  5 16 35.0000000  0  9G01G03G07G08G11G17G22G28G30         -0.000086948
  20111335.875 7   -365195.102 7   -276879.71949  20111337.09049
  23268823.273 5  -1190896.195 5   -890515.23849  23268827.10949
  20911703.781 7   -237381.379 7   -179741.13349  20911702.19949
  23080996.938 3    -56336.891 3    -40188.64846  23080998.53146
  21167282.727 6    -24843.426 6    -19039.51648  21167280.56348
  24006414.211 5   -861028.828 5   -634030.49249  24006413.87949
  22572009.195 6   -872237.813 6   -663067.05548  22572006.41448
  23613257.523 5  -1126713.180 5   -831036.50447  23613255.65647
  21604390.969 6   -723875.824 6   -543260.91849  21604392.20749
 20  5 16  5 16 36.0000000  0  9G01G03G07G08G11G17G22G28G30         -0.000088263
  20111069.016 7   -366597.793 7   -277972.72749  20111070.35949
  23267913.641 5  -1195679.684 5   -894242.62949  23267917.07449
  20911536.297 7   -238261.898 7   -180427.25849  20911534.57849
  23080956.984 3    -56544.379 3    -40350.32846  23080958.98446
  21167273.797 6    -24889.602 6    -19075.50448  21167271.58648
  24005750.391 6   -864521.734 6   -636752.24249  24005749.07049
  22571337.641 6   -875767.035 6   -665817.10548  22571335.11748
  23612381.828 5  -1131313.605 5   -834621.25047  23612380.05947
  21603846.133 6   -726737.090 6   -545490.47749  21603847.77349
 20  5 16  5 16 37.0000000  0  9G01G03G07G08G11G17G22G28G30         -0.000089575
  20110802.313 7   -367999.785 7   -279065.18449  20110803.40249
  23267002.711 5  -1200463.008 5   -897969.89549  23267006.94149
  20911368.461 7   -239141.703 7   -181112.81649  20911367.34049
  23080916.859 3    -56751.898 3    -40512.03146  23080919.66046
  21167265.414 6    -24935.426 6    -19111.20748  21167262.95748
  24005084.961 5   -868014.469 5   -639473.85249  24005084.26249
  22570666.281 6   -879295.801 6   -668566.78548  22570663.72748
  23611506.953 5  -1135914.043 5   -838206.00847  23611504.58247
  21603302.047 6   -729597.648 6   -547719.48449  21603302.91049
 20  5 16  5 16 38.0000000  0  9G01G03G07G08G11G17G22G28G30         -0.000090889
  20110535.484 7   -369401.031 7   -280157.06649  20110536.87949
  23266092.680 5  -1205246.172 5   -901697.03149  23266096.86349
  20911201.711 6   -240020.852 6   -181797.87149  20911199.84049
  23080877.313 3    -56959.344 3    -40673.67646  23080880.19946
  21167257.047 6    -24980.914 6    -19146.66048  21167254.20748
  24004420.602 5   -871506.973 5   -642195.28549  24004419.78549
  22569994.320 6   -882824.070 6   -671316.08647  22569992.06347
  23610630.977 5  -1140514.449 5   -841790.73447  23610628.98047
  21602757.555 6   -732457.500 6   -549947.94149  21602758.94549
 20  5 16  5 16 39.0000000  0  9G01G03G07G08G11G17G22G28G30         -0.000092203
  20110268.945 7   -370801.492 7   -281248.34049  20110270.22749
  23265182.430 5  -1210029.141 5   -905424.01649  23265186.52349
  20911034.547 7   -240899.246 7   -182482.33649  20911032.66849
  23080838.148 3    -57166.723 3    -40835.27046  23080840.49246
  21167247.898 6    -25026.012 6    -19181.80548  21167245.86348
  24003755.984 5   -874999.262 5   -644916.54749  24003755.10949
  22569323.078 6   -886351.867 6   -674065.01647  22569320.68447
  23609756.156 5  -1145114.820 5   -845375.44147  23609754.09447
  21602213.797 6   -735316.617 6   -552175.82449  21602214.46549
 20  5 16  5 16 40.0000000  0  9G01G03G07G08G11G17G22G28G30         -0.000093517
  20110002.609 7   -372201.199 7   -282339.01649  20110004.00049
  23264272.461 6  -1214811.828 6   -909150.78149  23264276.41849
  20910867.461 6   -241776.906 6   -183166.22749  20910865.56649
  23080797.883 3    -57373.980 3    -40996.78146  23080801.23046
  21167239.773 6    -25070.711 6    -19216.63348  21167237.07448
  24003091.445 5   -878491.270 5   -647637.59449  24003090.29749
  22568652.313 6   -889879.133 6   -676813.53147  22568649.32447
  23608880.453 5  -1149715.129 5   -848960.10247  23608878.23847
  21601670.070 6   -738174.969 6   -554403.11349  21601670.78549
 20  5 16  5 16 41.0000000  0  9G01G03G07G08G11G17G22G28G30         -0.000094830
  20109736.508 7   -373600.125 7   -283429.09449  20109737.72349
  23263362.406 5  -1219594.406 5   -912877.47349  23263366.11749
  20910700.375 7   -242653.879 7   -183849.58649  20910699.12149
  23080758.938 2    -57581.199 2    -41158.25046  23080761.54346
  21167231.641 6    -25115.039 6    -19251.16848  21167229.02048
  24002427.203 5   -881983.047 5   -650358.46149  24002425.83649
  22567980.477 6   -893405.887 6   -679561.65248  22567978.21548
  23608005.406 5  -1154315.410 5   -852544.73847  23608002.84047
  21601126.156 6   -741032.609 6   -556629.84449  21601127.14149
 20  5 16  5 16 42.0000000  0  9G01G03G07G08G11G17G22G28G30         -0.000096144
  20109470.828 7   -374998.301 7   -284518.58649  20109471.68449
  23262452.547 5  -1224376.699 5   -916603.93049  23262456.15649
  20910533.703 7   -243530.090 7   -184532.35249  20910531.96949
  23080719.352 2    -57788.270 2    -41319.60246  23080722.15246
  21167222.969 6    -25158.969 6    -19285.40248  21167220.21548
  24001762.625 5   -885474.594 5   -653079.14849  24001761.73449
  22567309.742 6   -896932.133 6   -682309.37548  22567307.21948
  23607130.125 5  -1158915.625 5   -856129.32047  23607127.45347
  21600582.281 6   -743889.492 6   -558855.98849  21600583.26649
 20  5 16  5 16 43.0000000  0  9G01G03G07G08G11G17G22G28G30         -0.000097458
  20109204.711 7   -376395.742 7   -285607.49649  20109205.46949
  23261542.289 5  -1229158.832 5   -920330.26249  23261546.10949
  20910366.961 7   -244405.656 7   -185214.61349  20910365.62149
  23080680.617 3    -57995.316 3    -41480.93846  23080682.90246
  21167214.625 6    -25202.574 6    -19319.38348  21167212.06648
  24001098.141 6   -888965.938 6   -655799.67649  24001097.41849
  22566638.695 6   -900457.945 6   -685056.75848  22566636.53948
  23606254.563 5  -1163515.867 5   -859713.92247  23606252.13347
  21600038.609 6   -746745.684 6   -561081.59049  21600039.71549
 20  5 16  5 16 44.0000000  0  9G01G03G07G08G11G17G22G28G30         -0.000098770
  20108938.750 7   -377792.414 7   -286695.81349  20108940.11749
  23260632.352 5  -1233940.766 5   -924056.44549  23260636.43849
  20910200.617 7   -245280.484 7   -185896.29749  20910199.48049
  23080640.930 3    -58202.320 3    -41642.23446  23080643.41846
  21167206.992 6    -25245.809 6    -19353.07448  21167203.89548
  24000433.883 6   -892457.035 6   -658520.01249  24000433.10249
  22565967.938 6   -903983.191 6   -687803.71148  22565965.74248
  23605379.141 6  -1168116.020 6   -863298.46147  23605376.58647
  21599495.133 6   -749601.113 6   -563306.60549  21599496.80949
 20  5 16  5 16 45.0000000  0  9G01G03G07G08G11G17G22G28G30         -0.000100084
  20108673.273 7   -379188.293 7   -287783.51249  20108674.63349
  23259722.047 5  -1238722.445 5   -927782.43049  23259725.96149
  20910034.352 7   -246154.551 7   -186577.38749  20910032.64149
  23080601.648 2    -58409.230 2    -41803.46146  23080603.93446
  21167198.164 6    -25288.602 6    -19386.41848  21167195.55148
  23999769.477 6   -895947.871 6   -661240.14149  23999769.06649
  22565297.375 6   -907507.941 6   -690550.26648  22565294.65648
  23604503.969 6  -1172716.113 6   -866882.94547  23604501.62947
  21598951.945 6   -752455.801 6   -565531.03949  21598953.19149
 20  5 16  5 16 46.0000000  0  9G01G03G07G08G11G17G22G28G30         -0.000101397
  20108407.680 7   -380583.438 7   -288870.63749  20108409.00049
  23258812.578 5  -1243503.977 5   -931508.29349  23258816.48449
  20909867.781 7   -247027.941 7   -187257.95349  20909866.65249
  23080561.727 2    -58616.059 2    -41964.63346  23080564.59846
  21167190.258 6    -25331.059 6    -19419.50048  21167187.98848
  23999105.320 5   -899438.512 5   -663960.11349  23999104.49249
  22564626.539 6   -911032.227 6   -693296.46148  22564623.89148
  23603628.695 6  -1177316.188 6   -870467.42247  23603626.24247
  21598408.875 6   -755309.793 6   -567754.93049  21598410.00449
 20  5 16  5 16 47.0000000  0  9G01G03G07G08G11G17G22G28G30         -0.000102711
  20108142.469 7   -381977.793 7   -289957.14849  20108143.52749
  23257902.492 5  -1248285.270 5   -935233.97349  23257906.20749
  20909701.773 7   -247900.578 7   -187937.93449  20909700.86349
  23080522.891 3    -58822.820 3    -42125.75046  23080525.90646
  21167182.445 6    -25373.109 6    -19452.27048  21167179.75448
  23998440.484 5   -902928.895 5   -666679.88348  23998440.09448
  22563956.172 6   -914555.969 6   -696042.23048  22563953.15648
  23602753.188 6  -1181916.219 6   -874051.86347  23602750.68447
  21597866.023 6   -758163.027 6   -569978.23049  21597866.68449
 20  5 16  5 16 48.0000000  0  9G01G03G07G08G11G17G22G28G30         -0.000104023
  20107876.930 7   -383371.348 7   -291043.03149  20107878.35549
  23256992.586 5  -1253066.309 5   -938959.45749  23256996.49649
  20909536.414 6   -248772.477 6   -188617.33249  20909535.13749
  23080483.352 3    -59029.414 3    -42286.73046  23080486.21546
  21167174.250 6    -25414.738 6    -19484.70348  21167171.57448
  23997776.633 5   -906418.961 5   -669399.42648  23997775.43848
  22563285.445 6   -918079.164 6   -698787.57048  22563282.87948
  23601877.648 6  -1186516.125 6   -877636.20347  23601875.21947
  21597323.188 6   -761015.453 6   -572200.90249  21597324.18449
 20  5 16  5 16 49.0000000  0  9G01G03G07G08G11G17G22G28G30         -0.000105335
  20107612.258 7   -384764.184 7   -292128.35949  20107613.32849
  23256083.211 5  -1257847.180 5   -942684.80949  23256086.86349
  20909370.617 7   -249643.703 7   -189296.21549  20909368.99249
  23080443.703 2    -59236.004 2    -42447.71146  23080446.79346
  21167166.289 6    -25456.047 6    -19516.89148  21167163.84448
  23997112.859 5   -909908.859 5   -672118.84049  23997111.57449
  22562615.391 6   -921601.910 6   -701532.56648  22562612.57448
  23601002.648 6  -1191116.043 6   -881220.54747  23600999.96947
  21596780.320 6   -763867.184 6   -574423.03149  21596781.73849
 20  5 16  5 16 50.0000000  0  9G01G03G07G08G11G17G22G28G30         -0.000106649
  20107347.063 7   -386156.207 7   -293213.05149  20107348.42249
  23255172.836 5  -1262627.805 5   -946409.96549  23255177.11349
  20909204.781 7   -250514.141 7   -189974.48049  20909203.35949
  23080404.477 3    -59442.492 3    -42608.62146  23080407.72346
  21167158.727 6    -25496.887 6    -19548.71548  21167156.04748
  23996448.586 6   -913398.492 6   -674838.03549  23996447.94949
  22561944.594 6   -925124.082 6   -704277.10948  22561942.66048
  23600127.477 6  -1195715.883 6   -884804.82047  23600124.77747
  21596238.102 6   -766718.160 6   -576644.57449  21596239.11349
 20  5 16  5 16 51.0000000  0  9G01G03G07G08G11G17G22G28G30         -0.000107962
  20107082.234 7   -387547.555 7   -294297.21549  20107083.87549
  23254263.625 5  -1267408.270 5   -950134.98849  23254267.16449
  20909039.328 7   -251383.941 7   -190652.24649  20909038.38349
  23080365.484 3    -59648.973 3    -42769.50846  23080368.09046
  21167150.367 6    -25537.438 6    -19580.31648  21167148.28548
  23995784.766 6   -916887.941 6   -677557.08249  23995783.74249
  22561274.641 6   -928645.855 6   -707021.35548  22561272.21948
  23599252.172 6  -1200315.711 6   -888389.09047  23599249.48847
  21595695.820 6   -769568.484 6   -578865.60249  21595697.11749
 20  5 16  5 16 52.0000000  0  9G01G03G07G08G11G17G22G28G30         -0.000109274
  20106817.766 7   -388938.090 7   -295380.75449  20106819.45749
  23253354.180 5  -1272188.520 5   -953859.86349  23253357.37949
  20908873.875 6   -252252.980 6   -191329.41849  20908872.40249
  23080325.563 3    -59855.324 3    -42930.30146  23080328.79346
  21167142.891 6    -25577.582 6    -19611.60248  21167140.57048
  23995120.750 6   -920377.109 6   -680275.91849  23995120.25049
  22560604.586 6   -932167.055 6   -709765.15648  22560602.43848
  23598376.539 6  -1204915.512 6   -891973.34447  23598374.28547
  21595153.367 6   -772418.027 6   -581086.02049  21595154.58649
 20  5 16  5 16 53.0000000  0  9G01G03G07G08G11G17G22G28G30         -0.000110588
  20106553.250 7   -390327.898 7   -296463.71949  20106554.90649
  23252444.484 6  -1276968.598 6   -957584.59449  23252447.41049
  20908708.531 6   -253121.352 6   -192006.07449  20908707.27749
  23080286.945 3    -60061.613 3    -43091.05146  23080289.41046
  21167135.242 6    -25617.371 6    -19642.60548  21167133.15248
  23994456.805 6   -923866.094 6   -682994.60949  23994456.26249
  22559934.648 6   -935687.832 6   -712508.61748  22559932.14148
  23597501.070 6  -1209515.281 6   -895557.60247  23597498.57447
  21594611.211 6   -775266.844 6   -583305.88749  21594612.33649
 20  5 16  5 16 54.0000000  0  9G01G03G07G08G11G17G22G28G30         -0.000111900
  20106288.922 7   -391716.938 7   -297546.08649  20106290.59449
  23251534.992 5  -1281748.438 5   -961309.14549  23251538.64549
  20908543.625 6   -253988.984 6   -192682.14849  20908542.18849
  23080248.039 2    -60267.785 2    -43251.68846  23080250.23046
  21167128.367 6    -25656.770 6    -19673.30548  21167125.46148
  23993793.320 6   -927354.820 6   -685713.09449  23993792.57049
  22559264.703 6   -939208.070 6   -715251.65247  22559262.24247
  23596626.273 6  -1214115.004 6   -899141.81647  23596623.56347
  21594069.281 6   -778114.930 6   -585525.17249  21594070.20349
 20  5 16  5 16 55.0000000  0  9G01G03G07G08G11G17G22G28G30         -0.000113213
  20106024.766 7   -393105.215 7   -298627.85949  20106026.12549
  23250625.313 5  -1286528.105 5   -965033.56649  23250628.56349
  20908378.531 6   -254855.926 6   -193357.69549  20908376.94149
  23080207.523 2    -60473.914 2    -43412.31346  23080210.97346
  21167120.984 6    -25695.816 6    -19703.72748  21167118.24648
  23993128.781 6   -930843.344 6   -688431.41849  23993128.21549
  22558595.063 6   -942727.809 6   -717994.30948  22558591.98048
  23595750.641 6  -1218714.691 6   -902725.99647  23595748.47747
  21593527.648 6   -780962.313 6   -587743.91849  21593528.97349
 20  5 16  5 16 56.0000000  0  9G01G03G07G08G11G17G22G28G30         -0.000114525
  20105760.938 7   -394492.758 7   -299709.06649  20105761.88749
  23249715.758 5  -1291307.598 5   -968757.84049  23249719.21949
  20908214.008 7   -255722.164 7   -194032.69149  20908212.27349
  23080168.773 2    -60680.035 2    -43572.89846  23080172.02346
  21167113.211 6    -25734.492 6    -19733.86748  21167110.68048
  23992465.461 6   -934331.625 6   -691149.55549  23992464.44549
  22557924.992 6   -946247.066 6   -720736.59048  22557922.34048
  23594874.883 6  -1223314.344 6   -906310.12947  23594872.63747
  21592985.797 6   -783808.965 6   -589962.08649  21592986.80149
 20  5 16  5 16 57.0000000  0  9G01G03G07G08G11G17G22G28G30         -0.000115837
  20105496.703 7   -395879.543 7   -300789.67649  20105498.39149
  23248806.094 5  -1296086.848 5   -972481.93049  23248809.98449
  20908049.320 7   -256587.699 7   -194707.13349  20908047.77749
  23080129.867 3    -60886.074 3    -43733.44946  23080132.48846
  21167106.352 6    -25772.793 6    -19763.70748  21167103.48048
  23991801.484 6   -937819.668 6   -693867.50849  23991800.44949
  22557255.656 6   -949765.855 6   -723478.50848  22557252.66448
  23594000.398 6  -1227913.973 6   -909894.25847  23593997.68447
  21592444.078 6   -786654.879 6   -592179.68449  21592445.07849
 20  5 16  5 16 58.0000000  0  9G01G03G07G08G11G17G22G28G30         -0.000117149
  20105233.289 7   -397265.574 7   -301869.70349  20105234.42649
  23247896.781 5  -1300865.922 5   -976205.87949  23247900.10549
  20907884.820 6   -257452.516 6   -195381.01249  20907882.97349
  23080091.031 2    -61092.039 2    -43893.95746  23080093.57046
  21167099.195 6    -25810.703 6    -19793.25448  21167096.43048
  23991138.109 6   -941307.484 6   -696585.28949  23991136.99249
  22556586.039 6   -953284.098 6   -726219.99648  22556583.50048
  23593124.906 6  -1232513.566 6   -913478.35547  23593122.36747
  21591903.391 6   -789500.066 6   -594396.70749  21591904.10249
 20  5 16  5 16 59.0000000  0  9G01G03G07G08G11G17G22G28G30         -0.000118462
  20104969.516 7   -398650.871 7   -302949.15249  20104971.02049
  23246986.969 5  -1305644.859 5   -979929.72749  23246990.55549
  20907720.008 7   -258316.633 7   -196054.35949  20907718.61349
  23080051.289 2    -61297.918 2    -44054.39846  23080054.21146
  21167091.906 6    -25848.301 6    -19822.55148  21167089.00448
  23990474.273 6   -944795.109 6   -699302.90649  23990473.46149
  22555916.711 6   -956801.895 6   -728961.12948  22555914.46548
  23592249.453 6  -1237113.113 6   -917062.40647  23592247.20747
  21591361.789 6   -792344.539 6   -596613.18049  21591362.76649
 20  5 16  5 17  0.0000000  0  9G01G03G07G08G11G17G22G28G30         -0.000119774
  20104705.867 7   -400035.434 7   -304028.03549  20104707.14149
  23246077.680 5  -1310423.520 5   -983653.35549  23246081.58249
  20907556.086 7   -259180.055 7   -196727.15649  20907554.27349
  23080012.797 2    -61503.770 2    -44214.80546  23080015.22746
  21167085.055 6    -25885.496 6    -19851.52748  21167082.68048
  23989810.414 6   -948282.512 6   -702020.36749  23989809.62949
  22555247.305 6   -960319.184 6   -731701.87148  22555244.82448
  23591374.313 6  -1241712.648 6   -920646.46147  23591372.05147
  21590820.109 6   -795188.301 6   -598829.10549  21590821.12549
 20  5 16  5 17  1.0000000  0  9G01G03G07G08G11G17G22G28G30         -0.000121086
  20104442.953 7   -401419.207 7   -305106.29749  20104444.27049
  23245168.492 5  -1315202.051 5   -987376.87949  23245172.29749
  20907391.859 7   -260042.762 7   -197399.39549  20907390.14549
  23079974.039 3    -61709.582 3    -44375.19946  23079975.97346
  21167077.883 7    -25922.348 7    -19880.25048  21167075.34848
  23989146.914 6   -951769.676 6   -704737.64549  23989146.35249
  22554578.039 6   -963835.973 6   -734442.22348  22554575.46948
  23590498.703 6  -1246312.141 6   -924230.48447  23590496.81647
  21590279.430 6   -798031.348 6   -601044.46149  21590280.65649
 20  5 16  5 17  2.0000000  0  9G01G03G07G08G11G17G22G28G30         -0.000122398
  20104179.352 7   -402802.230 7   -306183.98049  20104180.85949
  23244259.453 5  -1319980.316 5   -991100.20349  23244262.71949
  20907227.484 7   -260904.742 7   -198071.07049  20907226.37949
  23079934.492 3    -61915.234 3    -44535.46546  23079936.82046
  21167070.750 6    -25958.805 6    -19908.65648  21167068.52748
  23988483.242 6   -955256.602 6   -707454.73049  23988482.54749
  22553909.336 6   -967352.254 6   -737182.18048  22553906.68848
  23589623.328 6  -1250911.563 6   -927814.44547  23589621.28547
  21589738.555 6   -800873.602 6   -603259.20349  21589739.85949
 20  5 16  5 17  3.0000000  0  9G01G03G07G08G11G17G22G28G30         -0.000123711
  20103916.328 7   -404184.500 7   -307261.07449  20103917.63749
  23243350.227 5  -1324758.348 5   -994823.34049  23243353.34049
  20907063.625 7   -261766.008 7   -198742.19149  20907062.06349
  23079894.969 2    -62120.813 2    -44695.65646  23079897.21146
  21167063.969 7    -25994.879 7    -19936.77048  21167061.21548
  23987820.227 6   -958743.277 6   -710171.61749  23987819.21149
  22553239.953 6   -970868.027 6   -739921.74648  22553237.36348
  23588748.828 6  -1255510.957 6   -931398.38347  23588746.32047
  21589197.883 6   -803715.152 6   -605473.40649  21589198.73849
 20  5 16  5 17  4.0000000  0  9G01G03G07G08G11G17G22G28G30         -0.000125023
  20103653.625 7   -405566.016 7   -308337.57849  20103654.82449
  23242441.008 5  -1329536.266 5   -998546.38749  23242444.28949
  20906900.234 7   -262626.590 7   -199412.77749  20906898.50849
  23079856.477 2    -62326.406 2    -44855.85546  23079858.76246
  21167056.531 6    -26030.605 6    -19964.60548  21167054.62948
  23987156.547 6   -962229.766 6   -712888.34849  23987155.80549
  22552571.023 6   -974383.344 6   -742660.95348  22552568.83248
  23587872.891 6  -1260110.348 6   -934982.32847  23587871.07447
  21588657.125 6   -806556.016 6   -607687.06649  21588658.36349
 20  5 16  5 17  5.0000000  0  9G01G03G07G08G11G17G22G28G30         -0.000126335
  20103390.805 7   -406946.727 7   -309413.45749  20103392.23849
  23241531.688 5  -1334313.906 5  -1002269.22749  23241535.05149
  20906736.375 7   -263486.414 7   -200082.76649  20906735.00849
  23079816.727 2    -62531.828 2    -45015.90246  23079819.64146
  21167050.539 6    -26065.902 6    -19992.11348  21167048.07848
  23986493.500 6   -965715.957 6   -715604.85549  23986492.15249
  22551902.727 6   -977898.086 6   -745399.71948  22551899.92648
  23586998.297 6  -1264709.645 6   -938566.19147  23586995.59447
  21588116.781 6   -809396.094 6   -609900.11749  21588118.03949
 20  5 16  5 17  6.0000000  0  9G01G03G07G08G11G17G22G28G30         -0.000127647
  20103128.281 7   -408326.648 7   -310488.72749  20103129.83649
  23240622.844 5  -1339091.297 5  -1005991.86749  23240625.87149
  20906573.203 7   -264345.488 7   -200752.17249  20906571.36349
  23079777.336 2    -62737.184 2    -45175.91046  23079780.51246
  21167043.742 6    -26100.797 6    -20019.30548  21167041.54348
  23985829.727 6   -969201.895 6   -718321.17649  23985828.53149
  22551233.719 6   -981412.309 6   -748138.07848  22551230.83648
  23586122.594 6  -1269308.863 6   -942150.00047  23586120.35247
  21587576.680 6   -812235.402 6   -612112.56349  21587577.64849
 20  5 16  5 17  7.0000000  0  9G01G03G07G08G11G17G22G28G30         -0.000128958
  20102866.086 7   -409705.828 7   -311563.41449  20102867.21949
  23239713.680 5  -1343868.504 5  -1009714.35949  23239716.87549
  20906409.430 7   -265203.859 7   -201421.03549  20906407.97749
  23079738.680 2    -62942.430 2    -45335.85246  23079741.30546
  21167037.602 6    -26135.344 6    -20046.22348  21167034.93048
  23985166.734 6   -972687.621 6   -721037.32849  23985165.05949
  22550564.594 6   -984926.047 6   -750876.05548  22550562.32848
  23585247.242 6  -1273908.039 6   -945733.77347  23585245.44147
  21587036.523 6   -815073.973 6   -614324.43449  21587037.46949
 20  5 16  5 17  8.0000000  0  9G01G03G07G08G11G17G22G28G30         -0.000130270
  20102603.336 7   -411084.309 7   -312637.55549  20102605.05549
  23238804.063 5  -1348645.570 5  -1013436.75449  23238807.91449
  20906246.359 7   -266061.578 7   -202089.39149  20906244.83649
  23079699.375 2    -63147.711 2    -45495.82846  23079701.98846
  21167030.617 6    -26169.559 6    -20072.88348  21167028.34448
  23984503.273 6   -976173.148 6   -723753.32449  23984502.18849
  22549896.563 6   -988439.344 6   -753613.68448  22549893.46948
  23584372.500 6  -1278507.250 6   -949317.57847  23584370.04347
  21586496.063 6   -817911.902 6   -616535.81349  21586497.28949
 20  5 16  5 17  9.0000000  0  9G01G03G07G08G11G17G22G28G30         -0.000131582
  20102341.344 7   -412462.109 7   -313711.16449  20102342.87549
  23237895.156 5  -1353422.484 5  -1017159.02349  23237898.87949
  20906083.258 7   -266918.652 7   -202757.23849  20906081.41049
  23079660.430 2    -63352.996 2    -45655.80146  23079662.89146
  21167024.414 6    -26203.484 6    -20099.31348  21167022.22348
  23983840.031 6   -979658.551 6   -726469.21549  23983839.14149
  22549227.906 6   -991952.219 6   -756350.98848  22549225.35948
  23583497.195 6  -1283106.516 6   -952901.42247  23583495.21547
  21585956.313 6   -820749.133 6   -618746.64149  21585957.53549
 20  5 16  5 17 10.0000000  0  9G01G03G07G08G11G17G22G28G30         -0.000132893
  20102079.180 7   -413839.195 7   -314784.21149  20102080.54349
  23236986.328 5  -1358199.270 5  -1020881.19149  23236989.72749
  20905920.242 7   -267775.055 7   -203424.57449  20905918.77749
  23079621.844 2    -63558.203 2    -45815.70346  23079623.93846
  21167017.828 6    -26237.082 6    -20125.49648  21167015.65248
  23983176.508 6   -983143.754 6   -729184.95749  23983175.73449
  22548559.703 6   -995464.613 6   -759087.91448  22548556.92248
  23582622.016 6  -1287705.762 6   -956485.25447  23582619.56347
  21585416.781 6   -823585.703 6   -620956.95349  21585417.61349
 20  5 16  5 17 11.0000000  0  9G01G03G07G08G11G17G22G28G30         -0.000134205
  20101817.039 7   -415215.488 7   -315856.65249  20101818.56649
  23236077.633 5  -1362975.805 5  -1024603.16849  23236080.91049
  20905757.344 7   -268630.719 7   -204091.32049  20905756.40249
  23079582.102 2    -63763.336 2    -45975.53946  23079584.56346
  21167011.281 6    -26270.254 6    -20151.35248  21167009.25848
  23982513.797 6   -986628.684 6   -731900.48449  23982512.89149
  22547891.078 6   -998976.480 6   -761824.43848  22547888.93848
  23581746.898 5  -1292304.926 5   -960069.02047  23581744.38347
  21584877.172 6   -826421.477 6   -623166.64549  21584878.10549
 20  5 16  5 17 12.0000000  0  9G01G03G07G08G11G17G22G28G30         -0.000135517
  20101555.570 7   -416591.016 7   -316928.49649  20101556.82849
  23235168.508 5  -1367752.125 5  -1028324.96949  23235172.08649
  20905594.445 6   -269485.652 6   -204757.50449  20905593.61749
  23079542.813 2    -63968.441 2    -46135.35246  23079545.51246
  21167005.492 6    -26303.078 6    -20176.93448  21167002.84048
  23981850.484 6   -990113.375 6   -734615.82449  23981849.55149
  22547223.344 6  -1002487.844 6   -764560.55948  22547220.51648
  23580871.516 5  -1296904.043 5   -963652.74247  23580868.89547
  21584337.609 6   -829256.582 6   -625375.82049  21584338.81649
 20  5 16  5 17 13.0000000  0  9G01G03G07G08G11G17G22G28G30         -0.000136827
  20101294.063 7   -417965.824 7   -317999.77749  20101295.32849
  23234259.469 5  -1372528.277 5  -1032046.64149  23234263.13749
  20905432.313 6   -270339.922 6   -205423.17649  20905430.75049
  23079504.313 2    -64173.402 2    -46295.07046  23079506.65646
  21166999.484 6    -26335.535 6    -20202.22348  21166996.98048
  23981187.125 6   -993597.871 6   -737331.01649  23981186.21149
  22546555.313 6  -1005998.730 6   -767296.31648  22546552.41048
  23579996.359 5  -1301503.160 5   -967236.47747  23579993.99247
  21583797.820 6   -832090.898 6   -627584.38749  21583799.06349
 20  5 16  5 17 14.0000000  0  9G01G03G07G08G11G17G22G28G30         -0.000138140
  20101032.703 7   -419339.867 7   -319070.45749  20101034.08249
  23233351.094 5  -1377304.211 5  -1035768.14149  23233354.42249
  20905269.977 6   -271193.457 6   -206088.26249  20905268.42249
  23079465.172 2    -64378.371 2    -46454.79746  23079467.76646
  21166992.813 6    -26367.598 6    -20227.20748  21166990.81348
  23980524.773 6   -997082.102 6   -740046.00049  23980523.20749
  22545886.883 6  -1009509.086 6   -770031.66048  22545884.18848
  23579120.906 5  -1306102.242 5   -970820.16447  23579118.63347
  21583258.836 6   -834924.523 6   -629792.40249  21583260.13349
 20  5 16  5 17 15.0000000  0  9G01G03G07G08G11G17G22G28G30         -0.000139450
  20100770.953 7   -420713.133 7   -320140.52349  20100772.46549
  23232441.922 5  -1382079.891 5  -1039489.44949  23232445.56649
  20905107.336 6   -272046.250 6   -206752.78149  20905106.09449
  23079426.555 2    -64583.219 2    -46614.42646  23079428.90246
  21166987.273 6    -26399.301 6    -20251.91448  21166984.62148
  23979861.523 6  -1000566.121 6   -742760.82049  23979860.75849
  22545219.375 6  -1013018.969 6   -772766.63348  22545216.50048
  23578246.406 5  -1310701.211 5   -974403.78147  23578243.67647
  21582719.938 6   -837757.395 6   -631999.83649  21582721.03949
 20  5 16  5 17 16.0000000  0  9G01G03G07G08G11G17G22G28G30         -0.000140762
  20100510.016 7   -422085.617 7   -321209.99649  20100510.99649
  23231532.688 5  -1386855.379 5  -1043210.60549  23231536.64549
  20904945.281 7   -272898.324 7   -207416.73449  20904943.58249
  23079387.906 2    -64788.059 2    -46774.03546  23079389.86746
  21166980.992 6    -26430.582 6    -20276.28548  21166978.39148
  23979198.367 6  -1004049.855 6   -745475.42249  23979197.55949
  22544551.563 6  -1016528.316 6   -775501.18448  22544548.52748
  23577371.063 5  -1315300.152 5   -977987.37147  23577368.18447
  21582180.813 6   -840589.504 6   -634206.68049  21582181.88349
 20  5 16  5 17 17.0000000  0  9G01G03G07G08G11G17G22G28G30         -0.000142073
  20100249.227 7   -423457.375 7   -322278.89549  20100250.36749
  23230624.539 5  -1391630.688 5  -1046931.62149  23230628.05149
  20904783.531 7   -273749.742 7   -208080.18049  20904781.69149
  23079349.227 2    -64992.730 2    -46933.51646  23079350.97746
  21166974.844 6    -26461.543 6    -20300.41448  21166972.89148
  23978535.656 6  -1007533.398 6   -748189.87149  23978534.14849
  22543883.625 6  -1020037.168 6   -778235.35248  22543881.07448
  23576495.938 6  -1319899.102 6   -981570.96947  23576493.20347
  21581642.094 6   -843420.910 6   -636412.97349  21581643.32849
 20  5 16  5 17 18.0000000  0  9G01G03G07G08G11G17G22G28G30         -0.000143383
  20099987.867 7   -424828.379 7   -323347.21149  20099989.31349
  23229716.219 5  -1396405.813 5  -1050652.49649  23229719.68449
  20904621.234 6   -274600.422 6   -208743.04749  20904620.16449
  23079309.492 2    -65197.414 2    -47093.01246  23079311.84846
  21166969.016 6    -26492.137 6    -20324.25048  21166966.76248
  23977872.453 6  -1011016.738 6   -750904.16049  23977871.69149
  22543216.063 6  -1023545.551 6   -780969.16448  22543213.76248
  23575620.625 5  -1324497.988 5   -985154.52047  23575618.19947
  21581103.656 6   -846251.605 6   -638618.70349  21581104.62149
 20  5 16  5 17 19.0000000  0  9G01G03G07G08G11G17G22G28G30         -0.000144695
  20099727.250 7   -426198.645 7   -324414.95349  20099728.96949
  23228807.523 5  -1401180.727 5  -1054373.20349  23228810.77349
  20904459.859 6   -275450.445 6   -209405.40649  20904457.86749
  23079270.297 2    -65402.055 2    -47252.46946  23079273.00446
  21166963.336 6    -26522.371 6    -20347.80948  21166961.53148
  23977210.336 6  -1014499.840 6   -753618.27049  23977209.14149
  22542548.711 6  -1027053.441 6   -783702.59048  22542545.68048
  23574745.930 6  -1329096.875 6   -988738.06647  23574743.46547
  21580565.016 6   -849081.586 6   -640823.88349  21580565.98449
 20  5 16  5 17 20.0000000  0  9G01G03G07G08G11G17G22G28G30         -0.000146006
  20099466.688 7   -427568.129 7   -325482.08649  20099468.04749
  23227898.734 5  -1405955.418 5  -1058093.73449  23227902.10249
  20904297.906 6   -276299.680 6   -210067.14549  20904296.64549
  23079231.500 2    -65606.520 2    -47411.78546  23079234.48446
  21166957.719 6    -26552.191 6    -20371.05148  21166955.13348
  23976547.336 6  -1017982.703 6   -756332.18849  23976546.12149
  22541881.148 6  -1030560.793 6   -786435.59448  22541878.62148
  23573870.227 6  -1333695.676 6   -992321.54747  23573868.27047
  21580026.555 6   -851910.777 6   -643028.44949  21580027.37949
 20  5 16  5 17 21.0000000  0  9G01G03G07G08G11G17G22G28G30         -0.000147316
  20099206.094 7   -428936.770 7   -326548.56349  20099207.44549
  23226990.773 5  -1410729.797 5  -1061814.02349  23226993.96149
  20904136.727 6   -277148.164 6   -210728.30549  20904135.18049
  23079192.914 2    -65810.871 2    -47571.02746  23079195.71146
  21166952.242 6    -26581.570 6    -20393.94948  21166949.64148
  23975884.766 6  -1021465.254 6   -759045.85949  23975883.55949
  22541213.656 6  -1034067.586 6   -789168.15648  22541211.09048
  23572995.555 6  -1338294.344 6   -995904.91447  23572993.46147
  21579488.516 6   -854739.207 6   -645232.42249  21579489.52349
 20  5 16  5 17 22.0000000  0  9G01G03G07G08G11G17G22G28G30         -0.000148628
  20098945.938 7   -430304.707 7   -327614.48449  20098947.19149
  23226081.984 5  -1415504.008 5  -1065534.18849  23226085.09849
  20903975.602 6   -277995.945 6   -211388.91049  20903974.26249
  23079154.078 2    -66015.203 2    -47730.27346  23079156.35246
  21166946.219 6    -26610.617 6    -20416.57848  21166944.28148
  23975221.875 6  -1024947.590 6   -761759.36749  23975220.89149
  22540546.688 6  -1037573.871 6   -791900.32448  22540544.03548
  23572120.656 6  -1342893.020 6   -999488.29347  23572117.97747
  21578950.219 6   -857566.891 6   -647435.81649  21578951.15249
 20  5 16  5 17 23.0000000  0  9G01G03G07G08G11G17G22G28G30         -0.000149939
  20098685.719 7   -431671.871 7   -328679.80949  20098687.13349
  23225173.453 5  -1420278.055 5  -1069254.22749  23225176.49249
  20903814.547 7   -278843.039 7   -212048.98849  20903812.70749
  23079115.117 2    -66219.402 2    -47889.37946  23079118.04746
  21166940.773 6    -26639.297 6    -20438.92248  21166938.87548
  23974559.383 6  -1028429.695 6   -764472.69549  23974558.30149
  22539879.477 6  -1041079.699 6   -794632.14148  22539877.20348
  23571245.141 6  -1347491.668 6  -1003071.65647  23571242.98447
  21578412.305 6   -860393.875 6   -649638.66049  21578413.36749
 20  5 16  5 17 24.0000000  0  9G01G03G07G08G11G17G22G28G30         -0.000151249
  20098425.578 7   -433038.250 7   -329744.52049  20098427.10249
  23224264.211 5  -1425051.824 5  -1072974.03949  23224267.96949
  20903653.227 7   -279689.391 7   -212708.48849  20903651.37949
  23079075.805 2    -66423.574 2    -48048.47346  23079078.90246
  21166935.680 6    -26667.559 6    -20460.94948  21166933.61348
  23973896.891 6  -1031911.578 6   -767185.85249  23973895.51249
  22539212.297 6  -1044584.977 6   -797363.52348  22539209.83648
  23570370.047 6  -1352090.223 6  -1006654.94147  23570368.25047
  21577874.352 6   -863220.094 6   -651840.91049  21577875.70749
 20  5 16  5 17 25.0000000  0  9G01G03G07G08G11G17G22G28G30         -0.000152559
  20098165.984 7   -434403.965 7   -330808.70749  20098167.33649
  23223356.258 5  -1429825.500 5  -1076693.78149  23223359.56349
  20903491.859 6   -280535.094 6   -213367.47749  20903490.67249
  23079037.320 2    -66627.668 2    -48207.50846  23079040.16846
  21166930.391 6    -26695.531 6    -20482.74648  21166927.86348
  23973234.227 6  -1035393.262 6   -769898.85249  23973233.08249
  22538545.594 6  -1048089.840 6   -800094.57848  22538542.38348
  23569495.102 6  -1356688.840 6  -1010238.28547  23569493.03147
  21577336.555 6   -866045.672 6   -654042.66449  21577337.79349
 20  5 16  5 17 26.0000000  0  9G01G03G07G08G11G17G22G28G30         -0.000153870
  20097906.313 7   -435768.859 7   -331872.26249  20097907.55549
  23222448.063 5  -1434598.918 5  -1080413.32849  23222451.84849
  20903331.102 6   -281380.059 6   -214025.89549  20903330.05949
  23078999.039 2    -66831.684 2    -48366.49246  23079001.30946
  21166924.930 6    -26723.086 6    -20504.21148  21166922.65248
  23972571.703 6  -1038874.688 6   -772611.65249  23972570.36749
  22537878.570 6  -1051594.141 6   -802825.19948  22537875.75448
  23568620.047 6  -1361287.328 6  -1013821.51647  23568617.90647
  21576799.133 6   -868870.422 6   -656243.76649  21576800.50849
 20  5 16  5 17 27.0000000  0  9G01G03G07G08G11G17G22G28G30         -0.000155180
  20097646.492 7   -437133.059 7   -332935.28149  20097647.93449
  23221539.422 5  -1439372.164 5  -1084132.73449  23221543.21549
  20903170.742 6   -282224.359 6   -214683.78949  20903169.21949
  23078960.297 3    -67035.707 3    -48525.48446  23078962.39546
  21166920.109 6    -26750.332 6    -20525.44148  21166917.83248
  23971909.180 6  -1042355.949 6   -775324.32049  23971908.06349
  22537211.938 6  -1055098.023 6   -805555.49648  22537209.38348
  23567744.773 6  -1365885.879 6  -1017404.80547  23567742.64147
  21576261.609 6   -871694.547 6   -658444.38749  21576262.69949
 20  5 16  5 17 28.0000000  0  9G01G03G07G08G11G17G22G28G30         -0.000156490
  20097386.969 7   -438496.488 7   -333997.69149  20097388.40249
  23220631.383 5  -1444145.227 5  -1087852.00049  23220634.77349
  20903010.336 7   -283067.941 7   -215341.12949  20903008.87949
  23078922.055 3    -67239.609 3    -48684.36746  23078924.12546
  21166914.633 6    -26777.195 6    -20546.37148  21166912.57048
  23971246.727 6  -1045836.973 6   -778036.79749  23971245.75049
  22536545.313 6  -1058601.355 6   -808285.37148  22536542.33648
  23566869.523 6  -1370484.371 6  -1020988.04347  23566867.57447
  21575724.570 6   -874517.902 6   -660644.40249  21575725.82049
 20  5 16  5 17 29.0000000  0  9G01G03G07G08G11G17G22G28G30         -0.000157801
  20097127.914 7   -439859.184 7   -335059.53549  20097129.27349
  23219722.922 5  -1448918.047 5  -1091571.07849  23219726.73049
  20902849.672 6   -283910.820 6   -215997.91449  20902848.26249
  23078882.688 3    -67443.477 3    -48843.21946  23078885.24246
  21166909.555 6    -26803.684 6    -20567.02048  21166907.41048
  23970584.539 6  -1049317.754 6   -780749.09849  23970583.37149
  22535878.977 6  -1062104.207 6   -811014.85948  22535876.14548
  23565994.141 6  -1375082.793 6  -1024571.21947  23565992.77047
  21575187.367 6   -877340.559 6   -662843.87149  21575188.44549
 20  5 16  5 17 30.0000000  0  9G01G03G07G08G11G17G22G28G30         -0.000159111
  20096868.906 7   -441221.133 7   -336120.79349  20096870.00049
  23218815.188 5  -1453690.707 5  -1095290.03549  23218818.72349
  20902689.422 6   -284753.004 6   -216654.16049  20902688.28549
  23078843.586 3    -67647.297 3    -49002.03546  23078846.04746
  21166904.453 6    -26829.801 6    -20587.36748  21166902.52048
  23969921.695 6  -1052798.332 6   -783461.23049  23969920.84049
  22535212.281 6  -1065606.582 6   -813743.98048  22535209.45348
  23565119.258 6  -1379681.191 6  -1028154.37547  23565117.38747
  21574650.578 6   -880162.465 6   -665042.76249  21574651.43049
 20  5 16  5 17 31.0000000  0  9G01G03G07G08G11G17G22G28G30         -0.000160421
  20096609.547 7   -442582.355 7   -337181.48849  20096610.65249
  23217906.438 5  -1458463.191 5  -1099008.85249  23217910.33249
  20902529.453 7   -285594.516 7   -217309.88349  20902528.32449
  23078805.383 3    -67851.055 3    -49160.80946  23078807.66046
  21166899.797 6    -26855.629 6    -20607.49248  21166897.41448
  23969259.531 6  -1056278.719 6   -786173.21549  23969258.67249
  22534545.781 6  -1069108.488 6   -816472.73848  22534542.99248
  23564243.664 5  -1384279.641 5  -1031737.58247  23564242.43847
  21574113.430 6   -882983.711 6   -667241.13349  21574114.62949
 20  5 16  5 17 32.0000000  0  9G01G03G07G08G11G17G22G28G30         -0.000161732
  20096350.969 7   -443942.816 7   -338241.59049  20096351.76649
  23216998.695 5  -1463235.469 5  -1102727.50849  23217002.46549
  20902369.172 6   -286435.313 6   -217965.05949  20902367.83649
  23078766.453 3    -68054.719 3    -49319.52046  23078768.79346
  21166895.227 6    -26881.027 6    -20627.29348  21166892.55948
  23968597.359 6  -1059758.852 6   -788885.00849  23968596.28149
  22533879.633 6  -1072609.879 6   -819201.08648  22533876.59048
  23563368.930 5  -1388878.004 5  -1035320.72347  23563367.27747
  21573576.922 6   -885804.191 6   -669438.91049  21573578.12949
 20  5 16  5 17 33.0000000  0  9G01G03G07G08G11G17G22G28G30         -0.000163042
  20096092.016 7   -445302.555 7   -339301.12949  20096093.28549
  23216090.445 5  -1468007.551 5  -1106446.00449  23216094.28949
  20902209.398 6   -287275.430 6   -218619.69149  20902207.99649
  23078727.898 3    -68258.344 3    -49478.19146  23078730.22346
  21166890.469 6    -26906.117 6    -20646.84448  21166888.32848
  23967935.734 6  -1063238.820 6   -791596.66849  23967934.01249
  22533213.586 6  -1076110.813 6   -821929.09048  22533210.23848
  23562494.313 5  -1393476.383 5  -1038903.88747  23562492.42647
  21573040.328 6   -888623.992 6   -671636.15649  21573041.21949
 20  5 16  5 17 34.0000000  0  9G01G03G07G08G11G17G22G28G30         -0.000164352
  20095833.414 7   -446661.543 7   -340360.07849  20095834.75049
  23215182.391 5  -1472779.418 5  -1110164.32849  23215186.42249
  20902049.797 7   -288114.805 7   -219273.75049  20902048.09849
  23078688.297 3    -68461.930 3    -49636.82446  23078690.91846
  21166885.711 6    -26930.813 6    -20666.08248  21166883.83648
  23967273.359 6  -1066718.500 6   -794308.10549  23967271.96149
  22532547.117 6  -1079611.188 6   -824656.66048  22532544.48048
  23561618.969 5  -1398074.688 5  -1042486.97747  23561617.19147
  21572504.094 6   -891443.035 6   -673832.81349  21572504.67649
 20  5 16  5 17 35.0000000  0  9G01G03G07G08G11G17G22G28G30         -0.000165663
  20095574.922 7   -448019.785 7   -341418.44149  20095576.21549
  23214273.820 5  -1477551.105 5  -1113882.52049  23214277.98849
  20901890.344 6   -288953.512 6   -219927.29349  20901888.94949
  23078649.992 2    -68665.457 2    -49795.42646  23078651.98046
  21166880.875 6    -26955.184 6    -20685.07048  21166879.05548
  23966611.078 6  -1070197.984 6   -797019.40249  23966610.05949
  22531881.094 6  -1083111.133 6   -827383.88748  22531878.47748
  23560744.078 6  -1402672.980 6  -1046070.05547  23560742.25047
  21571967.602 6   -894261.379 6   -676028.92649  21571968.35549
 20  5 16  5 17 36.0000000  0  9G01G03G07G08G11G17G22G28G30         -0.000166971
  20095316.633 7   -449377.234 7   -342476.20349  20095318.10249
  23213366.211 5  -1482322.559 5  -1117600.54349  23213370.18049
  20901730.398 6   -289791.488 6   -220580.26649  20901729.23449
  23078611.109 2    -68868.867 2    -49953.93446  23078613.32446
  21166876.297 6    -26979.141 6    -20703.73448  21166874.18848
  23965948.992 6  -1073677.242 6   -799730.51649  23965947.55549
  22531215.313 6  -1086610.531 6   -830110.69148  22531212.32848
  23559868.891 6  -1407271.215 6  -1049653.09047  23559867.29347
  21571431.391 6   -897078.969 6   -678224.45349  21571432.44949
 20  5 16  5 17 37.0000000  0  9G01G03G07G08G11G17G22G28G30         -0.000168282
  20095058.406 7   -450733.957 7   -343533.37949  20095059.34049
  23212458.672 5  -1487093.836 5  -1121318.42649  23212461.78949
  20901571.445 6   -290628.758 6   -221232.68449  20901569.91849
  23078572.367 2    -69072.199 2    -50112.36746  23078575.16446
  21166871.828 6    -27002.730 6    -20722.12548  21166869.36348
  23965287.063 6  -1077156.281 6   -802441.45749  23965285.70749
  22530549.219 6  -1090109.465 6   -832837.13348  22530546.47748
  23558994.039 6  -1411869.426 6  -1053236.11347  23558992.09047
  21570895.406 6   -899895.836 6   -680419.41049  21570896.52349
 20  5 16  5 17 38.0000000  0  9G01G03G07G08G11G17G22G28G30         -0.000169592
  20094800.250 7   -452089.910 7   -344589.96949  20094801.66849
  23211550.023 5  -1491864.875 5  -1125036.10949  23211553.95749
  20901412.414 7   -291465.313 7   -221884.54349  20901410.62149
  23078533.609 2    -69275.434 2    -50270.72346  23078535.80946
  21166867.703 6    -27025.934 6    -20740.21148  21166865.35548
  23964624.703 6  -1080635.023 6   -805152.17249  23964623.82849
  22529883.477 6  -1093607.832 6   -835563.12948  22529880.80948
  23558118.773 6  -1416467.535 6  -1056819.06347  23558117.05547
  21570359.391 6   -902711.945 6   -682613.78149  21570360.39549
 20  5 16  5 17 39.0000000  0  9G01G03G07G08G11G17G22G28G30         -0.000170900
  20094542.242 7   -453445.207 7   -345646.04749  20094543.84849
  23210642.359 5  -1496635.801 5  -1128753.71149  23210646.15249
  20901253.086 6   -292301.238 6   -222535.91449  20901251.38349
  23078494.703 2    -69478.750 2    -50429.16046  23078497.29346
  21166862.797 6    -27048.887 6    -20758.09448  21166860.89148
  23963962.570 6  -1084113.711 6   -807862.83649  23963961.57449
  22529218.102 6  -1097105.840 6   -838288.85248  22529215.46948
  23557244.227 6  -1421065.758 6  -1060402.09447  23557242.07047
  21569823.883 6   -905527.434 6   -684807.67649  21569824.79749
 20  5 16  5 17 40.0000000  0  9G01G03G07G08G11G17G22G28G30         -0.000172211
  20094284.461 7   -454799.746 7   -346701.53149  20094286.25049
  23209734.688 5  -1501406.543 5  -1132471.17248  23209738.26248
  20901093.969 6   -293136.480 6   -223186.75449  20901092.28149
  23078456.602 2    -69681.977 2    -50587.52046  23078458.55146
  21166859.109 6    -27071.477 6    -20775.69548  21166857.12948
  23963300.586 6  -1087592.145 6   -810573.30549  23963299.86349
  22528552.773 6  -1100603.332 6   -841014.17248  22528549.84448
  23556369.102 6  -1425663.938 6  -1063985.09447  23556367.32847
  21569288.039 6   -908342.199 6   -687001.00449  21569288.94149
 20  5 16  5 17 41.0000000  0  9G01G03G07G08G11G17G22G28G30         -0.000173521
  20094027.047 7   -456153.570 7   -347756.46149  20094028.03549
  23208826.250 5  -1506177.070 5  -1136188.46149  23208830.56349
  20900935.578 6   -293971.008 6   -223837.03549  20900933.94949
  23078418.508 2    -69885.148 2    -50745.84846  23078419.76646
  21166854.250 6    -27093.695 6    -20793.00848  21166852.52748
  23962639.102 6  -1091070.359 6   -813283.60549  23962638.05949
  22527887.352 6  -1104100.344 6   -843739.11748  22527884.57048
  23555493.891 5  -1430262.059 5  -1067568.04747  23555492.24647
  21568752.344 6   -911156.242 6   -689193.76649  21568753.45749
 20  5 16  5 17 42.0000000  0  9G01G03G07G08G11G17G22G28G30         -0.000174829
  20093769.633 7   -457506.648 7   -348810.80549  20093771.03549
  23207919.000 5  -1510947.438 5  -1139905.62148  23207923.05148
  20900776.492 6   -294804.887 6   -224486.81649  20900774.90249
  23078379.602 2    -70088.277 2    -50904.12146  23078381.03546
  21166850.641 6    -27115.582 6    -20810.06648  21166848.11748
  23961977.828 6  -1094548.375 6   -815993.75049  23961976.28549
  22527221.922 6  -1107596.859 6   -846463.66848  22527218.85548
  23554619.375 5  -1434860.184 5  -1071151.00847  23554617.30147
  21568216.969 6   -913969.582 6   -691385.98049  21568218.31349
 20  5 16  5 17 43.0000000  0  9G01G03G07G08G11G17G22G28G30         -0.000176140
  20093512.297 7   -458859.004 7   -349864.59449  20093513.50449
  23207010.867 5  -1515717.602 5  -1143622.63348  23207014.60948
  20900618.125 6   -295638.066 6   -225136.04749  20900616.78949
  23078340.781 3    -70291.387 3    -51062.39146  23078342.59846
  21166846.508 6    -27137.133 6    -20826.86348  21166844.57048
  23961315.133 6  -1098026.191 6   -818703.73449  23961314.32849
  22526556.750 6  -1111092.914 6   -849187.87548  22526553.61748
  23553744.133 5  -1439458.340 5  -1074733.97747  23553742.67647
  21567681.898 6   -916782.242 6   -693577.66049  21567682.97349
 20  5 16  5 17 44.0000000  0  9G01G03G07G08G11G17G22G28G30         -0.000177448
  20093254.977 7   -460210.563 7   -350917.75849  20093256.57049
  23206103.156 5  -1520487.574 5  -1147339.48848  23206107.30948
  20900459.813 6   -296470.484 6   -225784.68849  20900458.31649
  23078302.484 3    -70494.422 3    -51220.60946  23078304.14546
  21166842.430 6    -27158.285 6    -20843.34448  21166840.02348
  23960653.961 6  -1101503.738 6   -821413.50449  23960652.64549
  22525891.773 6  -1114588.438 6   -851911.65648  22525888.82848
  23552868.797 5  -1444056.340 5  -1078316.83647  23552867.07447
  21567146.922 6   -919594.121 6   -695768.74249  21567147.93049
 20  5 16  5 17 45.0000000  0  9G01G03G07G08G11G17G22G28G30         -0.000178759
  20092997.961 7   -461561.426 7   -351970.37549  20092999.01649
  23205195.664 5  -1525257.367 5  -1151056.21148  23205199.64148
  20900301.547 7   -297302.277 7   -226432.84049  20900299.75849
  23078263.289 3    -70697.414 3    -51378.78946  23078265.66046
  21166838.680 6    -27179.105 6    -20859.56648  21166836.10248
  23959992.305 6  -1104981.113 6   -824123.14549  23959990.94549
  22525226.070 6  -1118083.523 6   -854635.10548  22525223.25448
  23551994.070 5  -1448654.434 5  -1081899.76247  23551992.26647
  21566612.086 6   -922405.324 6   -697959.28949  21566613.01649
 20  5 16  5 17 46.0000000  0  9G01G03G07G08G11G17G22G28G30         -0.000180069
  20092740.891 7   -462911.555 7   -353022.42249  20092742.00849
  23204288.469 5  -1530026.941 5  -1154772.76248  23204291.98448
  20900143.297 7   -298133.383 7   -227080.45349  20900141.68049
  23078224.328 2    -70900.320 2    -51536.89546  23078226.73046
  21166834.578 6    -27199.582 6    -20875.52048  21166832.14148
  23959330.406 6  -1108458.281 6   -826832.62149  23959329.16449
  22524561.797 6  -1121578.117 6   -857358.15648  22524558.32048
  23551119.281 5  -1453252.441 5  -1085482.62547  23551117.22747
  21566076.727 6   -925215.836 6   -700149.29349  21566077.90649
 20  5 16  5 17 47.0000000  0  9G01G03G07G08G11G17G22G28G30         -0.000181377
  20092484.328 7   -464260.938 7   -354073.89149  20092485.60249
  23203380.570 5  -1534796.316 5  -1158489.15648  23203384.39148
  20899985.258 6   -298963.754 6   -227727.49249  20899983.59449
  23078186.609 2    -71103.168 2    -51694.95346  23078187.93846
  21166830.563 6    -27219.703 6    -20891.19948  21166828.11748
  23958668.609 6  -1111935.191 6   -829541.90249  23958667.52049
  22523896.914 6  -1125072.211 6   -860080.82848  22523893.76648
  23550243.820 5  -1457850.441 5  -1089065.48447  23550242.24247
  21565542.531 6   -928025.582 6   -702338.70749  21565543.14849
 20  5 16  5 17 48.0000000  0  9G01G03G07G08G11G17G22G28G30         -0.000182686
  20092227.727 7   -465609.574 7   -355124.78149  20092229.09049
  23202473.422 5  -1539565.547 5  -1162205.43448  23202476.98848
  20899827.656 6   -299793.438 6   -228374.00449  20899825.74249
  23078147.133 2    -71305.945 2    -51852.95346  23078149.63746
  21166827.164 6    -27239.469 6    -20906.60248  21166824.77348
  23958007.344 6  -1115411.945 6   -832251.05949  23958006.17249
  22523231.484 6  -1128565.824 6   -862803.12548  22523228.50848
  23549369.266 5  -1462448.414 5  -1092648.32047  23549367.38347
  21565007.938 6   -930834.645 6   -704527.58649  21565008.73849
 20  5 16  5 17 49.0000000  0  9G01G03G07G08G11G17G22G28G30         -0.000183996
  20091971.063 7   -466957.488 7   -356175.09849  20091972.28149
  23201565.352 5  -1544334.559 5  -1165921.54348  23201569.50448
  20899669.883 6   -300622.449 6   -229019.99249  20899668.16849
  23078109.086 2    -71508.715 2    -52010.94946  23078110.87546
  21166823.531 6    -27258.867 6    -20921.71148  21166821.21548
  23957345.203 6  -1118888.457 6   -834960.02749  23957345.01249
  22522567.078 6  -1132058.938 6   -865525.02748  22522564.22348
  23548494.430 5  -1467046.383 5  -1096231.14547  23548492.62547
  21564473.375 6   -933642.977 6   -706715.89849  21564474.30549
 20  5 16  5 17 50.0000000  0  9G01G03G07G08G11G17G22G28G30         -0.000185305
  20091714.813 7   -468304.648 7   -357224.84049  20091716.10549
  23200658.281 5  -1549103.371 5  -1169637.49648  23200661.50848
  20899511.969 6   -301450.754 6   -229665.42649  20899510.12949
  23078070.430 2    -71711.387 2    -52168.85946  23078072.20346
  21166819.469 6    -27277.914 6    -20936.55548  21166817.35548
  23956683.859 6  -1122364.758 6   -837668.83249  23956683.34449
  22521902.633 6  -1135551.574 6   -868246.56648  22521899.45748
  23547619.242 5  -1471644.313 5  -1099813.94947  23547617.27747
  21563938.836 6   -936450.598 6   -708903.65649  21563940.37949
 20  5 16  5 17 51.0000000  0  9G01G03G07G08G11G17G22G28G30         -0.000186613
  20091458.563 7   -469651.133 7   -358274.04749  20091459.90649
  23199750.586 5  -1553872.074 5  -1173353.36748  23199754.37948
  20899354.695 6   -302278.414 6   -230310.35549  20899352.94549
  23078032.344 2    -71914.094 2    -52326.83246  23078033.52346
  21166816.305 6    -27296.668 6    -20951.17648  21166813.94148
  23956022.320 6  -1125840.883 6   -840377.50449  23956021.58249
  22521237.719 6  -1139043.758 6   -870967.75048  22521235.04748
  23546744.703 5  -1476242.246 5  -1103396.74647  23546742.42247
  21563404.836 6   -939257.555 6   -711090.89849  21563405.87149
 20  5 16  5 17 52.0000000  0  9G01G03G07G08G11G17G22G28G30         -0.000187923
  20091202.500 7   -470996.883 7   -359322.68049  20091203.70749
  23198843.188 5  -1558640.527 5  -1177069.03548  23198847.06648
  20899197.031 6   -303105.395 6   -230954.75049  20899195.65249
  23077993.813 2    -72116.699 2    -52484.71546  23077995.18446
  21166812.688 6    -27315.059 6    -20965.50448  21166810.55948
  23955360.938 6  -1129316.801 6   -843086.00849  23955360.04749
  22520573.383 6  -1142535.473 6   -873688.57048  22520570.51648
  23545869.578 5  -1480840.160 5  -1106979.53947  23545867.23847
  21562870.789 6   -942063.781 6   -713277.57049  21562871.67649
 20  5 16  5 17 53.0000000  0  9G01G03G07G08G11G17G22G28G30         -0.000189232
  20090946.461 7   -472341.934 7   -360370.77349  20090947.69549
  23197935.484 5  -1563408.875 5  -1180784.62948  23197939.35948
  20899040.047 6   -303931.738 6   -231598.66049  20899038.33649
  23077955.320 2    -72319.316 2    -52642.59446  23077956.72746
  21166809.031 6    -27333.148 6    -20979.59448  21166807.07448
  23954699.508 6  -1132792.582 6   -845794.41049  23954698.94149
  22519908.953 6  -1146026.723 6   -876409.02348  22519906.28548
  23544994.672 5  -1485438.105 5  -1110562.35947  23544992.73047
  21562337.234 6   -944869.332 6   -715463.70749  21562337.93449
 20  5 16  5 17 54.0000000  0  9G01G03G07G08G11G17G22G28G30         -0.000190540
  20090690.688 7   -473686.242 7   -361418.28949  20090691.96949
  23197028.391 5  -1568177.000 5  -1184500.04748  23197032.09048
  20898882.859 6   -304757.355 6   -232242.00049  20898881.27349
  23077916.258 2    -72521.859 2    -52800.41446  23077917.86346
  21166805.656 6    -27350.871 6    -20993.41048  21166803.45348
  23954037.633 6  -1136268.113 6   -848502.60949  23954037.27749
  22519245.008 6  -1149517.488 6   -879129.09448  22519241.79748
  23544119.719 5  -1490036.023 5  -1114145.14547  23544117.32847
  21561803.555 6   -947674.188 6   -717649.31649  21561804.28949
 20  5 16  5 17 55.0000000  0  9G01G03G07G08G11G17G22G28G30         -0.000191851
  20090435.078 7   -475029.742 7   -362465.17249  20090436.19149
  23196120.922 5  -1572944.895 5  -1188215.28948  23196124.69948
  20898725.922 6   -305582.234 6   -232884.76249  20898724.62549
  23077877.266 2    -72724.320 2    -52958.18046  23077879.46146
  21166802.117 6    -27368.195 6    -21006.90648  21166800.17648
  23953376.508 6  -1139743.383 6   -851210.61349  23953376.04349
  22518580.719 6  -1153007.719 6   -881848.75048  22518577.85248
  23543244.703 5  -1494633.863 5  -1117727.88747  23543242.60947
  21561269.500 6   -950478.266 6   -719834.30549  21561270.94949
 20  5 16  5 17 56.0000000  0  9G01G03G07G08G11G17G22G28G30         -0.000193159
  20090179.453 7   -476372.574 7   -363511.53149  20090180.87549
  23195213.563 5  -1577712.637 5  -1191930.41448  23195216.97748
  20898569.102 6   -306406.457 6   -233527.02049  20898567.59849
  23077838.258 2    -72926.758 2    -53115.91846  23077840.50446
  21166799.633 6    -27385.199 6    -21020.16448  21166797.20748
  23952715.328 6  -1143218.461 6   -853918.46549  23952714.84049
  22517916.289 6  -1156497.480 6   -884568.04348  22517913.50048
  23542369.555 5  -1499231.707 5  -1121310.61747  23542367.90647
  21560736.609 6   -953281.652 6   -722018.76649  21560737.30549
 20  5 16  5 17 57.0000000  0  9G01G03G07G08G11G17G22G28G30         -0.000194468
  20089924.445 7   -477714.645 7   -364557.30149  20089925.64849
  23194306.352 5  -1582480.199 5  -1195645.38348  23194309.48448
  20898412.359 7   -307229.973 7   -234168.71949  20898410.82049
  23077801.250 2    -73129.148 2    -53273.62146  23077802.50046
  21166795.781 6    -27401.840 6    -21033.12948  21166793.84848
  23952054.070 6  -1146693.336 6   -856626.15649  23952053.46549
  22517252.555 6  -1159986.762 6   -887286.96148  22517249.60948
  23541494.391 5  -1503829.516 5  -1124893.32447  23541492.87547
  21560203.313 6   -956084.348 6   -724202.69149  21560203.99649
 20  5 16  5 17 58.0000000  0  9G01G03G07G08G11G17G22G28G30         -0.000195776
  20089669.047 7   -479056.012 7   -365602.52049  20089670.31649
  23193399.266 5  -1587247.523 5  -1199360.17648  23193402.76648
  20898255.594 6   -308052.852 6   -234809.92249  20898253.88749
  23077762.672 2    -73331.469 2    -53431.28546  23077763.54346
  21166792.961 6    -27418.164 6    -21045.84848  21166790.91448
  23951392.734 6  -1150168.020 6   -859333.69949  23951392.24649
  22516588.734 6  -1163475.555 6   -890005.50448  22516585.79348
  23540619.664 5  -1508427.324 5  -1128476.02747  23540617.96947
  21559669.773 6   -958886.336 6   -726386.05949  21559670.44149
 20  5 16  5 17 59.0000000  0  9G01G03G07G08G11G17G22G28G30         -0.000197084
  20089413.789 7   -480396.609 7   -366647.14549  20089414.83249
  23192492.148 5  -1592014.684 5  -1203074.84448  23192495.57448
  20898099.266 6   -308874.996 6   -235450.55549  20898097.54749
  23077724.047 2    -73533.723 2    -53588.91446  23077725.28946
  21166789.906 6    -27434.113 6    -21058.27748  21166787.29348
  23950731.547 6  -1153642.473 6   -862041.05949  23950731.07449
  22515925.031 6  -1166963.879 6   -892723.68048  22515921.76648
  23539744.477 5  -1513025.098 5  -1132058.70347  23539743.04747
  21559136.766 6   -961687.605 6   -728568.86749  21559137.83249
 20  5 16  5 18  0.0000000  0  9G01G03G07G08G11G17G22G28G30         -0.000198393
  20089158.648 7   -481736.484 7   -367691.20349  20089160.11749
  23191584.203 5  -1596781.660 5  -1206789.37148  23191588.33648
  20897942.531 6   -309696.449 6   -236090.65249  20897941.08249
  23077685.844 2    -73735.949 2    -53746.48046  23077687.00446
  21166787.008 6    -27449.688 6    -21070.41848  21166784.74248
  23950070.672 6  -1157116.707 6   -864748.25449  23950070.24249
  22515261.336 6  -1170451.695 6   -895441.46148  22515258.18848
  23538869.797 5  -1517622.863 5  -1135641.37547  23538867.76247
  21558603.484 6   -964488.160 6   -730751.11349  21558604.51649
 20  5 16  5 18  1.0000000  0  9G01G03G07G08G11G17G22G28G30         -0.000199701
  20088903.844 7   -483075.648 7   -368734.71149  20088905.18449
  23190677.992 5  -1601548.496 5  -1210503.78948  23190680.85548
  20897786.773 7   -310517.227 7   -236730.24249  20897785.24249
  23077647.367 2    -73938.117 2    -53904.01645  23077648.50045
  21166784.086 6    -27464.969 6    -21082.32448  21166781.69948
  23949409.688 6  -1160590.777 6   -867455.32449  23949408.70749
  22514597.617 6  -1173939.086 6   -898158.91048  22514594.44148
  23537994.617 5  -1522220.621 5  -1139224.04347  23537993.34047
  21558070.891 6   -967288.020 6   -732932.81649  21558071.68449
 20  5 16  5 18  2.0000000  0  9G01G03G07G08G11G17G22G28G30         -0.000201010
  20088649.109 7   -484414.082 7   -369777.64149  20088650.49249
  23189771.211 5  -1606315.129 5  -1214218.03948  23189774.21548
  20897630.531 7   -311337.359 7   -237369.30949  20897629.19149
  23077608.297 2    -74140.277 2    -54061.52746  23077609.75046
  21166781.180 6    -27479.910 6    -21093.97348  21166779.20348
  23948748.695 6  -1164064.672 6   -870162.25049  23948747.38749
  22513933.734 6  -1177425.965 6   -900875.95348  22513930.93848
  23537119.492 5  -1526818.379 5  -1142806.69947  23537118.18047
  21557538.266 6   -970087.168 6   -735113.97749  21557538.98049
 20  5 16  5 18  3.0000000  0  9G01G03G07G08G11G17G22G28G30         -0.000202318
  20088394.859 7   -485751.777 7   -370820.00049  20088395.93449
  23188864.344 5  -1611081.559 5  -1217932.12148  23188867.17248
  20897474.875 7   -312156.785 7   -238007.82449  20897473.39549
  23077570.180 2    -74342.363 2    -54218.99646  23077571.27346
  21166778.664 6    -27494.457 6    -21105.30148  21166776.39548
  23948087.805 6  -1167538.305 6   -872868.97749  23948086.62949
  22513270.445 6  -1180912.363 6   -903592.62548  22513267.61348
  23536244.242 6  -1531416.102 6  -1146389.34447  23536243.23047
  21557005.664 6   -972885.602 6   -737294.57449  21557006.55949
 20  5 16  5 18  4.0000000  0  9G01G03G07G08G11G17G22G28G30         -0.000203627
  20088140.125 7   -487088.723 7   -371861.77749  20088141.90249
  23187956.758 5  -1615847.754 5  -1221646.03148  23187959.84048
  20897319.031 7   -312975.516 7   -238645.80149  20897317.37549
  23077531.227 3    -74544.379 3    -54376.40646  23077532.85246
  21166775.500 6    -27508.680 6    -21116.38748  21166773.48448
  23947426.836 6  -1171011.719 6   -875575.53549  23947425.70349
  22512606.828 6  -1184398.242 6   -906308.89548  22512604.12948
  23535369.602 5  -1536013.742 5  -1149971.90647  23535368.13747
  21556472.813 6   -975683.293 6   -739474.59449  21556474.35249
 20  5 16  5 18  5.0000000  0  9G01G03G07G08G11G17G22G28G30         -0.000204935
  20087886.273 7   -488424.867 7   -372902.93049  20087887.64149
  23187049.984 5  -1620613.734 5  -1225359.78148  23187053.09848
  20897163.430 7   -313793.488 7   -239283.17649  20897161.89549
  23077493.633 2    -74746.281 2    -54533.71546  23077494.28946
  21166772.852 6    -27522.461 6    -21127.12548  21166771.18848
  23946765.547 6  -1174484.871 6   -878281.88349  23946764.78549
  22511943.805 6  -1187883.586 6   -909024.74648  22511941.15648
  23534494.813 5  -1540611.336 5  -1153554.45747  23534493.52347
  21555941.258 6   -978480.242 6   -741654.03949  21555942.36349
 20  5 16  5 18  6.0000000  0  9G01G03G07G08G11G17G22G28G30         -0.000206244
  20087631.695 7   -489760.250 7   -373943.48849  20087633.29749
  23186142.828 5  -1625379.457 5  -1229073.33648  23186145.58648
  20897008.102 6   -314610.754 6   -239920.00049  20897006.12549
  23077455.094 3    -74948.094 3    -54690.97345  23077456.12145
  21166769.992 6    -27535.895 6    -21137.59448  21166768.21548
  23946104.703 6  -1177957.789 6   -880988.05549  23946104.07449
  22511280.594 6  -1191368.422 6   -911740.19948  22511277.65248
  23533619.672 5  -1545208.871 5  -1157136.94947  23533618.29347
  21555408.922 6   -981276.449 6   -743832.90649  21555409.81649
 20  5 16  5 18  7.0000000  0  9G01G03G07G08G11G17G22G28G30         -0.000207552
  20087377.711 7   -491094.910 7   -374983.48449  20087379.46149
  23185236.305 5  -1630145.027 5  -1232786.77348  23185239.01248
  20896852.367 7   -315427.316 7   -240556.28149  20896851.05549
  23077416.453 3    -75149.926 3    -54848.26246  23077417.43846
  21166768.359 6    -27548.969 6    -21147.78148  21166765.82848
  23945444.102 6  -1181430.504 6   -883694.06649  23945443.14149
  22510617.531 6  -1194852.766 6   -914455.27048  22510614.57448
  23532745.086 5  -1549806.402 5  -1160719.44547  23532743.78147
  21554876.930 6   -984071.934 6   -746011.20749  21554877.92249
 20  5 16  5 18  8.0000000  0  9G01G03G07G08G11G17G22G28G30         -0.000208860
  20087124.148 7   -492428.840 7   -376022.90649  20087125.71149
  23184329.156 5  -1634910.383 5  -1236500.03948  23184331.99648
  20896696.977 6   -316243.219 6   -241192.05149  20896695.70349
  23077378.242 3    -75351.672 3    -55005.46546  23077379.05546
  21166765.555 6    -27561.707 6    -21157.70748  21166762.83248
  23944783.313 6  -1184903.000 6   -886399.90249  23944782.05949
  22509954.500 6  -1198336.633 6   -917169.97748  22509951.52348
  23531870.164 5  -1554403.918 5  -1164301.91847  23531868.42647
  21554345.492 6   -986866.711 6   -748188.95349  21554345.89849
 20  5 16  5 18  9.0000000  0  9G01G03G07G08G11G17G22G28G30         -0.000210169
  20086870.492 7   -493762.055 7   -377061.77749  20086871.73049
  23183422.820 5  -1639675.542 5  -1240213.14648  23183425.54348
  20896541.648 6   -317058.426 6   -241827.28149  20896540.13349
  23077339.508 3    -75553.379 3    -55162.65646  23077340.78146
  21166763.859 6    -27574.094 6    -21167.35948  21166760.67248
  23944122.141 6  -1188375.313 6   -889105.60549  23944121.18449
  22509291.977 6  -1201820.043 6   -919884.32048  22509288.44548
  23530995.570 5  -1559001.398 5  -1167884.36747  23530993.52047
  21553813.914 6   -989660.793 6   -750366.16049  21553814.26249
 20  5 16  5 18 10.0000000  0  9G01G03G07G08G11G17G22G28G30         -0.000211475
  20086616.797 7   -495094.531 7   -378100.07049  20086618.57449
  23182516.070 5  -1644440.613 5  -1243926.18848  23182518.66848
  20896387.195 6   -317872.977 6   -242462.00449  20896385.58649
  23077301.141 3    -75755.055 3    -55319.80146  23077302.63346
  21166761.078 6    -27586.176 6    -21176.77048  21166758.78148
  23943461.922 6  -1191847.434 6   -891811.15249  23943460.62949
  22508628.734 6  -1205302.977 6   -922598.29748  22508625.79348
  23530119.648 5  -1563598.883 5  -1171466.82447  23530118.94947
  21553282.055 6   -992454.191 6   -752542.83649  21553282.98849
 20  5 16  5 18 11.0000000  0  9G01G03G07G08G11G17G22G28G30         -0.000212784
  20086363.453 7   -496426.316 7   -379137.82449  20086364.77349
  23181609.039 5  -1649205.480 5  -1247639.06648  23181612.21548
  20896232.086 6   -318686.852 6   -243096.19149  20896230.74649
  23077262.719 3    -75956.691 3    -55476.93446  23077264.16846
  21166758.625 6    -27597.891 6    -21185.90648  21166756.41048
  23942800.813 6  -1195319.363 6   -894516.55149  23942800.13749
  22507966.414 6  -1208785.441 6   -925311.90648  22507963.53148
  23529244.586 5  -1568196.328 5  -1175049.24647  23529244.09447
  21552750.594 6   -995246.875 6   -754718.94949  21552751.53149
 20  5 16  5 18 12.0000000  0  9G01G03G07G08G11G17G22G28G30         -0.000214092
  20086109.984 7   -497757.352 7   -380174.99649  20086111.72349
  23180701.695 5  -1653970.105 5  -1251351.76248  23180705.16048
  20896077.539 6   -319500.016 6   -243729.82849  20896075.80549
  23077224.273 3    -76158.266 3    -55633.99246  23077225.62146
  21166756.344 6    -27609.262 6    -21194.77048  21166754.36748
  23942140.102 6  -1198791.059 6   -897221.76249  23942139.70749
  22507304.141 6  -1212267.410 6   -928025.12548  22507300.72348
  23528371.023 5  -1572793.785 5  -1178631.68047  23528369.34447
  21552219.484 6   -998038.848 6   -756894.52349  21552220.02049
 20  5 16  5 18 13.0000000  0  9G01G03G07G08G11G17G22G28G30         -0.000215399
  20085856.641 7   -499087.633 7   -381211.58249  20085858.46949
  23179795.805 5  -1658734.566 5  -1255064.32848  23179798.52748
  20895922.797 6   -320312.496 6   -244362.93049  20895921.45749
  23077186.125 3    -76359.801 3    -55791.01246  23077187.05146
  21166754.672 6    -27620.281 6    -21203.35948  21166752.23448
  23941479.578 6  -1202262.551 6   -899926.82049  23941478.72749
  22506641.055 6  -1215748.871 6   -930737.95348  22506637.90648
  23527495.992 5  -1577391.219 5  -1182214.09047  23527494.74647
  21551687.969 6  -1000830.109 6   -759069.52749  21551689.31649
 20  5 16  5 18 14.0000000  0  9G01G03G07G08G11G17G22G28G30         -0.000216707
  20085603.586 7   -500417.211 7   -382247.61749  20085605.34849
  23178888.844 5  -1663498.801 5  -1258776.71948  23178892.34848
  20895768.234 6   -321124.309 6   -244995.50849  20895766.81349
  23077147.570 3    -76561.281 3    -55948.00046  23077149.32846
  21166752.609 6    -27630.969 6    -21211.68448  21166750.03948
  23940819.148 6  -1205733.805 6   -902631.69549  23940818.50049
  22505978.781 6  -1219229.852 6   -933450.39848  22505976.01648
  23526620.648 5  -1581988.625 5  -1185796.48847  23526619.45747
  21551157.258 6  -1003620.660 6   -761243.98449  21551158.12949
 20  5 16  5 18 15.0000000  0  9G01G03G07G08G11G17G22G28G30         -0.000218016
  20085351.188 7   -501746.051 7   -383283.07449  20085352.64149
  23177982.875 5  -1668262.902 5  -1262489.00448  23177985.91048
  20895613.906 6   -321935.418 6   -245627.54349  20895612.21149
  23077108.695 3    -76762.742 3    -56104.98846  23077111.05146
  21166750.438 6    -27641.313 6    -21219.75048  21166748.17648
  23940158.719 6  -1209204.895 6   -905336.44149  23940157.87149
  22505316.289 6  -1222710.352 6   -936162.47748  22505313.48448
  23525746.156 5  -1586586.008 5  -1189378.86347  23525745.17247
  21550626.750 6  -1006410.500 6   -763417.87949  21550627.32849
 20  5 16  5 18 16.0000000  0  9G01G03G07G08G11G17G22G28G30         -0.000219322
  20085098.352 7   -503074.188 7   -384317.98449  20085099.68849
  23177076.078 5  -1673026.809 5  -1266201.13348  23177079.17248
  20895459.711 6   -322745.879 6   -246259.07049  20895458.28149
  23077070.578 2    -76964.137 2    -56261.92646  23077072.41846
  21166748.539 6    -27651.336 6    -21227.55148  21166746.44548
  23939498.563 6  -1212675.789 6   -908041.03549  23939497.42249
  22504654.234 6  -1226190.371 6   -938874.18048  22504651.10948
  23524871.695 5  -1591183.395 5  -1192961.24247  23524869.49647
  21550095.625 6  -1009199.664 6   -765591.26249  21550096.62549
 20  5 16  5 18 17.0000000  0  9G01G03G07G08G11G17G22G28G30         -0.000220631
  20084845.664 7   -504401.605 7   -385352.33249  20084847.46149
  23176169.227 5  -1677790.531 5  -1269913.12548  23176172.59848
  20895305.539 6   -323555.699 6   -246890.09849  20895304.07849
  23077032.641 3    -77165.547 3    -56418.88746  23077034.01646
  21166746.820 6    -27661.008 6    -21235.09448  21166744.67648
  23938837.734 6  -1216146.496 6   -910745.48049  23938836.58649
  22503991.875 6  -1229669.941 6   -941585.53148  22503989.26248
  23523996.375 5  -1595780.809 5  -1196543.64847  23523994.85947
  21549564.984 6  -1011988.121 6   -767764.08649  21549566.15249
 20  5 16  5 18 18.0000000  0  9G01G03G07G08G11G17G22G28G30         -0.000221937
  20084593.063 7   -505728.254 7   -386386.08649  20084594.94149
  23175262.836 5  -1682554.023 5  -1273624.94148  23175266.35948
  20895151.469 6   -324364.730 6   -247520.51649  20895149.97749
  23076994.336 3    -77366.816 3    -56575.73446  23076996.04746
  21166744.781 6    -27670.289 6    -21242.32048  21166742.52748
  23938177.609 6  -1219616.930 6   -913449.71549  23938176.61749
  22503330.227 6  -1233148.965 6   -944296.45748  22503327.30548
  23523121.813 5  -1600378.113 5  -1200125.96147  23523119.85547
  21549034.516 6  -1014775.820 6   -769936.32049  21549035.72749
 20  5 16  5 18 19.0000000  0  9G01G03G07G08G11G17G22G28G30         -0.000223246
  20084340.992 7   -507054.137 7   -387419.24249  20084342.52349
  23174356.023 5  -1687317.348 5  -1277336.62548  23174360.15648
  20894997.688 6   -325173.090 6   -248150.41449  20894996.37549
  23076956.164 3    -77568.000 3    -56732.49646  23076957.28946
  21166743.070 6    -27679.223 6    -21249.28948  21166741.32048
  23937516.461 6  -1223087.156 6   -916153.78549  23937516.09449
  22502668.109 6  -1236627.496 6   -947006.99648  22502665.33648
  23522247.117 5  -1604975.375 5  -1203708.24647  23522245.16047
  21548504.016 6  -1017562.797 6   -772107.98849  21548504.96149
 20  5 16  5 18 20.0000000  0  9G01G03G07G08G11G17G22G28G30         -0.000224552
  20084088.672 7   -508379.285 7   -388451.82849  20084090.22349
  23173450.375 5  -1692080.418 5  -1281048.10548  23173453.54348
  20894844.203 6   -325980.758 6   -248779.76649  20894842.44549
  23076918.164 3    -77769.188 3    -56889.25446  23076919.07846
  21166741.859 6    -27687.793 6    -21255.96948  21166739.54748
  23936856.813 6  -1226557.168 6   -918857.69149  23936856.20749
  22502006.500 6  -1240105.520 6   -949717.14848  22502003.36748
  23521371.820 5  -1609572.602 5  -1207290.50447  23521370.57847
  21547973.539 6  -1020349.047 6   -774279.09049  21547975.08249
 20  5 16  5 18 21.0000000  0  9G01G03G07G08G11G17G22G28G30         -0.000225861
  20083836.797 7   -509703.707 7   -389483.84449  20083838.27749
  23172543.836 5  -1696843.328 5  -1284759.45748  23172547.15248
  20894690.273 6   -326787.734 6   -249408.58249  20894689.03149
  23076879.094 3    -77970.273 3    -57045.94146  23076881.53946
  21166740.141 6    -27696.016 6    -21262.37148  21166738.13348
  23936196.234 6  -1230026.992 6   -921561.44549  23936195.43449
  22501344.398 6  -1243583.082 6   -952426.93848  22501341.82048
  23520497.477 5  -1614169.844 5  -1210872.77347  23520495.90247
  21547443.500 6  -1023134.570 6   -776449.62949  21547444.98049
 20  5 16  5 18 22.0000000  0  9G01G03G07G08G11G17G22G28G30         -0.000227167
  20083584.539 7   -511027.348 7   -390515.25449  20083586.44949
  23171637.195 5  -1701606.020 5  -1288470.64148  23171640.79348
  20894536.969 6   -327594.008 6   -250036.84849  20894535.27749
  23076840.617 3    -78171.328 3    -57202.63746  23076842.64546
  21166738.531 6    -27703.863 6    -21268.48848  21166736.58648
  23935536.172 6  -1233496.551 6   -924264.99249  23935534.96549
  22500683.008 6  -1247060.129 6   -955136.32448  22500680.07048
  23519622.766 5  -1618767.012 5  -1214454.98447  23519620.92647
  21546913.828 6  -1025919.379 6   -778619.61349  21546915.41849
 20  5 16  5 18 23.0000000  0  9G01G03G07G08G11G17G22G28G30         -0.000228476
  20083332.961 7   -512350.281 7   -391546.10549  20083334.58249
  23170731.242 5  -1706368.500 5  -1292181.66048  23170734.77748
  20894383.773 6   -328399.566 6   -250664.55949  20894382.44549
  23076802.641 3    -78372.270 3    -57359.20746  23076804.32046
  21166737.070 6    -27711.367 6    -21274.33248  21166735.01648
  23934875.758 6  -1236965.902 6   -926968.38349  23934874.92249
  22500021.180 6  -1250536.660 6   -957845.30948  22500018.47348
  23518748.055 5  -1623364.129 5  -1218037.14847  23518745.97347
  21546383.875 6  -1028703.461 6   -780789.02349  21546385.44949
 20  5 16  5 18 24.0000000  0  9G01G03G07G08G11G17G22G28G30         -0.000229782
  20083081.391 7   -513672.484 7   -392576.39549  20083082.71149
  23169824.305 5  -1711130.820 5  -1295892.55948  23169828.61748
  20894230.445 6   -329204.477 6   -251291.75849  20894229.16449
  23076764.883 3    -78573.215 3    -57515.79346  23076766.17246
  21166735.328 6    -27718.535 6    -21279.92248  21166733.29748
  23934215.250 6  -1240435.090 6   -929671.64549  23934214.68849
  22499359.836 6  -1254012.758 6   -960553.95348  22499357.07448
  23517873.016 5  -1627961.281 5  -1221619.34447  23517870.98447
  21545854.484 6  -1031486.855 6   -782957.90649  21545855.46949
 20  5 16  5 18 25.0000000  0  9G01G03G07G08G11G17G22G28G30         -0.000231089
  20082830.078 7   -514993.969 7   -393606.12549  20082831.66049
  23168918.141 5  -1715892.898 5  -1299603.27348  23168922.25848
  20894077.438 6   -330008.688 6   -251918.41449  20894075.90249
  23076726.477 3    -78774.109 3    -57672.34846  23076728.04746
  21166734.539 6    -27725.332 6    -21285.21148  21166732.04348
  23933555.711 6  -1243904.047 6   -932374.73449  23933555.02049
  22498698.320 6  -1257488.336 6   -963262.19948  22498695.87948
  23516997.859 5  -1632558.402 5  -1225201.51647  23516996.00847
  21545324.641 6  -1034269.523 6   -785126.21949  21545326.11749
 20  5 16  5 18 26.0000000  0  9G01G03G07G08G11G17G22G28G30         -0.000232397
  20082578.625 7   -516314.750 7   -394635.30549  20082580.32049
  23168012.180 5  -1720654.879 5  -1303313.90248  23168016.10248
  20893924.445 6   -330812.266 6   -252544.57849  20893923.15249
  23076687.836 3    -78974.984 3    -57828.87946  23076690.03546
  21166733.117 6    -27731.848 6    -21290.28948  21166730.96148
  23932895.117 6  -1247372.832 6   -935077.68049  23932894.82049
  22498037.070 6  -1260963.500 6   -965970.11348  22498034.26248
  23516123.195 5  -1637155.527 5  -1228783.69147  23516121.92247
  21544795.609 6  -1037051.551 6   -787294.03549  21544796.65249
 20  5 16  5 18 27.0000000  0  9G01G03G07G08G11G17G22G28G30         -0.000233704
  20082327.375 7   -517634.785 7   -395663.90249  20082328.98849
  23167106.516 5  -1725416.617 5  -1307024.35248  23167110.28548
  20893772.086 6   -331615.141 6   -253170.19949  20893770.64149
  23076649.398 3    -79175.789 3    -57985.35246  23076651.41446
  21166732.289 6    -27738.004 6    -21295.09848  21166729.94948
  23932235.742 6  -1250841.391 6   -937780.44949  23932234.70749
  22497375.695 6  -1264438.145 6   -968677.62148  22497373.02748
  23515248.664 5  -1641752.629 5  -1232365.84847  23515246.86347
  21544266.227 6  -1039832.840 6   -789461.27049  21544267.43449
 20  5 16  5 18 28.0000000  0  9G01G03G07G08G11G17G22G28G30         -0.000235010
  20082076.531 7   -518954.082 7   -396691.92649  20082078.12149
  23166199.828 5  -1730178.203 5  -1310734.68048  23166203.75448
  20893619.070 6   -332417.316 6   -253795.27349  20893617.83649
  23076611.422 3    -79376.551 3    -58141.79746  23076612.99246
  21166731.023 6    -27743.813 6    -21299.62148  21166728.60948
  23931575.039 6  -1254309.738 6   -940483.05949  23931574.49249
  22496714.820 6  -1267912.316 6   -971384.77048  22496711.99648
  23514373.977 6  -1646349.711 6  -1235947.98447  23514371.97347
  21543736.820 6  -1042613.410 6   -791627.94949  21543738.08249
 20  5 16  5 18 29.0000000  0  9G01G03G07G08G11G17G22G28G30         -0.000236317
  20081825.492 7   -520272.664 7   -397719.39849  20081827.10949
  23165293.914 5  -1734939.578 5  -1314444.83248  23165298.28548
  20893466.586 6   -333218.816 6   -254419.82049  20893465.24249
  23076573.875 3    -79577.266 3    -58298.19946  23076575.17646
  21166730.000 6    -27749.266 6    -21303.87548  21166727.69948
  23930915.469 6  -1257777.891 6   -943185.51649  23930914.71149
  22496053.906 6  -1271385.996 6   -974091.53948  22496051.22748
  23513499.188 5  -1650946.777 5  -1239530.10547  23513497.75047
  21543208.109 6  -1045393.293 6   -793794.09849  21543208.72349
 20  5 16  5 18 30.0000000  0  9G01G03G07G08G11G17G22G28G30         -0.000237625
  20081574.750 7   -521590.523 7   -398746.29749  20081576.23049
  23164387.477 5  -1739700.777 5  -1318154.85548  23164391.59048
  20893314.242 6   -334019.660 6   -255043.85249  20893312.66049
  23076534.969 3    -79777.969 3    -58454.59846  23076536.57046
  21166728.883 6    -27754.402 6    -21307.87948  21166726.66448
  23930255.289 6  -1261245.844 6   -945887.81349  23930254.68849
  22495392.617 6  -1274859.203 6   -976797.93448  22495390.26648
  23512624.180 5  -1655543.809 5  -1243112.20747  23512622.65647
  21542679.227 6  -1048172.461 6   -795959.67649  21542680.18449
 20  5 16  5 18 31.0000000  0  9G01G03G07G08G11G17G22G28G30         -0.000238932
  20081324.141 7   -522907.664 7   -399772.64549  20081325.68449
  23163482.609 5  -1744461.797 5  -1321864.73048  23163486.54348
  20893162.000 6   -334819.809 6   -255667.34849  20893160.82849
  23076497.203 3    -79978.637 3    -58610.94546  23076498.68846
  21166728.273 6    -27759.184 6    -21311.60248  21166725.48448
  23929595.438 6  -1264713.598 6   -948589.95749  23929594.83649
  22494732.039 6  -1278331.922 6   -979503.94948  22494729.41048
  23511749.211 5  -1660140.836 5  -1246694.30947  23511748.12547
  21542150.461 6  -1050950.926 6   -798124.72349  21542151.72349
 20  5 16  5 18 32.0000000  0  9G01G03G07G08G11G17G22G28G30         -0.000240238
  20081073.500 7   -524224.059 7   -400798.40649  20081074.88349
  23162575.953 5  -1749222.594 5  -1325574.44148  23162580.12548
  20893010.227 6   -335619.289 6   -256290.32449  20893008.44949
  23076458.906 2    -80179.238 2    -58767.25846  23076461.00846
  21166727.336 6    -27763.617 6    -21315.05148  21166724.83648
  23928935.680 6  -1268181.145 6   -951291.93849  23928934.84049
  22494070.875 6  -1281804.168 6   -982209.59848  22494068.62548
  23510874.734 5  -1664737.855 5  -1250276.39847  23510873.21547
  21541621.531 6  -1053728.664 6   -800289.19549  21541622.71549
 20  5 16  5 18 33.0000000  0  9G01G03G07G08G11G17G22G28G30         -0.000241545
  20080823.156 7   -525539.770 7   -401823.63749  20080824.60949
  23161670.188 5  -1753983.281 5  -1329284.06348  23161674.23448
  20892857.953 6   -336418.105 6   -256912.77749  20892856.65249
  23076421.266 2    -80379.855 2    -58923.58246  23076422.97346
  21166726.281 6    -27767.770 6    -21318.28548  21166724.23448
  23928275.883 6  -1271648.555 6   -953993.82049  23928275.06349
  22493410.703 6  -1285275.969 6   -984914.89548  22493408.02048
  23510000.070 5  -1669334.871 5  -1253858.48047  23509998.25447
  21541093.203 6  -1056505.773 6   -802453.17249  21541094.25449
 20  5 16  5 18 34.0000000  0  9G01G03G07G08G11G17G22G28G30         -0.000242851
  20080573.133 7   -526854.777 7   -402848.32049  20080574.66849
  23160764.742 5  -1758743.766 5  -1332993.52748  23160768.00848
  20892706.219 6   -337216.250 6   -257534.70749  20892704.70749
  23076382.688 2    -80580.340 2    -59079.80146  23076384.27346
  21166725.430 6    -27771.559 6    -21321.23848  21166723.43448
  23927615.883 6  -1275115.727 6   -956695.50849  23927615.09049
  22492749.570 6  -1288747.281 6   -987619.81348  22492747.43448
  23509125.031 5  -1673931.887 5  -1257440.56647  23509123.71547
  21540565.203 6  -1059282.141 6   -804616.57849  21540566.55549
 20  5 16  5 18 35.0000000  0  9G01G03G07G08G11G17G22G28G30         -0.000244158
  20080323.000 7   -528168.984 7   -403872.37549  20080324.48449
  23159858.938 5  -1763503.984 5  -1336702.78148  23159862.39848
  20892554.547 6   -338013.652 6   -258156.05949  20892552.78949
  23076344.516 3    -80780.820 3    -59236.02346  23076346.35546
  21166724.859 6    -27774.973 6    -21323.90248  21166722.89548
  23926956.031 6  -1278582.664 6   -959397.02349  23926955.29749
  22492089.281 6  -1292218.059 6   -990324.31348  22492086.77748
  23508250.188 5  -1678528.816 5  -1261022.58647  23508248.66847
  21540037.031 6  -1062057.730 6   -806779.37549  21540037.93849
 20  5 16  5 18 36.0000000  0  9G01G03G07G08G11G17G22G28G30         -0.000245464
  20080073.047 7   -529482.484 7   -404895.88349  20080074.39549
  23158952.914 5  -1768264.063 5  -1340411.93048  23158956.51648
  20892402.758 6   -338810.383 6   -258776.89549  20892401.44149
  23076306.586 3    -80981.176 3    -59392.14145  23076307.91445
  21166724.172 6    -27778.035 6    -21326.29348  21166722.30948
  23926296.750 6  -1282049.398 6   -962098.37549  23926295.48049
  22491429.156 6  -1295688.336 6   -993028.42648  22491426.18048
  23507375.344 5  -1683125.738 5  -1264604.59847  23507374.07447
  21539508.555 6  -1064832.652 6   -808941.65649  21539509.79349
 20  5 16  5 18 37.0000000  0  9G01G03G07G08G11G17G22G28G30         -0.000246771
  20079823.008 7   -530795.254 7   -405918.82049  20079824.71149
  23158047.320 5  -1773023.941 5  -1344120.91848  23158050.92648
  20892251.227 6   -339606.457 6   -259397.21149  20892249.95749
  23076268.617 2    -81181.543 2    -59548.28545  23076269.65245
  21166723.586 6    -27780.809 6    -21328.45748  21166721.52048
  23925637.070 6  -1285515.945 6   -964799.57849  23925636.03549
  22490768.969 6  -1299158.199 6   -995732.21148  22490766.04748
  23506500.484 5  -1687722.676 5  -1268186.62547  23506499.15247
  21538980.906 6  -1067606.895 6   -811103.39849  21538982.13749
 20  5 16  5 18 38.0000000  0  9G01G03G07G08G11G17G22G28G30         -0.000248077
  20079573.523 7   -532107.250 7   -406941.15649  20079574.91849
  23157141.836 5  -1777783.586 5  -1347829.73048  23157145.03548
  20892099.773 6   -340401.785 6   -260016.95349  20892098.75849
  23076229.945 2    -81381.777 2    -59704.31345  23076232.00845
  21166723.039 6    -27783.137 6    -21330.27048  21166721.18848
  23924977.461 6  -1288982.246 6   -967500.59449  23924976.39549
  22490108.633 6  -1302627.496 6   -998435.55948  22490105.95348
  23505625.438 5  -1692319.523 5  -1271768.58247  23505624.25047
  21538453.016 6  -1070380.340 6   -813264.53149  21538454.04749
 20  5 16  5 18 39.0000000  0  9G01G03G07G08G11G17G22G28G30         -0.000249384
  20079324.008 7   -533418.516 7   -407962.92249  20079325.41449
  23156235.602 5  -1782543.031 5  -1351538.39148  23156239.87148
  20891948.570 6   -341196.453 6   -260636.17249  20891947.39149
  23076191.875 2    -81582.023 2    -59860.34445  23076193.71945
  21166723.008 6    -27785.152 6    -21331.83648  21166720.81648
  23924317.609 6  -1292448.352 6   -970201.45349  23924316.87549
  22489448.383 6  -1306096.332 6  -1001138.54748  22489445.69148
  23504751.242 5  -1696916.355 5  -1275350.53147  23504749.69947
  21537925.125 6  -1073153.113 6   -815425.13749  21537926.77749
 20  5 16  5 18 40.0000000  0  9G01G03G07G08G11G17G22G28G30         -0.000250690
  20079074.570 7   -534729.086 7   -408984.14549  20079076.05949
  23155330.422 5  -1787302.336 5  -1355246.93448  23155333.75048
  20891797.500 6   -341990.438 6   -261254.86749  20891796.43849
  23076154.023 3    -81782.246 3    -60016.36745  23076155.10945
  21166723.047 6    -27786.844 6    -21333.15648  21166720.39148
  23923658.094 6  -1295914.246 6   -972902.15249  23923657.27749
  22488788.289 6  -1309564.688 6  -1003841.16048  22488785.50048
  23503876.180 5  -1701513.188 5  -1278932.47747  23503874.92247
  21537397.742 6  -1075925.172 6   -817585.18449  21537399.07849
 20  5 16  5 18 41.0000000  0  9G01G03G07G08G11G17G22G28G30         -0.000251997
  20078825.445 7   -536038.895 7   -410004.77049  20078827.20349
  23154424.742 5  -1792061.406 5  -1358955.28548  23154428.28148
  20891646.375 6   -342783.719 6   -261873.00849  20891645.22749
  23076116.211 2    -81982.363 2    -60172.30145  23076117.37545
  21166722.711 6    -27788.164 6    -21334.18048  21166720.20348
  23922998.633 6  -1299379.961 6   -975602.70349  23922997.53549
  22488128.578 6  -1313032.527 6  -1006543.37148  22488125.50048
  23503000.969 5  -1706109.992 5  -1282514.39547  23503000.05947
  21536870.469 6  -1078696.520 6   -819744.66849  21536871.91449
 20  5 16  5 18 42.0000000  0  9G01G03G07G08G11G17G22G28G30         -0.000253304
  20078576.273 7   -537348.063 7   -411024.90249  20078577.73849
  23153518.961 5  -1796820.359 5  -1362663.56348  23153522.45748
  20891495.867 6   -343576.418 6   -262490.69149  20891494.34449
  23076078.023 2    -82182.531 2    -60328.26645  23076079.44545
  21166722.188 6    -27789.238 6    -21335.02348  21166719.64548
  23922339.430 6  -1302845.508 6   -978303.12949  23922338.68049
  22487468.883 6  -1316499.969 6  -1009245.27348  22487466.16448
  23502127.086 5  -1710706.816 5  -1286096.34447  23502125.39547
  21536343.086 6  -1081467.223 6   -821903.65649  21536344.35249
 20  5 16  5 18 43.0000000  0  9G01G03G07G08G11G17G22G28G30         -0.000254610
  20078327.234 7   -538656.477 7   -412044.44949  20078329.13349
  23152613.477 5  -1801579.102 5  -1366371.66848  23152617.02348
  20891344.898 6   -344368.426 6   -263107.84049  20891343.50849
  23076040.414 2    -82382.625 2    -60484.16446  23076041.17246
  21166722.102 6    -27789.949 6    -21335.57848  21166719.68448
  23921679.906 6  -1306310.863 6   -981003.40649  23921678.80549
  22486809.297 6  -1319966.914 6  -1011946.79348  22486805.75848
  23501251.672 5  -1715303.641 5  -1289678.28547  23501250.44147
  21535816.320 6  -1084237.203 6   -824062.08649  21535817.14149
 20  5 16  5 18 44.0000000  0  9G01G03G07G08G11G17G22G28G30         -0.000255915
  20078078.844 7   -539964.160 7   -413063.43049  20078080.13749
  23151708.281 5  -1806337.660 5  -1370079.64148  23151711.56648
  20891194.258 6   -345159.723 6   -263724.43849  20891193.14549
  23076001.469 3    -82582.609 3    -60640.00846  23076003.05546
  21166721.930 6    -27790.305 6    -21335.85548  21166719.37948
  23921020.984 6  -1309776.012 6   -983703.51649  23921019.49249
  22486149.688 6  -1323433.348 6  -1014647.90248  22486146.63748
  23500376.805 5  -1719900.383 5  -1293260.16447  23500375.57447
  21535289.422 6  -1087006.473 6   -826219.95749  21535290.28949
 20  5 16  5 18 45.0000000  0  9G01G03G07G08G11G17G22G28G30         -0.000257221
  20077829.859 7   -541271.109 7   -414081.83249  20077831.19549
  23150802.203 5  -1811096.012 5  -1373787.44148  23150806.05148
  20891043.891 6   -345950.328 6   -264340.50049  20891042.64149
  23075963.586 3    -82782.633 3    -60795.86746  23075965.45346
  21166721.625 6    -27790.313 6    -21335.86348  21166719.52048
  23920361.125 6  -1313240.902 6   -986403.43049  23920359.81349
  22485489.656 6  -1326899.293 6  -1017348.64148  22485487.13348
  23499502.883 5  -1724497.145 5  -1296842.06347  23499501.11347
  21534762.578 6  -1089775.023 6   -828377.26649  21534763.38349
 20  5 16  5 18 46.0000000  0  9G01G03G07G08G11G17G22G28G30         -0.000258528
  20077581.383 7   -542577.309 7   -415099.64849  20077582.88349
  23149896.711 5  -1815854.160 5  -1377495.09848  23149900.39148
  20890893.813 6   -346740.234 6   -264956.00849  20890892.44549
  23075925.234 3    -82982.535 3    -60951.65246  23075927.03146
  21166721.813 6    -27789.926 6    -21335.55948  21166720.26248
  23919701.719 6  -1316705.609 6   -989103.20349  23919700.60549
  22484830.352 6  -1330364.746 6  -1020049.00848  22484827.54748
  23498627.852 5  -1729093.824 5  -1300423.89547  23498626.22747
  21534235.906 6  -1092542.828 6   -830534.00449  21534236.92249
 20  5 16  5 18 47.0000000  0  9G01G03G07G08G11G17G22G28G30         -0.000259834
  20077332.617 7   -543882.785 7   -416116.91049  20077334.52049
  23148991.117 4  -1820612.090 4  -1381202.57848  23148994.75048
  20890743.477 6   -347529.469 6   -265570.99649  20890742.05149
  23075887.508 3    -83182.414 3    -61107.40646  23075889.17646
  21166722.109 6    -27789.254 6    -21335.03548  21166719.93848
  23919042.672 6  -1320170.094 6   -991802.79749  23919041.29349
  22484170.961 6  -1333829.711 6  -1022748.98048  22484168.02748
  23497752.758 5  -1733690.496 5  -1304005.71547  23497751.69147
  21533709.430 6  -1095309.949 6   -832690.19949  21533710.05549
 20  5 16  5 18 48.0000000  0  9G01G03G07G08G11G17G22G28G30         -0.000261139
  20077084.539 7   -545187.598 7   -417133.64549  20077085.84849
  23148086.414 5  -1825369.953 5  -1384910.00448  23148090.10548
  20890593.484 6   -348318.078 6   -266185.50049  20890592.17649
  23075849.617 3    -83382.332 3    -61263.20346  23075850.90646
  21166722.016 6    -27788.262 6    -21334.26648  21166720.52348
  23918382.938 6  -1323634.453 6   -994502.30149  23918381.82449
  22483511.734 6  -1337294.242 6  -1025448.61348  22483508.60248
  23496878.617 5  -1738287.184 5  -1307587.55947  23496877.22347
  21533182.641 6  -1098076.406 6   -834845.88749  21533184.03949
 20  5 16  5 18 49.0000000  0  9G01G03G07G08G11G17G22G28G30         -0.000262445
  20076836.211 7   -546491.762 7   -418149.87549  20076837.60549
  23147180.117 4  -1830127.641 4  -1388617.29348  23147184.25048
  20890443.461 6   -349106.094 6   -266799.53949  20890442.32449
  23075811.313 3    -83582.238 3    -61418.96946  23075812.76246
  21166722.680 6    -27787.008 6    -21333.28548  21166720.09848
  23917724.172 6  -1327098.680 6   -997201.69949  23917722.73849
  22482852.820 6  -1340758.371 6  -1028147.92248  22482849.69548
  23496003.742 5  -1742883.938 5  -1311169.44547  23496002.27347
  21532656.625 6  -1100842.234 6   -837001.07849  21532657.42249
 20  5 16  5 18 50.0000000  0  9G01G03G07G08G11G17G22G28G30         -0.000263752
  20076588.188 7   -547795.152 7   -419165.50049  20076590.11749
  23146275.063 5  -1834885.066 5  -1392324.36748  23146279.02348
  20890293.398 6   -349893.359 6   -267413.00049  20890292.21549
  23075773.445 3    -83782.035 3    -61574.64846  23075775.00446
  21166722.609 6    -27785.391 6    -21332.02748  21166720.64148
  23917065.102 6  -1330562.664 6   -999900.90249  23917063.84049
  22482193.797 6  -1344221.965 6  -1030846.83248  22482190.75448
  23495129.539 5  -1747480.668 5  -1314751.31647  23495127.68447
  21532130.328 6  -1103607.328 6   -839155.69549  21532131.28949
 20  5 16  5 18 51.0000000  0  9G01G03G07G08G11G17G22G28G30         -0.000265057
  20076340.555 7   -549097.773 7   -420180.53149  20076341.93449
  23145370.578 5  -1839642.371 5  -1396031.35248  23145373.64548
  20890143.758 6   -350679.914 6   -268025.89549  20890142.38749
  23075735.281 3    -83981.750 3    -61730.27346  23075736.71946
  21166722.859 6    -27783.359 6    -21330.44948  21166720.97748
  23916405.148 6  -1334026.391 6  -1002599.90249  23916404.23849
  22481534.195 6  -1347685.031 6  -1033545.32848  22481531.42248
  23494254.844 6  -1752077.328 6  -1318333.12147  23494253.15647
  21531604.563 6  -1106371.656 6   -841309.71949  21531605.51649
 20  5 16  5 18 52.0000000  0  9G01G03G07G08G11G17G22G28G30         -0.000266363
  20076092.594 7   -550399.703 7   -421195.02349  20076094.42249
  23144465.516 5  -1844399.445 5  -1399738.15548  23144468.37548
  20889994.516 6   -351465.832 6   -268638.30549  20889993.09849
  23075697.578 2    -84181.531 2    -61885.93846  23075698.68846
  21166723.773 6    -27781.055 6    -21328.64848  21166721.44548
  23915746.430 6  -1337489.973 6  -1005298.80149  23915745.63749
  22480875.672 6  -1351147.652 6  -1036243.47348  22480872.85948
  23493380.359 5  -1756673.961 5  -1321914.89847  23493378.34047
  21531078.484 6  -1109135.309 6   -843463.21149  21531079.59449
 20  5 16  5 18 53.0000000  0  9G01G03G07G08G11G17G22G28G30         -0.000267670
  20075845.023 7   -551700.918 7   -422208.95349  20075846.66849
  23143560.039 5  -1849156.320 5  -1403444.80948  23143563.29748
  20889844.719 6   -352251.082 6   -269250.18449  20889843.49249
  23075659.266 2    -84381.207 2    -62041.52346  23075660.58246
  21166724.266 6    -27778.387 6    -21326.58248  21166721.80148
  23915087.531 6  -1340953.348 6  -1007997.53549  23915085.99249
  22480216.828 6  -1354609.797 6  -1038941.23848  22480213.96548
  23492505.227 5  -1761270.645 5  -1325496.73047  23492503.55947
  21530552.008 6  -1111898.285 6   -845616.17649  21530553.78149
 20  5 16  5 18 54.0000000  0  9G01G03G07G08G11G17G22G28G30         -0.000268974
  20075597.664 7   -553001.461 7   -423222.36749  20075599.30549
  23142655.023 5  -1853913.078 5  -1407151.37548  23142658.04748
  20889695.320 6   -353035.688 6   -269861.56649  20889694.15649
  23075621.430 3    -84580.879 3    -62197.11346  23075622.17246
  21166724.898 6    -27775.426 6    -21324.27348  21166722.41048
  23914428.750 6  -1344416.578 6  -1010696.16049  23914427.33649
  22479557.719 6  -1358071.504 6  -1041638.66048  22479554.82848
  23491630.688 5  -1765867.301 5  -1329078.54747  23491628.90247
  21530026.766 6  -1114660.578 6   -847768.61349  21530028.33249
 20  5 16  5 18 55.0000000  0  9G01G03G07G08G11G17G22G28G30         -0.000270281
  20075350.148 7   -554301.230 7   -424235.17649  20075351.92649
  23141749.516 5  -1858669.598 5  -1410857.75848  23141752.98048
  20889546.242 6   -353819.574 6   -270472.39149  20889544.81349
  23075583.195 3    -84780.527 3    -62352.68846  23075584.09846
  21166725.281 6    -27772.113 6    -21321.68848  21166723.52048
  23913769.227 6  -1347879.535 6  -1013394.56649  23913768.50049
  22478899.367 6  -1361532.699 6  -1044335.70748  22478896.50848
  23490755.820 5  -1770463.945 5  -1332660.34847  23490754.26647
  21529501.492 6  -1117422.125 6   -849920.47349  21529502.65649
 20  5 16  5 18 56.0000000  0  9G01G03G07G08G11G17G22G28G30         -0.000271585
  20075102.727 7   -555600.270 7   -425247.41049  20075104.66449
  23140844.648 5  -1863425.934 5  -1414563.99248  23140847.19948
  20889397.469 6   -354602.789 6   -271082.69149  20889396.32849
  23075545.656 3    -84980.086 3    -62508.18445  23075546.53545
  21166726.266 6    -27768.441 6    -21318.82848  21166723.97748
  23913110.500 6  -1351342.273 6  -1016092.80549  23913109.34449
  22478240.703 6  -1364993.387 6  -1047032.34448  22478237.73848
  23489880.945 5  -1775060.520 5  -1336242.09847  23489879.43847
  21528976.086 6  -1120182.957 6   -852071.77349  21528977.21149
 20  5 16  5 18 57.0000000  0  9G01G03G07G08G11G17G22G28G30         -0.000272892
  20074855.516 7   -556898.602 7   -426259.09849  20074857.54749
  23139939.500 5  -1868182.082 5  -1418270.07448  23139942.57048
  20889248.438 6   -355385.340 6   -271692.47349  20889246.94549
  23075507.219 3    -85179.629 3    -62663.67645  23075508.37945
  21166727.117 6    -27764.449 6    -21315.72348  21166724.91848
  23912451.008 6  -1354804.871 6  -1018790.93449  23912450.31649
  22477582.641 6  -1368453.645 6  -1049728.64848  22477579.83648
  23489006.625 5  -1779657.137 5  -1339823.87947  23489004.15647
  21528450.891 6  -1122943.109 6   -854222.54349  21528452.23849
 20  5 16  5 18 58.0000000  0  9G01G03G07G08G11G17G22G28G30         -0.000274197
  20074608.969 7   -558196.219 7   -427270.22349  20074610.82449
  23139034.500 5  -1872938.043 5  -1421976.02048  23139037.21948
  20889099.852 6   -356167.215 6   -272301.72349  20889098.29749
  23075470.016 3    -85379.117 3    -62819.13745  23075470.79345
  21166728.070 6    -27760.109 6    -21312.33648  21166725.48448
  23911792.625 6  -1358267.227 6  -1021488.87149  23911791.52349
  22476924.039 6  -1371913.383 6  -1052424.54348  22476921.59848
  23488132.023 5  -1784253.715 5  -1343405.62547  23488129.87947
  21527925.742 6  -1125702.547 6   -856372.75449  21527926.60949
 20  5 16  5 18 59.0000000  0  9G01G03G07G08G11G17G22G28G30         -0.000275503
  20074361.977 7   -559493.125 7   -428280.80549  20074363.96149
  23138129.680 5  -1877693.832 5  -1425681.82048  23138132.48848
  20888951.094 6   -356948.422 6   -272910.45749  20888949.75049
  23075432.188 3    -85578.594 3    -62974.57845  23075433.12145
  21166729.156 6    -27755.469 6    -21308.72348  21166726.48448
  23911133.500 6  -1361729.418 6  -1024186.68049  23911132.44549
  22476266.086 6  -1375372.672 6  -1055120.09848  22476262.98848
  23487257.461 6  -1788850.262 6  -1346987.35247  23487255.60547
  21527400.531 6  -1128461.309 6   -858522.43449  21527401.77349
 20  5 16  5 19  0.0000000  0  9G01G03G07G08G11G17G22G28G30         -0.000276808
  20074115.320 7   -560789.313 7   -429290.81349  20074117.32849
  23137224.156 5  -1882449.480 5  -1429387.52348  23137227.37148
  20888802.453 6   -357728.957 6   -273518.66849  20888801.04749
  23075393.094 3    -85777.996 3    -63129.94546  23075394.84046
  21166729.406 6    -27750.496 6    -21304.84448  21166727.47748
  23910474.203 6  -1365191.445 6  -1026884.35949  23910474.03149
  22475607.344 6  -1378831.469 6  -1057815.25848  22475604.99648
  23486382.891 6  -1793446.809 6  -1350569.07047  23486380.50447
  21526876.000 6  -1131219.375 6   -860671.57849  21526877.25849
 20  5 16  5 19  1.0000000  0  9G01G03G07G08G11G17G22G28G30         -0.000278112
  20073868.914 7   -562084.797 7   -430300.28549  20073870.94549
  23136319.961 5  -1887204.879 5  -1433093.02348  23136322.38748
  20888654.141 6   -358508.813 6   -274126.35249  20888653.06649
  23075355.914 3    -85977.371 3    -63285.30946  23075356.80546
  21166730.492 6    -27745.184 6    -21300.71148  21166728.35548
  23909815.906 6  -1368653.238 6  -1029581.86749  23909814.91849
  22474949.336 6  -1382289.820 6  -1060510.07448  22474946.94148
  23485507.859 6  -1798043.348 6  -1354150.78547  23485505.72347
  21526350.930 6  -1133976.734 6   -862820.17249  21526352.41849
 20  5 16  5 19  2.0000000  0  9G01G03G07G08G11G17G22G28G30         -0.000279419
  20073622.672 7   -563379.543 7   -431309.18449  20073624.39549
  23135414.750 5  -1891960.141 5  -1436798.42248  23135417.80548
  20888505.727 6   -359288.004 6   -274733.51649  20888504.46149
  23075318.188 3    -86176.738 3    -63440.64846  23075318.55946
  21166731.555 6    -27739.547 6    -21296.31648  21166730.02748
  23909157.688 6  -1372114.844 6  -1032279.21549  23909156.68849
  22474291.414 6  -1385747.676 6  -1063204.51248  22474288.78148
  23484633.000 6  -1802639.863 6  -1357732.48047  23484631.27347
  21525826.617 6  -1136733.387 6   -864968.21549  21525828.13349
 20  5 16  5 19  3.0000000  0  9G01G03G07G08G11G17G22G28G30         -0.000280724
  20073376.539 7   -564673.566 7   -432317.51649  20073378.00049
  23134510.453 5  -1896715.172 5  -1440503.64848  23134512.49248
  20888357.961 6   -360066.539 6   -275340.16849  20888356.46949
  23075279.617 3    -86376.027 3    -63595.92645  23075280.78545
  21166732.398 6    -27733.543 6    -21291.64148  21166730.78148
  23908499.039 6  -1375576.254 6  -1034976.42249  23908497.76649
  22473633.344 6  -1389205.031 6  -1065898.55548  22473630.47348
  23483758.586 6  -1807236.391 6  -1361314.18847  23483756.48447
  21525302.156 6  -1139489.332 6   -867115.69949  21525303.30549
 20  5 16  5 19  4.0000000  0  9G01G03G07G08G11G17G22G28G30         -0.000282028
  20073130.148 7   -565966.840 7   -433325.25849  20073132.09849
  23133605.430 5  -1901469.984 5  -1444208.69148  23133607.91048
  20888209.938 6   -360844.320 6   -275946.23049  20888208.15649
  23075242.211 3    -86575.258 3    -63751.18845  23075242.99245
  21166734.430 6    -27727.191 6    -21286.69548  21166732.24248
  23907840.008 6  -1379037.418 6  -1037673.43049  23907839.26649
  22472975.898 6  -1392661.883 6  -1068592.19948  22472973.00048
  23482883.305 6  -1811832.840 6  -1364895.84047  23482882.15647
  21524777.977 6  -1142244.551 6   -869262.63349  21524778.92249
 20  5 16  5 19  5.0000000  0  9G01G03G07G08G11G17G22G28G30         -0.000283335
  20072884.328 7   -567259.410 7   -434332.46149  20072886.14849
  23132699.969 5  -1906224.637 5  -1447913.61748  23132703.39148
  20888061.539 6   -361621.473 6   -276551.80549  20888060.13749
  23075204.563 3    -86774.457 3    -63906.42645  23075204.90645
  21166735.398 6    -27720.488 6    -21281.47748  21166733.17248
  23907181.734 6  -1382498.391 6  -1040370.29349  23907180.28549
  22472318.242 6  -1396118.258 6  -1071285.47748  22472315.53948
  23482008.789 6  -1816429.285 6  -1368477.48447  23482007.14847
  21524253.664 6  -1144999.043 6   -871408.99249  21524254.89849
 20  5 16  5 19  6.0000000  0  9G01G03G07G08G11G17G22G28G30         -0.000284639
  20072638.055 7   -568551.215 7   -435339.06349  20072640.08249
  23131795.992 5  -1910979.082 5  -1451618.37948  23131798.50448
  20887914.023 6   -362397.906 6   -277156.81649  20887912.52349
  23075166.383 3    -86973.551 3    -64061.57046  23075167.18046
  21166736.461 6    -27713.434 6    -21275.97748  21166734.54748
  23906523.047 6  -1385959.160 6  -1043066.99649  23906522.26649
  22471660.070 6  -1399574.109 6  -1073978.34448  22471657.65248
  23481134.055 6  -1821025.723 6  -1372059.12947  23481132.43447
  21523729.836 6  -1147752.848 6   -873554.81349  21523731.38749
 20  5 16  5 19  7.0000000  0  9G01G03G07G08G11G17G22G28G30         -0.000285944
  20072392.578 7   -569842.230 7   -436345.04749  20072394.62949
  23130890.594 5  -1915733.234 5  -1455322.91048  23130893.98848
  20887766.555 6   -363173.590 6   -277761.24649  20887765.42249
  23075128.734 3    -87172.563 3    -64216.63746  23075129.03546
  21166738.359 6    -27705.965 6    -21270.15648  21166735.77348
  23905864.469 6  -1389419.660 6  -1045763.48849  23905863.14149
  22471002.430 6  -1403029.426 6  -1076670.80148  22470999.90248
  23480259.727 5  -1825622.039 5  -1375640.66847  23480257.68847
  21523205.789 6  -1150505.832 6   -875699.99649  21523207.03949
 20  5 16  5 19  8.0000000  0  9G01G03G07G08G11G17G22G28G30         -0.000287249
  20072147.578 7   -571132.598 7   -437350.52749  20072149.03149
  23129987.063 5  -1920487.266 5  -1459027.34848  23129988.66048
  20887618.898 6   -363948.684 6   -278365.21549  20887617.50449
  23075090.422 3    -87371.609 3    -64371.73046  23075091.12546
  21166739.781 6    -27698.262 6    -21264.15648  21166737.71548
  23905206.281 6  -1392880.035 6  -1048459.88349  23905204.68449
  22470345.602 6  -1406484.359 6  -1079362.95348  22470342.64548
  23479384.539 5  -1830218.445 5  -1379222.28547  23479383.07847
  21522681.805 6  -1153258.215 6   -877844.70749  21522683.19949
 20  5 16  5 19  9.0000000  0  9G01G03G07G08G11G17G22G28G30         -0.000288553
  20071902.148 7   -572422.246 7   -438355.44549  20071903.22749
  23129081.539 5  -1925241.145 5  -1462731.67248  23129084.52048
  20887471.727 6   -364723.090 6   -278968.65649  20887470.23449
  23075052.594 3    -87570.578 3    -64526.77746  23075052.85946
  21166741.086 6    -27690.176 6    -21257.85248  21166739.00448
  23904547.773 6  -1396340.191 6  -1051156.10549  23904546.59049
  22469688.070 6  -1409938.758 6  -1082054.69548  22469685.25048
  23478509.797 5  -1834814.809 5  -1382803.85547  23478508.48047
  21522158.156 6  -1156009.891 6   -879988.86749  21522159.92649
 20  5 16  5 19 10.0000000  0  9G01G03G07G08G11G17G22G28G30         -0.000289858
  20071656.766 7   -573711.160 7   -439359.80149  20071658.57449
  23128176.703 5  -1929994.809 5  -1466435.82848  23128179.79748
  20887324.680 6   -365496.793 6   -279571.53549  20887322.89149
  23075015.047 3    -87769.477 3    -64681.75846  23075015.56346
  21166742.484 6    -27681.750 6    -21251.28948  21166740.57448
  23903889.508 6  -1399800.172 6  -1053852.19549  23903888.16449
  22469030.703 6  -1413392.672 6  -1084746.05948  22469027.98048
  23477635.641 5  -1839411.137 5  -1386385.40647  23477633.53547
  21521634.594 6  -1158760.828 6   -882132.45749  21521636.37949
 20  5 16  5 19 11.0000000  0  9G01G03G07G08G11G17G22G28G30         -0.000291162
  20071411.781 7   -574999.352 7   -440363.57849  20071413.18449
  23127272.180 5  -1934748.301 5  -1470139.85248  23127275.39848
  20887177.328 6   -366269.859 6   -280173.92649  20887175.85249
  23074976.953 3    -87968.336 3    -64836.69946  23074977.48846
  21166744.266 6    -27673.027 6    -21244.48848  21166742.43048
  23903231.367 6  -1403259.945 6  -1056548.12149  23903229.72349
  22468373.750 6  -1416846.129 6  -1087437.06348  22468371.01648
  23476760.789 5  -1844007.473 5  -1389966.96547  23476759.34447
  21521111.391 6  -1161511.094 6   -884275.52049  21521113.13349
 20  5 16  5 19 12.0000000  0  9G01G03G07G08G11G17G22G28G30         -0.000292469
  20071166.383 7   -576286.789 7   -441366.77749  20071168.30149
  23126367.789 5  -1939501.539 5  -1473843.67248  23126370.63348
  20887030.719 6   -367042.230 6   -280775.77749  20887028.95349
  23074939.297 3    -88167.145 3    -64991.61345  23074939.51645
  21166746.414 6    -27663.941 6    -21237.41048  21166743.97748
  23902572.805 6  -1406719.480 6  -1059243.86349  23902571.42649
  22467716.422 6  -1420299.070 6  -1090127.66448  22467714.00048
  23475885.945 5  -1848603.793 5  -1393548.51247  23475884.59847
  21520587.891 6  -1164260.613 6   -886418.00449  21520589.23449
 20  5 16  5 19 13.0000000  0  9G01G03G07G08G11G17G22G28G30         -0.000293774
  20070921.594 7   -577573.535 7   -442369.44149  20070923.50849
  23125463.609 5  -1944254.637 5  -1477547.37948  23125466.74648
  20886883.375 6   -367813.906 6   -281377.07849  20886882.40249
  23074901.531 3    -88365.934 3    -65146.50845  23074901.50845
  21166748.094 6    -27654.523 6    -21230.08248  21166745.68048
  23901914.391 6  -1410178.867 6  -1061939.48449  23901912.89549
  22467059.156 6  -1423751.531 6  -1092817.89148  22467056.67648
  23475011.398 5  -1853200.078 5  -1397130.04347  23475009.91447
  21520064.930 6  -1167009.441 6   -888559.95349  21520066.30949
 20  5 16  5 19 14.0000000  0  9G01G03G07G08G11G17G22G28G30         -0.000295078
  20070677.133 7   -578859.574 7   -443371.54349  20070678.44149
  23124558.797 5  -1949007.543 5  -1481250.94548  23124561.46548
  20886736.758 6   -368584.930 6   -281977.87949  20886735.56649
  23074864.125 3    -88564.684 3    -65301.41845  23074863.85545
  21166749.820 6    -27644.781 6    -21222.49248  21166747.49248
  23901256.141 6  -1413638.031 6  -1064634.93049  23901255.16449
  22466402.500 6  -1427203.512 6  -1095507.75448  22466399.44148
  23474136.227 5  -1857796.336 5  -1400711.53947  23474135.27747
  21519542.008 6  -1169757.563 6   -890701.34849  21519543.68049
 20  5 16  5 19 15.0000000  0  9G01G03G07G08G11G17G22G28G30         -0.000296383
  20070432.031 7   -580144.895 7   -444373.09849  20070433.87149
  23123654.555 5  -1953760.281 5  -1484954.37148  23123657.00448
  20886590.133 6   -369355.324 6   -282578.19149  20886588.69549
  23074826.148 4    -88763.430 4    -65456.30545  23074826.10545
  21166751.602 6    -27634.719 6    -21214.64848  21166749.47348
  23900597.453 6  -1417097.055 6  -1067330.27349  23900596.28549
  22465746.055 6  -1430655.063 6  -1098197.27048  22465743.14548
  23473261.578 5  -1862392.656 5  -1404293.08247  23473260.53147
  21519019.578 6  -1172505.023 6   -892842.22749  21519020.69949
 20  5 16  5 19 16.0000000  0  9G01G03G07G08G11G17G22G28G30         -0.000297688
  20070187.641 7   -581429.496 7   -445374.08249  20070189.28149
  23122750.750 5  -1958512.785 5  -1488657.61348  23122753.33648
  20886443.695 6   -370124.992 6   -283177.93449  20886442.26649
  23074788.359 4    -88962.070 4    -65611.10245  23074788.08245
  21166753.977 6    -27624.328 6    -21206.55148  21166751.55948
  23899939.766 6  -1420555.832 6  -1070025.42249  23899938.39149
  22465089.234 6  -1434106.082 6  -1100886.37948  22465086.39148
  23472387.305 5  -1866988.887 5  -1407874.56647  23472385.70347
  21518496.734 6  -1175251.777 6   -894982.55949  21518498.19149
 20  5 16  5 19 17.0000000  0  9G01G03G07G08G11G17G22G28G30         -0.000298992
  20069943.477 7   -582713.410 7   -446374.53949  20069945.22749
  23121845.930 5  -1963265.160 5  -1492360.76248  23121848.58248
  20886297.453 6   -370894.016 6   -283777.17249  20886295.94549
  23074750.172 4    -89160.711 4    -65765.86745  23074750.55545
  21166755.453 6    -27613.621 6    -21198.20748  21166753.64548
  23899281.531 6  -1424014.438 6  -1072720.44149  23899280.26249
  22464432.852 6  -1437556.668 6  -1103575.14848  22464429.84448
  23471512.906 5  -1871585.160 5  -1411456.07847  23471510.94147
  21517974.008 6  -1177997.828 6   -897122.33649  21517975.62949
 20  5 16  5 19 18.0000000  0  9G01G03G07G08G11G17G22G28G30         -0.000300295
  20069699.469 7   -583996.602 7   -447374.43049  20069700.78549
  23120941.766 5  -1968017.355 5  -1496063.77048  23120944.30148
  20886150.961 6   -371662.395 6   -284375.91449  20886149.45349
  23074712.352 4    -89359.375 4    -65920.66845  23074712.35545
  21166757.445 6    -27602.590 6    -21189.62148  21166755.78948
  23898623.453 6  -1427472.887 6  -1075415.34049  23898622.20349
  22463776.102 6  -1441006.777 6  -1106263.54348  22463773.06348
  23470638.109 5  -1876181.457 5  -1415037.60947  23470636.43447
  21517451.703 6  -1180743.191 6   -899261.57849  21517453.03549
 20  5 16  5 19 19.0000000  0  9G01G03G07G08G11G17G22G28G30         -0.000301600
  20069455.305 7   -585279.102 7   -448373.77749  20069456.98049
  23120037.641 5  -1972769.422 5  -1499766.67648  23120040.32848
  20886005.266 6   -372430.129 6   -284974.14849  20886003.39149
  23074674.703 4    -89557.965 4    -66075.41845  23074674.43845
  21166759.594 6    -27591.270 6    -21180.79348  21166757.73848
  23897965.039 6  -1430931.164 6  -1078110.10249  23897963.80549
  22463119.836 6  -1444456.434 6  -1108951.58248  22463116.67248
  23469763.516 5  -1880777.715 5  -1418619.11347  23469761.71147
  21516929.195 6  -1183487.891 6   -901400.30949  21516930.75449
 20  5 16  5 19 20.0000000  0  9G01G03G07G08G11G17G22G28G30         -0.000302904
  20069211.266 7   -586560.867 7   -449372.55549  20069212.90249
  23119133.117 5  -1977521.246 5  -1503469.39548  23119135.81648
  20885859.039 6   -373197.176 6   -285571.85249  20885857.73449
  23074636.461 3    -89756.586 3    -66230.18845  23074637.42245
  21166762.070 6    -27579.602 6    -21171.70348  21166760.32848
  23897307.664 6  -1434389.215 6  -1080804.68449  23897306.21949
  22462463.148 6  -1447905.621 6  -1111639.26248  22462460.29348
  23468889.156 5  -1885373.988 5  -1422200.62547  23468887.18847
  21516407.172 6  -1186231.883 6   -903538.48849  21516408.61349
 20  5 16  5 19 21.0000000  0  9G01G03G07G08G11G17G22G28G30         -0.000304209
  20068967.375 7   -587841.973 7   -450370.82449  20068969.11749
  23118229.242 5  -1982272.926 5  -1507172.00448  23118232.09448
  20885713.305 6   -373963.609 6   -286169.07449  20885712.00049
  23074599.250 3    -89955.152 3    -66384.93045  23074598.90245
  21166764.461 6    -27567.633 6    -21162.37148  21166762.22748
  23896649.023 6  -1437847.137 6  -1083499.16449  23896648.10549
  22461806.711 6  -1451354.336 6  -1114326.57048  22461804.11348
  23468014.336 5  -1889970.285 5  -1425782.15247  23468012.40247
  21515885.109 6  -1188975.199 6   -905676.13749  21515886.46149
 20  5 16  5 19 22.0000000  0  9G01G03G07G08G11G17G22G28G30         -0.000305513
  20068723.797 7   -589122.332 7   -451368.50049  20068725.63749
  23117324.781 5  -1987024.418 5  -1510874.46548  23117328.16448
  20885567.039 6   -374729.340 6   -286765.74249  20885565.88349
  23074561.320 4    -90153.715 4    -66539.63345  23074561.32445
  21166766.789 6    -27555.313 6    -21152.77748  21166764.42648
  23895991.719 6  -1441304.840 6  -1086193.47349  23895989.68849
  22461150.797 6  -1454802.547 6  -1117013.48448  22461148.05548
  23467139.945 5  -1894566.520 5  -1429363.63347  23467137.77347
  21515363.391 6  -1191717.813 6   -907813.23449  21515364.79349
 20  5 16  5 19 23.0000000  0  9G01G03G07G08G11G17G22G28G30         -0.000306818
  20068480.422 7   -590401.941 7   -452365.60549  20068482.43849
  23116421.219 5  -1991775.641 5  -1514576.71548  23116423.85948
  20885422.078 6   -375494.344 6   -287361.85249  20885420.38349
  23074523.617 3    -90352.148 3    -66694.24645  23074523.26245
  21166768.992 6    -27542.617 6    -21142.88348  21166766.75448
  23895333.508 6  -1444762.285 6  -1088887.58249  23895332.10249
  22460494.859 6  -1458250.227 6  -1119699.98848  22460492.03548
  23466265.570 5  -1899162.715 5  -1432945.08647  23466263.05547
  21514841.523 6  -1194459.656 6   -909949.73849  21514843.01649
 20  5 16  5 19 24.0000000  0  9G01G03G07G08G11G17G22G28G30         -0.000308121
  20068236.797 7   -591680.805 7   -453362.12149  20068238.86349
  23115516.867 5  -1996526.707 5  -1518278.84048  23115519.77048
  20885276.258 6   -376258.688 6   -287957.44149  20885274.59049
  23074486.305 3    -90550.504 3    -66848.80545  23074485.55945
  21166771.656 6    -27529.574 6    -21132.72348  21166769.80148
  23894675.453 6  -1448219.527 6  -1091581.53549  23894673.60549
  22459838.539 6  -1461697.434 6  -1122386.12948  22459835.96148
  23465390.844 5  -1903758.863 5  -1436526.49647  23465388.34447
  21514320.023 6  -1197200.785 6   -912085.68849  21514321.19149
 20  5 16  5 19 25.0000000  0  9G01G03G07G08G11G17G22G28G30         -0.000309425
  20067993.961 7   -592958.996 7   -454358.11349  20067995.42249
  23114612.406 5  -2001277.578 5  -1521980.81348  23114615.23448
  20885131.031 6   -377022.379 6   -288552.53149  20885129.95749
  23074449.063 4    -90748.941 4    -67003.43445  23074447.88745
  21166774.398 6    -27516.254 6    -21122.34048  21166772.22748
  23894017.477 6  -1451676.625 6  -1094275.37949  23894016.05549
  22459183.008 6  -1465144.203 6  -1125071.92648  22459179.80148
  23464516.594 5  -1908355.066 5  -1440107.95747  23464513.93047
  21513798.422 6  -1199941.262 6   -914221.12149  21513800.23049
 20  5 16  5 19 26.0000000  0  9G01G03G07G08G11G17G22G28G30         -0.000310730
  20067750.813 7   -594236.531 7   -455353.59449  20067752.40249
  23113708.281 5  -2006028.332 5  -1525682.69948  23113711.45348
  20884985.914 6   -377785.473 6   -289147.14849  20884984.41049
  23074410.219 4    -90947.355 4    -67158.06645  23074410.13345
  21166777.094 6    -27502.652 6    -21111.74648  21166774.71548
  23893359.672 6  -1455133.602 6  -1096969.12549  23893357.89849
  22458527.211 6  -1468590.563 6  -1127757.40248  22458524.48448
  23463641.633 5  -1912951.285 5  -1443689.43447  23463639.17247
  21513276.883 6  -1202681.098 6   -916356.06649  21513278.83249
 20  5 16  5 19 27.0000000  0  9G01G03G07G08G11G17G22G28G30         -0.000312035
  20067507.750 7   -595513.309 7   -456348.48449  20067509.13349
  23112804.172 5  -2010778.898 5  -1529384.43848  23112807.53948
  20884840.891 6   -378547.848 6   -289741.20749  20884839.34849
  23074372.102 3    -91145.668 3    -67312.59045  23074372.30145
  21166779.305 6    -27488.684 6    -21100.86348  21166777.57048
  23892702.242 6  -1458590.316 6  -1099662.66849  23892700.44149
  22457871.117 6  -1472036.379 6  -1130442.44548  22457868.89548
  23462767.656 5  -1917547.488 5  -1447270.88747  23462764.68847
  21512755.656 6  -1205420.195 6   -918490.42249  21512757.39149
 20  5 16  5 19 28.0000000  0  9G01G03G07G08G11G17G22G28G30         -0.000313337
  20067265.086 7   -596789.391 7   -457342.84049  20067266.82449
  23111900.703 5  -2015529.289 5  -1533086.03948  23111903.86348
  20884695.828 6   -379309.559 6   -290334.75449  20884694.39149
  23074334.422 3    -91343.961 3    -67467.11745  23074334.33245
  21166781.852 6    -27474.410 6    -21089.74248  21166779.96948
  23892044.078 6  -1462046.871 6  -1102356.09049  23892042.55949
  22457215.188 6  -1475481.746 6  -1133127.15248  22457212.62148
  23461892.922 5  -1922143.664 5  -1450852.32847  23461889.77047
  21512234.703 6  -1208158.621 6   -920624.26649  21512236.25449
 20  5 16  5 19 29.0000000  0  9G01G03G07G08G11G17G22G28G30         -0.000314642
  20067022.258 7   -598064.797 7   -458336.66049  20067023.84849
  23110996.438 5  -2020279.512 5  -1536787.50448  23110999.49248
  20884550.898 6   -380070.633 6   -290927.78949  20884549.81649
  23074296.938 3    -91542.305 3    -67621.68045  23074296.82845
  21166784.734 6    -27459.816 6    -21078.37548  21166782.57848
  23891386.664 6  -1465503.266 6  -1105049.37949  23891384.75849
  22456560.375 6  -1478926.648 6  -1135811.49248  22456557.02348
  23461017.930 6  -1926739.883 6  -1454433.80547  23461015.24247
  21511713.813 6  -1210896.355 6   -922757.56349  21511715.13349
 20  5 16  5 19 30.0000000  0  9G01G03G07G08G11G17G22G28G30         -0.000315947
  20066779.875 7   -599339.465 7   -459329.91049  20066781.28949
  23110092.813 5  -2025029.531 5  -1540488.81648  23110095.85948
  20884406.516 6   -380831.039 6   -291520.32049  20884404.84849
  23074259.648 4    -91740.570 4    -67776.15245  23074258.99245
  21166787.984 6    -27444.891 6    -21066.73848  21166785.34448
  23890728.422 6  -1468959.434 6  -1107742.49649  23890726.90649
  22455904.914 6  -1482371.063 6  -1138495.45348  22455901.80148
  23460142.891 6  -1931336.023 6  -1458015.20347  23460140.90247
  21511192.836 6  -1213633.391 6   -924890.31649  21511194.26649
 20  5 16  5 19 31.0000000  0  9G01G03G07G08G11G17G22G28G30         -0.000317249
  20066537.398 7   -600613.441 7   -460322.61349  20066538.98849
  23109189.039 5  -2029779.395 5  -1544190.00848  23109191.97348
  20884261.734 6   -381590.801 6   -292112.34049  20884260.52749
  23074222.133 4    -91938.848 4    -67930.65245  23074220.83245
  21166790.664 6    -27429.656 6    -21054.87148  21166788.27048
  23890071.367 6  -1472415.477 6  -1110435.51649  23890069.41049
  22455249.211 6  -1485815.031 6  -1141179.05948  22455246.59848
  23459269.117 6  -1935932.230 6  -1461596.65647  23459265.99247
  21510671.930 6  -1216369.754 6   -927022.55149  21510673.81649
 20  5 16  5 19 32.0000000  0  9G01G03G07G08G11G17G22G28G30         -0.000318554
  20066295.086 7   -601886.707 7   -461314.77749  20066296.53549
  23108284.781 5  -2034529.070 5  -1547891.04348  23108287.91048
  20884117.336 6   -382349.902 6   -292703.85249  20884116.00049
  23074184.055 3    -92137.059 3    -68085.10245  23074183.63745
  21166793.555 6    -27414.105 6    -21042.75048  21166791.34048
  23889413.508 6  -1475871.313 6  -1113128.37549  23889411.66449
  22454593.969 6  -1489258.516 6  -1143862.29348  22454591.20348
  23458394.383 5  -1940528.398 5  -1465178.08247  23458391.49647
  21510151.914 6  -1219105.410 6   -929154.23049  21510153.24649
 20  5 16  5 19 33.0000000  0  9G01G03G07G08G11G17G22G28G30         -0.000319859
  20066052.797 7   -603159.254 7   -462306.36749  20066054.42249
  23107380.602 5  -2039278.555 5  -1551591.94148  23107384.25848
  20883973.086 6   -383108.301 6   -293294.80949  20883971.66449
  23074146.594 4    -92335.199 4    -68239.50445  23074145.76645
  21166796.633 6    -27398.188 6    -21030.34848  21166794.17248
  23888756.250 6  -1479326.914 6  -1115821.05549  23888754.04749
  22453938.727 6  -1492701.500 6  -1146545.13748  22453936.07048
  23457519.234 5  -1945124.539 5  -1468759.49647  23457516.70747
  21509631.156 6  -1221840.336 6   -931285.34449  21509632.77049
 20  5 16  5 19 34.0000000  0  9G01G03G07G08G11G17G22G28G30         -0.000321161
  20065810.586 7   -604431.074 7   -463297.39849  20065812.09849
  23106477.461 5  -2044027.844 5  -1555292.68048  23106480.32048
  20883829.016 6   -383866.035 6   -293885.25449  20883827.43449
  23074108.781 4    -92533.348 4    -68393.89845  23074108.31345
  21166799.977 6    -27381.969 6    -21017.71148  21166797.27348
  23888098.234 6  -1482782.328 6  -1118513.58649  23888096.73049
  22453283.422 6  -1496144.043 6  -1149227.63348  22453281.11348
  23456644.891 5  -1949720.688 5  -1472340.90647  23456642.00047
  21509110.961 6  -1224574.613 6   -933415.94549  21509112.37149
 20  5 16  5 19 35.0000000  0  9G01G03G07G08G11G17G22G28G30         -0.000322466
  20065569.203 7   -605702.234 7   -464287.91049  20065570.60949
  23105573.758 5  -2048776.980 5  -1558993.30148  23105576.54748
  20883684.781 6   -384623.172 6   -294475.23849  20883683.37549
  23074071.172 4    -92731.473 4    -68548.28945  23074070.37945
  21166803.219 6    -27365.449 6    -21004.84848  21166800.74248
  23887440.867 6  -1486237.613 6  -1121206.01649  23887439.06349
  22452628.617 6  -1499586.094 6  -1151909.75048  22452625.87948
  23455770.719 5  -1954316.844 5  -1475922.31647  23455767.12947
  21508591.055 6  -1227308.199 6   -935546.02049  21508592.10249
 20  5 16  5 19 36.0000000  0  9G01G03G07G08G11G17G22G28G30         -0.000323769
  20065327.219 7   -606972.652 7   -465277.84449  20065328.42249
  23104670.250 5  -2053525.910 5  -1562693.76248  23104673.09048
  20883540.984 6   -385379.586 6   -295064.65649  20883539.83249
  23074033.969 4    -92929.551 4    -68702.64845  23074032.87545
  21166806.258 6    -27348.566 6    -20991.69148  21166803.84048
  23886783.648 6  -1489692.672 6  -1123898.26649  23886781.64549
  22451973.711 6  -1503027.664 6  -1154591.49648  22451971.29748
  23454895.211 5  -1958912.945 5  -1479503.69547  23454892.84447
  21508070.820 6  -1230041.063 6   -937675.52349  21508072.12549
 20  5 16  5 19 37.0000000  0  9G01G03G07G08G11G17G22G28G30         -0.000325073
  20065085.563 7   -608242.293 7   -466267.18049  20065087.09449
  23103766.555 5  -2058274.586 5  -1566394.02348  23103769.23848
  20883396.953 6   -386135.293 6   -295653.51649  20883395.78949
  23073995.539 4    -93127.500 4    -68856.90245  23073994.71545
  21166809.539 6    -27331.336 6    -20978.25848  21166806.86748
  23886126.195 6  -1493147.520 6  -1126590.35949  23886124.12549
  22451318.828 6  -1506468.695 6  -1157272.82048  22451316.32848
  23454020.609 5  -1963509.031 5  -1483085.05947  23454018.05547
  21507550.750 6  -1232773.184 6   -939804.44949  21507551.98049
 20  5 16  5 19 38.0000000  0  9G01G03G07G08G11G17G22G28G30         -0.000326376
  20064844.117 7   -609511.328 7   -467256.03549  20064845.80949
  23102862.039 5  -2063023.211 5  -1570094.24648  23102865.97748
  20883253.531 6   -386890.430 6   -296241.93449  20883252.29349
  23073958.281 4    -93325.551 4    -69011.22345  23073957.66045
  21166812.586 6    -27313.844 6    -20964.62948  21166810.55548
  23885468.672 6  -1496602.227 6  -1129282.34049  23885466.37949
  22450664.523 6  -1509909.363 6  -1159953.86348  22450661.70748
  23453145.875 5  -1968105.168 5  -1486666.46947  23453143.38747
  21507030.859 6  -1235504.695 6   -941932.89549  21507032.42649
 20  5 16  5 19 39.0000000  0  9G01G03G07G08G11G17G22G28G30         -0.000327679
  20064602.578 7   -610779.680 7   -468244.36349  20064604.36749
  23101959.031 5  -2067771.684 5  -1573794.35248  23101962.12148
  20883109.766 6   -387644.930 6   -296829.85249  20883108.25049
  23073920.781 4    -93523.559 4    -69165.53145  23073919.71145
  21166816.016 6    -27296.063 6    -20950.77048  21166813.87948
  23884810.883 6  -1500056.809 6  -1131974.21549  23884809.54749
  22450009.625 6  -1513349.582 6  -1162634.55548  22450007.25448
  23452271.211 6  -1972701.313 6  -1490247.88347  23452268.58647
  21506510.992 6  -1238235.555 6   -944060.83649  21506512.69549
 20  5 16  5 19 40.0000000  0  9G01G03G07G08G11G17G22G28G30         -0.000328983
  20064361.594 7   -612047.359 7   -469232.16849  20064362.96949
  23101055.219 5  -2072519.944 5  -1577494.29948  23101058.62548
  20882966.570 6   -388398.797 6   -297417.28149  20882964.80149
  23073882.711 4    -93721.617 4    -69319.87145  23073882.18045
  21166819.688 6    -27277.996 6    -20936.69948  21166817.23048
  23884153.734 6  -1503511.215 6  -1134665.96149  23884152.34449
  22449355.172 6  -1516789.348 6  -1165314.88748  22449352.05948
  23451396.805 6  -1977297.504 6  -1493829.33647  23451394.26647
  21505991.617 6  -1240965.719 6   -946188.24249  21505993.00049
 20  5 16  5 19 41.0000000  0  9G01G03G07G08G11G17G22G28G30         -0.000330286
  20064120.086 7   -613314.266 7   -470219.36349  20064121.80149
  23100152.148 5  -2077268.051 5  -1581194.11748  23100155.20348
  20882822.898 6   -389151.977 6   -298004.18049  20882821.58249
  23073844.961 4    -93919.559 4    -69474.09045  23073844.11345
  21166822.852 6    -27259.566 6    -20922.33648  21166820.63348
  23883496.703 6  -1506965.383 6  -1137357.52049  23883495.29349
  22448700.664 6  -1520228.602 6  -1167994.82448  22448697.62548
  23450521.867 5  -1981893.645 5  -1497410.73847  23450519.56347
  21505472.266 6  -1243695.191 6   -948315.10249  21505473.82849
 20  5 16  5 19 42.0000000  0  9G01G03G07G08G11G17G22G28G30         -0.000331591
  20063879.281 7   -614580.504 7   -471206.04349  20063880.92649
  23099248.133 5  -2082015.988 5  -1584893.80548  23099251.81648
  20882679.609 6   -389904.488 6   -298590.55149  20882678.39849
  23073807.781 4    -94117.477 4    -69628.28946  23073806.76646
  21166826.727 6    -27240.844 6    -20907.75048  21166824.52348
  23882839.391 6  -1510419.410 6  -1140048.97349  23882837.98049
  22448046.297 6  -1523667.391 6  -1170674.39848  22448043.63348
  23449647.281 5  -1986489.801 5  -1500992.14547  23449644.95747
  21504953.359 6  -1246423.961 6   -950441.41849  21504954.19149
 20  5 16  5 19 43.0000000  0  9G01G03G07G08G11G17G22G28G30         -0.000332893
  20063638.547 7   -615846.023 7   -472192.16449  20063640.14549
  23098344.984 5  -2086763.688 5  -1588593.30948  23098348.07448
  20882536.641 6   -390656.328 6   -299176.40649  20882535.17649
  23073770.586 4    -94315.379 4    -69782.50846  23073768.95346
  21166830.406 6    -27221.762 6    -20892.87948  21166828.35248
  23882182.078 6  -1513873.223 6  -1142740.25449  23882181.00049
  22447391.898 6  -1527105.699 6  -1173353.60248  22447388.94148
  23448772.688 5  -1991085.945 5  -1504573.55147  23448770.77747
  21504433.789 6  -1249152.039 6   -952567.19149  21504435.50449
 20  5 16  5 19 44.0000000  0  9G01G03G07G08G11G17G22G28G30         -0.000334196
  20063398.016 7   -617110.855 7   -473177.75049  20063399.35549
  23097441.711 5  -2091511.234 5  -1592292.69548  23097444.79348
  20882393.602 6   -391407.543 6   -299761.76249  20882392.48849
  23073732.508 4    -94513.258 4    -69936.69546  23073730.84846
  21166833.922 6    -27202.422 6    -20877.80948  21166831.64848
  23881525.141 6  -1517326.879 6  -1145431.41049  23881523.35549
  22446737.430 6  -1530543.574 6  -1176032.46548  22446734.87548
  23447897.375 5  -1995682.074 5  -1508154.95747  23447895.68847
  21503914.695 6  -1251879.441 6   -954692.44149  21503916.20749
 20  5 16  5 19 45.0000000  0  9G01G03G07G08G11G17G22G28G30         -0.000335501
  20063157.273 7   -618374.980 7   -474162.78549  20063159.21949
  23096537.578 5  -2096258.570 5  -1595991.91448  23096541.07848
  20882250.797 6   -392158.109 6   -300346.62949  20882249.48049
  23073694.914 4    -94711.094 4    -70090.85546  23073693.77346
  21166838.336 6    -27182.730 6    -20862.46948  21166835.48448
  23880867.797 6  -1520780.367 6  -1148122.44149  23880866.09849
  22446083.750 6  -1533980.965 6  -1178710.95748  22446080.98448
  23447022.898 5  -2000278.246 5  -1511736.37547  23447021.10247
  21503396.000 6  -1254606.148 6   -956817.14849  21503397.20749
 20  5 16  5 19 46.0000000  0  9G01G03G07G08G11G17G22G28G30         -0.000336803
  20062917.016 7   -619638.422 7   -475147.28149  20062918.64149
  23095634.852 5  -2101005.833 5  -1599691.07748  23095637.75448
  20882108.219 6   -392908.012 6   -300930.96549  20882106.91849
  23073656.477 4    -94908.914 4    -70245.01246  23073656.34046
  21166841.648 6    -27162.734 6    -20846.89548  21166839.26648
  23880210.625 6  -1524233.676 6  -1150813.33249  23880209.43449
  22445430.016 6  -1537417.895 6  -1181389.08648  22445427.21148
  23446148.305 5  -2004874.398 5  -1515317.78947  23446146.55147
  21502877.375 6  -1257332.180 6   -958941.32849  21502878.59049
 20  5 16  5 19 47.0000000  0  9G01G03G07G08G11G17G22G28G30         -0.000338106
  20062676.625 7   -620901.141 7   -476131.22349  20062678.33249
  23094731.211 5  -2105752.836 5  -1603390.04348  23094734.22348
  20881965.617 6   -393657.266 6   -301514.80149  20881964.51649
  23073618.594 4    -95106.742 4    -70399.17646  23073618.69146
  21166845.391 6    -27142.418 6    -20831.06348  21166842.93848
  23879553.523 6  -1527686.785 6  -1153504.06349  23879552.26249
  22444775.805 6  -1540854.359 6  -1184066.85248  22444772.97748
  23445273.742 5  -2009470.539 5  -1518899.19947  23445272.48847
  21502358.914 6  -1260057.492 6   -961064.94549  21502359.96949
 20  5 16  5 19 48.0000000  0  9G01G03G07G08G11G17G22G28G30         -0.000339411
  20062436.539 7   -622163.199 7   -477114.64849  20062438.39149
  23093827.805 5  -2110499.738 5  -1607088.92648  23093831.03948
  20881823.477 6   -394405.879 6   -302098.13749  20881821.78149
  23073582.156 4    -95304.555 4    -70553.31646  23073580.77346
  21166849.586 6    -27121.836 6    -20815.02348  21166847.21548
  23878896.344 6  -1531139.766 6  -1156194.69549  23878895.28949
  22444122.125 6  -1544290.371 6  -1186744.25448  22444119.16848
  23444399.063 5  -2014066.723 5  -1522480.64547  23444397.36347
  21501840.219 6  -1262782.188 6   -963188.09049  21501841.51649
 20  5 16  5 19 49.0000000  0  9G01G03G07G08G11G17G22G28G30         -0.000340714
  20062196.406 7   -623424.508 7   -478097.48449  20062198.10249
  23092924.641 5  -2115246.406 5  -1610787.62548  23092927.81648
  20881680.875 6   -395153.816 6   -302680.94549  20881679.69149
  23073543.266 4    -95502.336 4    -70707.42646  23073543.37146
  21166853.508 6    -27100.863 6    -20798.68848  21166851.01648
  23878239.180 6  -1534592.523 6  -1158885.14849  23878238.10549
  22443468.359 6  -1547725.871 6  -1189421.27048  22443465.30948
  23443524.734 5  -2018662.852 5  -1526062.05147  23443522.83247
  21501322.430 6  -1265506.141 6   -965310.65249  21501323.23049
 20  5 16  5 19 50.0000000  0  9G01G03G07G08G11G17G22G28G30         -0.000342016
  20061956.883 7   -624685.059 7   -479079.73049  20061958.55549
  23092021.625 5  -2119992.809 5  -1614486.11748  23092024.44148
  20881538.625 6   -395901.023 6   -303263.18849  20881537.52749
  23073507.039 4    -95699.992 4    -70861.43446  23073505.60246
  21166857.461 6    -27079.535 6    -20782.06648  21166855.16448
  23877582.203 6  -1538045.035 6  -1161575.41449  23877580.94149
  22442814.586 6  -1551160.836 6  -1192097.86348  22442811.75448
  23442649.930 5  -2023258.910 5  -1529643.39547  23442648.14547
  21500804.133 6  -1268229.324 6   -967432.60949  21500804.70349
 20  5 16  5 19 51.0000000  0  9G01G03G07G08G11G17G22G28G30         -0.000343319
  20061716.695 7   -625944.902 7   -480061.42649  20061718.74649
  23091118.602 5  -2124739.090 5  -1618184.52048  23091121.25048
  20881396.555 6   -396647.602 6   -303844.94149  20881395.10949
  23073468.852 4    -95897.633 4    -71015.42246  23073468.10946
  21166862.133 6    -27057.926 6    -20765.23048  21166859.59848
  23876925.375 6  -1541497.395 6  -1164265.56349  23876924.41449
  22442161.242 6  -1554595.367 6  -1194774.12548  22442157.98448
  23441775.352 5  -2027855.016 5  -1533224.78147  23441773.98047
  21500285.273 6  -1270951.859 6   -969554.07049  21500286.75049
 20  5 16  5 19 52.0000000  0  9G01G03G07G08G11G17G22G28G30         -0.000344624
  20061477.328 7   -627204.125 7   -481042.64149  20061478.84049
  23090215.422 5  -2129485.238 5  -1621882.81348  23090218.20748
  20881254.938 6   -397393.578 6   -304426.22349  20881253.23049
  23073431.102 4    -96095.344 4    -71169.48846  23073430.32446
  21166866.047 6    -27036.023 6    -20748.16048  21166863.59848
  23876268.531 6  -1544949.617 6  -1166955.60249  23876266.98449
  22441507.094 6  -1558029.477 6  -1197450.05548  22441504.77048
  23440900.695 5  -2032451.148 5  -1536806.19147  23440898.56347
  21499767.609 6  -1273673.770 6   -971675.03549  21499769.27749
 20  5 16  5 19 53.0000000  0  9G01G03G07G08G11G17G22G28G30         -0.000345926
  20061237.836 7   -628462.652 7   -482023.31649  20061239.40649
  23089312.414 5  -2134231.234 5  -1625580.99248  23089314.83648
  20881113.016 6   -398138.914 6   -305007.00449  20881111.35249
  23073393.359 4    -96292.992 4    -71323.51646  23073392.68446
  21166869.867 6    -27013.828 6    -20730.87148  21166867.78148
  23875611.328 6  -1548401.676 6  -1169645.51249  23875610.38349
  22440853.984 6  -1561463.121 6  -1200125.62148  22440851.43448
  23440025.945 5  -2037047.297 5  -1540387.60947  23440024.32447
  21499249.750 6  -1276394.984 6   -973795.46949  21499251.26249
 20  5 16  5 19 54.0000000  0  9G01G03G07G08G11G17G22G28G30         -0.000347229
  20060998.555 7   -629720.461 7   -483003.42649  20061000.15649
  23088409.633 5  -2138976.988 5  -1629278.97748  23088411.54348
  20880971.133 6   -398883.559 6   -305587.24249  20880969.74249
  23073355.656 4    -96490.621 4    -71477.52046  23073355.68446
  21166874.555 6    -26991.293 6    -20713.31348  21166871.91848
  23874954.852 6  -1551853.527 6  -1172335.27049  23874953.15649
  22440200.500 6  -1564896.293 6  -1202800.82048  22440197.82048
  23439152.227 5  -2041643.422 5  -1543968.99647  23439149.54747
  21498731.984 6  -1279115.516 6   -975915.35949  21498733.69149
 20  5 16  5 19 55.0000000  0  9G01G03G07G08G11G17G22G28G30         -0.000348532
  20060759.352 7   -630977.566 7   -483982.98849  20060760.82449
  23087506.500 5  -2143722.586 5  -1632976.84448  23087508.47348
  20880829.344 6   -399627.570 6   -306166.99649  20880828.25449
  23073317.547 3    -96688.219 3    -71631.46546  23073317.59046
  21166878.750 6    -26968.473 6    -20695.52748  21166876.75848
  23874297.781 6  -1555305.211 6  -1175024.88749  23874296.40649
  22439547.531 6  -1568328.973 6  -1205475.63748  22439544.74248
  23438277.242 5  -2046239.578 5  -1547550.41847  23438274.60947
  21498214.086 6  -1281835.316 6   -978034.68449  21498215.96949
 20  5 16  5 19 56.0000000  0  9G01G03G07G08G11G17G22G28G30         -0.000349834
  20060520.016 7   -632233.965 7   -484961.99649  20060521.83249
  23086602.930 5  -2148468.020 5  -1636674.57848  23086605.22748
  20880688.430 6   -400370.930 6   -306746.23449  20880686.97749
  23073281.133 4    -96885.762 4    -71785.39546  23073280.04746
  21166883.172 6    -26945.320 6    -20677.48448  21166881.03148
  23873641.383 6  -1558756.727 6  -1177714.38349  23873639.75849
  22438894.555 6  -1571761.191 6  -1208150.08648  22438891.99248
  23437402.727 5  -2050835.688 5  -1551131.80547  23437400.26247
  21497696.984 6  -1284554.461 6   -980153.50449  21497698.55549
 20  5 16  5 19 57.0000000  0  9G01G03G07G08G11G17G22G28G30         -0.000351137
  20060281.023 7   -633489.645 7   -485940.44149  20060282.81649
  23085700.188 5  -2153213.219 5  -1640372.14148  23085702.49248
  20880546.586 6   -401113.574 6   -307324.92249  20880545.26649
  23073242.508 4    -97083.285 4    -71939.32046  23073242.65646
  21166887.531 6    -26921.816 6    -20659.16848  21166885.49248
  23872984.477 6  -1562207.996 6  -1180403.68049  23872982.88749
  22438241.383 6  -1575192.918 6  -1210824.16448  22438238.27748
  23436528.078 5  -2055431.801 5  -1554713.17646  23436525.57046
  21497179.492 6  -1287272.867 6   -982271.74249  21497181.01649
 20  5 16  5 19 58.0000000  0  9G01G03G07G08G11G17G22G28G30         -0.000352440
  20060042.523 7   -634744.582 7   -486918.32449  20060043.91449
  23084797.586 5  -2157958.223 5  -1644069.54748  23084799.99648
  20880405.477 6   -401855.559 6   -307903.09049  20880404.23449
  23073205.047 4    -97280.715 4    -72093.17646  23073205.03946
  21166892.109 6    -26897.969 6    -20640.58648  21166889.69148
  23872327.703 6  -1565659.082 6  -1183092.83649  23872326.14549
  22437588.148 6  -1578624.137 6  -1213497.84448  22437585.50448
  23435653.516 5  -2060027.875 5  -1558294.53147  23435650.86347
  21496662.477 6  -1289990.574 6   -984389.44149  21496663.95349
 20  5 16  5 19 59.0000000  0  9G01G03G07G08G11G17G22G28G30         -0.000353743
  20059803.672 7   -635998.789 7   -487895.62549  20059805.38749
  23083894.766 5  -2162703.066 5  -1647766.83248  23083896.61348
  20880264.344 6   -402596.863 6   -308480.73449  20880263.17649
  23073168.156 4    -97478.129 4    -72247.01646  23073167.82446
  21166896.602 6    -26873.809 6    -20621.76248  21166894.80548
  23871671.039 6  -1569109.988 6  -1185781.85249  23871669.43849
  22436935.438 6  -1582054.891 6  -1216171.15648  22436933.21148
  23434779.242 5  -2064623.938 5  -1561875.87946  23434776.38346
  21496145.195 6  -1292707.582 6   -986506.58649  21496146.86749
 20  5 16  5 20  0.0000000  0  9G01G03G07G08G11G17G22G28G30         -0.000355045
  20059565.125 7   -637252.289 7   -488872.38349  20059566.91049
  23082991.930 5  -2167447.633 5  -1651463.89848  23082993.66448
  20880123.664 6   -403337.508 6   -309057.85949  20880121.99649
  23073130.273 4    -97675.477 4    -72400.79746  23073130.43446
  21166901.125 6    -26849.277 6    -20602.64548  21166899.17248
  23871014.711 6  -1572560.637 6  -1188470.66449  23871012.63749
  22436282.797 6  -1585485.137 6  -1218844.07848  22436280.10948
  23433904.563 5  -2069219.945 5  -1565457.19546  23433901.71946
  21495628.516 6  -1295423.859 6   -988623.17249  21495629.93849
 20  5 16  5 20  1.0000000  0  9G01G03G07G08G11G17G22G28G30         -0.000356348
  20059326.750 7   -638505.039 7   -489848.55149  20059328.36749
  23082088.313 5  -2172192.070 5  -1655160.85548  23082090.42248
  20879982.836 6   -404077.441 6   -309634.43049  20879981.62549
  23073092.539 4    -97872.805 4    -72554.56346  23073092.48046
  21166905.914 6    -26824.402 6    -20583.27048  21166904.09048
  23870358.109 6  -1576011.109 6  -1191159.34449  23870356.34049
  22435629.797 6  -1588914.887 6  -1221516.60948  22435627.03148
  23433029.664 5  -2073815.926 5  -1569038.46947  23433027.52347
  21495112.148 6  -1298139.426 6   -990739.19549  21495113.23049
 20  5 16  5 20  2.0000000  0  9G01G03G07G08G11G17G22G28G30         -0.000357651
  20059088.586 7   -639757.133 7   -490824.20349  20059089.85249
  23081185.500 5  -2176936.266 5  -1658857.63348  23081188.09048
  20879842.094 6   -404816.734 6   -310210.50449  20879840.65249
  23073055.094 4    -98070.070 4    -72708.25846  23073055.36746
  21166910.875 6    -26799.242 6    -20563.66048  21166909.11348
  23869701.805 6  -1579461.402 6  -1193847.88349  23869699.73849
  22434977.508 6  -1592344.164 6  -1224188.77048  22434974.96948
  23432155.289 5  -2078411.930 5  -1572619.77347  23432152.56347
  21494595.094 6  -1300854.313 6   -992854.69149  21494596.69149
 20  5 16  5 20  3.0000000  0  9G01G03G07G08G11G17G22G28G30         -0.000358953
  20058850.469 7   -641008.504 7   -491799.30149  20058852.19149
  23080283.172 5  -2181680.383 5  -1662554.34448  23080285.65648
  20879701.695 6   -405555.395 6   -310786.08649  20879700.03149
  23073017.523 4    -98267.348 4    -72861.98446  23073017.64846
  21166915.594 6    -26773.773 6    -20543.81348  21166914.00048
  23869044.930 6  -1582911.555 6  -1196536.31349  23869043.16049
  22434325.273 6  -1595772.977 6  -1226860.57048  22434322.08248
  23431280.492 5  -2083007.926 5  -1576201.06647  23431277.82847
  21494079.141 6  -1303568.504 6   -994969.64549  21494080.28549
 20  5 16  5 20  4.0000000  0  9G01G03G07G08G11G17G22G28G30         -0.000360256
  20058612.688 7   -642259.188 7   -492773.85949  20058613.85549
  23079380.398 5  -2186424.273 5  -1666250.87948  23079382.84848
  20879561.438 6   -406293.398 6   -311361.15249  20879560.15649
  23072979.867 4    -98464.563 4    -73015.66446  23072980.05946
  21166920.305 6    -26747.988 6    -20523.72348  21166918.46148
  23868388.867 6  -1586361.492 6  -1199224.57449  23868386.28149
  22433672.508 6  -1599201.336 6  -1229532.02348  22433669.70748
  23430405.766 5  -2087603.953 5  -1579782.38347  23430403.76247
  21493562.195 6  -1306282.031 6   -997084.07849  21493563.52749
 20  5 16  5 20  5.0000000  0  9G01G03G07G08G11G17G22G28G30         -0.000361559
  20058374.781 7   -643509.129 7   -493747.84449  20058376.41849
  23078477.156 5  -2191167.949 5  -1669947.24248  23078480.06348
  20879420.883 6   -407030.703 6   -311935.67649  20879419.44949
  23072942.297 4    -98661.762 4    -73169.32446  23072942.40646
  21166925.484 6    -26721.832 6    -20503.34848  21166923.45748
  23867732.383 6  -1589811.211 6  -1201912.66849  23867730.01649
  22433020.211 6  -1602629.176 6  -1232203.05948  22433017.68048
  23429530.820 5  -2092199.910 5  -1583363.64847  23429528.94947
  21493046.352 6  -1308994.805 6   -999197.93049  21493047.34049
 20  5 16  5 20  6.0000000  0  9G01G03G07G08G11G17G22G28G30         -0.000362862
  20058136.711 7   -644758.352 7   -494721.26249  20058138.25449
  23077574.625 5  -2195911.410 5  -1673643.44148  23077577.27748
  20879280.609 6   -407767.324 6   -312509.66449  20879279.35549
  23072905.297 4    -98858.895 4    -73322.93846  23072905.58246
  21166930.977 6    -26695.383 6    -20482.73848  21166928.80148
  23867075.227 6  -1593260.746 6  -1204600.61349  23867073.37149
  22432368.055 6  -1606056.535 6  -1234873.73048  22432365.56648
  23428656.641 5  -2096795.844 5  -1586944.89146  23428654.24646
  21492530.289 6  -1311706.895 6  -1001311.24649  21492531.48449
 20  5 16  5 20  7.0000000  0  9G01G03G07G08G11G17G22G28G30         -0.000364162
  20057899.508 7   -646006.934 7   -495694.18849  20057901.11749
  23076672.375 5  -2200654.762 5  -1677339.55548  23076674.95748
  20879140.398 6   -408503.391 6   -313083.21949  20879139.05949
  23072867.977 4    -99056.105 4    -73476.61346  23072867.44146
  21166935.391 6    -26668.684 6    -20461.93048  21166933.73048
  23866419.328 6  -1596710.176 6  -1207288.48849  23866416.93049
  22431716.055 6  -1609483.488 6  -1237544.08648  22431713.23048
  23427781.781 5  -2101391.859 5  -1590526.19147  23427780.07847
  21492014.078 6  -1314418.352 6  -1003424.07449  21492015.50449
 20  5 16  5 20  8.0000000  0  9G01G03G07G08G11G17G22G28G30         -0.000365465
  20057661.797 7   -647254.781 7   -496666.53549  20057663.46949
  23075769.734 5  -2205397.910 5  -1681035.51648  23075772.46948
  20879001.008 6   -409238.750 6   -313656.23049  20878999.73049
  23072830.133 4    -99253.223 4    -73630.18846  23072830.14846
  21166940.570 6    -26641.590 6    -20440.82048  21166938.84848
  23865762.859 6  -1600159.363 6  -1209976.16849  23865760.85249
  22431063.648 6  -1612909.910 6  -1240214.02748  22431061.41448
  23426907.203 5  -2105987.801 5  -1594107.45347  23426904.90647
  21491498.352 6  -1317129.082 6  -1005536.34049  21491499.75049
 20  5 16  5 20  9.0000000  0  9G01G03G07G08G11G17G22G28G30         -0.000366768
  20057424.289 7   -648501.883 7   -497638.30149  20057426.32849
  23074866.836 5  -2210140.813 5  -1684731.28148  23074869.93848
  20878860.852 6   -409973.410 6   -314228.69949  20878859.57449
  23072792.594 4    -99450.266 4    -73783.73046  23072792.16446
  21166946.219 6    -26614.164 6    -20419.45348  21166944.03148
  23865106.133 6  -1603608.359 6  -1212663.69149  23865104.20749
  22430411.836 6  -1616335.848 6  -1242883.58648  22430409.14148
  23426032.625 5  -2110583.750 5  -1597688.71946  23426030.56346
  21490982.727 6  -1319839.109 6  -1007648.04749  21490984.36749
 20  5 16  5 20 10.0000000  0  9G01G03G07G08G11G17G22G28G30         -0.000368071
  20057187.289 7   -649748.348 7   -498609.57049  20057188.94549
  23073964.859 5  -2214883.625 5  -1688426.98448  23073967.64848
  20878721.195 6   -410707.465 6   -314800.68849  20878719.50049
  23072754.594 4    -99647.375 4    -73937.33246  23072754.71546
  21166951.516 6    -26586.449 6    -20397.85548  21166949.39848
  23864450.234 6  -1607057.219 6  -1215351.11349  23864448.17249
  22429760.227 6  -1619761.359 6  -1245552.82048  22429757.63748
  23425157.656 5  -2115179.719 5  -1601269.99247  23425155.52347
  21490467.203 6  -1322548.480 6  -1009759.24649  21490468.31349
 20  5 16  5 20 11.0000000  0  9G01G03G07G08G11G17G22G28G30         -0.000369371
  20056950.172 7   -650994.070 7   -499580.27049  20056951.96949
  23073061.852 5  -2219626.199 5  -1692122.50048  23073064.61748
  20878581.281 6   -411440.887 6   -315372.18849  20878580.08649
  23072717.203 3    -99844.457 3    -74090.91046  23072717.70746
  21166956.820 6    -26558.434 6    -20376.02048  21166954.48448
  23863793.852 6  -1610505.875 6  -1218038.38349  23863791.68449
  22429108.086 6  -1623186.402 6  -1248221.68048  22429105.79348
  23424283.141 5  -2119775.664 5  -1604851.25447  23424281.33647
  21489951.695 6  -1325257.145 6  -1011869.88749  21489953.23049
 20  5 16  5 20 12.0000000  0  9G01G03G07G08G11G17G22G28G30         -0.000370674
  20056713.273 7   -652239.117 7   -500550.43449  20056714.99649
  23072159.813 5  -2224368.629 5  -1695817.89548  23072162.46948
  20878442.047 6   -412173.617 6   -315943.14849  20878440.91449
  23072679.602 3   -100041.477 3    -74244.43046  23072679.97746
  21166962.398 6    -26530.078 6    -20353.93048  21166960.03948
  23863137.484 6  -1613954.367 6  -1220725.51649  23863135.93849
  22428456.461 6  -1626610.965 6  -1250890.16448  22428454.53148
  23423407.938 5  -2124371.637 5  -1608432.52047  23423406.79347
  21489436.234 6  -1327965.133 6  -1013980.00849  21489437.56349
 20  5 16  5 20 13.0000000  0  9G01G03G07G08G11G17G22G28G30         -0.000371977
  20056476.609 7   -653483.430 7   -501520.03149  20056478.41849
  23071257.547 5  -2229110.810 5  -1699513.09948  23071260.10548
  20878302.719 6   -412905.668 6   -316513.57449  20878301.76649
  23072642.648 3   -100238.484 3    -74397.95746  23072642.41846
  21166967.789 6    -26501.410 6    -20331.59448  21166965.37148
  23862481.195 6  -1617402.648 6  -1223412.48449  23862479.21149
  22427805.008 6  -1630035.020 6  -1253558.25848  22427802.62948
  23422533.945 5  -2128967.547 5  -1612013.73847  23422531.96547
  21488921.383 6  -1330672.391 6  -1016089.55949  21488922.50849
