     2.10           OBSERVATION DATA    GPS(GPS)            RINEX VERSION / TYPE
cnvtToRINEX 2.50.0  convertToRINEX OPR  30-May-18 13:31 UTC PGM / RUN BY / DATE 
----------------------------------------------------------- COMMENT             
LP07                                                        MARKER NAME         
LP07                                                        MARKER NUMBER       
GNSS Observer       Trimble                                 OBSERVER / AGENCY   
0440101800          5700                2.32                REC # / TYPE / VERS 
                    TRM39105.00                             ANT # / TYPE        
 -2968138.4889  5004396.2634  2604531.7612                  APPROX POSITION XYZ 
        0.1030        0.0000        0.0000                  ANTENNA: DELTA H/E/N
     1     1     0                                          WAVELENGTH FACT L1/2
     4    C1    L1    L2    P2                              # / TYPES OF OBSERV 
  2018     5    30     0    20   20.0000000     GPS         TIME OF FIRST OBS   
  2018     5    30     1    35   40.0000000     GPS         TIME OF LAST OBS    
     0                                                      RCV CLOCK OFFS APPL 
    17                                                      LEAP SECONDS        
    11                                                      # OF SATELLITES     
   G03   887   887   887   887                              PRN / # OF OBS      
   G08   439   439   435   435                              PRN / # OF OBS      
   G14   905   905   905   905                              PRN / # OF OBS      
   G16   905   905   905   905                              PRN / # OF OBS      
   G22   719   717   682   682                              PRN / # OF OBS      
   G23   905   905   905   905                              PRN / # OF OBS      
   G26   905   905   905   905                              PRN / # OF OBS      
   G27   905   905   905   905                              PRN / # OF OBS      
   G29   387   387   387   387                              PRN / # OF OBS      
   G31   905   905   905   905                              PRN / # OF OBS      
   G32   662   656   532   532                              PRN / # OF OBS      
CARRIER PHASE MEASUREMENTS: PHASE SHIFTS REMOVED            COMMENT             
                                                            END OF HEADER       
 18  5 30  0 20 20.0000000  0  8G14G16G23G26G27G29G31G32             0.000010054
  20577852.35916    -56408.34816    -34596.48458  20577850.80158
  20704470.50017   -145548.21117    -89450.76658  20704468.76658
  24657995.52315   -260293.54715   -134322.39556  24657993.08256
  20623893.11717    -71810.37517    -44064.23059  20623894.65259
  22993242.60215   -267657.55915   -165351.00457  22993243.61357
  23543172.40615     -5442.37515     -3067.62957  23543171.65257
  21604216.70317    -56502.77017    -35416.32858  21604214.98858
  22467940.57016     21333.06616     12956.86757  22467941.34457
 18  5 30  0 20 25.0000000  0  8G14G16G23G26G27G29G31G32             0.000002001
  20576594.758 6    -63016.883 6    -39745.97748  20576593.19148
  20701264.422 7   -162397.328 7   -102579.94148  20701262.40648
  24652308.906 5   -290178.492 5   -157609.34446  24652306.39146
  20622296.023 7    -80202.660 7    -50603.67249  20622297.91449
  22987371.953 5   -298510.551 5   -189392.30147  22987372.78547
  23543019.195 6     -6246.703 6     -3694.39847  23543018.34047
  21602279.844 7    -66680.418 7    -43346.94548  21602278.40248
  22468366.789 5     23572.645 5     14702.02346  22468367.28146
 18  5 30  0 20 30.0000000  0  8G14G16G23G26G27G29G31G32            -0.000006079
  20575331.930 6    -69653.168 6    -44917.13748  20575330.54748
  20698052.391 7   -179276.230 7   -115732.34048  20698050.50848
  24646614.719 5   -320103.391 5   -180927.43846  24646612.07046
  20620692.617 7    -88628.727 7    -57169.43049  20620694.34049
  22981493.805 5   -329402.078 5   -213463.63347  22981493.70347
  23542859.758 6     -7081.398 6     -4344.80146  23542859.45746
  21600335.570 7    -76897.527 7    -51308.36348  21600334.07848
  22468786.703 5     25778.984 5     16421.19947  22468787.14147
 18  5 30  0 20 35.0000000  0  8G14G16G23G26G27G29G31G32            -0.000014185
  20574063.930 7    -76315.691 7    -50108.71548  20574062.71948
  20694835.102 6   -196183.418 6   -128906.76248  20694832.96548
  24640912.750 5   -350066.770 5   -204275.55546  24640910.06346
  20619082.984 7    -97087.074 7    -63760.35949  20619084.95749
  22975607.359 5   -360330.773 5   -237563.92647  22975608.58647
  23542695.492 5     -7944.977 5     -5017.71146  23542695.38346
  21598384.023 7    -87152.543 7    -59299.27348  21598382.39148
  22469200.398 5     27953.445 5     18115.57047  22469201.27747
 18  5 30  0 20 40.0000000  0  8G14G16G23G26G27G29G31G32            -0.000022316
  20572791.703 7    -83003.641 7    -55320.10948  20572790.46948
  20691612.844 6   -213118.098 6   -142102.62548  20691610.28548
  24635203.633 4   -380067.711 4   -227652.91446  24635201.03546
  20617467.047 7   -105576.879 7    -70375.78949  20617469.36749
  22969714.781 6   -391295.875 6   -261692.56647  22969715.95347
  23542525.633 5     -8836.598 5     -5712.49246  23542525.20746
  21596425.438 7    -97444.715 7    -67319.14148  21596423.77748
  22469608.219 6     30097.074 6     19785.92647  22469609.52347
 18  5 30  0 20 45.0000000  0  8G14G16G23G26G27G29G31G32            -0.000030472
  20571514.578 7    -89716.109 7    -60550.60248  20571513.09048
  20688384.602 6   -230079.383 6   -155319.21148  20688382.66848
  24629488.031 5   -410105.398 5   -251058.93046  24629485.64146
  20615845.875 7   -114097.262 7    -77015.04749  20615848.21149
  22963815.594 6   -422296.238 6   -285848.70747  22963816.84047
  23542351.070 5     -9755.457 5     -6428.51246  23542351.11746
  21594459.813 7   -107773.082 7    -75367.23048  21594458.44148
  22470010.500 6     32210.637 6     21432.84047  22470011.48847
 18  5 30  0 20 50.0000000  0 10G03G14G16G22G23G26G27G29G31G32      -0.000038652
  23750146.71114    -75605.15614    -44804.66057  23750148.19557
  20570232.336 6    -96452.398 6    -65799.65648  20570231.03948
  20685152.414 6   -247066.535 6   -168555.94948  20685150.26648
  23615084.07815    -50203.37115    -29797.02757  23615081.17657
  24623765.250 5   -440179.039 5   -274492.94946  24623762.82046
  20614218.758 7   -122647.527 7    -83677.59048  20614220.76248
  22957910.281 6   -453331.266 6   -310031.84447  22957911.39847
  23542171.586 5    -10700.770 5     -7165.10247  23542171.58647
  21592487.727 7   -118136.988 7    -83443.00448  21592486.23848
  22470406.586 6     34294.809 6     23056.85248  22470408.23848
 18  5 30  0 20 55.0000000  0 10G03G14G16G22G23G26G27G29G31G32      -0.000046856
  23747960.844 5    -87092.785 5    -53756.06347  23747961.88747
  20568945.969 6   -103212.336 6    -71067.15248  20568944.62548
  20681914.680 6   -264079.402 6   -181812.73048  20681913.07048
  23613623.023 5    -57881.863 5    -35780.27047  23613619.63347
  24618035.969 4   -470288.473 4   -297954.82446  24618033.14546
  20612586.063 7   -131227.516 7    -90363.30148  20612587.75848
  22951997.672 6   -484400.797 6   -334241.88347  22951999.07847
  23541986.836 5    -11672.434 5     -7922.25447  23541986.44547
  21590508.859 7   -128536.227 7    -91546.30948  21590507.10248
  22470797.898 6     36349.777 6     24658.12147  22470799.44547
 18  5 30  0 21  0.0000000  0 10G03G14G16G22G23G26G27G29G31G32      -0.000055084
  23745769.375 5    -98605.055 5    -62726.66047  23745771.38347
  20567655.789 6   -109994.746 6    -76352.15648  20567653.87548
  20678672.852 6   -281116.816 6   -195088.64548  20678670.85548
  23612156.758 5    -65589.074 5    -41785.89147  23612152.78147
  24612298.938 5   -500432.469 5   -321443.68046  24612297.04346
  20610947.742 7   -139836.047 7    -97071.24648  20610950.09448
  22946078.914 6   -515503.559 6   -358477.80947  22946080.61747
  23541796.852 5    -12669.223 5     -8698.98847  23541796.20747
  21588523.594 7   -138969.652 7    -99676.25448  21588521.86348
  22471183.352 6     38376.727 6     26237.54347  22471185.52747
 18  5 30  0 21  5.0000000  0 10G03G14G16G22G23G26G27G29G31G32      -0.000063335
  23743574.320 5   -110142.391 5    -71716.80947  23743575.70347
  20566360.484 7   -116800.051 7    -81654.98848  20566358.60948
  20675425.742 6   -298179.199 6   -208384.01248  20675423.80548
  23610683.836 5    -73325.484 5    -47814.28147  23610680.30947
  24606556.539 5   -530611.563 5   -344959.85246  24606554.23446
  20609304.250 7   -148473.559 7   -103801.78148  20609306.23448
  22940153.891 6   -546640.066 6   -382740.02747  22940155.67647
  23541601.977 5    -13691.617 5     -9495.65247  23541601.59847
  21586532.000 7   -149437.645 7   -107833.13348  21586529.60548
  22471563.695 6     40375.145 6     27794.74647  22471565.48047
 18  5 30  0 21 10.0000000  0 10G03G14G16G22G23G26G27G29G31G32      -0.000071611
  23741374.141 5   -121705.070 5    -80726.68047  23741375.74247
  20565060.844 7   -123628.570 7    -86975.92248  20565059.49648
  20672174.367 6   -315266.840 6   -221699.05548  20672172.63348
  23609206.227 5    -81091.324 5    -53865.59447  23609202.51647
  24600807.203 5   -560825.859 5   -368503.48046  24600804.68046
  20607654.984 7   -157140.316 7   -110555.10249  20607657.08249
  22934222.039 6   -577810.496 6   -407028.69147  22934223.92247
  23541403.070 5    -14739.852 5    -10312.45747  23541402.31347
  21584533.102 7   -159940.523 7   -116017.20748  21584531.00048
  22471938.594 6     42344.855 6     29329.57047  22471940.33247
 18  5 30  0 21 15.0000000  0 10G03G14G16G22G23G26G27G29G31G32      -0.000079908
  23739168.977 4   -133292.422 4    -89755.79747  23739170.39147
  20563757.273 6   -130479.551 6    -92314.35248  20563755.56648
  20668917.836 6   -332379.008 6   -235033.21148  20668915.98048
  23607723.180 5    -88885.871 5    -59939.26647  23607719.45347
  24595050.820 5   -591074.684 5   -392073.96946  24595048.77346
  20606000.609 7   -165835.660 7   -117330.69548  20606002.20748
  22928284.945 6   -609014.172 6   -431343.25047  22928286.08247
  23541198.602 5    -15813.273 5    -11148.90247  23541198.05547
  21582527.922 7   -170477.520 7   -124227.85248  21582525.60248
  22472307.445 6     44286.484 6     30842.50847  22472310.12147
 18  5 30  0 21 20.0000000  0 10G03G14G16G22G23G26G27G29G31G32      -0.000088230
  23736959.570 5   -144903.109 5    -98803.08647  23736960.83247
  20562449.836 6   -137351.742 6    -97669.30148  20562447.85948
  20665657.258 7   -349514.406 7   -248385.46548  20665654.91448
  23606233.641 5    -96707.883 5    -66034.34047  23606230.68447
  24589288.133 4   -621356.758 4   -415670.40646  24589285.50846
  20604340.703 7   -174558.266 7   -124127.53548  20604343.04748
  22922340.563 6   -640249.707 6   -455682.64147  22922342.38347
  23540990.039 6    -16910.488 6    -12003.85546  23540989.19546
  21580516.461 7   -181047.355 7   -132464.09448  21580514.52348
  22472672.188 6     46201.344 6     32334.59447  22472674.24247
 18  5 30  0 21 25.0000000  0 10G03G14G16G22G23G26G27G29G31G32      -0.000096575
  23734745.570 5   -156537.172 5   -107868.60547  23734747.29347
  20561137.734 6   -144245.035 6   -103040.69548  20561136.13748
  20662392.078 7   -366672.992 7   -261755.80148  20662389.80148
  23604740.781 5   -104557.359 5    -72150.80947  23604737.06647
  24583519.273 4   -651671.906 4   -439292.57446  24583517.27346
  20602675.266 7   -183308.098 7   -130945.58648  20602677.32848
  22916391.047 5   -671517.191 5   -480046.93047  22916392.18447
  23540776.500 6    -18031.625 6    -12877.49647  23540776.25047
  21578499.133 7   -191650.004 7   -140725.90248  21578496.89848
  22473031.250 6     48089.484 6     33805.86747  22473033.92647
 18  5 30  0 21 30.0000000  0 10G03G14G16G22G23G26G27G29G31G32      -0.000104940
  23732527.477 5   -168193.840 5   -116951.74647  23732528.60247
  20559822.219 7   -151158.762 7   -108428.03148  20559820.63348
  20659122.367 6   -383854.105 6   -275143.68848  20659120.39848
  23603242.211 5   -112433.535 5    -78288.11347  23603238.71147
  24577744.609 4   -682019.684 4   -462940.19946  24577742.32046
  20601005.375 7   -192084.488 7   -137784.34049  20601007.73049
  22910434.789 6   -702815.730 6   -504435.43047  22910435.67247
  23540559.305 6    -19175.945 6    -13769.17647  23540558.43447
  21576475.219 7   -202284.762 7   -149012.72348  21576473.27048
  22473385.719 5     49951.617 5     35256.87147  22473387.68447
 18  5 30  0 21 35.0000000  0 10G03G14G16G22G23G26G27G29G31G32      -0.000113327
  23730304.500 5   -179872.891 5   -126052.25847  23730306.39547
  20558502.516 6   -158092.570 6   -113830.99248  20558501.02048
  20655848.922 7   -401057.469 7   -288548.89848  20655847.27748
  23601737.898 5   -120336.184 5    -84445.98447  23601734.92247
  24571963.070 4   -712399.582 4   -486612.79346  24571961.11746
  20599329.969 7   -200887.176 7   -144643.56348  20599332.16048
  22904473.266 4   -734145.082 4   -528847.85546  22904474.59846
  23540337.500 6    -20343.145 6    -14678.61346  23540336.59846
  21574445.492 7   -212951.316 7   -157324.29748  21574443.66448
  22473735.914 6     51787.988 6     36687.78547  22473737.48847
 18  5 30  0 21 40.0000000  0 10G03G14G16G22G23G26G27G29G31G32      -0.000121737
  23728077.867 5   -191574.516 5   -135170.44547  23728079.81347
  20557179.281 6   -165046.836 6   -119249.92248  20557178.04748
  20652570.992 7   -418283.293 7   -301971.62948  20652569.17248
  23600229.477 5   -128265.551 5    -90624.75046  23600226.13746
  24566175.570 4   -742811.871 4   -510310.68046  24566174.18846
  20597650.180 7   -209716.340 7   -151523.44548  20597652.46148
  22898505.289 5   -765505.563 5   -553284.62546  22898506.97346
  23540110.250 5    -21533.426 5    -15606.13346  23540110.16046
  21572409.633 7   -223649.883 7   -165660.86347  21572407.68447
  22474080.180 6     53598.293 6     38098.41447  22474082.33247
 18  5 30  0 21 45.0000000  0 10G03G14G16G22G23G26G27G29G31G32      -0.000130167
  23725845.883 5   -203298.098 5   -144305.71147  23725848.86347
  20555852.219 7   -172020.977 7   -124684.32448  20555850.93848
  20649288.547 6   -435531.039 6   -315411.42648  20649287.07848
  23598714.641 5   -136221.059 5    -96823.83647  23598712.05547
  24560381.555 4   -773255.820 4   -534033.26646  24560380.81346
  20595965.289 7   -218571.484 7   -158423.57849  20595966.78549
  22892532.063 6   -796896.578 6   -577745.15647  22892533.34047
  23539879.469 6    -22746.301 6    -16551.28547  23539878.92647
  21570367.766 7   -234379.949 7   -174021.98048  21570365.68848
  22474419.695 6     55383.023 6     39489.08647  22474421.36347
 18  5 30  0 21 50.0000000  0 10G03G14G16G22G23G26G27G29G31G32      -0.000138620
  23723612.227 4   -215043.270 4   -153457.81347  23723613.59447
  20554521.656 7   -179014.313 7   -130133.68048  20554520.25848
  20646002.672 6   -452800.066 6   -328867.80148  20646001.12148
  23597196.258 4   -144202.125 4   -103042.84847  23597193.88347
  24554583.320 4   -803731.227 4   -557780.32446  24554581.14846
  20594275.055 7   -227452.012 7   -165343.47748  20594277.30948
  22886552.477 6   -828317.406 6   -602228.92647  22886554.33647
  23539644.289 6    -23981.145 6    -17513.51647  23539644.35547
  21568319.883 7   -245140.828 7   -182407.08248  21568318.30548
  22474754.641 6     57142.969 6     40860.46948  22474756.22748
 18  5 30  0 21 55.0000000  0 10G03G14G16G22G23G26G27G29G31G32      -0.000147095
  23721373.141 3   -226809.461 3   -162626.26647  23721374.25447
  20553187.125 6   -186026.449 6   -135597.69148  20553186.13348
  20642712.656 6   -470089.945 6   -342340.43848  20642710.85248
  23595673.664 4   -152208.367 4   -109281.49647  23595670.53947
  24548778.047 3   -834237.258 3   -581551.27746  24548775.92246
  20592580.539 7   -236357.473 7   -172282.79749  20592582.85549
  22880567.781 6   -859767.691 6   -626735.65247  22880569.34847
  23539404.906 5    -25237.578 5    -18492.55147  23539405.11747
  21566266.430 7   -255932.133 7   -190815.89148  21566264.46148
  22475084.742 6     58878.445 6     42212.76648  22475086.68048
 18  5 30  0 22  0.0000000  0 10G03G14G16G22G23G26G27G29G31G32      -0.000155590
  23719130.547 3   -238596.813 3   -171811.19547  23719131.39547
  20551849.195 6   -193057.543 6   -141076.46948  20551847.92648
  20639418.305 6   -487400.879 6   -355829.48448  20639416.52348
  23594144.875 4   -160239.874 4   -115539.81847  23594142.73047
  24542966.758 4   -864774.250 4   -605346.31646  24542964.85946
  20590881.547 7   -245288.082 7   -179241.71548  20590882.86748
  22874577.516 6   -891247.582 6   -651265.44947  22874578.95347
  23539161.836 6    -26515.773 6    -19488.56347  23539161.92647
  21564206.969 7   -266754.051 7   -199248.57848  21564204.81648
  22475410.273 6     60589.336 6     43545.93048  22475412.27048
 18  5 30  0 22  5.0000000  0 10G03G14G16G22G23G26G27G29G31G32      -0.000164104
  23716883.633 4   -250404.941 4   -181012.32847  23716884.14847
  20550507.344 6   -200107.145 6   -146569.66448  20550506.17248
  20636120.305 6   -504732.453 6   -369334.60248  20636118.53948
  23592612.234 3   -168296.305 3   -121817.59047  23592609.38747
  24537150.039 4   -895341.695 4   -629165.17246  24537148.64146
  20589177.273 7   -254243.363 7   -186219.86348  20589179.07848
  22868581.500 6   -922756.555 6   -675817.89847  22868583.15647
  23538914.477 6    -27815.227 6    -20501.10947  23538914.79347
  21562141.875 7   -277606.094 7   -207704.69548  21562140.24248
  22475731.500 6     62275.980 6     44860.19548  22475733.06348
 18  5 30  0 22 10.0000000  0 10G03G14G16G22G23G26G27G29G31G32      -0.000172642
  23714632.586 3   -262234.074 3   -190229.82847  23714633.32047
  20549162.758 6   -207175.516 6   -152077.48448  20549161.78148
  20632818.297 6   -522084.863 6   -382855.96948  20632816.74648
  23591074.250 4   -176377.910 4   -128114.96947  23591072.08247
  24531327.875 4   -925939.758 4   -653007.75046  24531325.77746
  20587468.188 7   -263223.598 7   -193217.45349  20587470.15649
  22862579.516 6   -954294.875 6   -700393.21547  22862581.69547
  23538663.547 6    -29136.250 6    -21530.48047  23538663.47747
  21560071.398 7   -288488.500 7   -216184.50048  21560069.65648
  22476047.773 6     63938.211 6     46155.43448  22476049.60548
 18  5 30  0 22 15.0000000  0 10G03G14G16G22G23G26G27G29G31G32      -0.000181198
  23712377.734 3   -274082.910 3   -199462.70347  23712378.29347
  20547814.289 6   -214261.383 6   -157598.95348  20547812.71548
  20629512.578 7   -539456.832 7   -396392.57048  20629510.23048
  23589531.648 4   -184483.324 4   -134430.90247  23589529.48847
  24525499.430 4   -956567.184 4   -676873.25046  24525497.32446
  20585755.008 7   -272227.469 7   -200233.44949  20585756.47349
  22856573.008 6   -985861.215 6   -724990.35247  22856574.91847
  23538408.273 6    -30477.520 6    -22575.62547  23538407.81347
  21557994.742 7   -299399.984 7   -224686.95748  21557993.16848
  22476359.594 6     65577.281 6     47432.62148  22476361.53948
 18  5 30  0 22 20.0000000  0 10G03G14G16G22G23G26G27G29G31G32      -0.000189775
  23710119.602 4   -285951.621 4   -208711.05547  23710119.73447
  20546462.172 6   -221364.867 6   -163134.13348  20546460.71948
  20626203.008 7   -556848.539 7   -409944.55948  20626200.89148
  23587984.813 5   -192612.773 5   -140765.54347  23587982.79347
  24519665.609 4   -987224.141 4   -700761.73446  24519662.93046
  20584037.008 7   -281255.172 7   -207268.02748  20584038.78148
  22850560.813 6  -1017455.738 6   -749609.43847  22850562.53947
  23538149.375 6    -31839.203 6    -23636.69147  23538149.12947
  21555912.867 7   -310340.590 7   -233212.11348  21555910.98448
  22476667.773 6     67193.039 6     48691.64848  22476669.20748
 18  5 30  0 22 25.0000000  0 10G03G14G16G22G23G26G27G29G31G32      -0.000198372
  23707857.188 4   -297839.059 4   -217974.00847  23707857.93047
  20545107.516 6   -228484.848 6   -168682.18048  20545106.27748
  20622889.828 6   -574258.781 6   -423510.98048  20622887.66448
  23586433.438 5   -200765.109 5   -147118.02047  23586431.60947
  24513825.898 3  -1017909.508 3   -724672.39146  24513823.92246
  20582314.906 7   -290305.496 7   -214320.23448  20582316.85248
  22844543.391 5  -1049077.215 5   -774249.55147  22844545.03947
  23537885.953 6    -33220.215 6    -24712.78947  23537886.07047
  21553825.789 7   -321309.301 7   -241759.15648  21553823.98448
  22476970.391 6     68786.629 6     49933.39148  22476972.40648
 18  5 30  0 22 30.0000000  0 10G03G14G16G22G23G26G27G29G31G32      -0.000206989
  23705591.336 4   -309745.570 4   -227251.81647  23705591.87947
  20543749.406 6   -235621.672 6   -174243.34848  20543748.12948
  20619573.305 6   -591687.996 6   -437092.18048  20619570.89848
  23584877.883 5   -208940.715 5   -153488.62947  23584876.14847
  24507981.320 3  -1048623.645 3   -748605.46546  24507979.30146
  20580588.391 7   -299378.906 7   -221390.42648  20580590.10248
  22838520.414 5  -1080725.621 5   -798910.30548  22838522.31348
  23537619.484 6    -34620.945 6    -25804.28147  23537619.19947
  21551732.883 7   -332306.535 7   -250328.43448  21551730.94948
  22477269.688 6     70357.656 6     51157.55548  22477271.68048
 18  5 30  0 22 35.0000000  0 10G03G14G16G22G23G26G27G29G31G32      -0.000215624
  23703322.094 4   -321670.785 4   -236544.18847  23703322.84847
  20542388.328 6   -242774.863 6   -179817.27048  20542387.24248
  20616253.063 7   -609135.633 7   -450687.74248  20616250.68448
  23583317.227 5   -217139.031 5   -159876.93847  23583316.10247
  24502130.820 3  -1079366.016 3   -772560.56346  24502128.76246
  20578857.398 7   -308474.855 7   -228478.18048  20578859.08648
  22832493.320 5  -1112401.309 5   -823592.68847  22832494.54747
  23537349.461 6    -36040.840 6    -26910.69547  23537349.39847
  21549634.547 7   -343331.719 7   -258919.49248  21549633.08248
  22477564.531 6     71906.629 6     52364.53548  22477566.57448
 18  5 30  0 22 40.0000000  0 10G03G14G16G22G23G26G27G29G31G32      -0.000224279
  23701048.906 4   -333614.691 4   -245851.12547  23701049.93047
  20541023.539 6   -249944.547 6   -185404.03548  20541022.46548
  20612929.508 7   -626601.793 7   -464297.73848  20612926.73448
  23581753.133 5   -225360.211 5   -166283.06347  23581751.49647
  24496276.320 4  -1110136.672 4   -796537.69946  24496273.66046
  20577122.109 7   -317593.445 7   -235583.57049  20577123.94949
  22826460.125 5  -1144103.930 5   -848295.99247  22826462.11347
  23537075.492 6    -37480.020 6    -28032.14547  23537075.67247
  21547531.570 7   -354384.945 7   -267532.39848  21547529.90648
  22477854.555 6     73433.434 6     53554.24248  22477856.75448
 18  5 30  0 22 45.0000000  0 10G03G14G16G22G23G26G27G29G31G32      -0.000232956
  23698773.023 4   -345577.375 4   -255172.71547  23698773.24247
  20539656.258 6   -257130.719 6   -191003.65648  20539654.88348
  20609602.063 7   -644086.594 7   -477922.25848  20609599.87148
  23580183.844 5   -233604.391 5   -172707.09847  23580182.28147
  24490414.906 4  -1140935.703 4   -820536.94946  24490412.32046
  20575382.500 7   -326734.773 7   -242706.69148  20575384.42248
  22820421.859 5  -1175833.570 5   -873020.37147  22820423.90247
  23536798.078 6    -38938.590 6    -29168.69947  23536798.07447
  21545423.000 7   -365466.281 7   -276167.21148  21545420.73448
  22478140.820 6     74937.977 6     54726.60248  22478143.43448
 18  5 30  0 22 50.0000000  0 10G03G14G16G22G23G26G27G29G31G32      -0.000241650
  23696493.023 4   -357558.188 4   -264508.39547  23696493.30947
  20538285.797 6   -264332.719 6   -196615.61348  20538284.81348
  20606271.352 7   -661589.336 7   -491560.76248  20606269.19148
  23578610.773 5   -241870.828 5   -179148.48447  23578609.11747
  24484549.617 4  -1171762.340 4   -844557.69946  24484546.14146
  20573638.750 7   -335898.195 7   -249847.01648  20573640.68448
  22814379.156 5  -1207589.531 5   -897765.27047  22814380.76647
  23536517.336 6    -40415.875 6    -30319.84847  23536516.99247
  21543308.945 7   -376575.023 7   -284823.37948  21543307.13348
  22478423.578 6     76420.941 6     55882.14848  22478425.16848
 18  5 30  0 22 55.0000000  0 10G03G14G16G22G23G26G27G29G31G32      -0.000250362
  23694209.273 3   -369555.980 3   -273857.33646  23694209.34046
  20536912.648 6   -271549.406 6   -202239.00848  20536911.17648
  20602937.539 7   -679108.871 7   -505212.35248  20602935.29348
  23577033.625 5   -250158.434 5   -185606.35547  23577031.60247
  24478677.219 4  -1202615.539 4   -868599.15646  24478674.91846
  20571891.047 7   -345082.512 7   -257003.62548  20571893.22348
  22808331.766 5  -1239370.625 5   -922529.75447  22808333.28147
  23536232.289 6    -41910.699 6    -31484.66047  23536232.66847
  21541189.969 7   -387710.000 7   -293499.99648  21541188.05148
  22478701.320 6     77883.484 6     57021.78548  22478703.50848
 18  5 30  0 23  0.0000000  0 10G03G14G16G22G23G26G27G29G31G32      -0.000259094
  23691923.547 4   -381570.605 4   -283219.38747  23691923.61747
  20535536.828 6   -278780.652 6   -207873.74648  20535534.88348
  20599600.430 7   -696645.047 7   -518876.90248  20599598.09048
  23575453.102 5   -258467.055 5   -192080.62547  23575450.00847
  24472801.695 4  -1233495.059 4   -892661.09846  24472798.73046
  20570139.438 7   -354287.633 7   -264176.44948  20570141.51248
  22802278.680 5  -1271176.648 5   -947313.65247  22802280.46147
  23535944.625 5    -43422.953 5    -32663.03947  23535944.82847
  21539066.406 7   -398871.086 7   -302196.94148  21539064.88748
  22478976.000 6     79325.723 6     58145.59048  22478978.40248
 18  5 30  0 23  5.0000000  0 10G03G14G16G22G23G26G27G29G31G32      -0.000267843
  23689633.742 3   -393602.332 3   -292594.76247  23689634.13347
  20534157.656 6   -286026.727 6   -213520.04348  20534156.05948
  20596260.680 7   -714198.168 7   -532554.65648  20596257.84848
  23573868.242 5   -266796.926 5   -198571.43047  23573864.63747
  24466920.047 4  -1264401.148 4   -916743.75446  24466917.54746
  20568383.828 7   -363513.832 7   -271365.69548  20568385.40648
  22796221.484 5  -1303007.918 5   -972117.23847  22796223.45747
  23535653.055 5    -44952.906 5    -33855.21947  23535653.59847
  21536936.984 7   -410058.543 7   -310914.45348  21536935.78148
  22479246.742 6     80747.363 6     59253.34848  22479248.64148
 18  5 30  0 23 10.0000000  0 10G03G14G16G22G23G26G27G29G31G32      -0.000276611
  23687341.094 4   -405651.238 4   -301983.51246  23687341.00446
  20532776.102 6   -293287.723 6   -219177.96548  20532774.49648
  20592916.875 7   -731768.297 7   -546245.66848  20592914.60948
  23572278.211 5   -275148.219 5   -205078.91447  23572275.05147
  24461034.078 4  -1295333.934 4   -940847.22746  24461031.09046
  20566623.922 7   -372761.152 7   -278571.39848  20566626.14848
  22790159.375 5  -1334864.457 5   -996940.50847  22790160.94947
  23535358.930 5    -46500.656 5    -35061.27047  23535359.05147
  21534803.266 7   -421272.457 7   -319652.56348  21534801.59048
  22479513.047 6     82148.355 6     60345.02048  22479515.23048
 18  5 30  0 23 15.0000000  0 10G03G14G16G22G23G26G27G29G31G32      -0.000285397
  23685044.664 4   -417716.227 4   -311384.82047  23685045.05947
  20531391.641 6   -300562.457 6   -224846.59848  20531390.21548
  20589570.203 6   -749354.281 6   -559949.04348  20589567.88348
  23570685.805 6   -283519.703 6   -211602.15647  23570681.85947
  24455142.508 4  -1326292.191 4   -964970.53546  24455140.37946
  20564860.633 7   -382028.500 7   -285792.71148  20564862.25848
  22784092.586 5  -1366745.168 5  -1021782.61747  22784094.46547
  23535061.625 5    -48065.070 5    -36280.28947  23535061.18047
  21532664.648 7   -432511.660 7   -328410.39148  21532662.43448
  22479776.008 6     83529.793 6     61421.44947  22479778.25447
 18  5 30  0 23 20.0000000  0 10G03G14G16G22G23G26G27G29G31G32      -0.000294201
  23682746.672 4   -429797.199 4   -320798.57047  23682746.58247
  20530004.711 6   -307850.879 6   -230525.89548  20530003.79348
  20586221.180 6   -766956.051 6   -573664.70748  20586218.93448
  23569088.719 6   -291911.324 6   -218141.07047  23569084.57847
  24449246.992 4  -1357275.895 4   -989113.66846  24449244.04346
  20563092.883 7   -391315.773 7   -293029.55148  20563094.88348
  22778020.844 5  -1398649.828 5  -1046643.38347  22778023.41047
  23534760.609 5    -49646.016 5    -37512.20347  23534760.14147
  21530520.977 7   -443776.047 7   -337187.83248  21530518.96948
  22480035.664 6     84891.801 6     62482.73848  22480037.42648
 18  5 30  0 23 25.0000000  0 10G03G14G16G22G23G26G27G29G31G32      -0.000303022
  23680444.188 4   -441894.535 4   -330225.05146  23680444.83646
  20528614.898 6   -315153.305 6   -236216.09848  20528613.92648
  20582868.758 6   -784573.949 6   -587392.93848  20582866.48448
  23567487.523 5   -300323.480 5   -224695.99247  23567483.43847
  24443346.195 5  -1388285.320 5  -1013276.83646  24443343.11346
  20561321.539 7   -400623.332 7   -300282.19548  20561323.30548
  22771945.836 5  -1430578.879 5  -1071523.16047  22771947.71547
  23534456.438 5    -51243.949 5    -38757.34047  23534455.90647
  21528372.695 7   -455066.004 7   -345985.20748  21528371.04748
  22480290.766 6     86233.988 6     63528.59448  22480292.70348
 18  5 30  0 23 30.0000000  0 10G03G14G16G22G23G26G27G29G31G32      -0.000311861
  23678139.875 3   -454007.043 3   -339663.37547  23678139.61347
  20527222.711 6   -322468.602 6   -241916.33648  20527222.00848
  20579513.203 6   -802206.875 6   -601132.89148  20579510.69948
  23565882.867 6   -308755.012 6   -231266.02347  23565878.83647
  24437440.641 5  -1419319.395 5  -1037459.23446  24437437.91446
  20559547.109 7   -409950.055 7   -307549.76648  20559549.03948
  22765865.461 5  -1462531.113 5  -1096421.00047  22765866.83647
  23534149.305 5    -52857.676 5    -40014.79347  23534148.57847
  21526219.703 7   -466380.367 7   -354801.59448  21526217.96148
  22480542.609 6     87557.488 6     64559.88348  22480544.72348
 18  5 30  0 23 35.0000000  0 10G03G14G16G22G23G26G27G29G31G32      -0.000320717
  23675832.641 2   -466135.453 2   -349114.09047  23675831.71947
  20525828.141 6   -329797.473 6   -247627.14848  20525827.22748
  20576154.391 7   -819855.441 7   -614885.01648  20576152.24648
  23564274.555 5   -317206.637 5   -237851.70747  23564270.93447
  24431529.328 4  -1450378.711 4  -1061661.27746  24431527.30946
  20557768.625 7   -419296.660 7   -314832.84448  20557769.97348
  22759780.594 5  -1494507.285 5  -1121337.50047  22759782.29747
  23533839.000 5    -54487.914 5    -41285.11347  23533838.16447
  21524061.656 7   -477719.805 7   -363637.52048  21524059.74248
  22480790.992 6     88861.621 6     65576.07448  22480793.07448
 18  5 30  0 23 40.0000000  0 10G03G14G16G22G23G26G27G29G31G32      -0.000329592
  23673522.078 2   -478279.012 2   -358576.62146  23673521.10546
  20524431.430 6   -337139.219 6   -253347.99648  20524430.23448
  20572793.602 6   -837518.961 6   -628648.80148  20572791.04348
  23562663.000 5   -325677.641 5   -244452.49647  23562658.63747
  24425614.477 5  -1481462.582 5  -1085882.47346  24425612.21546
  20555986.078 7   -428662.363 7   -322130.79348  20555987.80548
  22753690.711 5  -1526506.539 5  -1146271.97747  22753692.71147
  23533525.539 5    -56133.902 5    -42567.69547  23533524.41047
  21521899.359 7   -489083.590 7   -372492.41848  21521897.27748
  22481035.281 6     90147.070 6     66577.71548  22481037.57048
 18  5 30  0 23 45.0000000  0 10G03G14G16G22G23G26G27G29G31G32      -0.000338482
  23671208.211 3   -490437.453 3   -368050.75447  23671207.21547
  20523031.461 6   -344493.473 6   -259078.59448  20523030.51648
  20569429.297 6   -855197.156 6   -642424.01648  20569426.99248
  23561047.180 5   -334167.750 5   -251068.16847  23561043.06647
  24419695.195 5  -1512570.691 5  -1110122.55546  24419692.24646
  20554200.320 7   -438046.918 7   -329443.43848  20554202.00048
  22747597.523 5  -1558528.613 5  -1171224.23847  22747598.94947
  23533209.805 5    -57795.363 5    -43862.34846  23533208.87546
  21519732.141 7   -500471.402 7   -381366.04348  21519730.52748
  22481276.555 6     91414.152 6     67565.03948  22481278.55548
 18  5 30  0 23 50.0000000  0 10G03G14G16G22G23G26G27G29G31G32      -0.000347389
  23668890.805 2   -502610.328 2   -377536.12947  23668890.43447
  20521629.695 6   -351859.813 6   -264818.60548  20521629.04748
  20566062.266 7   -872889.555 7   -656210.30548  20566059.91848
  23559428.375 5   -342676.418 5   -257698.31347  23559424.21147
  24413770.953 4  -1543702.523 4  -1134381.13346  24413767.41046
  20552411.359 7   -447449.844 7   -336770.39848  20552412.66048
  22741499.953 5  -1590573.000 5  -1196193.88347  22741500.97747
  23532890.219 5    -59471.848 5    -45168.72347  23532889.85947
  21517560.656 7   -511882.781 7   -390258.03548  21517559.02048
  22481514.188 6     92663.340 6     68538.42648  22481516.26648
 18  5 30  0 23 55.0000000  0 10G03G14G16G22G23G26G27G29G31G32      -0.000356314
  23666571.102 3   -514797.777 3   -387032.84446  23666571.29346
  20520226.102 6   -359238.434 6   -270568.17648  20520224.93448
  20562693.078 6   -890596.359 6   -670007.82048  20562690.55148
  23557805.109 5   -351203.973 5   -264343.17247  23557801.68047
  24407841.781 4  -1574858.258 4  -1158658.32446  24407838.98046
  20550618.125 7   -456871.367 7   -344111.84448  20550619.35948
  22735397.961 5  -1622639.926 5  -1221181.09847  22735398.86347
  23532568.242 5    -61163.508 5    -46486.90247  23532568.41847
  21515384.664 7   -523317.934 7   -399168.54348  21515382.97748
  22481748.383 6     93894.434 6     69497.71548  22481750.48448
 18  5 30  0 24  0.0000000  0 10G03G14G16G22G23G26G27G29G31G32      -0.000365255
  23664250.203 3   -526999.699 3   -396540.83247  23664249.52747
  20518819.656 6   -366629.121 6   -276327.16048  20518818.02048
  20559320.445 6   -908317.359 6   -683816.39148  20559318.62948
  23556179.023 5   -359750.129 5   -271002.52047  23556176.47347
  24401908.945 4  -1606037.699 4  -1182953.99246  24401906.18446
  20548822.094 7   -466311.254 7   -351467.60248  20548823.14848
  22729290.844 5  -1654729.094 5  -1246185.63347  22729292.88747
  23532243.531 5    -62870.230 5    -47816.82847  23532243.28147
  21513204.141 7   -534776.605 7   -408097.37548  21513202.25848
  22481979.406 6     95107.605 6     70443.02748  22481981.80148
 18  5 30  0 24  5.0000000  0 10G03G14G16G22G23G26G27G29G31G32      -0.000374212
  23661925.203 4   -539215.281 4   -406059.45346  23661925.34846
  20517410.680 6   -374031.191 6   -282095.01648  20517409.69548
  20555946.336 6   -926051.859 6   -697635.48448  20555943.41448
  23554549.383 5   -368314.250 5   -277675.86747  23554546.69547
  24395970.844 4  -1637240.109 4  -1207267.58646  24395968.43446
  20547022.273 7   -475768.840 7   -358837.14548  20547023.33248
  22723180.398 5  -1686839.902 5  -1271207.03947  22723182.10247
  23531916.547 5    -64591.328 5    -49157.94547  23531916.40647
  21511018.789 7   -546258.117 7   -417044.01648  21511017.23448
  22482206.922 6     96303.578 6     71374.94148  22482208.94548
 18  5 30  0 24 10.0000000  0 10G03G14G16G22G23G26G27G29G31G32      -0.000383186
  23659598.086 3   -551444.445 3   -415588.68046  23659598.01246
  20516000.305 6   -381444.391 6   -287871.53948  20515998.66048
  20552569.047 7   -943799.594 7   -711464.87948  20552566.43848
  23552916.508 5   -376895.988 5   -284362.94947  23552914.13347
  24390029.227 4  -1668465.191 4  -1231598.81646  24390026.49646
  20545219.094 7   -485243.863 7   -366220.28948  20545220.34848
  22717066.602 5  -1718971.934 5  -1296244.98447  22717067.55947
  23531586.523 5    -66326.492 5    -50510.03947  23531586.19947
  21508829.922 7   -557762.219 7   -426008.25448  21508828.31348
  22482431.375 6     97482.539 6     72293.60248  22482433.50448
 18  5 30  0 24 15.0000000  0 10G03G14G16G22G23G26G27G29G31G32      -0.000392176
  23657268.703 3   -563686.422 3   -425127.89146  23657268.40246
  20514587.117 6   -388868.211 6   -293656.32848  20514586.30548
  20549189.125 6   -961560.031 6   -725304.18448  20549186.78948
  23551280.570 5   -385494.984 5   -291063.46947  23551278.25847
  24384083.758 4  -1699712.465 4  -1255947.32046  24384080.26646
  20543412.813 7   -494735.816 7   -373616.61748  20543413.98848
  22710947.453 5  -1751124.785 5  -1321299.14847  22710949.14147
  23531253.430 5    -68075.246 5    -51872.70347  23531253.39547
  21506636.672 7   -569288.375 7   -434989.67648  21506635.00848
  22482652.391 6     98645.063 6     73199.46148  22482654.57448
 18  5 30  0 24 20.0000000  0 10G03G14G16G22G23G26G27G29G31G32      -0.000401180
  23654936.422 4   -575941.254 4   -434677.09446  23654936.71146
  20513172.875 6   -396302.430 6   -299449.23848  20513171.09448
  20545806.672 6   -979333.020 6   -739153.27348  20545804.43448
  23549640.328 5   -394110.949 5   -297777.22747  23549638.49247
  24378132.984 4  -1730981.738 4  -1280312.99246  24378129.72346
  20541603.641 7   -504244.527 7   -381025.99648  20541605.13348
  22704825.719 5  -1783298.145 5  -1346369.28947  22704826.82447
  23530917.891 6    -69837.340 6    -53245.76647  23530917.80947
  21504438.992 7   -580836.383 7   -443988.13348  21504437.35248
  22482870.648 6     99791.313 6     74092.63348  22482872.89148
 18  5 30  0 24 25.0000000  0 10G03G14G16G22G23G26G27G29G31G32      -0.000410202
  23652601.789 4   -588209.012 4   -444236.39147  23652601.70347
  20511756.063 6   -403747.242 6   -305250.38748  20511754.87548
  20542422.422 6   -997118.707 6   -753012.24648  20542420.07448
  23547997.391 5   -402744.086 5   -304504.36347  23547995.88347
  24372178.945 4  -1762273.121 4  -1304695.86746  24372175.35246
  20539791.008 7   -513770.137 7   -388448.55148  20539792.24248
  22698698.898 5  -1815492.238 5  -1371455.58647  22698700.20347
  23530580.281 5    -71613.000 5    -54629.40247  23530579.88347
  21502237.344 7   -592406.434 7   -453003.75848  21502236.16048
  22483085.531 6    100921.125 6     74972.99648  22483087.77348
 18  5 30  0 24 30.0000000  0 10G03G14G16G22G23G26G27G29G31G32      -0.000419239
  23650265.500 3   -600489.191 3   -453805.38747  23650265.46547
  20510337.430 6   -411202.094 6   -311059.36748  20510336.27348
  20539035.602 6  -1014916.566 6   -766880.70748  20539033.24648
  23546351.680 5   -411393.840 5   -311244.45747  23546349.92247
  24366219.867 4  -1793586.071 4  -1329095.56246  24366216.74246
  20537975.070 7   -523312.156 7   -395883.89548  20537976.34448
  22692568.539 5  -1847706.496 5  -1396557.60547  22692570.12547
  23530240.102 6    -73401.773 6    -56023.25447  23530239.81647
  21500032.047 7   -603997.992 7   -462036.14848  21500030.08248
  22483297.602 6    102034.980 6     75840.92648  22483300.00448
 18  5 30  0 24 35.0000000  0 10G03G14G16G22G23G26G27G29G31G32      -0.000428289
  23647925.898 4   -612781.563 4   -463383.84447  23647925.95347
  20508916.914 6   -418666.809 6   -316876.03548  20508915.62148
  20535646.242 6  -1032726.383 6   -780758.49648  20535644.14148
  23544702.391 5   -420060.043 5   -317997.34847  23544701.03147
  24360257.297 4  -1824920.488 4  -1353511.98846  24360254.10946
  20536156.102 7   -532870.367 7   -403331.84848  20536157.93448
  22686435.367 6  -1879940.668 6  -1421675.12947  22686436.15247
  23529896.922 6    -75203.445 6    -57427.16047  23529897.06347
  21497822.008 7   -615610.809 7   -471085.10948  21497820.29748
  22483506.648 6    103133.121 6     76696.61748  22483508.79348
 18  5 30  0 24 40.0000000  0 10G03G14G16G22G23G26G27G29G31G32      -0.000437357
  23645583.906 4   -625086.051 4   -472971.76647  23645584.48047
  20507494.570 6   -426141.234 6   -322700.26248  20507493.48848
  20532255.289 6  -1050548.063 6   -794645.50848  20532252.84448
  23543050.539 5   -428742.535 5   -324762.93847  23543049.00447
  24354289.648 4  -1856276.105 4  -1377944.93446  24354287.13746
  20534334.438 7   -542444.652 7   -410792.32448  20534335.83248
  22680297.359 6  -1912194.652 6  -1446808.09447  22680298.41847
  23529552.039 6    -77017.844 6    -58840.98447  23529551.60547
  21495608.055 7   -627244.789 7   -480150.54748  21495606.60248
  22483712.938 6    104215.613 6     77540.10548  22483715.14848
 18  5 30  0 24 45.0000000  0 10G03G14G16G22G23G26G27G29G31G32      -0.000446438
  23643241.023 5   -637402.633 5   -482569.11747  23643240.68447
  20506070.406 6   -433625.398 6   -328532.08648  20506069.16448
  20528861.664 6  -1068381.621 6   -808541.80148  20528858.81348
  23541395.211 5   -437441.402 5   -331541.28947  23541393.76247
  24348319.117 4  -1887653.027 4  -1402394.46546  24348316.12946
  20532509.227 7   -552035.070 7   -418265.39148  20532510.73848
  22674155.438 6  -1944468.430 6  -1471956.48847  22674156.92647
  23529204.180 6    -78845.066 6    -60264.79747  23529204.05547
  21493390.203 7   -638899.918 7   -489232.46948  21493388.40248
  22483915.570 6    105282.516 6     78371.44148  22483918.15248
 18  5 30  0 24 50.0000000  0 10G03G14G16G22G23G26G27G29G31G32      -0.000455536
  23640894.039 4   -649730.965 4   -492175.60247  23640895.09847
  20504644.273 6   -441118.895 6   -334371.18048  20504643.52348
  20525465.844 6  -1086226.621 6   -822446.99248  20525463.15248
  23539737.320 6   -446156.223 6   -338332.07447  23539735.73847
  24342344.094 3  -1919050.680 3  -1426860.17246  24342341.54346
  20530681.328 7   -561641.145 7   -425750.64148  20530682.77348
  22668010.719 6  -1976761.602 6  -1497119.99247  22668011.67647
  23528854.070 6    -80684.613 6    -61698.20747  23528853.58247
  21491168.227 7   -650575.766 7   -498330.53548  21491166.53948
  22484115.461 6    106334.160 6     79190.89548  22484118.20748
 18  5 30  0 24 55.0000000  0 10G03G14G16G22G23G26G27G29G31G32      -0.000464647
  23638545.758 3   -662070.688 3   -501790.97747  23638546.96947
  20503216.930 6   -448621.410 6   -340217.30148  20503215.44548
  20522068.086 6  -1104082.781 6   -836360.88748  20522065.18448
  23538075.656 6   -454886.711 6   -345135.05547  23538073.96947
  24336366.703 4  -1950468.852 4  -1451341.90646  24336362.63346
  20528850.531 7   -571262.641 7   -433247.91448  20528852.18048
  22661861.516 6  -2009073.824 6  -1522298.34047  22661863.05147
  23528501.719 6    -82536.266 6    -63141.07847  23528501.10947
  21488942.328 7   -662272.035 7   -507444.52048  21488940.98048
  22484312.844 6    107370.848 6     79998.68448  22484315.82048
 18  5 30  0 25  0.0000000  0 10G03G14G16G22G23G26G27G29G31G32      -0.000473774
  23636196.078 3   -674421.680 3   -511415.12947  23636197.16047
  20501787.398 6   -456132.797 6   -346070.33648  20501786.19548
  20518668.016 6  -1121949.969 6   -850283.37548  20518665.54748
  23536411.445 5   -463632.699 5   -351950.12547  23536409.49647
  24330382.945 4  -1981907.324 4  -1475839.39146  24330380.21146
  20527016.438 7   -580899.375 7   -440757.05948  20527018.32848
  22655709.523 6  -2041404.918 6  -1547491.40247  22655710.40647
  23528147.375 6    -84399.773 6    -64593.17647  23528146.53947
  21486712.883 7   -673988.539 7   -516574.26248  21486711.37948
  22484507.422 6    108392.785 6     80794.98048  22484509.94548
 18  5 30  0 25  5.0000000  0 10G03G14G16G22G23G26G27G29G31G32      -0.000482914
  23633842.742 3   -686783.418 3   -521047.62146  23633843.98846
  20500356.734 6   -463652.461 6   -351929.82448  20500355.46548
  20515265.516 6  -1139827.574 6   -864213.97348  20515263.25048
  23534744.664 6   -472393.617 6   -358776.82847  23534741.60947
  24324397.055 4  -2013365.578 4  -1500352.30946  24324393.84446
  20525179.820 7   -590550.820 7   -448277.66048  20525181.54348
  22649553.250 6  -2073754.309 6  -1572698.73847  22649554.45347
  23527790.336 6    -86274.762 6    -66054.22347  23527790.11347
  21484479.625 7   -685724.758 7   -525719.38348  21484478.07448
  22484698.859 6    109400.473 6     81580.18047  22484701.20347
 18  5 30  0 25 10.0000000  0 10G03G14G16G22G23G26G27G29G31G32      -0.000492069
  23631488.836 2   -699156.445 2   -530688.93447  23631489.96547
  20498923.547 6   -471181.047 6   -357796.25848  20498922.97748
  20511861.633 6  -1157716.180 6   -878153.15248  20511859.24248
  23533074.680 6   -481170.082 6   -365615.65247  23533071.48047
  24318407.508 4  -2044844.144 4  -1524881.04546  24318404.06646
  20523340.273 7   -600217.516 7   -455810.15648  20523342.02748
  22643393.867 6  -2106122.520 6  -1597920.72347  22643395.36747
  23527431.695 6    -88161.637 6    -67524.52347  23527430.69947
  21482242.539 7   -697481.215 7   -534880.25848  21482240.74248
  22484888.203 6    110393.352 6     82353.84848  22484890.87948
 18  5 30  0 25 15.0000000  0 10G03G14G16G22G23G26G27G29G31G32      -0.000501240
  23629131.930 2   -711539.645 2   -540338.18446  23629133.44946
  20497489.617 6   -478717.535 6   -363668.84848  20497488.75848
  20508455.547 7  -1175614.863 7   -892100.18048  20508453.10948
  23531401.680 6   -489961.172 6   -372465.84847  23531397.87947
  24312412.797 4  -2076341.902 4  -1549424.75046  24312410.16046
  20521498.125 7   -609898.527 7   -463353.79348  20521499.85948
  22637231.445 6  -2138508.633 6  -1623156.66447  22637231.92647
  23527070.953 6    -90059.504 6    -69003.38747  23527070.02347
  21480001.625 7   -709256.984 7   -544056.17648  21479999.85948
  22485074.164 6    111372.359 6     83116.69548  22485076.89148
 18  5 30  0 25 19.9990000  0 10G03G14G16G22G23G26G27G29G31G32       0.000489578
  23626774.401 3   -723932.035 3   -549994.61347  23626774.77647
  20496054.222 7   -486261.684 7   -369547.41848  20496053.21848
  20505047.995 6  -1193521.270 6   -906053.22748  20505045.61648
  23529726.222 6   -498766.336 6   -379327.02047  23529722.61647
  24306416.503 4  -2107853.988 4  -1573979.62146  24306413.42146
  20519653.230 7   -619593.215 7   -470908.10248  20519654.89448
  22631065.425 6  -2170907.379 6  -1648402.44147  22631066.90947
  23526706.761 6    -91969.270 6    -70491.51247  23526706.35547
  21477757.425 7   -721050.953 7   -553246.28148  21477755.87048
  22485257.558 6    112336.035 6     83867.59848  22485259.95248
 18  5 30  0 25 24.9990000  0 10G03G14G16G22G23G26G27G29G31G32       0.000480379
  23624414.300 3   -736337.715 3   -559661.39547  23624414.53047
  20494616.909 7   -493815.680 7   -375433.65248  20494615.79648
  20501637.706 6  -1211441.758 6   -920017.23848  20501635.53048
  23528047.073 6   -507588.324 6   -386201.30147  23528043.10147
  24300415.183 4  -2139392.156 4  -1598554.82846  24300412.28446
  20517805.073 7   -629304.563 7   -478475.39148  20517807.05048
  22624895.628 5  -2203330.871 5  -1673667.51247  22624896.85847
  23526341.206 6    -93890.871 6    -71988.86347  23526340.91747
  21475508.925 7   -732866.984 7   -562453.58248  21475507.00748
  22485438.698 6    113285.605 6     84607.51647  22485441.19047
 18  5 30  0 25 29.9990000  0 10G03G14G16G22G23G26G27G29G31G32       0.000471167
  23622051.659 3   -748753.715 3   -569336.22747  23622051.51947
  20493177.839 6   -501377.707 6   -381326.14548  20493176.80048
  20498225.745 6  -1229372.406 6   -933989.18048  20498223.55448
  23526365.394 6   -516425.035 6   -393087.04747  23526361.21447
  24294410.597 4  -2170949.719 4  -1623145.14146  24294407.17946
  20515954.487 7   -639030.371 7   -486053.95348  20515956.17548
  22618722.573 5  -2235772.309 5  -1698946.56347  22618722.98747
  23525973.448 6    -95823.570 6    -73494.87947  23525973.07347
  21473256.667 7   -744702.336 7   -571675.93448  21473254.52248
  22485616.644 6    114221.195 6     85336.53548  22485618.99148
 18  5 30  0 25 34.9990000  0 10G03G14G16G22G23G26G27G29G31G32       0.000461941
  23619686.761 2   -761179.789 2   -579018.89147  23619687.03047
  20491737.605 6   -508947.238 6   -387224.48448  20491736.28048
  20494811.933 6  -1247312.730 6   -947968.64148  20494809.64048
  23524680.925 5   -525275.961 5   -399983.88747  23524677.33147
  24288401.675 4  -2202526.141 4  -1647750.13346  24288398.18746
  20514101.222 7   -648770.121 7   -493643.36748  20514102.85148
  22612546.050 6  -2268231.133 6  -1724239.14147  22612546.53447
  23525603.815 6    -97766.941 6    -75009.19947  23525603.55447
  21471000.933 7   -756556.590 7   -580913.01648  21470998.83948
  22485792.300 6    115143.254 6     86055.00048  22485794.78448
 18  5 30  0 25 39.9990000  0 10G03G14G16G22G23G26G27G29G31G32       0.000452700
  23617320.730 3   -773615.621 3   -588709.16847  23617320.79247
  20490295.690 6   -516524.129 6   -393128.55548  20490294.13248
  20491395.722 6  -1265262.570 6   -961955.54348  20491393.58548
  23522993.901 6   -534140.984 6   -406891.69147  23522989.87047
  24282389.159 4  -2234121.273 4  -1672369.73446  24282386.14046
  20512244.808 7   -658523.645 7   -501243.51248  20512246.59748
  22606365.776 5  -2300707.160 5  -1749545.14547  22606366.64747
  23525232.401 6    -99720.719 6    -76531.61747  23525231.85847
  21468741.612 7   -768429.523 7   -590164.65248  21468739.40148
  22485965.417 6    116052.020 6     86763.11348  22485967.32348
 18  5 30  0 25 44.9990000  0 10G03G14G16G22G23G26G27G29G31G32       0.000443447
  23614952.589 3   -786061.293 3   -598407.10947  23614952.31947
  20488852.144 6   -524108.418 6   -399038.39548  20488851.16748
  20487978.706 6  -1283221.973 6   -975949.88748  20487976.24548
  23521304.347 6   -543020.133 6   -413810.50447  23521299.92147
  24276372.972 5  -2265735.105 5  -1697003.86746  24276370.09346
  20510386.362 7   -668291.023 7   -508854.46548  20510387.99548
  22600181.917 6  -2333200.500 6  -1774864.60947  22600183.67947
  23524858.370 6   -101685.031 6    -78062.26647  23524857.40147
  21466478.839 7   -780321.230 7   -599430.91448  21466476.75748
  22486135.230 6    116947.371 6     87460.78148  22486137.43748
 18  5 30  0 25 49.9990000  0 10G03G14G16G22G23G26G27G29G31G32       0.000434179
  23612582.120 4   -798516.258 4   -608112.29347  23612582.30847
  20487407.815 6   -531699.613 6   -404953.60948  20487406.34348
  20484559.714 6  -1301190.352 6   -989951.22748  20484556.98048
  23519612.386 6   -551912.887 6   -420739.93447  23519608.08947
  24270353.948 5  -2297367.141 5  -1721652.21546  24270351.25346
  20508525.253 7   -678071.719 7   -516475.78948  20508526.83548
  22593995.933 6  -2365710.496 6  -1800197.08247  22593997.12447
  23524482.972 6   -103659.363 6    -79600.71147  23524481.84347
  21464212.315 7   -792231.133 7   -608711.36348  21464209.79648
  22486303.261 6    117829.863 6     88148.42248  22486305.51948
 18  5 30  0 25 54.9990000  0 10G03G14G16G22G23G26G27G29G31G32       0.000424898
  23610209.855 4   -810980.203 4   -617824.46947  23610210.48747
  20485962.089 6   -539297.359 6   -410873.93848  20485960.41348
  20481138.026 6  -1319167.457 6  -1003959.35248  20481135.68348
  23517917.769 6   -560818.887 6   -427679.68847  23517913.32747
  24264331.175 5  -2329017.035 5  -1746314.46946  24264328.11646
  20506661.886 7   -687865.410 7   -524107.23848  20506663.62848
  22587806.323 6  -2398236.914 6  -1825542.33247  22587807.51947
  23524104.776 6   -105643.395 6    -81146.73447  23524103.80047
  21461942.456 7   -804158.945 7   -618005.76648  21461940.43748
  22486469.034 6    118699.762 6     88826.25448  22486470.88248
 18  5 30  0 25 59.9990000  0 10G03G14G16G22G23G26G27G29G31G32       0.000415604
  23607835.894 5   -823453.094 5   -627543.60247  23607837.45247
  20484514.784 6   -546901.500 6   -416799.24248  20484513.78448
  20477715.995 6  -1337153.145 6  -1017974.17648  20477713.33548
  23516220.464 5   -569738.023 5   -434629.67247  23516215.89047
  24258305.300 5  -2360684.676 5  -1770990.54346  24258302.10146
  20504795.401 7   -697672.000 7   -531748.73848  20504797.04648
  22581613.823 6  -2430779.539 6  -1850900.22347  22581614.94847
  23523725.519 6   -107637.004 6    -82700.19147  23523724.82747
  21459669.347 7   -816104.484 7   -627313.98848  21459667.12048
  22486632.222 6    119557.246 6     89494.41448  22486634.17948
 18  5 30  0 26  4.9990000  0 10G03G14G16G22G23G26G27G29G31G32       0.000406298
  23605460.519 5   -835934.531 5   -637269.39847  23605462.17947
  20483066.597 6   -554511.730 6   -422729.30148  20483065.70648
  20474291.511 6  -1355147.074 6  -1031995.41848  20474289.24548
  23514520.987 5   -578670.031 5   -441589.67247  23514516.85847
  24252275.644 5  -2392369.703 5  -1795680.16446  24252272.65146
  20502926.862 7   -707491.137 7   -539400.00848  20502928.55048
  22575418.105 6  -2463338.082 6  -1876270.51247  22575419.39747
  23523344.464 6   -109639.855 6    -84260.86747  23523343.49947
  21457393.144 7   -828067.445 7   -636635.78148  21457390.68748
  22486793.300 6    120402.629 6     90153.14848  22486794.87448
 18  5 30  0 26  9.9990000  0 10G03G14G16G22G23G26G27G29G31G32       0.000396978
  23603083.073 5   -848424.941 5   -647002.19547  23603085.28847
  20481617.167 6   -562128.512 6   -428664.46548  20481616.03848
  20470865.612 6  -1373149.719 6  -1046023.45748  20470863.12848
  23512818.386 6   -587615.320 6   -448560.04347  23512814.44047
  24246242.339 5  -2424072.508 5  -1820383.64846  24246239.82746
  20501055.847 7   -717323.301 7   -547061.43448  20501057.11248
  22569219.659 6  -2495912.813 6  -1901653.41047  22569220.95647
  23522961.347 6   -111652.469 6    -85829.13747  23522960.31947
  21455112.987 7   -840048.254 7   -645971.47748  21455110.67548
  22486951.597 6    121235.414 6     90802.07048  22486953.45648
 18  5 30  0 26 14.9990000  0 10G03G14G16G22G23G26G27G29G31G32       0.000387646
  23600704.698 5   -860924.156 5   -656741.84047  23600706.85847
  20480166.589 6   -569751.598 6   -434604.53548  20480165.59348
  20467437.925 6  -1391160.805 6  -1060058.07048  20467436.02248
  23511113.995 6   -596573.723 6   -455540.62147  23511110.03847
  24240206.425 5  -2455792.891 5  -1845100.83246  24240203.73046
  20499182.433 7   -727168.238 7   -554732.81648  20499184.41748
  22563017.901 6  -2528503.699 6  -1927048.90647  22563019.07347
  23522576.440 6   -113674.563 6    -87404.79347  23522575.48047
  21452829.823 7   -852046.688 7   -655320.90248  21452827.51948
  22487107.823 6    122055.863 6     91441.36748  22487109.14748
 18  5 30  0 26 19.9990000  0 10G03G14G16G22G23G26G27G29G31G32       0.000378300
  23598324.487 5   -873431.176 5   -666487.56647  23598326.63647
  20478714.886 6   -577379.980 6   -440548.73448  20478714.02648
  20464009.237 6  -1409179.379 6  -1074098.52048  20464007.00348
  23509406.972 5   -605544.223 5   -462530.63747  23509402.92547
  24234167.003 5  -2487529.832 5  -1869830.90246  24234164.19846
  20497306.714 7   -737024.992 7   -562413.40648  20497308.49948
  22556812.597 6  -2561109.664 6  -1952456.14547  22556813.80047
  23522190.433 6   -115705.148 6    -88987.07047  23522189.21047
  21450543.253 7   -864061.730 7   -664683.27748  21450541.24948
  22487261.667 6    122864.926 6     92071.79748  22487263.36648
 18  5 30  0 26 24.9990000  0 10G03G14G16G22G23G26G27G29G31G32       0.000368942
  23595942.440 5   -885946.355 5   -676239.65247  23595945.29247
  20477262.159 6   -585014.063 6   -446497.37548  20477261.42948
  20460579.448 6  -1427205.816 6  -1088145.09048  20460577.26548
  23507697.659 6   -614527.164 6   -469530.33247  23507694.47247
  24228124.675 5  -2519283.664 5  -1894574.16446  24228121.37046
  20495428.730 7   -746893.922 7   -570103.48448  20495430.29248
  22550604.956 6  -2593731.051 6  -1977875.40247  22550606.40947
  23521802.245 6   -117744.629 6    -90576.27347  23521800.66747
  21448253.675 7   -876093.719 7   -674058.85948  21448251.71448
  22487413.612 6    123662.293 6     92693.11348  22487415.15548
 18  5 30  0 26 29.9990000  0 10G03G14G16G22G23G26G27G29G31G32       0.000359571
  23593559.628 5   -898469.547 5   -685997.97747  23593562.17547
  20475808.909 6   -592653.680 6   -452450.32848  20475807.55048
  20457147.597 6  -1445239.930 6  -1102197.64548  20457145.10548
  23505985.401 6   -623522.461 6   -476539.65647  23505982.94047
  24222078.690 5  -2551054.234 5  -1919330.45346  24222075.44046
  20493548.425 7   -756774.867 7   -577802.92248  20493550.45248
  22544394.308 6  -2626367.656 6  -2003306.53147  22544396.14747
  23521412.284 6   -119792.852 6    -92172.30547  23521411.18347
  21445961.136 7   -888142.551 7   -683447.56348  21445959.10548
  22487562.894 6    124448.043 6     93305.37548  22487564.89048
 18  5 30  0 26 34.9990000  0 10G03G14G16G22G23G26G27G29G31G32       0.000350189
  23591175.292 5   -911000.305 5   -695762.21547  23591177.62047
  20474353.776 6   -600298.402 6   -458407.26248  20474352.79248
  20453714.284 6  -1463281.344 6  -1116255.88748  20453712.09748
  23504271.315 6   -632529.668 6   -483558.27747  23504268.91747
  24216029.339 5  -2582841.051 5  -1944099.41446  24216026.49146
  20491666.175 7   -766667.414 7   -585511.39548  20491667.78848
  22538180.948 6  -2659019.063 6  -2028749.17647  22538183.08147
  23521020.706 6   -121849.371 6    -93774.78547  23521020.21047
  21443665.105 7   -900207.691 7   -692848.97348  21443662.92548
  22487710.487 6    125222.621 6     93908.93048  22487712.54648
 18  5 30  0 26 39.9990000  0 10G03G14G16G22G23G26G27G29G31G32       0.000340794
  23588789.222 4   -923538.391 4   -705532.15247  23588791.71847
  20472898.144 6   -607947.980 6   -464367.97348  20472896.57748
  20450279.784 6  -1481329.766 6  -1130319.59448  20450277.55448
  23502555.581 6   -641548.520 6   -490585.97747  23502553.02247
  24209977.651 5  -2614643.914 5  -1968880.85946  24209975.26146
  20489781.355 7   -776571.328 7   -593228.74248  20489783.47648
  22531964.980 6  -2691684.953 6  -2054203.11747  22531966.48347
  23520627.894 6   -123913.961 6    -95383.57847  23520627.27247
  21441365.964 7   -912288.953 7   -702262.94148  21441363.91348
  22487855.378 6    125986.285 6     94503.98448  22487857.99548
 18  5 30  0 26 44.9990000  0 10G03G14G16G22G23G26G27G29G31G32       0.000331387
  23586402.511 4   -936084.113 4   -715308.04747  23586404.50347
  20471441.355 6   -615602.688 6   -470332.68448  20471440.09348
  20446844.206 6  -1499385.434 6  -1144388.94948  20446841.95248
  23500836.761 6   -650579.285 6   -497622.93847  23500834.56547
  24203922.831 5  -2646463.035 5  -1993674.96546  24203920.31246
  20487894.581 7   -786486.793 7   -600955.07448  20487896.42948
  22525746.089 6  -2724365.586 6  -2079668.55947  22525747.69047
  23520233.167 6   -125986.820 6    -96998.80947  23520232.92947
  21439063.761 7   -924386.555 7   -711689.64548  21439062.24148
  22487998.440 6    126738.824 6     95090.36748  22488001.56548
 18  5 30  0 26 49.9990000  0 10G03G14G16G22G23G26G27G29G31G32       0.000321968
  23584014.409 3   -948637.039 3   -725089.55547  23584015.35147
  20469983.980 6   -623262.176 6   -476301.12148  20469982.33948
  20443406.870 6  -1517448.051 6  -1158463.71548  20443404.77248
  23499116.105 6   -659621.641 6   -504668.93847  23499114.20247
  24197864.526 5  -2678298.043 5  -2018481.48846  24197861.92146
  20486005.722 7   -796413.590 7   -608690.24648  20486007.51948
  22519524.355 6  -2757060.621 6  -2105145.19947  22519526.32747
  23519837.370 6   -128067.680 6    -98620.27747  23519837.35847
  21436758.878 7   -936500.184 7   -721128.83648  21436756.81248
  22488140.003 6    127480.484 6     95668.27348  22488142.28448
 18  5 30  0 26 54.9990000  0 10G03G14G16G22G23G26G27G29G31G32       0.000312536
  23581623.792 3   -961197.457 3   -734876.89547  23581625.80447
  20468525.472 6   -630926.617 6   -482273.41448  20468523.83148
  20439968.136 6  -1535517.809 6  -1172544.05148  20439965.85548
  23497393.300 6   -668675.813 6   -511724.14147  23497390.91747
  24191804.026 5  -2710149.141 5  -2043300.52746  24191800.65146
  20484114.011 7   -806351.832 7   -616434.34048  20484116.46448
  22513300.089 6  -2789770.242 6  -2130633.21147  22513302.20247
  23519439.831 6   -130156.734 6   -100248.12147  23519439.33547
  21434450.433 7   -948629.988 7   -730580.64848  21434448.78848
  22488278.909 6    128211.113 6     96237.58248  22488281.45248
 18  5 30  0 26 59.9990000  0 10G03G14G16G22G23G26G27G29G31G32       0.000303093
  23579233.019 2   -973764.590 2   -744669.46947  23579233.96447
  20467065.855 6   -638595.301 6   -488249.02048  20467064.69048
  20436528.245 6  -1553593.977 6  -1186629.37548  20436526.13248
  23495667.995 6   -677741.031 6   -518787.95347  23495665.85847
  24185740.105 5  -2742015.625 5  -2068131.55546  24185737.04246
  20482221.097 7   -816300.867 7   -624186.84048  20482222.98348
  22507072.933 6  -2822493.703 6  -2156132.02047  22507074.78047
  23519041.284 6   -132253.281 6   -101881.80547  23519040.59347
  21432139.425 7   -960775.273 7   -740044.51648  21432137.45648
  22488415.651 6    128931.363 6     96798.79748  22488418.52648
 18  5 30  0 27  4.9990000  0 10G03G14G16G22G23G26G27G29G31G32       0.000293638
  23576840.323 2   -986339.102 2   -754467.80147  23576841.04247
  20465606.003 6   -646268.766 6   -494228.34048  20465604.58148
  20433087.644 6  -1571677.129 6  -1200720.14548  20433085.14748
  23493940.925 6   -686817.934 6   -525860.87147  23493938.12847
  24179672.073 5  -2773898.031 5  -2092974.98446  24179669.53046
  20480325.917 7   -826261.250 7   -631948.17248  20480327.89748
  22500843.136 6  -2855231.555 6  -2181642.02747  22500844.94047
  23518640.800 6   -134357.879 6   -103521.75447  23518639.97647
  21429824.987 7   -972936.578 7   -749520.85248  21429823.11248
  22488551.136 6    129640.742 6     97351.55548  22488553.48048
 18  5 30  0 27  9.9990000  0 10G03G14G16G22G23G26G27G29G31G32       0.000284172
  23574446.612 2   -998919.887 2   -764271.02346  23574446.52246
  20464145.206 6   -653946.031 6   -500210.62948  20464143.10848
  20429645.175 6  -1589766.242 6  -1214815.56348  20429643.10848
  23492211.519 6   -695905.504 6   -532942.09447  23492208.66747
  24173602.792 5  -2805795.281 5  -2117830.00046  24173599.84346
  20478428.394 7   -836231.977 7   -639717.57448  20478430.23048
  22494610.706 6  -2887982.781 6  -2207162.46147  22494612.75347
  23518238.698 6   -136469.523 6   -105167.18847  23518237.89047
  21427507.870 7   -985112.934 7   -759008.92648  21427506.31948
  22488684.112 6    130340.191 6     97896.56648  22488687.17948
 18  5 30  0 27 14.9990000  0 10G03G14G16G22G23G26G27G29G31G32       0.000274694
  23572050.675 4  -1011506.977 4   -774079.15246  23572051.52246
  20462683.323 6   -661627.082 6   -506195.86348  20462681.92148
  20426201.769 6  -1607861.285 6  -1228915.59848  20426199.35548
  23490480.487 6   -705003.723 6   -540031.61347  23490477.06947
  24167530.261 5  -2837707.391 5  -2142696.56646  24167527.08946
  20476528.690 7   -846213.020 7   -647495.01248  20476531.02648
  22488376.089 6  -2920747.293 6  -2232693.25447  22488377.74947
  23517835.565 6   -138588.188 6   -106818.10247  23517834.41347
  21425188.144 7   -997304.230 7   -768508.64148  21425186.49948
  22488814.690 6    131029.738 6     98433.85547  22488817.83147
 18  5 30  0 27 19.9990000  0 10G03G14G16G22G23G26G27G29G31G32       0.000265205
  23569653.995 4  -1024100.758 4   -783892.48447  23569655.14047
  20461220.745 6   -669312.305 6   -512184.35248  20461219.34748
  20422757.081 6  -1625962.672 6  -1243020.58248  20422754.91748
  23488747.050 6   -714112.934 6   -547129.70747  23488743.39047
  24161454.714 5  -2869634.684 5  -2167574.98846  24161451.20646
  20474627.581 7   -856204.750 7   -655280.77348  20474629.51548
  22482138.730 6  -2953525.535 6  -2258234.73047  22482140.38647
  23517431.237 6   -140714.313 6   -108474.82447  23517429.90947
  21422865.159 7  -1009510.953 7   -778020.38348  21422863.15948
  22488944.120 6    131709.016 6     98963.15647  22488947.56247
 18  5 30  0 27 24.9990000  0 10G03G14G16G22G23G26G27G29G31G32       0.000255705
  23567255.972 3  -1036700.770 3   -793710.68846  23567257.46846
  20459757.730 6   -677001.230 6   -518175.73448  20459756.46448
  20419311.581 6  -1644069.938 6  -1257130.13748  20419309.28448
  23487011.167 6   -723232.750 6   -554236.06647  23487008.08147
  24155376.339 5  -2901576.758 5  -2192464.91046  24155372.36646
  20472724.245 7   -866206.762 7   -663074.54748  20472725.88248
  22475898.315 6  -2986316.977 6  -2283786.50447  22475900.41347
  23517024.511 6   -142847.426 6   -110136.98847  23517024.12447
  21420539.831 7  -1021732.551 7   -787543.70748  21420537.56248
  22489071.769 6    132378.453 6     99484.78148  22489075.09748
 18  5 30  0 27 29.9990000  0 10G03G14G16G22G23G26G27G29G31G32       0.000246191
  23564857.089 4  -1049307.340 4   -803533.96946  23564857.85546
  20458293.776 6   -684694.105 6   -524170.18848  20458292.31548
  20415864.378 6  -1662183.375 6  -1271244.49248  20415862.36648
  23485273.558 6   -732363.406 6   -561350.85947  23485270.64047
  24149295.425 5  -2933533.809 5  -2217366.51646  24149291.65546
  20470819.019 7   -876219.293 7   -670876.52748  20470820.69448
  22469656.198 6  -3019121.883 6  -2309348.77047  22469657.96447
  23516617.972 6   -144987.801 6   -111804.82847  23516617.27647
  21418210.964 7  -1033969.309 7   -797078.84848  21418209.25348
  22489197.433 6    133037.785 6     99998.53147  22489200.56247
 18  5 30  0 27 34.9990000  0 10G03G14G16G22G23G26G27G29G31G32       0.000236670
  23562456.675 5  -1061919.281 5   -813361.44147  23562458.04647
  20456829.362 6   -692389.895 6   -530166.90648  20456827.86648
  20412416.628 7  -1680301.855 7  -1285362.78548  20412414.51148
  23483534.776 6   -741503.840 6   -568473.29347  23483530.85847
  24143211.198 5  -2965504.793 5  -2242278.96146  24143207.92946
  20468911.495 7   -886241.270 7   -678685.85948  20468913.64448
  22463410.886 6  -3051939.137 6  -2334920.65647  22463413.10547
  23516208.878 6   -147134.352 6   -113477.47347  23516208.51947
  21415879.605 7  -1046220.125 7   -806624.94548  21415877.76548
  22489321.120 6    133688.082 6    100505.24647  22489324.28847
 18  5 30  0 27 39.9990000  0 10G03G14G16G22G23G26G27G29G31G32       0.000227135
  23560055.456 5  -1074537.043 5   -823193.47346  23560056.73746
  20455364.261 6   -700088.926 6   -536166.15248  20455362.91748
  20408968.105 6  -1698425.805 6  -1299485.34448  20408965.82348
  23481793.245 6   -750654.527 6   -575603.70347  23481789.48747
  24137124.573 5  -2997490.023 5  -2267202.52046  24137120.99546
  20467002.917 7   -896273.129 7   -686502.88348  20467004.95648
  22457163.597 6  -3084769.137 6  -2360502.46947  22457165.99147
  23515799.355 6   -149287.555 6   -115155.30547  23515798.92147
  21413545.870 7  -1058485.426 7   -816182.32448  21413543.98748
  22489443.042 6    134328.941 6    101004.60548  22489446.32348
 18  5 30  0 27 44.9990000  0 10G03G14G16G22G23G26G27G29G31G32       0.000217590
  23557653.636 5  -1087160.496 5   -833029.93446  23557654.27646
  20453898.620 6   -707791.105 6   -542167.86348  20453897.48048
  20405518.190 6  -1716555.035 6  -1313612.02348  20405515.83948
  23480049.433 6   -759815.145 6   -582741.84847  23480045.73747
  24131035.315 5  -3029489.340 5  -2292137.03946  24131031.92946
  20465091.933 7   -906314.664 7   -694327.46148  20465093.83548
  22450913.901 6  -3117611.727 6  -2386094.10247  22450915.99547
  23515388.925 6   -151447.090 6   -116838.08247  23515388.70647
  21411209.144 7  -1070765.016 7   -825750.85248  21411207.13648
  22489563.581 6    134960.539 6    101496.73848  22489566.53048
 18  5 30  0 27 49.9990000  0 10G03G14G16G22G23G26G27G29G31G32       0.000208033
  23555250.105 5  -1099789.555 5   -842870.75846  23555251.46046
  20452431.987 6   -715496.324 6   -548171.93048  20452430.64448
  20402067.120 6  -1734689.555 6  -1327742.82848  20402064.90948
  23478305.222 5   -768985.867 5   -589887.86347  23478301.18747
  24124943.237 5  -3061502.699 5  -2317082.50046  24124939.54246
  20463179.190 7   -916365.883 7   -702159.58648  20463181.66348
  22444661.714 6  -3150466.762 6  -2411695.43047  22444663.82747
  23514976.511 6   -153613.074 6   -118525.84847  23514976.10147
  21408869.370 7  -1083058.848 7   -835330.45748  21408867.51548
  22489681.651 6    135582.848 6    101981.64848  22489684.59748
 18  5 30  0 27 54.9990000  0 10G03G14G16G22G23G26G27G29G31G32       0.000198467
  23552845.331 5  -1112424.098 5   -852715.85546  23552846.74146
  20450965.480 6   -723204.445 6   -554178.25848  20450964.14448
  20398615.276 6  -1752829.180 6  -1341877.59848  20398613.53848
  23476557.323 6   -778166.375 6   -597041.50047  23476553.69447
  24118848.698 5  -3093529.926 5  -2342038.79346  24118845.04646
  20461264.534 7   -926426.574 7   -709999.08648  20461266.92548
  22438407.042 6  -3183334.168 6  -2437306.39147  22438409.30447
  23514562.901 6   -155785.281 6   -120218.49647  23514562.99947
  21406527.636 7  -1095366.750 7   -844921.03148  21406525.37048
  22489798.464 6    136196.098 6    102459.48848  22489801.04648
 18  5 30  0 27 59.9990000  0 10G03G14G16G22G23G26G27G29G31G32       0.000188889
  23550440.472 5  -1125064.039 5   -862565.16046  23550441.22246
  20449498.269 6   -730915.438 6   -560186.83248  20449496.81948
  20395162.386 6  -1770973.805 6  -1356016.26648  20395160.53448
  23474808.581 6   -787356.617 6   -604202.72747  23474805.34347
  24112752.003 5  -3125570.863 5  -2367005.76646  24112747.60546
  20459348.550 7   -936496.691 7   -717845.93848  20459350.69848
  22432150.784 6  -3216213.746 6  -2462926.84047  22432152.62447
  23514148.901 6   -157963.621 6   -121915.91847  23514148.49547
  21404182.495 7  -1107688.609 7   -854522.48848  21404180.95248
  22489913.472 6    136800.355 6    102930.32847  22489916.18347
 18  5 30  0 28  4.9990000  0 10G03G14G16G22G23G26G27G29G31G32       0.000179300
  23548034.214 5  -1137708.840 5   -872418.26246  23548034.82346
  20448030.620 6   -738628.684 6   -566197.15648  20448029.05848
  20391708.847 7  -1789122.934 7  -1370158.45348  20391706.70648
  23473058.011 5   -796556.125 5   -611371.17647  23473054.08947
  24106651.948 5  -3157625.074 5  -2391983.08246  24106647.90546
  20457430.565 7   -946575.703 7   -725699.72348  20457433.23748
  22425892.019 6  -3249104.996 6  -2488556.37547  22425893.22647
  23513733.370 6   -160147.590 6   -123617.71547  23513733.00347
  21401835.753 7  -1120023.941 7   -864134.44148  21401833.16748
  22490026.972 6    137396.109 6    103394.53948  22490029.63648
 18  5 30  0 28  9.9990000  0 10G03G14G16G22G23G26G27G29G31G32       0.000169703
  23545626.667 5  -1150358.508 5   -882275.14546  23545627.58146
  20446562.136 6   -746344.297 6   -572209.32848  20446560.68748
  20388254.378 6  -1807276.598 6  -1384304.16048  20388252.23048
  23471305.417 5   -805764.887 5   -618546.82047  23471302.52247
  24100550.019 5  -3189692.473 5  -2416970.65246  24100545.91346
  20455510.964 7   -956663.637 7   -733560.45748  20455513.52648
  22419629.987 6  -3282007.914 6  -2514195.01248  22419631.81948
  23513315.987 6   -162337.211 6   -125323.91447  23513316.02247
  21399485.612 7  -1132372.691 7   -873756.84448  21399483.49948
  22490139.105 6    137983.371 6    103852.12948  22490140.88248
 18  5 30  0 28 14.9990000  0 10G03G14G16G22G23G26G27G29G31G32       0.000160093
  23543218.612 5  -1163013.059 5   -892135.84046  23543219.72246
  20445093.745 6   -754062.207 6   -578223.28548  20445092.13248
  20384799.315 6  -1825434.742 6  -1398453.37548  20384796.85148
  23469551.487 5   -814982.902 5   -625729.69547  23469548.13647
  24094445.464 5  -3221773.055 5  -2441968.51246  24094441.09746
  20453589.464 7   -966760.508 7   -741428.15248  20453591.75748
  22413366.636 6  -3314922.473 6  -2539842.71147  22413368.62047
  23512898.503 5   -164532.492 5   -127034.51647  23512898.10847
  21397132.847 7  -1144734.863 7   -883389.69948  21397130.81948
  22490249.284 6    138562.117 6    104303.09048  22490250.91348
 18  5 30  0 28 19.9990000  0 10G03G14G16G22G23G26G27G29G31G32       0.000150475
  23540810.394 5  -1175672.055 5   -901999.99247  23540810.97247
  20443624.800 6   -761781.977 6   -584238.69148  20443623.14448
  20381343.284 6  -1843596.957 6  -1412605.74248  20381340.89448
  23467795.901 5   -824209.742 5   -632919.46147  23467792.56547
  24088338.011 5  -3253866.395 5  -2466976.28946  24088334.14046
  20451666.792 7   -976865.836 7   -749302.43048  20451668.71848
  22407101.605 6  -3347848.219 6  -2565499.13347  22407102.98747
  23512479.839 6   -166732.949 6   -128749.14547  23512479.52647
  21394778.183 7  -1157110.023 7   -893032.68048  21394776.11248
  22490357.925 6    139132.820 6    104747.77748  22490359.65948
 18  5 30  0 28 24.9990000  0 10G03G14G16G22G23G26G27G29G31G32       0.000140844
  23538399.870 4  -1188335.375 4   -911867.54346  23538401.30046
  20442154.995 6   -769503.523 6   -590255.48048  20442153.40948
  20377885.776 6  -1861763.105 6  -1426761.18448  20377883.69048
  23466037.901 5   -833445.320 5   -640116.00847  23466034.83547
  24082228.183 5  -3285972.324 5  -2491993.89546  24082224.29246
  20449742.151 7   -986979.523 7   -757183.23048  20449744.48748
  22400833.909 6  -3380785.008 6  -2591164.15647  22400835.58147
  23512060.276 5   -168938.648 5   -130467.87547  23512059.48047
  21392420.886 7  -1169498.039 7   -902685.67648  21392418.86248
  22490464.722 6    139695.520 6    105186.23447  22490466.73747
 18  5 30  0 28 29.9990000  0 10G03G14G16G22G23G26G27G29G31G32       0.000131205
  23535989.151 4  -1201003.582 4   -921738.86346  23535990.44446
  20440684.987 6   -777227.363 6   -596274.06348  20440684.02248
  20374428.745 7  -1879933.695 7  -1440920.09048  20374426.19448
  23464279.175 5   -842690.129 5   -647319.76247  23464276.18347
  24076116.917 5  -3318091.402 5  -2517021.75046  24076112.18346
  20447815.690 7   -997102.148 7   -765070.99648  20447817.78048
  22394563.605 6  -3413733.359 6  -2616838.20347  22394565.33547
  23511639.409 6   -171149.973 6   -132190.97747  23511638.94847
  21390061.144 7  -1181899.410 7   -912349.08648  21390059.22248
  22490570.940 6    140249.703 6    105618.05548  22490572.02248
 18  5 30  0 28 34.9990000  0 10G03G14G16G22G23G26G27G29G31G32       0.000121555
  23533578.550 4  -1213675.992 4   -931613.48046  23533579.27246
  20439215.323 6   -784952.766 6   -602293.86348  20439213.77648
  20370969.948 7  -1898108.094 7  -1455081.95748  20370968.03448
  23462517.644 5   -851943.574 5   -654530.25047  23462515.56947
  24070001.909 5  -3350222.934 5  -2542059.31646  24069997.49146
  20445888.026 7  -1007233.004 7   -772965.16848  20445890.06948
  22388291.589 6  -3446692.578 6  -2642520.70747  22388293.37847
  23511217.112 6   -173366.258 6   -133917.96547  23511216.84347
  21387698.519 7  -1194313.465 7   -922022.37148  21387696.99548
  22490674.776 6    140796.082 6    106043.78948  22490675.94048
 18  5 30  0 28 39.9990000  0 10G03G14G16G22G23G26G27G29G31G32       0.000111897
  23531166.362 4  -1226352.207 4   -941491.06646  23531167.05046
  20437745.034 6   -792679.398 6   -608314.61748  20437743.51548
  20367510.433 7  -1916285.922 7  -1469246.49648  20367508.54248
  23460755.394 5   -861205.273 5   -661747.16447  23460753.42147
  24063885.230 5  -3382366.539 5  -2567106.27346  24063880.93346
  20443958.940 7  -1017371.754 7   -780865.49648  20443960.78848
  22382018.050 6  -3479662.320 6  -2668211.40647  22382019.17947
  23510794.917 6   -175587.219 6   -135648.58647  23510794.39047
  21385333.839 7  -1206739.887 7   -931705.29348  21385331.49148
  22490777.253 6    141334.953 6    106463.67648  22490778.78848
 18  5 30  0 28 44.9990000  0 10G03G14G16G22G23G26G27G29G31G32       0.000102226
  23528753.698 4  -1239032.574 4   -951371.89546  23528754.11646
  20436274.315 6   -800407.559 6   -614336.57048  20436272.90548
  20364050.815 7  -1934467.449 7  -1483413.92248  20364048.90148
  23458991.253 5   -870475.430 5   -668970.67647  23458989.25347
  24057766.745 5  -3414522.465 5  -2592162.84446  24057762.13646
  20442027.480 7  -1027518.688 7   -788772.19948  20442029.46848
  22375741.487 5  -3512642.809 5  -2693910.48847  22375743.39747
  23510371.245 6   -177813.145 6   -137383.09047  23510370.90947
  21382967.089 7  -1219178.922 7   -941398.04748  21382965.23348
  22490878.261 6    141866.066 6    106877.51648  22490879.80848
 18  5 30  0 28 49.9990000  0 10G03G14G16G22G23G26G27G29G31G32       0.000092548
  23526340.144 3  -1251716.406 3   -961255.40646  23526340.78846
  20434803.612 6   -808136.570 6   -620359.18048  20434802.51948
  20360590.573 7  -1952652.047 7  -1497583.73448  20360588.05448
  23457226.370 5   -879753.488 5   -676200.35247  23457224.10847
  24051644.987 5  -3446690.012 5  -2617228.45346  24051641.01946
  20440095.315 7  -1037673.098 7   -796684.73848  20440097.31948
  22369464.050 6  -3545633.340 6  -2719617.39547  22369465.51947
  23509946.870 6   -180043.277 6   -139120.87547  23509946.88647
  21380597.440 7  -1231629.863 7   -951100.09848  21380595.42948
  22490977.675 6    142390.059 6    107285.80947  22490979.26547
 18  5 30  0 28 54.9990000  0 10G03G14G16G22G23G26G27G29G31G32       0.000082859
  23523925.362 4  -1264404.582 4   -971142.29746  23523925.94046
  20433332.261 6   -815867.281 6   -626383.10948  20433331.27648
  20357129.355 7  -1970840.578 7  -1511756.61748  20357126.78048
  23455458.792 5   -889040.254 5   -683436.79747  23455456.51947
  24045521.597 5  -3478870.004 5  -2642303.73046  24045517.24546
  20438161.651 7  -1047835.879 7   -804603.78948  20438163.52648
  22363184.042 6  -3578634.781 6  -2745332.79747  22363185.67947
  23509521.448 6   -182278.570 6   -140862.67247  23509521.69447
  21378225.511 7  -1244093.582 7   -960812.08648  21378223.98748
  22491076.300 6    142906.113 6    107687.91447  22491077.35847
 18  5 30  0 28 59.9990000  0 10G03G14G16G22G23G26G27G29G31G32       0.000073160
  23521510.472 4  -1277096.156 4   -981031.83646  23521510.52646
  20431861.292 6   -823598.809 6   -632407.68048  20431860.01148
  20353667.847 7  -1989032.109 7  -1525931.84048  20353665.38248
  23453690.722 5   -898334.867 5   -690679.35547  23453687.91347
  24039395.581 5  -3511061.645 5  -2667388.13346  24039391.22646
  20436226.401 7  -1058006.137 7   -812528.67648  20436227.94448
  22356902.222 5  -3611646.227 5  -2771055.99647  22356903.54647
  23509095.690 6   -184518.082 6   -142607.75047  23509095.60547
  21375851.730 7  -1256569.199 7   -970533.36348  21375849.57748
  22491172.706 6    143415.066 6    108084.48847  22491174.43347
 18  5 30  0 29  4.9990000  0 10G03G14G16G22G23G26G27G29G31G32       0.000063454
  23519095.065 5  -1289791.137 5   -990924.02347  23519094.92547
  20430389.542 6   -831331.121 6   -638432.86748  20430388.69848
  20350205.480 6  -2007226.594 6  -1540109.35548  20350203.19048
  23451919.948 5   -907637.305 5   -697928.00047  23451917.56547
  24033267.237 5  -3543264.734 5  -2692481.44546  24033263.06546
  20434289.565 7  -1068183.828 7   -820459.34048  20434291.16348
  22350618.472 5  -3644667.570 5  -2796786.91047  22350619.82347
  23508668.855 6   -186761.762 6   -144356.05947  23508668.48047
  21373475.456 7  -1269056.605 7   -980263.81348  21373473.05048
  22491268.409 6    143917.023 6    108475.60948  22491270.33148
 18  5 30  0 29  9.9990000  0 10G03G14G16G22G23G26G27G29G31G32       0.000053736
  23516677.800 5  -1302489.348 5  -1000818.73847  23516679.09347
  20428918.097 6   -839064.012 6   -644458.50048  20428916.79648
  20346742.605 7  -2025423.863 7  -1554289.05548  20346740.51148
  23450148.870 5   -916947.297 5   -705182.54347  23450145.92947
  24027137.394 5  -3575479.125 5  -2717583.55946  24027133.28446
  20432351.190 7  -1078368.758 7   -828395.65248  20432353.48048
  22344331.980 5  -3677698.602 5  -2822525.36347  22344334.28447
  23508241.269 6   -189009.438 6   -146107.50447  23508240.30447
  21371097.222 7  -1281555.652 7   -990003.34048  21371095.11248
  22491362.511 6    144412.102 6    108861.36347  22491364.02647
 18  5 30  0 29 14.9990000  0 10G03G14G16G22G23G26G27G29G31G32       0.000044010
  23514260.737 5  -1315191.195 5  -1010716.27047  23514262.03447
  20427446.472 6   -846797.910 6   -650484.91048  20427445.08148
  20343278.901 6  -2043624.379 6  -1568471.27348  20343277.03848
  23448375.698 5   -926265.367 5   -712443.37547  23448372.67547
  24021004.558 5  -3607705.246 5  -2742694.79346  24021000.45646
  20430411.940 7  -1088561.391 7   -836337.96548  20430413.58548
  22338045.480 5  -3710739.801 5  -2848271.74647  22338046.50347
  23507812.675 5   -191261.637 5   -147862.45347  23507811.97247
  21368716.144 7  -1294066.746 7   -999752.24248  21368714.21448
  22491454.948 6    144899.875 6    109241.43447  22491457.21847
 18  5 30  0 29 19.9990000  0 10G03G14G16G22G23G26G27G29G31G32       0.000034273
  23511842.831 5  -1327896.758 5  -1020616.70346  23511844.23346
  20425974.808 6   -854532.879 6   -656512.16048  20425973.35548
  20339814.987 6  -2061828.156 6  -1582656.03948  20339812.67948
  23446600.284 6   -935591.531 6   -719710.53547  23446598.12847
  24014870.237 5  -3639943.160 5  -2767815.24246  24014866.06946
  20428470.878 7  -1098761.773 7   -844286.32048  20428472.68748
  22331755.253 5  -3743791.207 5  -2874026.09047  22331757.27647
  23507382.831 5   -193518.340 5   -149620.92647  23507382.35847
  21366333.112 7  -1306589.918 7  -1009510.55948  21366331.10148
  22491546.206 6    145380.320 6    109615.78947  22491548.64447
 18  5 30  0 29 24.9990000  0 10G03G14G16G22G23G26G27G29G31G32       0.000024529
  23509424.355 5  -1340605.266 5  -1030519.43046  23509426.19846
  20424502.714 6   -862268.164 6   -662539.66848  20424501.48348
  20336350.433 6  -2080034.469 6  -1596842.78548  20336348.73348
  23444824.253 6   -944925.137 6   -726983.48447  23444821.41747
  24008733.612 5  -3672192.074 5  -2792944.26646  24008729.08546
  20426528.144 7  -1108969.176 7   -852240.14148  20426530.23048
  22325464.894 5  -3776851.992 5  -2899787.73447  22325465.93347
  23506952.636 5   -195778.844 5   -151382.36347  23506952.17947
  21363947.901 7  -1319124.457 7  -1019277.72748  21363946.15548
  22491636.425 6    145854.121 6    109984.97747  22491638.89747
 18  5 30  0 29 29.9990000  0 10G03G14G16G22G23G26G27G29G31G32       0.000014772
  23507005.190 5  -1353316.891 5  -1040424.59847  23507007.15147
  20423030.644 6   -870003.895 6   -668567.50848  20423029.00748
  20332885.308 7  -2098243.430 7  -1611031.58248  20332883.47248
  23443046.800 5   -954266.273 5   -734262.29347  23443043.60147
  24002594.167 5  -3704452.129 5  -2818081.98046  24002590.39746
  20424584.511 7  -1119183.707 7   -860199.50848  20424586.05048
  22319171.761 5  -3809922.285 5  -2925556.78147  22319172.94847
  23506521.745 6   -198043.223 6   -153146.81347  23506521.14447
  21361560.581 7  -1331670.449 7  -1029053.83248  21361558.35548
  22491725.190 6    146321.137 6    110348.87147  22491727.73347
 18  5 30  0 29 34.9990000  0 10G03G14G16G22G23G26G27G29G31G32       0.000005011
  23504585.534 5  -1366031.258 5  -1050331.89147  23504588.04647
  20421558.667 6   -877739.797 6   -674595.48848  20421557.24548
  20329419.823 6  -2116454.742 6  -1625222.21948  20329417.97248
  23441268.292 6   -963614.602 6   -741546.69547  23441264.49547
  23996453.370 5  -3736722.945 5  -2843228.05946  23996449.67946
  20422639.605 7  -1129405.082 7   -868164.22348  20422641.10548
  22312876.347 5  -3843001.773 5  -2951333.01647  22312878.17147
  23506090.347 5   -200311.141 5   -154914.02747  23506089.56547
  21359171.120 7  -1344227.586 7  -1038838.60948  21359168.99948
  22491813.401 6    146781.758 6    110707.78147  22491815.48047
 18  5 30  0 29 39.9990000  0 10G03G14G16G22G23G26G27G29G31G32      -0.000004763
  23502166.011 5  -1378748.391 5  -1060241.34447  23502167.99947
  20420086.745 6   -885475.801 6   -680623.54348  20420084.78848
  20325954.136 7  -2134668.367 7  -1639414.64848  20325951.96048
  23439487.331 6   -972970.164 6   -748836.74246  23439484.40146
  23990310.284 5  -3769004.477 5  -2868382.48846  23990307.02646
  20420693.089 7  -1139633.250 7   -876134.22748  20420694.41748
  22306579.230 5  -3876090.418 5  -2977116.35947  22306581.67147
  23505658.503 5   -202582.664 5   -156684.04747  23505657.78847
  21356779.230 7  -1356795.832 7  -1048632.04748  21356777.16348
  22491899.355 6    147235.938 6    111061.66847  22491902.50347
 18  5 30  0 29 44.9990000  0 10G03G14G16G22G23G26G27G29G31G32      -0.000014545
  23499745.261 5  -1391467.973 5  -1070152.70747  23499747.72647
  20418614.370 6   -893211.609 6   -686651.44548  20418612.72248
  20322487.753 7  -2152884.031 7  -1653608.67648  20322485.58948
  23437705.198 6   -982332.629 6   -756132.17647  23437702.48747
  23984165.105 5  -3801296.438 5  -2893545.06646  23984161.14446
  20418745.698 7  -1149867.957 7   -884109.32048  20418747.03848
  22300281.425 5  -3909187.852 5  -3002906.56347  22300283.47647
  23505225.003 5   -204857.496 5   -158456.66047  23505224.61247
  21354385.464 7  -1369374.863 7  -1058433.88748  21354383.41348
  22491984.565 6    147683.996 6    111410.79347  22491987.64047
 18  5 30  0 29 49.9990000  0 10G03G14G16G22G23G26G27G29G31G32      -0.000024336
  23497324.292 5  -1404190.328 5  -1080066.25447  23497326.04247
  20417142.573 6   -900947.480 6   -692679.40248  20417140.49548
  20319020.706 7  -2171101.992 7  -1667804.49248  20319018.52648
  23435922.581 5   -991702.275 5   -763433.20946  23435919.37446
  23978018.214 5  -3833599.059 5  -2918715.92646  23978014.44846
  20416797.159 7  -1160109.461 7   -892089.71148  20416798.33948
  22293981.636 5  -3942294.387 5  -3028703.86347  22293983.10847
  23504791.511 5   -207135.871 5   -160232.02347  23504791.08947
  21351989.425 7  -1381964.918 7  -1068244.32848  21351987.48348
  22492068.901 6    148125.613 6    111754.89147  22492071.69847
 18  5 30  0 29 54.9990000  0 10G03G14G16G22G23G26G27G29G31G32      -0.000034136
  23494902.894 5  -1416915.816 5  -1089982.21147  23494904.77647
  20415670.198 6   -908683.852 6   -698707.74248  20415668.26548
  20315553.698 6  -2189322.680 6  -1682002.43848  20315551.60148
  23434138.089 5  -1001079.473 5   -770740.12546  23434135.05446
  23971869.269 5  -3865912.777 5  -2943895.44546  23971865.58946
  20414846.370 7  -1170358.180 7   -900075.73048  20414847.45648
  22287679.737 5  -3975410.367 5  -3054508.52047  22287681.74947
  23504357.050 5   -209418.320 5   -162010.55947  23504356.53847
  21349591.534 7  -1394566.441 7  -1078063.69548  21349589.22648
  22492151.503 6    148560.309 6    112093.60948  22492154.36248
 18  5 30  0 29 59.9990000  0 10G03G14G16G22G23G26G27G29G31G32      -0.000043943
  23492481.034 4  -1429644.010 4  -1099900.28647  23492482.92547
  20414197.800 6   -916420.246 6   -704736.11348  20414196.36248
  20312086.073 6  -2207545.617 6  -1696202.12548  20312083.37848
  23432352.151 5  -1010463.785 5   -778052.58246  23432348.99946
  23965718.550 5  -3898237.063 5  -2969083.19546  23965714.27646
  20412895.073 7  -1180613.609 7   -908066.97748  20412896.34748
  22281376.105 5  -4008535.340 5  -3080320.18447  22281378.07347
  23503921.464 5   -211704.258 5   -163791.82047  23503921.63247
  21347191.565 7  -1407178.938 7  -1087891.61748  21347189.71848
  22492233.136 6    148988.754 6    112427.43448  22492235.82748
 18  5 30  0 30  4.9990000  0 10G03G14G16G22G23G26G27G29G31G32      -0.000053761
  23490058.472 4  -1442374.508 4  -1109820.16447  23490060.67947
  20412725.667 6   -924156.289 6   -710764.19148  20412724.31548
  20308617.855 6  -2225770.352 6  -1710403.22348  20308615.50748
  23430565.722 5  -1019854.859 5   -785370.30946  23430561.78846
  23959565.128 5  -3930571.488 5  -2994278.85946  23959561.34346
  20410942.097 7  -1190875.414 7   -916063.19148  20410943.42948
  22275071.612 5  -4041668.852 5  -3106138.50847  22275072.58547
  23503486.214 5   -213993.340 5   -165575.53147  23503486.56247
  21344789.565 7  -1419802.012 7  -1097727.77748  21344787.51148
  22492313.526 6    149411.230 6    112756.62147  22492316.15947
 18  5 30  0 30  9.9990000  0 10G03G14G16G22G23G26G27G29G31G32      -0.000063587
  23487635.800 5  -1455107.672 5  -1119742.12547  23487637.80847
  20411253.370 6   -931892.309 6   -716792.26248  20411251.87848
  20305149.237 7  -2243997.332 7  -1724606.06648  20305146.79648
  23428777.870 5  -1029253.039 5   -792693.57446  23428773.40146
  23953410.753 5  -3962916.508 5  -3019482.75046  23953405.90546
  20408988.097 7  -1201143.949 7   -924064.64548  20408989.64748
  22268765.292 5  -4074811.336 5  -3131963.82847  22268766.28047
  23503049.612 5   -216285.949 5   -167361.96947  23503050.47647
  21342384.862 7  -1432436.031 7  -1107572.47348  21342382.92148
  22492393.065 6    149827.340 6    113080.84847  22492395.00747
 18  5 30  0 30 14.9990000  0 10G03G14G16G22G23G26G27G29G31G32      -0.000073421
  23485212.831 5  -1467842.543 5  -1129665.41047  23485214.42147
  20409781.511 6   -939627.363 6   -722819.57848  20409779.93748
  20301680.730 6  -2262225.543 6  -1738809.86748  20301678.37048
  23426987.784 5  -1038657.410 5   -800021.66847  23426983.96047
  23947253.339 5  -3995271.035 5  -3044694.07846  23947249.38646
  20407032.683 7  -1211418.246 7   -932070.59448  20407034.08948
  22262457.089 5  -4107961.711 5  -3157795.27747  22262457.93747
  23502612.940 5   -218581.152 5   -169150.46147  23502613.25747
  21339979.136 7  -1445079.992 7  -1117424.90648  21339977.17548
  22492471.480 6    150238.066 6    113400.88348  22492473.38648
 18  5 30  0 30 19.9990000  0 10G03G14G16G22G23G26G27G29G31G32      -0.000083265
  23482788.917 5  -1480580.305 5  -1139590.96947  23482790.94847
  20408309.448 6   -947362.676 6   -728847.09848  20408308.08948
  20298211.347 6  -2280456.230 6  -1753015.59848  20298209.35848
  23425197.237 5  -1048069.152 5   -807355.49647  23425192.75747
  23941094.589 5  -4027636.352 5  -3069913.80546  23941090.72246
  20405076.425 7  -1221699.527 7   -940081.98448  20405077.68348
  22256146.792 5  -4141121.234 5  -3183633.85947  22256147.81547
  23502175.815 5   -220880.125 5   -170941.85547  23502175.64047
  21337570.722 7  -1457735.129 7  -1127286.05548  21337568.76948
  22492548.175 6    150642.176 6    113715.75848  22492550.35148
 18  5 30  0 30 24.9990000  0 10G03G14G16G22G23G26G27G29G31G32      -0.000093119
  23480364.003 5  -1493320.523 5  -1149518.42647  23480366.33547
  20406837.862 6   -955097.758 6   -734874.44948  20406836.21048
  20294741.901 6  -2298688.859 6  -1767222.84448  20294739.61248
  23423405.144 5  -1057487.836 5   -814694.74247  23423400.46047
  23934933.230 5  -4060011.965 5  -3095141.55546  23934929.33946
  20403118.722 7  -1231987.344 7   -948098.46948  20403120.32748
  22249834.605 5  -4174289.398 5  -3209479.17647  22249836.19447
  23501737.948 5   -223182.367 5   -172735.83247  23501737.64047
  21335160.894 7  -1470400.996 7  -1137155.56648  21335158.66748
  22492623.769 6    151040.152 6    114025.85947  22492626.06247
 18  5 30  0 30 29.9990000  0 10G03G14G16G22G23G26G27G29G31G32      -0.000102978
  23477939.003 5  -1506062.742 5  -1159447.44547  23477940.83947
  20405366.370 6   -962832.090 6   -740901.20748  20405364.78448
  20291271.972 6  -2316923.012 6  -1781431.27048  20291269.83548
  23421611.230 5  -1066912.914 5   -822038.95747  23421607.46847
  23928770.737 5  -4092397.324 5  -3120376.89846  23928767.42146
  20401159.855 7  -1242281.156 7   -956119.62148  20401161.71448
  22243521.769 5  -4207465.680 5  -3235330.82447  22243523.17547
  23501299.151 5   -225487.461 5   -174531.98846  23501298.60146
  21332748.909 7  -1483077.047 7  -1147033.01248  21332746.58548
  22492698.362 6    151432.480 6    114331.55548  22492700.74548
 18  5 30  0 30 34.9990000  0 10G03G14G16G22G23G26G27G29G31G32      -0.000112846
  23475514.253 5  -1518806.574 5  -1169377.70347  23475516.31947
  20403894.237 6   -970565.273 6   -746927.06648  20403892.53048
  20287801.964 6  -2335158.270 6  -1795640.57048  20287799.62048
  23419816.378 6  -1076344.016 6   -829387.86347  23419812.55447
  23922605.808 5  -4124792.023 5  -3145619.52346  23922602.81546
  20399199.995 7  -1252580.602 7   -964145.17248  20399201.57748
  22237206.550 5  -4240649.648 5  -3261188.46147  22237208.08547
  23500860.253 5   -227795.000 5   -176330.08647  23500859.88247
  21330334.503 7  -1495762.891 7  -1156918.09448  21330332.78048
  22492772.105 6    151819.543 6    114633.14847  22492774.18747
 18  5 30  0 30 39.9990000  0 10G03G14G16G22G23G26G27G29G31G32      -0.000122725
  23473088.284 5  -1531552.535 5  -1179309.60547  23473090.53047
  20402423.136 6   -978297.918 6   -752952.50848  20402421.27248
  20284331.620 6  -2353395.207 6  -1809851.16848  20284329.31248
  23418021.042 6  -1085781.719 6   -836741.92647  23418017.31547
  23916440.472 5  -4157196.695 5  -3170869.91846  23916436.85146
  20397238.769 7  -1262886.277 7   -972175.57848  20397240.36648
  22230890.464 5  -4273841.914 5  -3287052.54747  22230892.29647
  23500420.706 6   -230105.527 6   -178130.50446  23500420.17146
  21327918.565 7  -1508459.117 7  -1166811.25448  21327916.70248
  22492845.136 6    152200.742 6    114930.18047  22492846.59347
 18  5 30  0 30 44.9990000  0 10G03G14G16G22G23G26G27G29G31G32      -0.000132610
  23470662.214 5  -1544300.090 5  -1189242.77347  23470664.37047
  20400952.081 6   -986029.418 6   -758977.06348  20400950.32748
  20280861.526 6  -2371633.227 6  -1824062.61348  20280859.03048
  23416223.511 6  -1095225.504 6   -844100.72347  23416220.53047
  23910271.769 5  -4189610.586 5  -3196127.51246  23910268.85146
  20395276.761 7  -1273197.590 7   -980210.37548  20395278.56248
  22224572.894 5  -4307041.840 5  -3312922.61747  22224575.05847
  23499980.495 6   -232418.504 6   -179932.84047  23499980.00347
  21325500.753 7  -1521165.102 7  -1176712.02748  21325498.75348
  22492916.433 6    152576.652 6    115223.08247  22492918.34747
 18  5 30  0 30 49.9990000  0 10G03G14G16G22G23G26G27G29G31G32      -0.000142504
  23468236.331 5  -1557048.813 5  -1199176.82447  23468238.75347
  20399480.722 6   -993759.387 6   -765000.42248  20399479.36248
  20277390.190 6  -2389871.941 6  -1838274.60548  20277388.12448
  23414425.823 6  -1104674.938 6   -851463.93847  23414422.52247
  23904101.644 5  -4222033.398 5  -3221392.03146  23904098.76546
  20393313.823 7  -1283514.121 7   -988249.23048  20393315.19448
  22218253.878 5  -4340248.977 5  -3338798.30147  22218255.47247
  23499539.831 6   -234733.563 6   -181736.78947  23499539.58947
  21323081.206 7  -1533880.441 7  -1186620.09448  21323079.23048
  22492986.808 6    152947.738 6    115512.22747  22492988.56947
 18  5 30  0 30 54.9990000  0 10G03G14G16G22G23G26G27G29G31G32      -0.000152407
  23465810.073 5  -1569799.148 5  -1209112.14847  23465812.53047
  20398009.737 6  -1001488.277 6   -771022.93048  20398008.25748
  20273919.659 6  -2408111.816 6  -1852487.48848  20273917.36248
  23412626.034 6  -1114130.504 6   -858831.92647  23412623.43347
  23897930.315 5  -4254465.529 5  -3246663.80346  23897927.54646
  20391349.261 7  -1293836.359 7   -996292.53548  20391350.68348
  22211932.745 5  -4373463.848 5  -3364680.02047  22211934.54647
  23499098.737 5   -237051.094 5   -183542.66046  23499098.41746
  21320659.831 7  -1546605.547 7  -1196535.76248  21320657.83548
  22493056.526 6    153313.488 6    115797.21947  22493058.04647
 18  5 30  0 30 59.9990000  0 10G03G14G16G22G23G26G27G29G31G32      -0.000162317
  23463383.378 5  -1582550.992 5  -1219048.65647  23463386.32747
  20396539.948 6  -1009215.918 6   -777044.48048  20396537.79648
  20270448.480 6  -2426352.691 6  -1866701.15248  20270446.35548
  23410825.855 6  -1123592.070 6   -866204.57047  23410822.87847
  23891756.440 5  -4286906.758 5  -3271942.67646  23891753.82346
  20389384.019 7  -1304164.160 7  -1004340.18048  20389385.15148
  22205610.886 5  -4406686.145 5  -3390567.52047  22205612.46447
  23498656.870 5   -239371.000 5   -185350.39546  23498656.69046
  21318236.011 7  -1559340.281 7  -1206458.94148  21318234.22648
  22493125.347 6    153674.016 6    116078.13347  22493126.18747
 18  5 30  0 31  4.9990000  0 10G03G14G16G22G23G26G27G29G31G32      -0.000172235
  23460956.651 6  -1595304.641 6  -1228986.56647  23460959.58947
  20395068.948 6  -1016942.672 6   -783065.33248  20395067.72248
  20266976.948 6  -2444594.867 6  -1880915.84048  20266974.37048
  23409023.862 6  -1133059.922 6   -873582.13347  23409021.04647
  23885581.628 5  -4319357.484 5  -3297228.94946  23885578.58146
  20387417.706 7  -1314497.832 7  -1012392.39548  20387419.13248
  22199287.417 5  -4439916.297 5  -3416461.12947  22199289.46047
  23498214.847 5   -241693.625 5   -187160.23046  23498215.21446
  21315811.386 7  -1572084.973 7  -1216389.86748  21315809.46448
  22493192.183 6    154029.047 6    116354.76647  22493194.09747
 18  5 30  0 31  9.9990000  0 10G03G14G16G22G23G26G27G29G31G32      -0.000182161
  23458528.894 6  -1608059.383 6  -1238925.34047  23458532.19047
  20393599.542 6  -1024667.770 6   -789084.88748  20393597.60548
  20263505.151 6  -2462837.629 6  -1895130.97748  20263503.28048
  23407221.089 6  -1142533.316 6   -880964.00447  23407218.09747
  23879404.675 5  -4351816.938 5  -3322522.01246  23879401.97246
  20385449.956 7  -1324836.648 7  -1020448.60548  20385451.41748
  22192962.440 6  -4473153.523 6  -3442360.26647  22192964.62047
  23497773.058 5   -244018.195 5   -188971.59446  23497772.56546
  21313383.714 7  -1584838.844 7  -1226327.94948  21313381.91748
  22493259.144 6    154379.273 6    116627.65647  22493260.98347
 18  5 30  0 31 14.9990000  0 10G03G14G16G22G23G26G27G29G31G32      -0.000192095
  23456101.714 5  -1620815.500 5  -1248865.15647  23456104.58547
  20392129.355 6  -1032391.551 6   -795103.42248  20392127.82348
  20260033.409 6  -2481081.309 6  -1909346.83248  20260031.29648
  23405417.026 6  -1152012.633 6   -888350.48047  23405413.77247
  23873225.972 5  -4384285.391 5  -3347822.11346  23873223.88246
  20383481.456 7  -1335180.953 7  -1028509.11348  20383483.09348
  22186636.245 6  -4506398.074 6  -3468265.11347  22186638.33947
  23497330.612 5   -246345.059 5   -190784.73046  23497330.11246
  21310955.581 7  -1597602.246 7  -1236273.46948  21310953.35148
  22493324.761 6    154724.367 6    116896.55147  22493326.92547
 18  5 30  0 31 19.9990000  0 10G03G14G16G22G23G26G27G29G31G32      -0.000202038
  23453674.190 5  -1633573.055 5  -1258806.11747  23453676.58547
  20390659.909 6  -1040113.980 6   -801120.90648  20390658.75748
  20256561.362 6  -2499325.875 6  -1923563.38348  20256559.69848
  23403612.331 6  -1161497.824 6   -895741.55147  23403609.23347
  23867045.300 5  -4416762.785 5  -3373129.15646  23867043.33546
  20381512.073 7  -1345530.699 7  -1036573.84448  20381513.36248
  22180308.573 5  -4539649.973 5  -3494175.68047  22180310.74547
  23496887.190 5   -248674.195 5   -192599.63347  23496886.53447
  21308524.683 7  -1610375.133 7  -1246226.35948  21308522.48048
  22493389.292 6    155064.402 6    117161.50447  22493391.85547
 18  5 30  0 31 24.9990000  0 10G03G14G16G22G23G26G27G29G31G32      -0.000211988
  23451246.245 5  -1646332.000 5  -1268748.17247  23451248.52247
  20389190.706 6  -1047835.051 6   -807137.31648  20389188.77648
  20253089.995 6  -2517571.301 6  -1937780.59448  20253087.52248
  23401805.815 6  -1170988.934 6   -903137.22347  23401802.65947
  23860863.761 5  -4449249.141 5  -3398443.18846  23860861.39446
  20379541.558 7  -1355885.934 7  -1044642.85948  20379543.03448
  22173979.073 5  -4572909.176 5  -3520091.93847  22173981.75747
  23496443.417 5   -251005.594 5   -194416.31647  23496443.14047
  21306092.206 7  -1623157.523 7  -1256186.66448  21306090.27248
  22493453.253 6    155399.309 6    117422.44547  22493455.05847
 18  5 30  0 31 29.9990000  0 10G03G14G16G22G23G26G27G29G31G32      -0.000221947
  23448818.284 5  -1659092.164 5  -1278691.17646  23448820.48046
  20387721.620 6  -1055554.629 6   -813152.57848  20387720.11248
  20249617.722 6  -2535817.480 6  -1951998.40248  20249615.66348
  23399998.956 6  -1180485.793 6   -910537.37947  23399995.31547
  23854680.628 4  -4481744.277 4  -3423764.07846  23854677.97246
  20377570.136 7  -1366246.445 7  -1052715.98848  20377571.53448
  22167648.706 5  -4606175.520 5  -3546013.76247  22167651.46847
  23495999.237 6   -253339.121 6   -196234.65646  23495998.96046
  21303658.065 7  -1635949.207 7  -1266154.21148  21303656.04648
  22493515.667 6    155729.266 6    117679.53547  22493518.00347
 18  5 30  0 31 34.9990000  0 10G03G14G16G22G23G26G27G29G31G32      -0.000231913
  23446389.995 5  -1671853.805 5  -1288635.30946  23446391.81946
  20386252.909 6  -1063272.922 6   -819166.83648  20386251.36248
  20246145.472 6  -2554064.582 6  -1966216.92248  20246143.34748
  23398190.206 6  -1189988.594 6   -917942.16047  23398187.16347
  23848494.698 4  -4514248.391 4  -3449091.95346  23848492.94046
  20375597.464 7  -1376612.500 7  -1060793.43048  20375598.95248
  22161317.628 5  -4639449.137 5  -3571941.25047  22161319.56947
  23495554.706 6   -255674.988 6   -198054.81646  23495554.67946
  21301222.378 7  -1648750.414 7  -1276129.17648  21301220.13648
  22493577.964 6    156054.055 6    117932.59847  22493579.85547
 18  5 30  0 31 39.9990000  0 10G03G14G16G22G23G26G27G29G31G32      -0.000241886
  23443961.823 5  -1684616.133 5  -1298579.98846  23443962.72246
  20384784.659 6  -1070989.133 6   -825179.46948  20384783.02248
  20242672.761 6  -2572311.891 6  -1980435.59448  20242670.72248
  23396380.487 5  -1199496.590 5   -925350.99647  23396377.51147
  23842308.698 4  -4546760.734 4  -3474426.24646  23842305.69446
  20373623.901 7  -1386983.305 7  -1068874.58648  20373625.19048
  22154984.206 5  -4672729.313 5  -3597873.84447  22154986.59747
  23495110.151 6   -258012.457 6   -199876.23846  23495109.81946
  21298784.292 7  -1661560.375 7  -1286110.96148  21298782.66748
  22493638.683 6    156374.418 6    118182.22747  22493641.30447
 18  5 30  0 31 44.9990000  0 10G03G14G16G22G23G26G27G29G31G32      -0.000251867
  23441533.183 5  -1697378.980 5  -1308525.07046  23441533.23746
  20383316.495 6  -1078703.117 6   -831190.37548  20383315.35148
  20239201.089 6  -2590559.168 6  -1994654.25848  20239198.54648
  23394570.730 5  -1209009.594 5   -932763.73047  23394567.46847
  23836119.534 4  -4579281.055 4  -3499766.77046  23836117.39046
  20371649.698 7  -1397358.711 7  -1076959.32848  20371650.64048
  22148650.151 5  -4706015.832 5  -3623811.39547  22148651.83547
  23494664.698 5   -260351.332 5   -201698.75446  23494664.86646
  21296345.206 7  -1674378.887 7  -1296099.42248  21296343.18748
  22493699.159 6    156690.547 6    118428.54347  22493701.39447
 18  5 30  0 31 49.9990000  0 10G03G14G16G22G23G26G27G29G31G32      -0.000261856
  23439104.331 5  -1710142.719 5  -1318470.84446  23439104.21846
  20381849.026 6  -1086415.207 6   -837199.79748  20381847.64748
  20235728.292 6  -2608806.801 6  -2008873.19948  20235726.10148
  23392759.230 5  -1218527.992 5   -940180.66447  23392756.28447
  23829929.597 4  -4611809.695 4  -3525113.75846  23829927.44446
  20369674.222 7  -1407739.031 7  -1085047.87948  20369675.56548
  22142314.651 5  -4739308.984 5  -3649754.10947  22142316.94447
  23494219.753 5   -262691.973 5   -203522.64147  23494219.77647
  21293904.190 7  -1687206.293 7  -1306094.80548  21293902.40148
  22493758.214 6    157002.102 6    118671.30547  22493760.62847
 18  5 30  0 31 54.9990000  0 10G03G14G16G22G23G26G27G29G31G32      -0.000271852
  23436675.550 5  -1722907.320 5  -1328417.28546  23436675.28846
  20380381.589 6  -1094125.418 6   -843207.75848  20380380.87448
  20232255.534 6  -2627054.813 6  -2023092.42648  20232253.22248
  23390946.636 5  -1228051.805 5   -947601.81346  23390943.61646
  23823737.784 4  -4644346.641 4  -3550467.21146  23823736.03446
  20367697.964 7  -1418124.301 7  -1093140.29748  20367699.43748
  22135978.206 5  -4772608.770 5  -3675701.99247  22135980.03847
  23493773.558 5   -265034.387 5   -205347.89147  23493773.49147
  21291461.417 7  -1700042.582 7  -1316097.11348  21291459.71848
  22493816.081 6    157309.043 6    118910.46547  22493819.24547
 18  5 30  0 31 59.9990000  0 10G03G14G16G22G23G26G27G29G31G32      -0.000281857
  23434246.058 6  -1735672.855 6  -1338364.44947  23434245.55047
  20378915.198 6  -1101833.770 6   -849214.27048  20378913.91348
  20228783.261 6  -2645303.258 6  -2037311.99248  20228780.85148
  23389133.245 5  -1237581.031 5   -955027.19946  23389130.48046
  23817544.847 4  -4676891.996 4  -3575827.22746  23817542.99546
  20365720.972 7  -1428514.586 7  -1101236.62948  20365722.35148
  22129640.245 6  -4805915.297 6  -3701655.12147  22129642.00747
  23493326.940 5   -267378.656 5   -207174.60546  23493327.54646
  21289016.917 7  -1712887.816 7  -1326106.38748  21289015.33148
  22493874.323 6    157611.297 6    119145.97347  22493876.61647
 18  5 30  0 32  4.9990000  0 10G03G14G16G22G23G26G27G29G31G32      -0.000291868
  23431817.339 6  -1748438.688 6  -1348311.85947  23431816.74947
  20377448.698 6  -1109539.621 6   -855218.83248  20377447.80048
  20225310.706 6  -2663551.410 6  -2051531.33648  20225308.11248
  23387319.284 5  -1247115.012 5   -962456.28146  23387315.92146
  23811350.034 4  -4709445.012 4  -3601193.20346  23811348.60546
  20363742.573 7  -1438909.195 7  -1109336.32048  20363744.23348
  22123301.065 5  -4839227.773 5  -3727612.90247  22123303.05847
  23492880.987 5   -269724.098 5   -209002.20747  23492880.84347
  21286571.550 7  -1725741.297 7  -1336122.09048  21286569.49148
  22493930.925 6    157909.602 6    119378.39847  22493933.33947
 18  5 30  0 32  9.9990000  0 10G03G14G16G22G23G26G27G29G31G32      -0.000301888
  23429387.690 6  -1761204.859 6  -1358259.52747  23429387.71847
  20375983.175 6  -1117243.055 6   -861221.51248  20375981.43748
  20221838.245 6  -2681799.348 6  -2065750.50848  20221835.62848
  23385504.519 5  -1256653.844 5   -969889.15646  23385500.74546
  23805154.120 4  -4742005.719 4  -3626565.18446  23805152.27246
  20361764.042 7  -1449308.219 7  -1117439.45748  20361765.63248
  22116960.690 6  -4872546.297 6  -3753575.38348  22116962.99548
  23492434.753 5   -272070.766 5   -210830.78547  23492434.51547
  21284123.776 7  -1738603.094 7  -1346144.27348  21284121.77648
  22493987.386 6    158203.816 6    119607.64147  22493989.85847
 18  5 30  0 32 14.9990000  0 10G03G14G16G22G23G26G27G29G31G32      -0.000311914
  23426958.456 6  -1773971.281 6  -1368207.38347  23426959.04647
  20374517.237 6  -1124943.918 6   -867222.19548  20374515.97648
  20218365.597 6  -2700047.016 6  -2079969.46548  20218363.83948
  23383688.675 5  -1266197.477 5   -977325.76247  23383684.57747
  23798956.222 4  -4774574.063 4  -3651943.08846  23798954.73046
  20359783.972 7  -1459711.594 7  -1125545.98848  20359785.66348
  22110619.347 6  -4905870.762 6  -3779542.49648  22110621.39448
  23491987.565 5   -274418.648 5   -212660.32046  23491987.96846
  21281674.847 7  -1751473.113 7  -1356172.86348  21281672.71048
  22494042.105 6    158494.035 6    119833.77347  22494045.34747
 18  5 30  0 32 19.9990000  0 10G03G14G16G22G23G26G27G29G31G32      -0.000321947
  23424529.183 6  -1786738.012 6  -1378155.46947  23424529.68347
  20373052.472 6  -1132642.297 6   -873220.92648  20373051.45648
  20214893.487 6  -2718294.418 6  -2094188.21948  20214891.17948
  23381871.355 5  -1275745.961 5   -984766.15247  23381867.64747
  23792757.042 4  -4807150.105 4  -3677327.04346  23792755.82746
  20357803.573 7  -1470119.313 7  -1133655.90248  20357805.40548
  22104276.714 6  -4939201.211 6  -3805514.27048  22104278.88648
  23491540.440 5   -276767.777 5   -214490.82846  23491540.61646
  21279224.050 7  -1764351.395 7  -1366207.89148  21279222.00748
  22494096.831 6    158780.203 6    120056.75047  22494099.12047
 18  5 30  0 32 24.9990000  0 10G03G14G16G22G23G26G27G29G31G32      -0.000331987
  23422099.245 6  -1799505.379 6  -1388104.07447  23422099.99147
  20371588.112 6  -1140338.512 6   -879217.98848  20371586.73048
  20211421.042 6  -2736541.891 6  -2108407.03548  20211418.40548
  23380052.847 5  -1285299.590 5   -992210.54747  23380049.47247
  23786557.144 4  -4839734.035 4  -3702717.10946  23786554.81946
  20355821.956 7  -1480531.723 7  -1141769.47348  20355823.43748
  22097932.855 6  -4972537.871 6  -3831490.87547  22097935.17147
  23491093.433 5   -279118.367 5   -216322.46546  23491093.44846
  21276771.706 7  -1777238.219 7  -1376249.57448  21276769.86648
  22494150.722 6    159062.043 6    120276.35247  22494153.13247
 18  5 30  0 32 29.9990000  0 10G03G14G16G22G23G26G27G29G31G32      -0.000342037
  23419669.237 6  -1812273.117 6  -1398052.95347  23419670.70247
  20370123.597 6  -1148032.340 6   -885213.18048  20370122.56548
  20207948.776 6  -2754789.273 6  -2122625.77348  20207946.64748
  23378235.269 5  -1294858.207 5   -999658.82846  23378230.67146
  23780354.784 4  -4872325.734 4  -3728113.23446  23780353.35846
  20353840.003 7  -1490948.621 7  -1149886.53548  20353841.67948
  22091588.206 6  -5005880.586 6  -3857472.21547  22091590.26147
  23490646.565 5   -281470.293 5   -218155.14547  23490646.17547
  21274317.800 7  -1790133.344 7  -1386297.73048  21274316.13248
  22494203.636 6    159339.723 6    120492.71547  22494205.87447
 18  5 30  0 32 34.9990000  0 10G03G14G16G22G23G26G27G29G31G32      -0.000352091
  23417239.714 6  -1825040.160 6  -1408001.30947  23417241.33547
  20368660.292 6  -1155722.660 6   -891205.64548  20368659.29248
  20204476.472 6  -2773035.359 6  -2136843.49248  20204474.09348
  23376414.964 5  -1304420.590 5  -1007110.03146  23376410.99546
  23774151.440 4  -4904923.922 4  -3753514.43846  23774149.67546
  20351857.136 7  -1501368.859 7  -1158006.21548  20351858.81248
  22085242.112 6  -5039228.129 6  -3883457.30947  22085244.51147
  23490198.308 5   -283822.445 5   -219987.99646  23490197.76146
  21271862.628 7  -1803035.668 7  -1396351.50448  21271861.11248
  22494255.597 6    159614.383 6    120706.72747  22494258.36247
 18  5 30  0 32 39.9990000  0 10G03G14G16G22G23G26G27G29G31G32      -0.000362154
  23414809.980 6  -1837807.598 6  -1417949.96947  23414811.45647
  20367197.222 6  -1163410.570 6   -897196.22348  20367196.28848
  20201004.011 6  -2791281.305 6  -2151061.11748  20201001.68348
  23374594.628 6  -1313987.922 6  -1014565.10947  23374590.47647
  23767947.276 5  -4937529.777 5  -3778921.57046  23767945.27246
  20349873.605 7  -1511793.582 7  -1166129.36748  20349874.84748
  22078895.128 6  -5072581.656 6  -3909447.06348  22078897.28848
  23489750.839 5   -286175.930 5   -221821.88747  23489750.36247
  21269405.940 7  -1815946.285 7  -1406411.72348  21269404.28048
  22494307.315 6    159884.926 6    120917.51647  22494309.75747
 18  5 30  0 32 44.9990000  0 10G03G14G16G22G23G26G27G29G31G32      -0.000372223
  23412380.886 5  -1850575.469 5  -1427898.96547  23412382.03447
  20365734.831 6  -1171096.055 6   -903184.92648  20365733.39448
  20197532.362 6  -2809527.082 6  -2165278.60548  20197529.89448
  23372772.972 6  -1323560.242 6  -1022024.05947  23372768.79247
  23761740.761 5  -4970143.352 5  -3804334.73446  23761738.87846
  20347888.675 7  -1522222.809 7  -1174256.04348  20347890.19048
  22072547.019 6  -5105941.168 6  -3935441.48047  22072549.16747
  23489302.269 5   -288530.801 5   -223656.87147  23489301.96447
  21266947.558 7  -1828865.230 7  -1416478.44548  21266946.06548
  22494358.394 6    160151.254 6    121125.03147  22494360.64047
 18  5 30  0 32 49.9990000  0 10G03G14G16G22G23G26G27G29G31G32      -0.000382299
  23409950.847 5  -1863343.773 5  -1437848.30547  23409952.01147
  20364272.909 6  -1178779.176 6   -909171.77348  20364271.40548
  20194060.284 6  -2827772.738 6  -2179496.00448  20194057.67148
  23370950.683 6  -1333137.523 6  -1029486.88347  23370946.46047
  23755533.292 4  -5002764.586 4  -3829753.92646  23755532.00746
  20345903.378 7  -1532656.535 7  -1182386.23048  20345904.96448
  22066197.831 6  -5139306.621 6  -3961440.53948  22066199.56948
  23488854.120 5   -290887.016 5   -225492.88747  23488853.53447
  21264487.503 7  -1841792.500 7  -1426551.64148  21264485.74948
  22494407.503 6    160413.426 6    121329.31347  22494410.40547
 18  5 30  0 32 54.9990000  0 10G03G14G16G22G23G26G27G29G31G32      -0.000392384
  23407520.870 5  -1876112.191 5  -1447797.72347  23407522.33547
  20362810.901 6  -1186459.578 6   -915156.50448  20362809.83948
  20190588.745 6  -2846017.945 6  -2193713.04748  20190585.94848
  23369127.175 6  -1342719.496 6  -1036953.34847  23369123.67547
  23749325.026 4  -5035393.133 4  -3855178.75846  23749322.80846
  20343916.972 7  -1543094.457 7  -1190519.67248  20343918.33948
  22059847.651 6  -5172677.691 6  -3987443.96548  22059849.93748
  23488405.644 5   -293244.254 5   -227329.69946  23488405.28846
  21262025.917 7  -1854727.738 7  -1436631.05948  21262024.31548
  22494456.565 6    160671.750 6    121530.58647  22494459.45647
 18  5 30  0 32 59.9990000  0 10G03G14G16G22G23G26G27G29G31G32      -0.000402473
  23405091.136 5  -1888880.367 5  -1457746.96147  23405093.22647
  20361350.175 6  -1194136.883 6   -921138.82848  20361348.98048
  20187116.487 6  -2864262.348 6  -2207929.46948  20187114.01548
  23367303.105 6  -1352305.758 6  -1044423.17647  23367299.54647
  23743114.323 5  -5068028.566 5  -3880608.96546  23743112.50346
  20341929.862 7  -1553536.203 7  -1198656.09448  20341931.43748
  22053496.909 6  -5206053.988 6  -4013451.46948  22053498.41748
  23487956.909 6   -295602.211 6   -229167.07447  23487957.10147
  21259563.058 7  -1867670.594 7  -1446716.40648  21259561.55048
  22494505.550 6    160926.563 6    121729.12147  22494507.96047
 18  5 30  0 33  4.9990000  0 10G03G14G16G22G23G26G27G29G31G32      -0.000412571
  23402662.347 5  -1901648.363 5  -1467696.04747  23402663.06947
  20359889.909 6  -1201811.176 6   -927118.79748  20359888.55448
  20183645.128 6  -2882505.988 6  -2222145.28948  20183642.42948
  23365478.026 6  -1361896.402 6  -1051896.41047  23365474.76947
  23736902.690 5  -5100670.934 5  -3906044.57046  23736900.85846
  20339942.526 7  -1563981.836 7  -1206795.54748  20339943.76948
  22047143.855 6  -5239435.500 6  -4039463.03548  22047145.74548
  23487508.034 5   -297961.008 5   -231005.11346  23487507.82346
  21257098.433 7  -1880621.051 7  -1456807.67648  21257097.19048
  22494552.698 6    161177.805 6    121924.87547  22494555.71047
 18  5 30  0 33  9.9990000  0 10G03G14G16G22G23G26G27G29G31G32      -0.000422676
  23400232.440 5  -1914416.145 5  -1477644.97347  23400233.96447
  20358430.019 6  -1209482.398 6   -933096.37548  20358429.07748
  20180173.175 6  -2900748.824 6  -2236360.48848  20180171.11648
  23363652.073 6  -1371491.344 6  -1059373.00447  23363648.81547
  23730689.370 5  -5133320.254 5  -3931485.60546  23730687.51946
  20337953.894 7  -1574431.301 7  -1214937.99648  20337955.20648
  22040790.612 5  -5272822.250 5  -4065478.68047  22040792.66747
  23487058.605 5   -300320.500 5   -232843.68847  23487058.62047
  21254632.839 7  -1893579.008 7  -1466904.78948  21254631.71848
  22494600.589 6    161425.527 6    122117.89847  22494602.55847
 18  5 30  0 33 14.9990000  0 10G03G14G16G22G23G26G27G29G31G32      -0.000432787
  23397802.933 5  -1927183.113 5  -1487593.27047  23397805.19847
  20356970.542 6  -1217150.047 6   -939071.16848  20356969.56548
  20176702.495 6  -2918990.320 6  -2250574.63748  20176699.46048
  23361825.636 5  -1381090.129 5  -1066852.59047  23361822.76547
  23724475.190 5  -5165975.887 5  -3956931.55546  23724473.40946
  20335964.714 7  -1584884.078 7  -1223083.01648  20335966.21048
  22034436.347 6  -5306213.637 6  -4091497.94147  22034438.63247
  23486609.011 5   -302680.164 5   -234682.39147  23486609.39047
  21252165.558 7  -1906544.020 7  -1477007.40248  21252164.06948
  22494646.323 6    161670.238 6    122308.56347  22494649.39047
 18  5 30  0 33 19.9990000  0 10G03G14G16G22G23G26G27G29G31G32      -0.000442905
  23395374.065 5  -1939949.344 5  -1497540.98447  23395375.26947
  20355512.815 6  -1224814.090 6   -945043.15248  20355511.20248
  20173231.425 6  -2937230.453 6  -2264787.73048  20173228.61248
  23359998.128 5  -1390692.617 5  -1074335.05947  23359995.26947
  23718260.222 5  -5198637.824 5  -3982382.41446  23718258.10146
  20333975.323 7  -1595340.145 7  -1231230.59848  20333976.44848
  22028081.534 5  -5339609.602 5  -4117520.76648  22028083.34348
  23486160.237 5   -305039.992 5   -236521.22346  23486160.62046
  21249697.011 7  -1919516.082 7  -1487115.50448  21249695.92148
  22494692.386 6    161912.008 6    122496.94547  22494695.30047
 18  5 30  0 33 24.9990000  0 10G03G14G16G22G23G26G27G29G31G32      -0.000453030
  23392944.480 5  -1952714.961 5  -1507488.22347  23392946.74547
  20354054.769 6  -1232474.703 6   -951012.46948  20354053.70248
  20169760.526 6  -2955469.426 6  -2278999.91448  20169757.86648
  23358170.620 5  -1400299.105 5  -1081820.63347  23358166.85847
  23712044.065 5  -5231306.234 5  -4007838.30546  23712041.82746
  20331984.972 7  -1605799.680 7  -1239380.88348  20331986.42548
  22021725.581 6  -5373010.340 6  -4143547.31648  22021727.43748
  23485711.940 5   -307400.184 5   -238360.34046  23485711.51146
  21247227.339 7  -1932495.371 7  -1497229.25448  21247225.39748
  22494738.198 6    162150.613 6    122682.85247  22494740.38647
 18  5 30  0 33 29.9990000  0 10G03G14G16G22G23G26G27G29G31G32      -0.000463160
  23390515.651 6  -1965480.348 6  -1517435.27047  23390516.96447
  20352597.690 6  -1240132.172 6   -956979.33248  20352596.48048
  20166289.730 6  -2973707.523 6  -2293211.42248  20166286.97648
  23356341.464 5  -1409909.848 5  -1089309.53147  23356338.26547
  23705825.487 5  -5263981.375 5  -4033299.43446  23705823.71846
  20329993.605 7  -1616263.023 7  -1247534.14548  20329995.02248
  22015368.659 6  -5406416.141 6  -4169577.80548  22015370.49148
  23485262.128 5   -309761.020 5   -240199.95746  23485262.45646
  21244755.972 7  -1945482.168 7  -1507348.83648  21244754.16348
  22494782.815 6    162385.691 6    122866.01247  22494785.17547
 18  5 30  0 33 34.9990000  0 10G03G14G16G22G23G26G27G29G31G32      -0.000473297
  23388086.003 5  -1978245.082 5  -1527381.80947  23388087.75747
  20351140.933 6  -1247786.133 6   -962943.45348  20351140.07348
  20162819.417 6  -2991944.371 6  -2307421.94948  20162817.15948
  23354511.776 5  -1419524.570 5  -1096801.53547  23354508.41347
  23699606.362 5  -5296662.969 5  -4058765.59446  23699604.33546
  20328001.737 7  -1626729.832 7  -1255690.10248  20328003.40948
  22009011.347 6  -5439826.633 6  -4195611.94148  22009012.81248
  23484813.550 6   -312122.164 6   -242039.81647  23484813.05847
  21242283.308 7  -1958476.195 7  -1517474.06348  21242281.84748
  22494826.675 6    162617.684 6    123046.76647  22494829.08947
 18  5 30  0 33 39.9990000  0 10G03G14G16G22G23G26G27G29G31G32      -0.000483442
  23385656.995 6  -1991009.863 6  -1537328.37547  23385658.53447
  20349685.253 6  -1255437.285 6   -968905.40248  20349684.10548
  20159349.683 6  -3010180.629 6  -2321632.01248  20159347.02248
  23352681.253 6  -1429143.867 6  -1104297.10247  23352677.92547
  23693385.980 5  -5329351.617 5  -4084237.27046  23693383.37846
  20326009.190 7  -1637200.730 7  -1263849.24648  20326010.35848
  22002651.940 5  -5473242.461 5  -4221650.25047  22002653.70647
  23484363.730 5   -314484.289 5   -243880.45747  23484363.60147
  21239808.917 7  -1971477.957 7  -1527605.30548  21239807.64748
  22494870.472 6    162845.852 6    123224.54747  22494872.65947
 18  5 30  0 33 44.9990000  0 10G03G14G16G22G23G26G27G29G31G32      -0.000493593
  23383227.628 5  -2003773.781 5  -1547274.28547  23383229.81247
  20348229.933 6  -1263084.711 6   -974864.44148  20348228.87448
  20155879.417 6  -3028415.473 6  -2335840.98448  20155876.68748
  23350850.214 6  -1438766.922 6  -1111795.58647  23350846.71847
  23687164.261 5  -5362046.406 5  -4109713.70746  23687162.02646
  20324016.245 7  -1647674.848 7  -1272010.89548  20324017.68748
  21996292.480 6  -5506662.672 6  -4247691.96547  21996294.06947
  23483914.261 6   -316846.547 6   -245721.18447  23483913.81247
  21237333.917 7  -1984486.609 7  -1537741.92248  21237331.65548
  22494912.980 6    163071.105 6    123400.05547  22494915.32747
 18  5 30  0 33 49.9980000  0 10G03G14G16G22G23G26G27G29G31G32       0.000496250
  23380799.561 6  -2016534.332 6  -1557217.56647  23380801.42047
  20346775.147 6  -1270726.926 6   -980819.42648  20346773.99448
  20152410.209 6  -3046645.230 6  -2350045.99648  20152407.84248
  23349018.428 5  -1448391.805 5  -1119295.50847  23349015.11947
  23680942.662 5  -5394740.828 5  -4135189.86746  23680940.34646
  20322022.568 7  -1658150.117 7  -1280173.45348  20322024.49848
  21989933.053 6  -5540080.637 6  -4273731.93847  21989934.69747
  23483464.740 6   -319208.430 6   -247561.62147  23483464.77547
  21234857.467 7  -1997499.484 7  -1547881.82848  21234855.66248
  22494955.662 6    163293.379 6    123573.23847  22494957.68647
 18  5 30  0 33 54.9980000  0 10G03G14G16G22G23G26G27G29G31G32       0.000486086
  23378370.904 6  -2029296.656 6  -1567162.23847  23378373.11147
  20345321.522 6  -1278367.031 6   -986772.75448  20345320.20948
  20148940.561 6  -3064877.250 6  -2364252.76248  20148938.23248
  23347185.240 6  -1458022.426 6  -1126799.88347  23347182.49847
  23674718.662 4  -5427448.012 4  -4160675.96146  23674716.69746
  20320028.404 7  -1668630.781 7  -1288340.20748  20320029.94348
  21983571.592 5  -5573509.711 5  -4299780.55947  21983573.28347
  23483015.248 6   -321571.004 6   -249402.58647  23483014.90447
  21232379.662 7  -2010521.906 7  -1558029.17248  21232377.56448
  22494996.998 6    163512.676 6    123744.11347  22494999.76847
 18  5 30  0 33 59.9980000  0 10G03G14G16G22G23G26G27G29G31G32       0.000475916
  23375942.514 6  -2042058.285 6  -1577106.36347  23375944.96747
  20343868.889 6  -1286003.551 6   -992723.29348  20343867.18948
  20145472.006 6  -3083107.973 6  -2378458.52348  20145469.23648
  23345351.982 5  -1467656.898 5  -1134307.26647  23345349.16247
  23668493.389 4  -5460161.391 4  -4186166.91446  23668490.56846
  20318033.287 7  -1679114.844 7  -1296509.60248  20318034.63148
  21977209.506 5  -5606943.328 5  -4325832.73447  21977211.06447
  23482565.107 6   -323933.879 6   -251243.79747  23482565.25247
  21229899.998 7  -2023551.313 7  -1568181.95748  21229897.75648
  22495038.357 6    163728.910 6    123912.59047  22495040.61947
 18  5 30  0 34  4.9980000  0 10G03G14G16G22G23G26G27G29G31G32       0.000465738
  23373513.967 6  -2054819.551 6  -1587050.19547  23373516.56847
  20342416.014 6  -1293636.770 6   -998671.25448  20342414.42848
  20142002.857 6  -3101337.684 6  -2392663.48848  20142000.17048
  23343518.279 5  -1477295.566 5  -1141817.92246  23343514.27246
  23662266.576 4  -5492881.328 4  -4211662.94146  23662264.34646
  20316037.279 7  -1689602.590 7  -1304681.87548  20316038.96348
  21970846.639 5  -5640381.691 5  -4351888.60247  21970848.22147
  23482115.631 5   -326297.320 5   -253085.45347  23482115.50647
  21227418.998 7  -2036588.023 7  -1578340.43048  21227416.68248
  22495078.647 6    163941.758 6    124078.44147  22495081.05347
 18  5 30  0 34  9.9980000  0 10G03G14G16G22G23G26G27G29G31G32       0.000455555
  23371084.975 5  -2067579.387 5  -1596992.95347  23371088.24847
  20340964.529 6  -1301265.734 6  -1004615.90248  20340962.68648
  20138534.381 6  -3119565.387 6  -2406866.90248  20138531.25648
  23341683.350 5  -1486937.422 5  -1149331.04347  23341679.72547
  23656039.889 4  -5525606.719 4  -4237163.22346  23656037.22946
  20314041.170 7  -1700093.016 7  -1312856.23448  20314042.83448
  21964482.779 5  -5673823.824 5  -4377947.39847  21964484.10747
  23481665.818 5   -328660.402 5   -254926.79747  23481665.98247
  21224936.975 7  -2049630.977 7  -1588503.78148  21224935.18648
  22495118.772 6    164152.230 6    124242.43047  22495121.15447
 18  5 30  0 34 14.9980000  0 10G03G14G16G22G23G26G27G29G31G32       0.000445366
  23368657.717 5  -2080338.855 5  -1606935.40247  23368660.74047
  20339512.850 6  -1308891.414 6  -1010557.98848  20339511.50648
  20135065.475 6  -3137792.086 6  -2421069.52048  20135063.31148
  23339847.865 5  -1496583.480 5  -1156847.47347  23339843.70547
  23649810.998 4  -5558338.609 4  -4262668.59846  23649808.37746
  20312044.131 7  -1710587.121 7  -1321033.46548  20312046.11548
  21958118.123 6  -5707270.715 6  -4404009.91047  21958118.97547
  23481216.225 6   -331024.035 6   -256768.60547  23481215.97947
  21222453.897 7  -2062681.215 7  -1598672.79748  21222451.68948
  22495158.561 6    164359.289 6    124403.76647  22495161.11147
 18  5 30  0 34 19.9980000  0 10G03G14G16G22G23G26G27G29G31G32       0.000435169
  23366229.639 5  -2093097.297 5  -1616877.05947  23366232.87747
  20338062.428 6  -1316513.195 6  -1016497.03948  20338061.26048
  20131597.490 6  -3156017.156 6  -2435270.87148  20131595.71348
  23338011.170 5  -1506233.156 5  -1164366.70747  23338007.33047
  23643581.287 4  -5591076.328 4  -4288178.49246  23643578.52246
  20310046.607 7  -1721084.289 7  -1329213.08248  20310048.50248
  21951752.475 6  -5740721.688 6  -4430075.60247  21951753.63947
  23480767.092 6   -333387.633 6   -258610.38746  23480765.91646
  21219968.912 7  -2075738.043 7  -1608846.94148  21219967.14348
  22495197.709 6    164563.602 6    124562.96547  22495199.79547
 18  5 30  0 34 24.9980000  0 10G03G14G16G22G23G26G27G29G31G32       0.000424967
  23363802.662 5  -2105854.188 5  -1626817.51647  23363805.53747
  20336613.029 6  -1324130.508 6  -1022432.61348  20336611.35448
  20128129.709 6  -3174239.980 6  -2449470.47748  20128127.61948
  23336174.826 5  -1515885.785 5  -1171888.24246  23336170.55746
  23637350.482 4  -5623819.309 4  -4313692.50846  23637347.51446
  20308048.865 7  -1731583.934 7  -1337394.63348  20308051.01848
  21945386.397 6  -5774176.125 6  -4456143.98847  21945387.49447
  23480317.139 5   -335750.586 5   -260451.65646  23480316.26446
  21217483.225 7  -2088800.910 7  -1619025.80948  21217481.20548
  22495236.022 6    164765.723 6    124720.44147  22495238.02247
 18  5 30  0 34 29.9980000  0 10G03G14G16G22G23G26G27G29G31G32       0.000414759
  23361374.912 5  -2118609.551 5  -1636756.76647  23361378.67847
  20335164.576 6  -1331743.453 6  -1028364.78148  20335163.16248
  20124662.545 6  -3192460.750 6  -2463668.48048  20124660.26048
  23334337.311 5  -1525541.563 5  -1179412.23046  23334332.89746
  23631117.873 4  -5656567.664 4  -4339210.69146  23631115.20546
  20306050.217 7  -1742086.215 7  -1345578.23048  20306051.99848
  21939019.639 6  -5807634.184 6  -4482215.20747  21939020.93947
  23479867.803 5   -338113.117 5   -262292.59846  23479866.59646
  21214996.264 7  -2101869.949 7  -1629209.47348  21214994.24448
  22495274.037 6    164965.500 6    124876.10247  22495276.08047
 18  5 30  0 34 34.9980000  0 10G03G14G16G22G23G26G27G29G31G32       0.000404543
  23358948.248 5  -2131364.211 5  -1646695.47747  23358951.72147
  20333716.451 6  -1339352.727 6  -1034294.09448  20333715.15048
  20121195.576 6  -3210680.125 6  -2477865.39148  20121192.97948
  23332499.326 5  -1535201.254 5  -1186939.25847  23332495.52947
  23624885.311 5  -5689322.008 5  -4364733.54746  23624882.37746
  20304051.318 7  -1752591.816 7  -1353764.42248  20304053.44748
  21932651.607 6  -5841096.516 6  -4508289.73847  21932653.01847
  23479417.639 6   -340475.859 6   -264133.70346  23479417.05746
  21212507.951 7  -2114945.855 7  -1639398.49648  21212506.03748
  22495311.693 6    165162.281 6    125029.42247  22495313.74847
 18  5 30  0 34 39.9980000  0 10G03G14G16G22G23G26G27G29G31G32       0.000394321
  23356521.279 5  -2144117.395 5  -1656633.02747  23356524.61947
  20332269.053 6  -1346957.648 6  -1040220.01248  20332268.53748
  20117728.795 6  -3228897.414 6  -2492060.68848  20117726.30748
  23330660.162 5  -1544864.020 5  -1194468.69547  23330656.81447
  23618651.678 4  -5722081.734 4  -4390260.60546  23618648.19346
  20302051.600 7  -1763100.012 7  -1361952.62548  20302053.87348
  21926283.131 6  -5874562.395 6  -4534367.04747  21926284.59647
  23478968.311 6   -342838.160 6   -265974.47346  23478967.40446
  21210018.756 7  -2128027.863 7  -1649592.27348  21210016.61948
  22495348.381 6    165356.707 6    125180.90647  22495350.61147
 18  5 30  0 34 44.9980000  0 10G03G14G16G22G23G26G27G29G31G32       0.000384094
  23354094.662 6  -2156869.398 6  -1666569.66047  23354097.87347
  20330822.537 6  -1354558.453 6  -1046142.72348  20330822.23248
  20114262.404 6  -3247112.895 6  -2506254.57048  20114260.15448
  23328821.100 5  -1554530.242 5  -1202000.83647  23328817.52247
  23612416.928 5  -5754846.941 5  -4415791.94546  23612413.40846
  20300051.154 7  -1773611.090 7  -1370143.08648  20300053.57648
  21919914.561 6  -5908032.066 6  -4560447.30147  21919915.53747
  23478518.686 6   -345200.277 6   -267815.09447  23478517.73647
  21207528.029 7  -2141116.281 7  -1659791.04748  21207525.80748
  22495385.006 6    165548.566 6    125330.39147  22495387.38547
 18  5 30  0 34 49.9980000  0 10G03G14G16G22G23G26G27G29G31G32       0.000373861
  23351668.084 6  -2169619.988 6  -1676505.18047  23351671.29547
  20329377.647 6  -1362154.863 6  -1052062.01248  20329376.14348
  20110796.615 6  -3265326.266 6  -2520446.80148  20110794.22948
  23326980.811 5  -1564199.617 5  -1209535.43446  23326977.97146
  23606180.693 5  -5787617.375 5  -4441327.34446  23606176.71346
  20298050.545 7  -1784124.836 7  -1378335.61748  20298052.96748
  21913545.037 6  -5941505.277 6  -4586530.31647  21913545.77547
  23478069.787 6   -347561.906 6   -269655.32446  23478068.51446
  21205036.232 6  -2154210.777 6  -1669994.55548  21205034.33848
  22495421.639 6    165738.094 6    125478.04747  22495423.78347
 18  5 30  0 34 54.9980000  0 10G03G14G16G22G23G26G27G29G31G32       0.000363623
  23349243.240 6  -2182369.359 6  -1686439.77047  23349245.13147
  20327932.498 6  -1369747.168 6  -1057978.09848  20327931.64748
  20107330.943 6  -3283537.766 6  -2534637.58648  20107328.54148
  23325140.818 5  -1573872.391 5  -1217072.64847  23325137.39747
  23599943.772 5  -5820393.328 5  -4466867.04346  23599939.91646
  20296049.186 7  -1794641.422 7  -1386530.35948  20296051.71748
  21907174.248 6  -5974982.207 6  -4612616.23447  21907175.52247
  23477620.076 5   -349923.328 5   -271495.42247  23477619.20147
  21202543.295 7  -2167311.605 7  -1680203.00048  21202541.24048
  22495457.217 6    165924.957 6    125623.64147  22495458.98647
 18  5 30  0 34 59.9980000  0 10G03G14G16G22G23G26G27G29G31G32       0.000353378
  23346816.897 6  -2195117.520 6  -1696373.39547  23346819.03347
  20326488.740 6  -1377335.328 6  -1063890.95348  20326487.37348
  20103866.029 6  -3301747.410 6  -2548826.91448  20103863.45148
  23323299.467 5  -1583548.543 5  -1224612.52047  23323296.07647
  23593705.889 5  -5853174.777 5  -4492411.04346  23593701.41246
  20294047.654 7  -1805160.859 7  -1394727.33248  20294049.60748
  21900803.162 6  -6008462.863 6  -4638705.05547  21900804.68247
  23477171.303 6   -352284.512 6   -273335.30146  23477170.34646
  21200048.881 7  -2180418.770 7  -1690416.37548  21200047.22148
  22495491.842 6    166109.277 6    125767.25447  22495494.21347
 18  5 30  0 35  4.9980000  0 10G03G14G16G22G23G26G27G29G31G32       0.000343126
  23344391.482 6  -2207864.027 6  -1706305.73447  23344393.26047
  20325045.967 6  -1384918.887 6  -1069800.22748  20325044.25648
  20100401.201 6  -3319954.773 6  -2563014.48048  20100398.43948
  23321457.045 6  -1593227.684 6  -1232154.70347  23321454.19747
  23587466.584 5  -5885961.188 5  -4517958.88346  23587462.67846
  20292045.318 7  -1815682.715 7  -1402926.18448  20292047.20148
  21894431.225 6  -6041946.719 6  -4664796.36347  21894433.06447
  23476721.873 6   -354645.051 6   -275174.69947  23476721.26447
  21197553.693 7  -2193531.758 7  -1700634.28948  21197551.96748
  22495526.068 6    166291.500 6    125909.22747  22495529.10747
 18  5 30  0 35  9.9980000  0 10G03G14G16G22G23G26G27G29G31G32       0.000332870
  23341965.998 6  -2220608.895 6  -1716236.79747  23341967.94347
  20323603.647 6  -1392497.910 6  -1075705.96948  20323602.23248
  20096936.928 7  -3338159.809 7  -2577200.22348  20096934.69348
  23319614.732 6  -1602909.809 6  -1239699.23047  23319612.20547
  23581226.865 5  -5918752.621 5  -4543510.64146  23581222.04146
  20290042.725 7  -1826207.031 7  -1411126.95348  20290044.02948
  21888058.701 6  -6075433.840 6  -4690890.21547  21888060.73247
  23476272.350 6   -357004.953 6   -277013.58247  23476271.61147
  21195057.397 7  -2206650.598 7  -1710856.76248  21195055.47548
  22495560.545 6    166471.508 6    126049.47347  22495563.19347
 18  5 30  0 35 14.9980000  0 10G03G14G16G22G23G26G27G29G31G32       0.000322607
  23339540.787 6  -2233352.219 6  -1726166.65647  23339543.00247
  20322161.951 6  -1400072.473 6  -1081608.21948  20322160.67048
  20093473.342 6  -3356362.645 6  -2591384.25048  20093470.35448
  23317772.279 6  -1612594.953 6  -1247246.10547  23317769.35047
  23574986.014 5  -5951549.211 5  -4569066.44946  23574980.77246
  20288039.561 7  -1836733.875 7  -1419329.69148  20288041.24848
  21881685.740 6  -6108924.258 6  -4716986.64147  21881687.59647
  23475823.506 6   -359364.320 6   -278852.06647  23475823.01847
  21192559.662 7  -2219775.402 7  -1721083.89148  21192557.95148
  22495594.772 6    166649.285 6    126187.98847  22495597.22947
 18  5 30  0 35 19.9980000  0 10G03G14G16G22G23G26G27G29G31G32       0.000312338
  23337115.975 5  -2246093.367 5  -1736094.82447  23337118.45547
  20320721.623 6  -1407641.914 6  -1087506.48848  20320720.45148
  20090009.959 6  -3374562.664 6  -2605566.07848  20090007.01848
  23315928.678 6  -1622282.570 6  -1254794.92247  23315925.73647
  23568744.256 5  -5984350.141 5  -4594625.60546  23568739.32646
  20286035.834 7  -1847262.621 7  -1427533.90648  20286037.42448
  21875311.865 6  -6142417.340 6  -4743085.14847  21875313.96747
  23475374.967 6   -361722.492 6   -280689.61747  23475374.01447
  21190061.295 7  -2232905.527 7  -1731315.16048  21190059.45148
  22495627.865 6    166825.398 6    126325.19947  22495630.38947
 18  5 30  0 35 24.9980000  0 10G03G14G16G22G23G26G27G29G31G32       0.000302065
  23334691.318 5  -2258832.809 5  -1746021.66447  23334694.07247
  20319282.170 6  -1415206.727 6  -1093401.14148  20319280.62748
  20086546.576 7  -3392760.289 7  -2619746.05548  20086544.46348
  23314084.803 5  -1631973.063 5  -1262345.94547  23314081.73647
  23562501.631 5  -6017155.980 5  -4620188.61346  23562496.15846
  20284032.037 7  -1857793.703 7  -1435739.94548  20284033.39348
  21868938.123 6  -6175913.469 6  -4769186.01647  21868939.92847
  23474926.490 6   -364079.949 6   -282526.58247  23474925.83447
  21187561.357 6  -2246041.406 6  -1741550.91448  21187559.88948
  22495661.318 6    166999.457 6    126460.82447  22495663.35447
 18  5 30  0 35 29.9980000  0 10G03G14G16G22G23G26G27G29G31G32       0.000291784
  23332267.068 5  -2271570.090 5  -1755946.81346  23332269.93946
  20317843.639 6  -1422766.418 6  -1099291.81648  20317842.21348
  20083084.631 6  -3410955.086 6  -2633923.82448  20083082.04148
  23312240.350 6  -1641666.016 6  -1269898.91447  23312237.41247
  23556257.748 5  -6049966.203 5  -4645755.01646  23556252.86946
  20282027.686 7  -1868326.719 7  -1443947.49248  20282028.64748
  21862563.623 6  -6209412.273 6  -4795288.98847  21862564.79547
  23474478.201 5   -366436.285 5   -284362.70347  23474477.09247
  21185060.889 7  -2259182.625 7  -1751790.82448  21185059.07248
  22495694.311 6    167171.871 6    126595.13747  22495696.71347
 18  5 30  0 35 34.9980000  0 10G03G14G16G22G23G26G27G29G31G32       0.000281500
  23329843.287 5  -2284305.789 5  -1765870.73047  23329846.57647
  20316405.943 6  -1430321.563 6  -1105178.94148  20316404.36548
  20079622.420 7  -3429147.656 7  -2648099.84848  20079619.97148
  23310395.303 6  -1651362.070 6  -1277454.27747  23310392.17047
  23550012.990 5  -6082781.438 5  -4671325.32846  23550008.10446
  20280022.998 7  -1878862.227 7  -1452156.98048  20280024.02248
  21856188.389 6  -6242914.207 6  -4821394.38748  21856189.80348
  23474030.107 6   -368792.020 6   -286198.33647  23474028.83847
  21182559.147 7  -2272329.715 7  -1762035.30948  21182557.48248
  22495726.428 6    167342.055 6    126727.73447  22495728.72547
 18  5 30  0 35 39.9980000  0 10G03G14G16G22G23G26G27G29G31G32       0.000271208
  23327420.115 5  -2297040.020 5  -1775793.53147  23327423.39747
  20314969.022 6  -1437872.266 6  -1111062.61748  20314967.69748
  20076160.912 7  -3447338.031 7  -2662274.17648  20076158.54948
  23308548.959 6  -1661061.289 6  -1285012.09447  23308545.88147
  23543767.279 5  -6115601.684 5  -4696899.54746  23543762.78746
  20278017.451 7  -1889400.332 7  -1460368.49648  20278018.99448
  21849812.357 6  -6276419.387 6  -4847502.32048  21849813.91248
  23473581.475 5   -371147.293 5   -288033.60947  23473580.88947
  21180056.256 7  -2285482.715 7  -1772284.41048  21180054.60748
  22495757.982 6    167509.895 6    126858.50447  22495760.53347
 18  5 30  0 35 44.9980000  0 10G03G14G16G22G23G26G27G29G31G32       0.000260910
  23324997.303 5  -2309772.406 5  -1785714.86747  23325000.36147
  20313533.107 6  -1445418.148 6  -1116942.52748  20313531.46348
  20072699.943 7  -3465525.906 7  -2676446.54348  20072697.81848
  23306702.756 6  -1670763.289 6  -1292572.08647  23306699.48247
  23537521.248 5  -6148426.594 5  -4722477.39546  23537516.71346
  20276011.686 7  -1899940.684 7  -1468581.76248  20276013.16648
  21843436.303 6  -6309927.457 6  -4873612.49248  21843437.76448
  23473133.709 6   -373501.805 6   -289868.29347  23473132.63147
  21177551.990 7  -2298641.281 7  -1782537.83648  21177550.60048
  22495789.545 6    167675.766 6    126987.72347  22495792.04147
 18  5 30  0 35 49.9980000  0 10G03G14G16G22G23G26G27G29G31G32       0.000250608
  23322575.256 5  -2322503.008 5  -1795634.83247  23322577.61547
  20312098.256 6  -1452959.277 6  -1122818.73448  20312096.91648
  20069239.365 6  -3483711.324 6  -2690616.99648  20069236.95148
  23304856.279 6  -1680468.223 6  -1300134.35947  23304852.36147
  23531273.647 5  -6181256.184 5  -4748058.89146  23531269.26046
  20274005.436 7  -1910483.324 7  -1476796.80948  20274006.95948
  21837059.068 6  -6343438.430 6  -4899724.94548  21837060.67048
  23472686.022 6   -375855.563 6   -291702.40647  23472685.06147
  21175047.100 7  -2311805.477 7  -1792795.66448  21175045.47948
  22495820.881 6    167839.613 6    127115.39547  22495823.13147
 18  5 30  0 35 54.9980000  0 10G03G14G16G22G23G26G27G29G31G32       0.000240299
  23320153.272 5  -2335231.301 5  -1805552.98446  23320155.47946
  20310663.943 6  -1460495.117 6  -1128690.82848  20310663.13148
  20065779.436 6  -3501893.660 6  -2704785.05148  20065777.19348
  23303008.756 6  -1690175.520 6  -1307698.50047  23303005.06147
  23525025.459 5  -6214089.898 5  -4773643.58646  23525021.36946
  20271999.014 7  -1921027.699 7  -1485013.20348  20272000.40048
  21830681.842 6  -6376951.742 6  -4925839.21148  21830683.22148
  23472238.436 6   -378208.039 6   -293535.52047  23472237.16247
  21172541.209 7  -2324974.742 7  -1803057.43048  21172539.49848
  22495851.842 6    168001.953 6    127241.87547  22495853.72947
 18  5 30  0 35 59.9980000  0 10G03G14G16G22G23G26G27G29G31G32       0.000229986
  23317731.209 5  -2347957.609 5  -1815469.60247  23317733.54147
  20309231.232 6  -1468026.078 6  -1134559.10548  20309229.76848
  20062319.772 6  -3520073.430 6  -2718951.11748  20062317.36548
  23301160.889 6  -1699885.445 6  -1315264.68047  23301157.46347
  23518776.670 5  -6246928.203 5  -4799231.86346  23518773.20146
  20269991.772 7  -1931574.227 7  -1493231.29348  20269993.75248
  21824303.647 6  -6410467.781 6  -4951955.60248  21824305.32248
  23471790.639 6   -380559.602 6   -295367.92647  23471790.00247
  21170034.076 7  -2338149.469 7  -1813323.46148  21170032.31148
  22495882.482 6    168162.406 6    127366.89147  22495884.49847
 18  5 30  0 36  4.9980000  0 10G03G14G16G22G23G26G27G29G31G32       0.000219666
  23315309.834 5  -2360681.992 5  -1825384.70746  23315311.89746
  20307799.100 6  -1475551.965 6  -1140423.43848  20307797.91648
  20058860.686 6  -3538250.473 6  -2733115.04348  20058858.53748
  23299312.443 6  -1709597.988 6  -1322832.89547  23299309.05347
  23512526.568 5  -6279770.844 5  -4824823.49646  23512523.45146
  20267984.678 7  -1942122.813 7  -1501450.96548  20267986.70148
  21817925.412 6  -6443986.391 6  -4978073.99647  21817926.74447
  23471342.928 6   -382910.180 6   -297199.56347  23471342.27547
  21167525.834 7  -2351329.520 7  -1823593.63748  21167524.31448
  22495912.068 6    168321.066 6    127490.51247  22495914.40047
 18  5 30  0 36  9.9980000  0 10G03G14G16G22G23G26G27G29G31G32       0.000209341
  23312889.748 5  -2373404.637 5  -1835298.44947  23312890.88947
  20306367.740 6  -1483073.172 6  -1146284.12548  20306366.76848
  20055402.381 6  -3556425.113 6  -2747277.09848  20055399.92448
  23297462.967 5  -1719313.453 5  -1330403.37947  23297460.10447
  23506276.061 5  -6312618.168 5  -4850418.82446  23506272.95546
  20265976.912 7  -1952673.754 7  -1509672.48048  20265978.54948
  21811546.022 6  -6477507.898 6  -5004194.65247  21811547.62347
  23470895.967 6   -385260.039 6   -299030.63747  23470895.65447
  21165016.928 7  -2364515.191 7  -1833868.19148  21165015.11548
  22495942.178 6    168477.633 6    127612.50047  22495944.20147
 18  5 30  0 36 14.9980000  0 10G03G14G16G22G23G26G27G29G31G32       0.000199011
  23310468.748 5  -2386125.434 5  -1845210.75047  23310470.57647
  20304937.639 6  -1490589.527 6  -1152141.03548  20304936.01448
  20051944.568 6  -3574597.199 6  -2761437.16448  20051941.85748
  23295613.975 5  -1729031.660 5  -1337976.00846  23295610.88546
  23500024.490 5  -6345470.023 5  -4876017.66046  23500021.28346
  20263968.654 7  -1963226.891 7  -1517895.70748  20263970.33448
  21805166.904 6  -6511032.121 6  -5030317.41047  21805168.18247
  23470448.686 6   -387609.121 6   -300861.09847  23470448.19347
  21162506.686 7  -2377706.336 7  -1844147.02048  21162504.53748
  22495971.693 6    168632.203 6    127732.93847  22495973.86547
 18  5 30  0 36 19.9980000  0 10G03G14G16G22G23G26G27G29G31G32       0.000188675
  23308048.240 5  -2398843.512 5  -1855120.94947  23308049.99047
  20303508.295 6  -1498100.223 6  -1157993.52348  20303506.95548
  20048487.100 6  -3592765.859 6  -2775594.56348  20048484.78748
  23293764.232 5  -1738751.867 5  -1345550.20347  23293760.81147
  23493772.732 5  -6378325.547 5  -4901619.36746  23493769.55746
  20261959.943 7  -1973781.457 7  -1526120.05548  20261961.41248
  21798787.092 6  -6544558.188 6  -5056441.62148  21798788.72548
  23470001.475 5   -389956.559 5   -302690.27347  23470001.51847
  21159995.076 7  -2390902.137 7  -1854429.46948  21159993.57648
  22496000.881 6    168785.672 6    127852.50047  22496003.07247
 18  5 30  0 36 24.9980000  0 10G03G14G16G22G23G26G27G29G31G32       0.000178333
  23305628.732 5  -2411559.777 5  -1865029.73847  23305630.04147
  20302080.178 6  -1505606.066 6  -1163842.23848  20302078.92448
  20045029.975 6  -3610931.973 6  -2789749.97348  20045027.61148
  23291914.904 5  -1748474.852 5  -1353126.58247  23291910.97547
  23487519.670 5  -6411185.523 5  -4927224.53546  23487516.48646
  20259951.326 7  -1984338.219 7  -1534346.09848  20259952.58448
  21792406.873 6  -6578086.938 6  -5082567.90648  21792408.28748
  23469555.482 5   -392303.172 5   -304518.81647  23469554.89747
  21157483.303 7  -2404103.371 7  -1864716.15248  21157481.72948
  22496029.826 6    168937.148 6    127970.52047  22496031.87747
 18  5 30  0 36 29.9980000  0 10G03G14G16G22G23G26G27G29G31G32       0.000167986
  23303209.264 5  -2424273.547 5  -1874936.56647  23303210.77547
  20300652.279 6  -1513106.426 6  -1169686.68448  20300651.41248
  20041573.693 6  -3629094.879 6  -2803902.88748  20041571.62348
  23290063.537 5  -1758200.023 5  -1360704.62146  23290060.05346
  23481265.818 5  -6444049.297 5  -4952832.66446  23481262.80746
  20257942.139 7  -1994896.555 7  -1542573.37948  20257942.90048
  21786026.295 6  -6611617.680 6  -5108695.75047  21786027.65447
  23469109.045 6   -394648.410 6   -306346.27746  23469108.66246
  21154970.287 7  -2417309.383 7  -1875006.56348  21154968.52248
  22496058.248 6    169087.289 6    128087.50847  22496060.69747
 18  5 30  0 36 34.9980000  0 10G03G14G16G22G23G26G27G29G31G32       0.000157633
  23300790.654 5  -2436985.320 5  -1884841.83647  23300791.83447
  20299225.951 6  -1520601.777 6  -1175527.21548  20299225.13148
  20038118.076 6  -3647255.098 6  -2818053.71148  20038115.70548
  23288212.225 5  -1767927.844 5  -1368284.74246  23288209.10746
  23475011.037 5  -6476917.352 5  -4978444.11746  23475008.18946
  20255932.490 7  -2005456.988 7  -1550802.28548  20255933.42048
  21779644.842 6  -6645150.914 6  -5134825.54348  21779646.41248
  23468663.686 6   -396992.785 6   -308173.05547  23468662.86947
  21152456.443 7  -2430520.602 7  -1885301.02048  21152454.61948
  22496086.717 6    169235.602 6    128203.05947  22496088.90847
 18  5 30  0 36 39.9980000  0 10G03G14G16G22G23G26G27G29G31G32       0.000147276
  23298371.959 5  -2449695.109 5  -1894745.57447  23298373.20147
  20297800.764 6  -1528092.148 6  -1181363.87548  20297799.65848
  20034662.350 6  -3665412.617 6  -2832202.43048  20034660.59248
  23286360.232 5  -1777658.406 5  -1375867.00846  23286357.85046
  23468756.068 5  -6509789.684 5  -5004058.90246  23468752.63946
  20253922.303 7  -2016019.492 7  -1559032.80548  20253923.29148
  21773263.662 6  -6678686.605 6  -5160957.24647  21773264.31147
  23468217.842 6   -399336.164 6   -309999.08247  23468217.27547
  21149941.404 7  -2443737.117 7  -1895599.61348  21149939.77948
  22496114.561 6    169382.074 6    128317.18047  22496117.13947
 18  5 30  0 36 44.9980000  0 10G03G14G16G22G23G26G27G29G31G32       0.000136913
  23295953.553 5  -2462402.160 5  -1904647.17247  23295955.15047
  20296376.592 6  -1535576.719 6  -1187196.01248  20296375.46748
  20031208.209 6  -3683566.680 6  -2846348.44948  20031205.94348
  23284508.217 5  -1787390.809 5  -1383450.70747  23284506.39747
  23462499.600 5  -6542665.531 5  -5029676.45346  23462496.37346
  20251912.186 7  -2026583.336 7  -1567264.36348  20251913.31148
  21766881.607 6  -6712224.008 6  -5187090.28147  21766882.51047
  23467771.772 6   -401677.805 6   -311823.74247  23467771.26847
  21147425.436 7  -2456958.105 7  -1905901.68448  21147423.79548
  22496142.373 6    169527.473 6    128430.46147  22496144.22147
 18  5 30  0 36 49.9980000  0 10G03G14G16G22G23G26G27G29G31G32       0.000126545
  23293536.272 5  -2475106.523 5  -1914546.66047  23293537.74447
  20294953.264 6  -1543055.602 6  -1193023.71548  20294952.02548
  20027754.006 6  -3701717.324 6  -2860491.80548  20027751.92848
  23282657.029 5  -1797125.238 5  -1391036.00047  23282653.84647
  23456243.404 5  -6575544.879 5  -5055296.71146  23456239.47146
  20249901.920 7  -2037148.535 7  -1575496.98848  20249902.45948
  21760499.295 6  -6745763.105 6  -5213224.64547  21760500.33047
  23467326.436 6   -404017.797 6   -313647.11747  23467326.10747
  21144908.365 7  -2470183.613 7  -1916207.27748  21144907.04548
  22496170.342 6    169671.703 6    128542.80947  22496172.01447
 18  5 30  0 36 54.9980000  0 10G03G14G16G22G23G26G27G29G31G32       0.000116173
  23291118.857 5  -2487808.512 5  -1924444.31647  23291120.74847
  20293530.967 6  -1550529.094 6  -1198847.21548  20293529.73248
  20024300.678 6  -3719864.875 6  -2874632.76248  20024298.63548
  23280804.037 5  -1806861.902 5  -1398623.03547  23280801.06447
  23449985.561 5  -6608428.063 5  -5080919.96946  23449982.01846
  20247890.795 7  -2047715.441 7  -1583730.95348  20247891.76048
  21754116.412 6  -6779304.191 6  -5239360.54347  21754117.20947
  23466881.818 6   -406356.418 6   -315469.43046  23466880.98646
  21142391.029 7  -2483414.020 7  -1926516.68848  21142389.09648
  22496197.381 6    169814.508 6    128654.06347  22496199.31847
 18  5 30  0 36 59.9980000  0 10G03G14G16G22G23G26G27G29G31G32       0.000105793
  23288702.451 5  -2500508.055 5  -1934340.06347  23288704.66247
  20292109.803 6  -1557997.109 6  -1204666.45748  20292108.90848
  20020848.365 6  -3738009.246 6  -2888771.23048  20020845.85748
  23278950.842 5  -1816600.762 5  -1406211.76647  23278948.27547
  23443727.014 5  -6641314.945 5  -5106546.10946  23443724.04946
  20245879.975 7  -2058283.957 7  -1591966.15248  20245880.81848
  21747733.529 6  -6812847.180 6  -5265497.93848  21747734.47548
  23466436.404 6   -408693.664 6   -317290.66046  23466436.63146
  21139872.467 7  -2496649.211 7  -1936829.82448  21139871.02248
  22496224.123 6    169955.941 6    128764.27747  22496226.40447
 18  5 30  0 37  4.9980000  0 10G03G14G16G22G23G26G27G29G31G32       0.000095411
  23286286.264 5  -2513204.625 5  -1944233.50847  23286288.30347
  20290689.943 6  -1565459.184 6  -1210481.05948  20290688.87348
  20017396.318 6  -3756149.988 6  -2902906.87548  20017393.72548
  23277097.568 5  -1826341.418 5  -1413801.90247  23277094.90447
  23437468.272 5  -6674205.125 5  -5132174.80546  23437464.74046
  20243868.248 7  -2068853.637 7  -1600202.26248  20243869.71748
  21741350.248 6  -6846391.609 6  -5291636.45747  21741351.53747
  23465992.240 6   -411029.105 6   -319110.51647  23465992.06847
  21137353.022 7  -2509888.750 7  -1947146.35248  21137351.54548
  22496250.725 6    170096.426 6    128873.71947  22496253.15847
 18  5 30  0 37  9.9980000  0 10G03G14G16G22G23G26G27G29G31G32       0.000085022
  23283869.897 5  -2525898.945 5  -1954125.19147  23283872.62347
  20289271.397 6  -1572915.891 6  -1216291.48448  20289269.91648
  20013944.740 6  -3774287.684 6  -2917040.14848  20013942.54148
  23275244.397 6  -1836084.406 6  -1421393.84447  23275240.81147
  23431208.975 5  -6707099.086 5  -5157806.49246  23431205.04546
  20241857.068 7  -2079425.059 7  -1608439.74248  20241857.86948
  21734966.826 6  -6879938.012 6  -5317776.50447  21734967.89747
  23465547.865 5   -413363.238 5   -320929.32446  23465548.06146
  21134832.865 7  -2523133.145 7  -1957466.66048  21134830.99048
  22496277.740 6    170235.430 6    128982.02347  22496280.01847
 18  5 30  0 37 14.9980000  0 10G03G14G16G22G23G26G27G29G31G32       0.000074629
  23281455.295 5  -2538590.566 5  -1964014.78947  23281457.31847
  20287853.537 6  -1580366.906 6  -1222097.47748  20287852.30348
  20010493.686 6  -3792421.973 6  -2931170.76248  20010491.59648
  23273388.576 5  -1845829.449 5  -1428987.37547  23273385.90047
  23424948.240 5  -6739996.508 5  -5183440.82846  23424944.99046
  20239844.912 7  -2089997.871 7  -1616678.30548  20239846.35448
  21728582.764 6  -6913486.031 6  -5343917.80547  21728584.12747
  23465104.959 5   -415695.820 5   -322746.91046  23465103.67446
  21132311.740 7  -2536382.109 7  -1967790.53148  21132310.28748
  22496303.678 6    170373.227 6    129089.35947  22496306.02547
 18  5 30  0 37 19.9980000  0 10G03G14G16G22G23G26G27G29G31G32       0.000064230
  23279040.639 5  -2551279.563 5  -1973902.32047  23279042.84647
  20286436.490 7  -1587812.250 7  -1227899.05148  20286435.33448
  20007043.748 6  -3810552.852 6  -2945298.71948  20007041.55348
  23271534.350 6  -1855576.523 6  -1436582.49647  23271531.24847
  23418687.631 5  -6772897.344 5  -5209077.87146  23418684.05346
  20237832.561 7  -2100572.156 7  -1624918.01648  20237834.21348
  21722198.732 6  -6947035.672 6  -5370060.37947  21722199.57247
  23464661.061 5   -418026.820 5   -324563.28146  23464660.09246
  21129789.764 7  -2549635.605 7  -1978117.93048  21129788.26448
  22496329.592 6    170509.824 6    129195.80147  22496332.40847
 18  5 30  0 37 24.9980000  0 10G03G14G16G22G23G26G27G29G31G32       0.000053825
  23276626.615 5  -2563965.449 5  -1983787.41447  23276628.93947
  20285020.623 6  -1595251.410 6  -1233695.80548  20285020.00248
  20003594.607 7  -3828679.855 7  -2959423.66048  20003591.83048
  23269678.529 6  -1865325.156 6  -1444178.82047  23269675.99847
  23412426.693 5  -6805801.102 5  -5234717.13346  23412422.75246
  20235820.404 7  -2111147.332 7  -1633158.41448  20235822.30748
  21715813.717 6  -6980586.402 6  -5396203.80147  21715815.37747
  23464217.803 5   -420355.691 5   -326377.98846  23464217.03346
  21127266.576 7  -2562893.082 7  -1988448.44148  21127265.35448
  22496355.100 6    170645.754 6    129301.69147  22496358.40847
 18  5 30  0 37 29.9980000  0 10G03G14G16G22G23G26G27G29G31G32       0.000043417
  23274213.318 5  -2576649.012 5  -1993670.71547  23274215.36147
  20283606.412 6  -1602685.223 6  -1239488.39548  20283605.26048
  20000145.529 6  -3846803.805 6  -2973546.22348  20000142.88948
  23267823.076 5  -1875076.172 5  -1451777.02047  23267820.36547
  23406163.787 5  -6838708.633 5  -5260359.39146  23406160.38146
  20233807.490 7  -2121724.297 7  -1641400.21148  20233808.97548
  21709428.740 6  -7014139.070 6  -5422348.73448  21709430.05348
  23463774.475 6   -422683.324 6   -328191.72746  23463774.31146
  21124743.209 7  -2576155.375 7  -1998782.69148  21124741.49848
  22496380.834 6    170780.129 6    129406.38747  22496383.96347
 18  5 30  0 37 34.9980000  0 10G03G14G16G22G23G26G27G29G31G32       0.000033003
  23271800.209 5  -2589330.309 5  -2003552.23047  23271802.20947
  20282192.967 7  -1610113.684 7  -1245276.81648  20282192.00648
  19996696.803 6  -3864924.703 6  -2987666.40648  19996694.66648
  23265966.764 6  -1884829.574 6  -1459377.09846  23265964.50646
  23399901.600 5  -6871619.922 5  -5286004.56346  23399897.69346
  20231794.397 7  -2132303.035 7  -1649643.39848  20231795.91648
  21703043.779 6  -7047693.645 6  -5448495.15647  21703045.14747
  23463332.107 6   -425009.738 6   -330004.53546  23463331.62746
  21122218.334 7  -2589422.488 7  -2009120.71148  21122216.79148
  22496406.373 6    170912.949 6    129509.85947  22496409.67047
 18  5 30  0 37 39.9980000  0 10G03G14G16G22G23G26G27G29G31G32       0.000022585
  23269387.326 5  -2602008.469 5  -2013431.32847  23269390.04147
  20280780.412 6  -1617535.953 6  -1251060.41448  20280779.41648
  19993249.475 6  -3883041.730 6  -3001783.57048  19993247.11948
  23264110.311 5  -1894584.555 5  -1466978.39147  23264107.70947
  23393638.545 5  -6904534.105 5  -5311651.97746  23393634.51046
  20229781.193 7  -2142882.711 7  -1657887.30148  20229782.70948
  21696658.459 6  -7081249.270 6  -5474642.39547  21696659.57247
  23462889.436 6   -427334.125 6   -331815.77346  23462888.97546
  21119693.115 7  -2602693.609 7  -2019461.84048  21119691.29948
  22496430.990 6    171045.031 6    129612.76247  22496434.52547
 18  5 30  0 37 44.9980000  0 10G03G14G16G22G23G26G27G29G31G32       0.000012161
  23266975.428 5  -2614684.031 5  -2023308.39147  23266977.73647
  20279369.022 6  -1624952.570 6  -1256839.59848  20279367.89748
  19989802.709 6  -3901155.359 6  -3015898.08648  19989799.63948
  23262254.037 5  -1904341.594 5  -1474581.28947  23262251.39747
  23387374.795 5  -6937451.676 5  -5337302.03946  23387370.56446
  20227767.772 7  -2153463.848 7  -1666132.33648  20227769.08048
  21690272.701 6  -7114806.422 6  -5500790.81647  21690273.82247
  23462447.139 6   -429656.988 6   -333625.78546  23462447.34246
  21117166.654 7  -2615969.195 7  -2029806.45348  21117164.99048
  22496456.037 5    171175.871 5    129714.69947  22496459.66247
 18  5 30  0 37 49.9980000  0 10G03G14G16G22G23G26G27G29G31G32       0.000001732
  23264563.389 5  -2627356.500 5  -2033183.05547  23264566.45147
  20277959.084 7  -1632363.023 7  -1262613.98448  20277957.69748
  19986356.436 6  -3919265.145 6  -3030009.60548  19986353.78348
  23260397.350 5  -1914100.215 5  -1482185.43447  23260394.15847
  23381109.725 5  -6970372.117 5  -5362954.32046  23381106.44746
  20225754.209 7  -2164045.938 7  -1674378.12548  20225755.52548
  21683886.787 6  -7148364.594 6  -5526940.04348  21683887.90848
  23462005.561 6   -431977.773 6   -335434.21146  23462005.62346
  21114639.451 7  -2629248.758 7  -2040154.16848  21114638.02248
  22496480.529 6    171305.938 6    129816.03547  22496484.46347
 18  5 30  0 37 54.9980000  0 10G03G14G16G22G23G26G27G29G31G32      -0.000008701
  23262153.084 5  -2640026.297 5  -2043055.62147  23262155.31847
  20276549.623 6  -1639767.750 6  -1268383.91048  20276548.92848
  19982911.068 6  -3937371.504 6  -3044118.46548  19982908.55748
  23258540.029 5  -1923860.906 5  -1489791.15647  23258537.18247
  23374844.334 5  -7003295.871 5  -5388609.18846  23374841.08046
  20223739.904 7  -2174629.406 7  -1682624.98848  20223741.06448
  21677500.365 6  -7181924.191 6  -5553090.37148  21677501.88948
  23461564.084 5   -434297.020 5   -337241.41046  23461564.30746
  21112111.795 7  -2642532.738 7  -2050505.32448  21112110.27948
  22496505.490 5    171434.848 5    129916.46147  22496509.06847
 18  5 30  0 37 59.9980000  0 10G03G14G16G22G23G26G27G29G31G32      -0.000019140
  23259742.240 5  -2652693.797 5  -2052926.40247  23259745.02547
  20275141.654 6  -1647167.086 6  -1274149.62948  20275140.39748
  19979465.686 7  -3955474.770 7  -3058224.90248  19979463.55748
  23256681.889 5  -1933623.988 5  -1497398.74647  23256679.19347
  23368578.936 5  -7036223.184 5  -5414266.84846  23368575.47946
  20221725.865 7  -2185214.645 7  -1690873.22748  20221727.05348
  21671113.873 6  -7215485.559 6  -5579242.08648  21671115.21348
  23461123.303 5   -436615.063 5   -339047.67646  23461122.77946
  21109582.951 7  -2655821.445 7  -2060860.16048  21109581.39348
  22496529.037 5    171562.207 5    130015.68447  22496533.06847
 18  5 30  0 38  4.9980000  0 10G03G14G16G22G23G26G27G29G31G32      -0.000029583
  23257331.576 5  -2665357.742 5  -2062794.41447  23257335.10047
  20273734.795 7  -1654559.816 7  -1279910.20348  20273733.51048
  19976021.897 6  -3973573.766 6  -3072328.01648  19976019.42048
  23254823.943 5  -1943388.191 5  -1505007.20347  23254821.10447
  23362312.225 5  -7069152.863 5  -5439926.33646  23362309.51446
  20219711.514 7  -2195800.406 7  -1699121.86748  20219712.73648
  21664727.482 6  -7249047.414 6  -5605394.17647  21664728.59247
  23460682.756 5   -438930.641 5   -340852.03546  23460682.31446
  21107053.772 7  -2669113.652 7  -2071217.72748  21107052.34648
  22496552.850 5    171689.246 5    130114.65647  22496557.14747
 18  5 30  0 38  9.9980000  0 10G03G14G16G22G23G26G27G29G31G32      -0.000040031
  23254922.881 4  -2678018.824 4  -2072660.18847  23254925.83447
  20272329.365 7  -1661946.578 7  -1285666.12948  20272328.17848
  19972578.186 6  -3991669.086 6  -3086428.27048  19972576.54948
  23252965.740 5  -1953154.297 5  -1512617.16447  23252962.71747
  23356045.084 5  -7102085.559 5  -5465588.16446  23356042.56146
  20217696.990 7  -2206387.379 7  -1707371.45748  20217698.21748
  21658340.670 6  -7282610.461 6  -5631547.19147  21658341.59647
  23460242.381 5   -441244.488 5   -342655.01646  23460242.06446
  21104523.482 7  -2682410.008 7  -2081578.52348  21104521.72148
  22496577.701 5    171815.324 5    130212.87547  22496581.00247
 18  5 30  0 38 14.9980000  0 10G03G14G16G22G23G26G27G29G31G32      -0.000050484
  23252514.006 5  -2690677.270 5  -2082523.92647  23252517.15047
  20270924.873 6  -1669327.637 6  -1291417.60548  20270923.36948
  19969135.709 6  -4009760.961 6  -3100525.83248  19969133.58848
  23251106.045 5  -1962922.375 5  -1520228.65647  23251103.68247
  23349778.397 5  -7135021.418 5  -5491252.47347  23349775.36147
  20215682.014 7  -2216975.750 7  -1715622.14148  20215683.29548
  21651953.303 6  -7316174.863 6  -5657701.27047  21651954.70947
  23459802.365 6   -443556.699 6   -344456.74246  23459802.37746
  21101992.436 7  -2695710.727 7  -2091942.71148  21101990.97948
  22496601.412 6    171940.152 6    130310.11747  22496604.60047
 18  5 30  0 38 19.9980000  0 10G03G14G16G22G23G26G27G29G31G32      -0.000060942
  23250106.357 3  -2703331.977 3  -2092384.75447  23250109.26047
  20269521.693 7  -1676701.844 7  -1297163.74648  20269519.81848
  19965693.756 6  -4027848.313 6  -3114619.87148  19965691.56448
  23249247.490 5  -1972691.422 5  -1527840.90647  23249244.95947
  23343510.272 5  -7167959.375 5  -5516918.41847  23343507.76047
  20213666.748 7  -2227564.449 7  -1723873.07848  20213668.42848
  21645566.279 6  -7349739.520 6  -5683855.54747  21645567.31447
  23459362.654 6   -445866.332 6   -346256.47346  23459362.22146
  21099460.811 7  -2709014.684 7  -2102309.43448  21099458.71748
  22496625.248 6    172064.879 6    130407.27747  22496628.36147
 18  5 30  0 38 24.9980000  0 10G03G14G16G22G23G26G27G29G31G32      -0.000071404
  23247698.826 3  -2715983.613 3  -2102243.19546  23247701.41246
  20268119.443 6  -1684069.941 6  -1302905.12948  20268117.90848
  19962252.732 6  -4045931.895 6  -3128710.97748  19962250.62748
  23247388.451 5  -1982462.223 5  -1535454.51647  23247384.88547
  23337242.061 5  -7200900.141 5  -5542586.52047  23337239.59247
  20211652.279 7  -2238154.215 7  -1732124.84048  20211653.42448
  21639178.982 6  -7383305.105 6  -5710010.53948  21639179.90848
  23458923.662 6   -448174.004 6   -348054.66446  23458923.27246
  21096928.490 7  -2722322.625 7  -2112679.26248  21096926.54548
  22496648.678 6    172188.746 6    130503.78547  22496652.08047
 18  5 30  0 38 29.9980000  0 10G03G14G16G22G23G26G27G29G31G32      -0.000081871
  23245291.725 3  -2728631.930 3  -2112099.05547  23245294.91647
  20266718.482 7  -1691431.559 7  -1308641.45748  20266716.78348
  19958812.209 6  -4064011.266 6  -3142798.79348  19958810.07648
  23245529.232 5  -1992234.328 5  -1543069.13747  23245525.22547
  23330973.522 5  -7233843.352 5  -5568256.55147  23330970.76447
  20209636.779 7  -2248744.633 7  -1740377.12548  20209638.33848
  21632791.311 6  -7416871.234 6  -5736165.96547  21632792.63547
  23458484.959 6   -450479.387 6   -349851.07846  23458484.53746
  21094394.865 7  -2735634.129 7  -2123051.85248  21094393.27248
  22496672.537 6    172312.160 6    130599.93047  22496675.29947
 18  5 30  0 38 34.9980000  0 10G03G14G16G22G23G26G27G29G31G32      -0.000092342
  23242886.389 3  -2741277.395 3  -2121952.66447  23242888.63147
  20265318.779 6  -1698787.223 6  -1314373.14548  20265316.93948
  19955372.350 6  -4082087.016 6  -3156883.80548  19955370.20948
  23243668.912 5  -2002008.344 5  -1550685.26247  23243665.92847
  23324703.397 5  -7266789.469 5  -5593928.85947  23324701.52947
  20207620.951 7  -2259336.293 7  -1748630.37548  20207622.79948
  21626404.381 6  -7450438.426 6  -5762322.20748  21626404.70148
  23458046.717 6   -452783.051 6   -351646.16046  23458046.18646
  21091861.303 7  -2748949.754 7  -2133427.67248  21091859.32648
  22496695.607 6    172434.500 6    130695.24647  22496698.17047
 18  5 30  0 38 39.9980000  0 10G03G14G16G22G23G26G27G29G31G32      -0.000102818
  23240480.240 3  -2753920.309 3  -2131804.27747  23240483.18247
  20263920.147 7  -1706137.160 7  -1320100.36748  20263918.47948
  19951933.365 6  -4100159.332 6  -3170966.13748  19951931.24848
  23241808.678 5  -2011784.445 5  -1558303.00047  23241805.04947
  23318434.100 5  -7299738.723 5  -5619603.58647  23318431.27247
  20205605.287 7  -2269929.395 7  -1756884.73848  20205606.70948
  21620016.084 6  -7484006.918 6  -5788479.47348  21620016.97948
  23457608.678 6   -455085.168 6   -353440.02046  23457608.05746
  21089326.529 7  -2762269.715 7  -2143806.85548  21089324.93948
  22496718.725 6    172555.605 6    130789.58647  22496721.37747
 18  5 30  0 38 44.9980000  0 10G03G14G16G22G23G26G27G29G31G32      -0.000113298
  23238075.295 3  -2766560.258 3  -2141653.60947  23238077.67047
  20262522.732 6  -1713481.125 6  -1325822.94548  20262521.30348
  19948495.193 6  -4118227.949 6  -3185045.57448  19948492.89348
  23239948.022 5  -2021562.426 5  -1565922.20747  23239944.51047
  23312162.998 5  -7332690.809 5  -5645280.52347  23312160.93947
  20203589.014 7  -2280523.684 7  -1765140.02348  20203590.22948
  21613628.029 6  -7517576.363 6  -5814637.48047  21613628.66247
  23457170.350 6   -457385.551 6   -355232.53546  23457170.43246
  21086791.084 7  -2775593.680 7  -2154189.17248  21086789.35748
  22496741.576 6    172675.727 6    130883.17247  22496743.77247
 18  5 30  0 38 49.9980000  0 10G03G14G16G22G23G26G27G29G31G32      -0.000123785
  23235669.670 3  -2779197.090 3  -2151500.51247  23235672.97947
  20261126.131 7  -1720818.816 7  -1331540.63348  20261124.74448
  19945056.990 6  -4136292.621 6  -3199121.94148  19945055.37348
  23238086.748 5  -2031341.887 5  -1573542.57047  23238083.39347
  23305891.912 5  -7365645.523 5  -5670959.51247  23305889.83047
  20201573.193 7  -2291118.855 7  -1773396.01648  20201574.38948
  21607239.998 6  -7551146.504 6  -5840796.02348  21607240.78348
  23456733.811 5   -459683.922 5   -357023.47746  23456733.22946
  21084254.748 7  -2788921.414 7  -2164574.41448  21084252.94348
  22496764.803 6    172795.109 6    130976.18847  22496766.42847
 18  5 30  0 38 54.9980000  0 10G03G14G16G22G23G26G27G29G31G32      -0.000134275
  23233265.857 4  -2791830.867 4  -2161345.02346  23233269.06146
  20259730.873 6  -1728150.324 6  -1337253.50048  20259729.66248
  19941620.732 6  -4154353.473 6  -3213195.33648  19941618.46748
  23236225.365 5  -2041123.055 5  -1581164.28147  23236223.13147
  23299620.428 5  -7398602.855 5  -5696640.54747  23299618.39347
  20199556.631 7  -2301715.059 7  -1781652.80148  20199558.08448
  21600851.881 6  -7584717.438 6  -5866955.19548  21600852.11148
  23456296.342 5   -461980.367 5   -358812.91846  23456296.10746
  21081717.772 7  -2802252.973 7  -2174962.65248  21081716.10048
  22496786.701 6    172913.707 6    131068.57847  22496788.92447
 18  5 30  0 38 59.9980000  0 10G03G14G16G22G23G26G27G29G31G32      -0.000144772
  23230863.053 4  -2804461.898 4  -2171187.42247  23230865.20947
  20258337.100 6  -1735475.969 6  -1342961.80948  20258335.33048
  19938184.889 6  -4172410.684 6  -3227265.89148  19938182.38548
  23234362.623 5  -2050906.215 5  -1588787.52347  23234360.77247
  23293348.482 5  -7431563.121 5  -5722323.86347  23293346.11947
  20197539.811 7  -2312312.570 7  -1789910.60548  20197541.03748
  21594462.959 6  -7618289.367 6  -5893115.13348  21594463.77948
  23455859.936 5   -464275.129 5   -360601.04346  23455859.77246
  21079180.100 7  -2815588.680 7  -2185354.10948  21079178.58048
  22496809.443 6    173031.172 6    131160.07847  22496811.60747
 18  5 30  0 39  4.9980000  0 10G03G14G16G22G23G26G27G29G31G32      -0.000155272
  23228459.311 4  -2817089.582 4  -2181027.18047  23228462.54947
  20256944.287 6  -1742795.094 6  -1348665.02748  20256943.04148
  19934749.045 6  -4190463.703 6  -3241333.18448  19934746.68248
  23232500.615 5  -2060690.715 5  -1596411.81647  23232499.31147
  23287076.162 5  -7464525.645 5  -5748008.93447  23287073.36947
  20195523.475 7  -2322910.750 7  -1798168.93448  20195524.71748
  21588074.342 6  -7651861.707 6  -5919275.39847  21588075.18647
  23455423.670 5   -466567.645 5   -362387.43046  23455423.51046
  21076641.779 7  -2828927.867 7  -2195748.29348  21076639.95548
  22496832.084 6    173148.156 6    131251.21947  22496833.88147
 18  5 30  0 39  9.9980000  0 10G03G14G16G22G23G26G27G29G31G32      -0.000165775
  23226056.607 4  -2829713.945 4  -2190864.35247  23226059.83047
  20255553.264 6  -1750107.836 6  -1354363.27048  20255551.80348
  19931314.545 6  -4208512.652 6  -3255397.30148  19931312.25648
  23230639.342 5  -2070476.656 5  -1604037.20747  23230637.01447
  23280802.709 6  -7497490.531 6  -5773695.86347  23280800.06447
  20193506.287 7  -2333509.715 7  -1806427.87148  20193507.58048
  21581685.779 6  -7685434.531 6  -5945436.03948  21581686.64748
  23454987.592 5   -468857.989 5   -364172.11746  23454987.72946
  21074103.115 7  -2842270.660 7  -2206145.27748  21074100.99048
  22496854.147 6    173264.516 6    131341.86347  22496855.85747
 18  5 30  0 39 14.9980000  0 10G03G14G16G22G23G26G27G29G31G32      -0.000176285
  23223655.584 3  -2842335.172 3  -2200699.09446  23223658.50246
  20254162.553 6  -1757414.227 6  -1360056.57048  20254160.91248
  19927880.912 6  -4226557.574 6  -3269458.27348  19927878.13548
  23228776.826 5  -2080264.137 5  -1611663.82047  23228775.20147
  23274529.740 6  -7530457.816 6  -5799384.66046  23274526.69746
  20191489.076 7  -2344109.531 7  -1814687.46548  20191490.75248
  21575297.006 6  -7719007.840 6  -5971597.06648  21575297.76448
  23454552.404 5   -471146.277 5   -365955.21146  23454552.32246
  21071563.061 6  -2855617.055 6  -2216545.07448  21071561.19748
  22496876.225 6    173380.234 6    131432.00047  22496877.73247
 18  5 30  0 39 19.9980000  0 10G03G14G16G22G23G26G27G29G31G32      -0.000186798
  23221253.740 3  -2854953.609 3  -2210531.63347  23221257.24447
  20252773.654 6  -1764714.688 6  -1365745.24648  20252772.47948
  19924447.607 6  -4244598.902 6  -3283516.45348  19924445.31148
  23226913.951 5  -2090053.563 5  -1619291.94947  23226912.09247
  23268255.381 5  -7563427.895 5  -5825075.61347  23268252.73247
  20189472.045 7  -2354710.613 7  -1822948.05148  20189473.51048
  21568908.037 6  -7752582.070 6  -5997758.80947  21568908.57247
  23454116.842 5   -473432.902 5   -367737.01646  23454117.43246
  21069022.576 6  -2868967.520 6  -2226948.03548  21069020.85748
  22496898.115 6    173494.848 6    131521.29347  22496899.96747
 18  5 30  0 39 24.9980000  0 10G03G14G16G22G23G26G27G29G31G32      -0.000197317
  23218852.834 4  -2867569.242 4  -2220361.98447  23218856.51447
  20251385.201 6  -1772009.148 6  -1371429.25848  20251383.86548
  19921015.670 7  -4262636.574 7  -3297571.78948  19921012.68248
  23225051.037 5  -2099844.871 5  -1626921.55947  23225048.68947
  23261980.889 6  -7596400.715 6  -5850768.72746  23261978.44346
  20187454.334 7  -2365312.934 7  -1831209.60548  20187455.88548
  21562518.912 6  -7786157.160 6  -6023921.21147  21562519.57647
  23453682.404 5   -475717.832 5   -369517.49246  23453682.83446
  21066481.373 6  -2882322.020 6  -2237354.14548  21066479.45148
  22496919.928 6    173608.398 6    131609.75447  22496921.71347
 18  5 30  0 39 29.9980000  0 10G03G14G16G22G23G26G27G29G31G32      -0.000207840
  23216453.217 4  -2880181.695 4  -2230189.87147  23216456.44747
  20249998.748 6  -1779297.289 6  -1377108.32848  20249997.08048
  19917583.412 7  -4280670.266 7  -3311624.01648  19917581.09648
  23223187.490 5  -2109637.770 5  -1634552.39546  23223184.28346
  23255706.006 5  -7629375.910 5  -5876463.68846  23255703.07246
  20185436.779 7  -2375916.129 7  -1839471.83648  20185438.22148
  21556129.912 6  -7819732.719 6  -6050083.98448  21556130.42448
  23453247.537 5   -478000.695 5   -371296.34846  23453247.99846
  21063939.318 6  -2895680.133 6  -2247763.06648  21063937.77248
  22496940.967 6    173721.238 6    131697.65647  22496943.01047
 18  5 30  0 39 34.9980000  0 10G03G14G16G22G23G26G27G29G31G32      -0.000218367
  23214053.693 4  -2892789.980 4  -2240014.52047  23214056.77247
  20248613.162 6  -1786578.152 6  -1382781.73848  20248610.86948
  19914152.678 7  -4298699.023 7  -3325672.39848  19914150.42448
  23221324.311 5  -2119431.281 5  -1642183.70746  23221320.36546
  23249430.303 5  -7662352.480 5  -5902159.73446  23249427.55746
  20183418.811 7  -2386519.246 7  -1847734.00848  20183420.43948
  21549740.522 6  -7853307.777 6  -6076246.35948  21549741.62348
  23452814.443 5   -480280.535 5   -373072.87546  23452814.42046
  21061396.975 7  -2909040.902 7  -2258174.05948  21061395.44748
  22496962.654 6    173834.332 6    131785.75847  22496964.58447
 18  5 30  0 39 39.9980000  0 10G03G14G16G22G23G26G27G29G31G32      -0.000228899
  23211654.334 4  -2905394.766 4  -2249836.44547  23211658.12747
  20247228.748 6  -1793852.383 6  -1388449.96148  20247227.40848
  19910722.709 7  -4316723.434 7  -3339717.39148  19910720.50648
  23219459.662 5  -2129226.020 5  -1649815.96946  23219455.86946
  23243154.678 5  -7695330.996 5  -5927857.28146  23243152.20946
  20181401.412 7  -2397122.898 7  -1855996.59848  20181402.88948
  21543351.397 6  -7886882.926 6  -6102408.82047  21543352.22547
  23452380.514 6   -482557.996 6   -374847.51246  23452381.10046
  21058853.701 7  -2922404.934 7  -2268587.59048  21058852.14348
  22496983.920 6    173947.031 6    131873.55947  22496986.08847
 18  5 30  0 39 44.9980000  0 10G03G14G16G22G23G26G27G29G31G32      -0.000239435
  23209257.037 4  -2917996.793 4  -2259656.20347  23209259.81147
  20245845.428 6  -1801120.691 6  -1394113.58648  20245843.95948
  19907293.607 6  -4334744.242 6  -3353759.57848  19907291.02248
  23217595.537 5  -2139022.762 5  -1657449.80146  23217591.70546
  23236879.248 5  -7728312.230 5  -5953556.95346  23236875.93946
  20179382.881 7  -2407727.820 7  -1864260.17248  20179384.64348
  21536962.342 6  -7920458.840 6  -6128571.87547  21536963.42447
  23451947.717 5   -484833.813 5   -376620.87946  23451948.34646
  21056309.881 6  -2935772.965 6  -2279004.23848  21056308.67048
  22497005.232 6    174058.656 6    131960.52047  22497007.81847
 18  5 30  0 39 49.9980000  0 10G03G14G16G22G23G26G27G29G31G32      -0.000249977
  23206859.482 4  -2930595.559 4  -2269473.43447  23206862.14347
  20244463.670 7  -1808382.582 7  -1399772.20748  20244461.93248
  19903865.092 6  -4352760.934 6  -3367798.55948  19903862.94348
  23215730.756 5  -2148820.957 5  -1665084.74247  23215726.88947
  23230602.076 5  -7761295.680 5  -5979258.35547  23230599.17447
  20177364.764 7  -2418333.551 7  -1872524.38748  20177366.54948
  21530572.772 6  -7954035.063 6  -6154735.16447  21530574.10047
  23451515.334 5   -487107.516 5   -378392.60946  23451515.40846
  21053765.350 6  -2949144.477 6  -2289423.60548  21053763.90448
  22497026.232 6    174169.613 6    132046.96147  22497028.80747
 18  5 30  0 39 54.9980000  0 10G03G14G16G22G23G26G27G29G31G32      -0.000260521
  23204462.982 5  -2943190.594 5  -2279287.73447  23204465.13947
  20243083.076 6  -1815637.527 6  -1405425.41048  20243081.21748
  19900437.373 6  -4370772.973 6  -3381833.91848  19900435.18648
  23213866.584 5  -2158620.203 5  -1672720.52046  23213862.74846
  23224325.459 5  -7794280.770 5  -6004961.02046  23224322.62746
  20175346.365 7  -2428939.566 7  -1880788.80948  20175348.33448
  21524183.600 6  -7987611.066 6  -6180898.28948  21524185.11948
  23451083.178 5   -489378.629 5   -380162.28946  23451083.39746
  21051220.490 6  -2962518.953 6  -2299845.28948  21051218.99048
  22497046.889 6    174280.484 6    132133.34847  22497050.18647
 18  5 30  0 39 59.9980000  0 10G03G14G16G22G23G26G27G29G31G32      -0.000271070
  23202067.272 5  -2955782.559 5  -2289099.65647  23202068.89747
  20241703.795 6  -1822886.246 6  -1411073.76248  20241702.16248
  19897010.647 6  -4388781.117 6  -3395866.23848  19897008.19348
  23212000.842 5  -2168421.105 5  -1680357.58247  23211997.79947
  23218048.459 5  -7827268.137 5  -6030665.47747  23218045.43247
  20173328.053 7  -2439546.563 7  -1889054.01248  20173330.10448
  21517794.295 6  -8021187.500 6  -6207061.73847  21517795.63147
  23450651.568 5   -491647.789 5   -381930.46946  23450651.29946
  21048674.756 6  -2975897.117 6  -2310269.83648  21048672.89348
  22497068.389 6    174390.480 6    132219.03547  22497071.34647
 18  5 30  0 40  4.9980000  0 10G03G14G16G22G23G26G27G29G31G32      -0.000281624
  23199670.998 5  -2968370.859 5  -2298908.72747  23199672.91247
  20240325.732 6  -1830128.105 6  -1416716.77348  20240324.18248
  19893584.592 6  -4406784.691 6  -3409895.00448  19893582.27948
  23210136.240 5  -2178223.070 5  -1687995.49247  23210132.59647
  23211770.303 5  -7860257.258 5  -6056371.28946  23211767.95546
  20171309.381 7  -2450153.934 7  -1897319.50048  20171311.46348
  21511404.678 6  -8054763.781 6  -6233225.07447  21511406.34647
  23450220.178 5   -493914.449 5   -383696.71146  23450219.99046
  21046128.381 6  -2989278.266 6  -2320696.70748  21046126.75248
  22497089.068 6    174500.289 6    132304.59447  22497092.39347
 18  5 30  0 40  9.9980000  0 10G03G14G16G22G23G26G27G29G31G32      -0.000292183
  23197275.670 5  -2980956.285 5  -2308715.53947  23197278.24447
  20238948.568 6  -1837363.867 6  -1422355.03148  20238947.52248
  19890159.592 6  -4424784.516 6  -3423920.84048  19890157.22148
  23208269.990 5  -2188026.895 5  -1695634.83247  23208267.02947
  23205492.232 5  -7893248.871 5  -6082079.03547  23205489.89747
  20169290.873 7  -2460762.469 7  -1905585.89148  20169292.93948
  21505015.850 6  -8088340.598 6  -6259388.82047  21505016.92047
  23449789.022 5   -496179.445 5   -385461.63346  23449789.70946
  21043581.201 7  -3002663.227 7  -2331126.55148  21043579.77948
  22497109.756 6    174609.105 6    132389.37947  22497113.03347
 18  5 30  0 40 14.9980000  0 10G03G14G16G22G23G26G27G29G31G32      -0.000302746
  23194881.873 5  -2993538.363 5  -2318519.75047  23194883.63147
  20237572.795 6  -1844593.102 6  -1427988.20748  20237571.61948
  19886735.123 6  -4442780.051 6  -3437943.33648  19886732.78748
  23206404.326 5  -2197832.137 5  -1703275.29347  23206400.73247
  23199214.068 5  -7926242.465 5  -6107788.35546  23199211.84646
  20167272.240 7  -2471371.688 7  -1913852.81649  20167274.21749
  21498626.193 6  -8121917.488 6  -6285552.62948  21498627.09648
  23449358.514 5   -498442.148 5   -387224.78146  23449358.51046
  21041033.686 6  -3016051.535 6  -2341559.00448  21041031.69748
  22497130.350 6    174717.348 6    132473.71147  22497133.18647
 18  5 30  0 40 19.9980000  0 10G03G14G16G22G23G26G27G29G31G32      -0.000313314
  23192488.037 5  -3006117.318 5  -2328321.53947  23192489.99047
  20236198.209 6  -1851816.105 6  -1433616.52348  20236196.98248
  19883311.248 6  -4460771.699 6  -3451962.80548  19883308.99848
  23204539.490 5  -2207639.133 5  -1710917.12547  23204535.15447
  23192935.053 5  -7959238.336 5  -6133499.41847  23192932.82647
  20165253.006 7  -2481981.895 7  -1922120.51648  20165254.88948
  21492235.912 6  -8155494.777 6  -6311716.74648  21492237.63148
  23448928.803 6   -500702.977 6   -388986.48046  23448928.20546
  21038484.897 6  -3029443.441 6  -2351994.25848  21038483.41248
  22497151.272 6    174824.723 6    132557.36347  22497154.02247
 18  5 30  0 40 24.9980000  0 10G03G14G16G22G23G26G27G29G31G32      -0.000323885
  23190095.350 5  -3018693.293 5  -2338120.99647  23190096.35447
  20234825.084 6  -1859032.836 6  -1439239.95348  20234823.64348
  19879888.100 6  -4478759.406 6  -3465979.20748  19879885.84648
  23202672.662 5  -2217447.746 5  -1718560.22747  23202668.76447
  23186655.381 5  -7992236.434 5  -6159212.22347  23186653.37747
  20163233.772 7  -2492593.082 7  -1930388.97748  20163235.58448
  21485846.826 6  -8189072.348 6  -6337881.08248  21485848.18948
  23448498.326 5   -502961.863 5   -390746.66046  23448498.56846
  21035935.842 6  -3042838.934 6  -2362432.29748  21035934.63548
  22497171.225 6    174931.355 6    132640.44147  22497174.53747
 18  5 30  0 40 29.9980000  0 10G03G14G16G22G23G26G27G29G31G32      -0.000334463
  23187702.701 5  -3031265.898 5  -2347917.85247  23187703.65047
  20233452.818 6  -1866243.004 6  -1444858.28148  20233451.82248
  19876466.115 6  -4496742.887 6  -3479992.31348  19876464.06848
  23200805.740 6  -2227257.777 6  -1726204.39547  23200802.01047
  23180376.053 5  -8025236.379 5  -6184926.46546  23180373.60046
  20161214.240 7  -2503204.938 7  -1938657.96148  20161216.02548
  21479457.022 6  -8222649.934 6  -6364045.43448  21479458.02548
  23448068.748 6   -505218.527 6   -392505.12546  23448069.10446
  21033386.459 6  -3056237.707 6  -2372872.90648  21033384.35448
  22497191.545 6    175037.402 6    132723.05147  22497194.84247
 18  5 30  0 40 34.9980000  0 10G03G14G16G22G23G26G27G29G31G32      -0.000345043
  23185310.545 5  -3043835.289 5  -2357712.18847  23185311.85747
  20232082.264 6  -1873446.824 6  -1450471.65248  20232080.78348
  19873044.904 6  -4514722.340 6  -3494002.27048  19873042.66648
  23198938.787 6  -2237069.402 6  -1733849.83247  23198935.09247
  23174095.959 5  -8058238.363 5  -6210642.25047  23174093.27947
  20159194.490 7  -2513817.648 7  -1946927.59848  20159196.57248
  21473066.928 6  -8256227.641 6  -6390209.88348  21473068.76048
  23447639.764 6   -507473.180 6   -394262.00046  23447640.77946
  21030835.990 7  -3069639.879 7  -2383316.15648  21030834.30348
  22497211.584 6    175142.777 6    132805.15247  22497214.72147
 18  5 30  0 40 39.9980000  0 10G03G14G16G22G23G26G27G29G31G32      -0.000355629
  23182918.982 5  -3056401.160 5  -2367503.79347  23182920.31847
  20230712.732 6  -1880643.953 6  -1456079.80548  20230711.25248
  19869624.311 6  -4532697.336 6  -3508008.76648  19869621.83048
  23197071.553 5  -2246882.270 5  -1741496.21947  23197067.69347
  23167815.514 5  -8091242.238 5  -6236359.53947  23167813.33047
  20157175.397 7  -2524430.891 7  -1955197.66048  20157176.79548
  21466677.576 6  -8289805.188 6  -6416374.20348  21466678.92048
  23447211.334 5   -509725.449 5   -396017.02046  23447211.67046
  21028284.889 7  -3083045.148 7  -2393761.82448  21028283.35748
  22497232.107 6    175247.727 6    132886.90647  22497234.57647
 18  5 30  0 40 44.9980000  0 10G03G14G16G22G23G26G27G29G31G32      -0.000366219
  23180529.084 5  -3068963.719 5  -2377292.80547  23180529.80347
  20229344.475 6  -1887834.539 6  -1461682.86348  20229342.69348
  19866204.389 7  -4550668.098 7  -3522011.95348  19866201.99048
  23195203.482 6  -2256696.566 6  -1749143.72347  23195200.60747
  23161534.717 5  -8124247.867 5  -6262078.20747  23161532.11547
  20155155.217 7  -2535044.816 7  -1963468.25848  20155157.40448
  21460288.381 6  -8323382.637 6  -6442538.44147  21460289.12747
  23446782.990 6   -511975.523 6   -397770.33246  23446783.66646
  21025733.170 7  -3096453.664 7  -2404210.02048  21025731.97548
  22497251.147 6    175352.141 6    132968.25047  22497254.59247
 18  5 30  0 40 49.9980000  0 10G03G14G16G22G23G26G27G29G31G32      -0.000376812
  23178139.006 5  -3081522.270 5  -2387078.69947  23178140.00247
  20227977.725 6  -1895017.980 6  -1467280.35948  20227975.77548
  19862785.951 7  -4568634.035 7  -3536011.39148  19862783.60048
  23193335.553 6  -2266511.672 6  -1756791.85247  23193333.08047
  23155254.037 5  -8157254.760 5  -6287797.84647  23155251.31447
  20153135.842 7  -2545658.828 7  -1971738.91848  20153137.43948
  21453898.717 6  -8356959.355 6  -6468702.12547  21453899.95547
  23446355.279 5   -514222.770 5   -399521.44946  23446355.93946
  21023181.732 7  -3109864.789 7  -2414660.25448  21023179.95548
  22497271.482 6    175456.645 6    133049.66447  22497274.41247
 18  5 30  0 40 54.9980000  0 10G03G14G16G22G23G26G27G29G31G32      -0.000387411
  23175749.623 5  -3094078.012 5  -2396862.40647  23175750.67847
  20226611.522 6  -1902195.359 6  -1472873.11348  20226610.13948
  19859368.186 6  -4586596.223 6  -3550007.90248  19859365.64748
  23191466.936 6  -2276328.703 6  -1764441.49647  23191465.62347
  23148972.147 5  -8190263.980 5  -6313519.31647  23148970.19347
  20151115.623 7  -2556274.043 7  -1980010.51648  20151117.42448
  21447509.147 6  -8390536.551 6  -6494866.17248  21447510.58848
  23445927.811 5   -516468.367 5   -401271.27747  23445928.53747
  21020628.834 7  -3123279.633 7  -2425113.38348  21020626.87748
  22497291.092 6    175560.051 6    133130.21547  22497294.35747
 18  5 30  0 40 59.9980000  0 10G03G14G16G22G23G26G27G29G31G32      -0.000398012
  23173361.584 5  -3106630.453 5  -2406643.52346  23173361.63146
  20225247.326 6  -1909366.188 6  -1478460.77348  20225245.46748
  19855950.404 6  -4604554.246 6  -3564001.16848  19855948.22548
  23189597.967 5  -2286147.176 5  -1772092.25447  23189596.96347
  23142690.787 5  -8223275.059 5  -6339242.21547  23142687.90847
  20149095.428 7  -2566889.961 7  -1988282.66448  20149097.20148
  21441119.545 6  -8424113.613 6  -6521030.10248  21441121.13148
  23445501.553 5   -518711.797 5   -403019.39546  23445501.68246
  21018075.701 6  -3136697.711 6  -2435569.03148  21018073.43648
  22497311.303 6    175662.898 6    133210.33247  22497314.02247
 18  5 30  0 41  4.9980000  0 10G03G14G16G22G23G26G27G29G31G32      -0.000408619
  23170973.764 5  -3119179.555 5  -2416422.05947  23170973.57647
  20223883.928 6  -1916530.512 6  -1484043.35948  20223882.35748
  19852534.061 6  -4622508.082 6  -3577991.18048  19852531.76048
  23187729.553 5  -2295967.145 5  -1779744.20747  23187728.42047
  23136408.615 5  -8256287.922 5  -6364966.53546  23136405.74846
  20147075.443 7  -2577506.629 7  -1996555.39848  20147077.56448
  21434730.326 6  -8457690.551 6  -6547193.94548  21434731.52948
  23445074.725 5   -520953.074 5   -404765.84446  23445074.84246
  21015521.217 7  -3150119.066 7  -2446027.23048  21015519.42448
  22497330.654 6    175765.148 6    133289.99247  22497333.17047
 18  5 30  0 41  9.9980000  0 10G03G14G16G22G23G26G27G29G31G32      -0.000419231
  23168585.943 5  -3131725.613 5  -2426198.22347  23168586.02947
  20222521.881 6  -1923688.480 6  -1489621.00848  20222520.17048
  19849118.272 6  -4640457.934 6  -3591978.07448  19849116.32648
  23185860.818 5  -2305788.773 5  -1787397.44947  23185859.56147
  23130126.029 5  -8289302.809 5  -6390692.41847  23130123.10447
  20145055.178 7  -2588124.258 7  -2004828.87548  20145057.01448
  21428340.553 6  -8491267.578 6  -6573357.85947  21428341.56847
  23444648.350 5   -523192.469 5   -406510.84446  23444648.81846
  21012966.834 7  -3163543.820 7  -2456488.07848  21012965.04948
  22497350.022 6    175866.535 6    133368.96947  22497352.01047
 18  5 30  0 41 14.9980000  0 10G03G14G16G22G23G26G27G29G31G32      -0.000429848
  23166199.201 6  -3144268.613 6  -2435971.96147  23166199.13547
  20221160.701 6  -1930840.137 6  -1495193.73048  20221159.32648
  19845703.170 6  -4658403.844 6  -3605961.89848  19845701.23248
  23183991.873 4  -2315612.094 4  -1795051.99646  23183990.22946
  23123842.490 5  -8322319.617 5  -6416419.79347  23123840.02947
  20143034.420 7  -2598742.813 7  -2013103.08248  20143036.34248
  21421951.357 6  -8524844.703 6  -6599521.85548  21421952.65448
  23444222.779 5   -525429.949 5   -408254.32446  23444222.72546
  21010411.678 7  -3176972.000 7  -2466951.59448  21010409.56148
  22497369.029 6    175967.137 6    133447.33247  22497371.31847
 18  5 30  0 41 19.9980000  0 10G03G14G16G22G23G26G27G29G31G32      -0.000440468
  23163812.748 6  -3156807.918 6  -2445742.85946  23163813.19746
  20219801.100 6  -1937984.918 6  -1500761.10248  20219799.91648
  19842289.334 6  -4676345.191 6  -3619942.17248  19842286.66248
  23182122.865 5  -2325436.582 5  -1802707.48047  23182120.82647
  23117559.889 5  -8355337.922 5  -6442148.34847  23117557.35047
  20141013.522 7  -2609361.770 7  -2021377.59848  20141015.38548
  21415562.037 6  -8558421.293 6  -6625685.41848  21415563.11948
  23443797.787 5   -527664.957 5   -409995.89546  23443797.59646
  21007855.498 7  -3190402.992 7  -2477417.30548  21007853.90048
  22497387.982 6    176067.449 6    133525.47347  22497390.68647
 18  5 30  0 41 24.9980000  0 10G03G14G16G22G23G26G27G29G31G32      -0.000451092
  23161427.654 5  -3169343.766 5  -2455511.06347  23161428.02947
  20218442.584 6  -1945122.949 6  -1506323.20748  20218441.38948
  19838875.779 6  -4694282.109 6  -3633918.99248  19838873.52248
  23180252.404 5  -2335262.336 5  -1810363.91847  23180251.04947
  23111276.701 5  -8388357.699 5  -6467878.04747  23111272.88147
  20138992.342 7  -2619981.246 7  -2029652.52748  20138994.58848
  21409172.412 6  -8591997.441 6  -6651848.64848  21409173.77948
  23443372.756 6   -529897.605 6   -411735.62946  23443373.03346
  21005299.404 7  -3203836.953 7  -2487885.33248  21005297.49048
  22497407.014 6    176167.383 6    133603.32047  22497409.10747
 18  5 30  0 41 29.9980000  0 10G03G14G16G22G23G26G27G29G31G32      -0.000461720
  23159041.811 5  -3181876.098 5  -2465276.52347  23159043.08447
  20217085.514 6  -1952254.289 6  -1511880.10548  20217084.74048
  19835463.443 6  -4712214.629 6  -3647892.38348  19835461.17048
  23178382.443 5  -2345089.375 5  -1818021.37546  23178380.59246
  23104993.068 5  -8421379.008 5  -6493608.92246  23104989.21346
  20136971.811 7  -2630601.277 7  -2037927.87148  20136973.48648
  21402783.287 6  -8625573.230 6  -6678011.59448  21402784.10748
  23442948.076 6   -532127.953 6   -413473.56347  23442948.26447
  21002742.482 7  -3217273.898 7  -2498355.67648  21002740.26448
  22497426.029 6    176266.844 6    133680.79347  22497428.31447
 18  5 30  0 41 34.9980000  0 10G03G14G16G22G23G26G27G29G31G32      -0.000472353
  23156657.123 5  -3194404.906 5  -2475039.23847  23156659.50647
  20215730.217 6  -1959378.855 6  -1517431.71948  20215728.77548
  19832052.232 6  -4730142.684 6  -3661862.29748  19832049.62748
  23176512.264 5  -2354917.727 5  -1825679.83646  23176510.36946
  23098708.436 5  -8454401.773 5  -6519340.93046  23098705.61546
  20134950.592 7  -2641221.781 7  -2046203.59048  20134952.51448
  21396394.334 6  -8659148.508 6  -6704174.14548  21396395.34648
  23442524.428 6   -534355.938 6   -415209.66446  23442524.01846
  21000184.772 7  -3230713.797 7  -2508828.32448  21000182.85748
  22497444.834 6    176365.969 6    133758.00847  22497447.47947
 18  5 30  0 41 39.9980000  0 10G03G14G16G22G23G26G27G29G31G32      -0.000482990
  23154274.209 5  -3206930.133 5  -2484799.16847  23154276.24047
  20214375.756 6  -1966496.570 6  -1522977.99248  20214374.38548
  19828641.006 6  -4748066.242 6  -3675828.69948  19828638.78348
  23174642.123 5  -2364747.215 5  -1833339.16046  23174639.14346
  23092424.272 5  -8487425.930 5  -6545074.03147  23092420.92847
  20132929.373 7  -2651842.730 7  -2054479.65648  20132931.20148
  21390004.850 6  -8692723.230 6  -6730336.25848  21390006.61148
  23442100.264 6   -536581.508 6   -416943.87946  23442100.35446
  20997626.693 7  -3244156.523 7  -2519303.17248  20997625.07648
  22497463.928 6    176464.746 6    133834.96547  22497465.84247
 18  5 30  0 41 44.9980000  0 10G03G14G16G22G23G26G27G29G31G32      -0.000493631
  23151891.693 5  -3219451.797 5  -2494556.31347  23151893.73647
  20213022.373 6  -1973607.535 6  -1528519.01248  20213021.19348
  19825231.061 6  -4765985.336 6  -3689791.63748  19825228.69348
  23172771.537 5  -2374577.988 5  -1840999.50046  23172767.61946
  23086139.850 5  -8520451.559 5  -6570808.32046  23086136.03346
  20130908.225 7  -2662464.164 7  -2062756.09848  20130909.82648
  21383616.107 6  -8726297.383 6  -6756497.93448  21383617.54948
  23441677.803 6   -538804.695 6   -418676.23846  23441677.68246
  20995068.131 7  -3257602.160 7  -2529780.29748  20995066.52948
  22497482.068 6    176563.145 6    133911.61747  22497484.56447
 18  5 30  0 41 49.9970000  0 10G03G14G16G22G23G26G27G29G31G32       0.000495726
  23149510.524 5  -3231967.457 5  -2504308.80147  23149512.38447
  20211670.837 6  -1980710.328 6  -1534053.65648  20211669.92748
  19821822.876 6  -4783896.371 6  -3703748.29348  19821820.41148
  23170900.985 5  -2384408.070 5  -1848659.29746  23170896.31446
  23079856.282 5  -8553471.953 5  -6596538.51246  23079852.75946
  20128887.493 7  -2673083.992 7  -2071031.28948  20128889.32948
  21377228.493 6  -8759864.297 6  -6782653.96548  21377230.06048
  23441255.329 6   -541025.125 6   -420406.44546  23441255.00546
  20992509.899 7  -3271047.957 7  -2540257.53548  20992507.74348
  22497501.603 6    176661.141 6    133987.94947  22497503.58347
 18  5 30  0 41 54.9970000  0 10G03G14G16G22G23G26G27G29G31G32       0.000485077
  23147128.774 5  -3244482.242 5  -2514060.59847  23147131.28247
  20210320.048 6  -1987807.848 6  -1539584.19948  20210318.91948
  19818414.321 7  -4801806.652 7  -3717704.35548  19818412.04848
  23169029.493 5  -2394241.492 5  -1856321.71546  23169025.04846
  23073570.493 5  -8586500.438 5  -6622274.98446  23073567.42746
  20126866.024 7  -2683706.547 7  -2079308.60248  20126867.46648
  21370839.681 6  -8793437.465 6  -6808814.87948  21370840.48148
  23440832.814 5   -543243.793 5   -422135.28546  23440833.04846
  20989949.556 7  -3284499.434 7  -2550739.21148  20989948.32148
  22497519.353 6    176758.645 6    134063.91047  22497521.46647
 18  5 30  0 41 59.9970000  0 10G03G14G16G22G23G26G27G29G31G32       0.000474422
  23144749.024 5  -3256993.813 5  -2523809.86347  23144750.20447
  20208971.189 6  -1994898.906 6  -1545109.69548  20208969.19648
  19815007.329 6  -4819712.797 6  -3731657.19948  19815005.15348
  23167158.204 5  -2404076.512 5  -1863985.37146  23167153.42346
  23067285.743 5  -8619530.570 5  -6648012.73446  23067281.81046
  20124844.165 7  -2694329.914 7  -2087586.55548  20124846.12648
  21364450.853 6  -8827010.379 6  -6834975.58248  21364452.29048
  23440411.306 5   -545460.477 5   -423862.57046  23440411.29846
  20987389.204 7  -3297954.090 7  -2561223.35548  20987387.81448
  22497537.993 6    176855.453 6    134139.32047  22497540.49747
 18  5 30  0 42  4.9970000  0 10G03G14G16G22G23G26G27G29G31G32       0.000463764
  23142368.298 5  -3269502.246 5  -2533556.70747  23142370.21247
  20207622.564 6  -2001983.539 6  -1550630.19548  20207621.47448
  19811600.642 6  -4837614.852 6  -3745606.85248  19811598.01748
  23165286.017 5  -2413913.199 5  -1871650.34047  23165281.85347
  23060999.470 5  -8652562.441 5  -6673751.84446  23060996.43946
  20122822.743 7  -2704954.199 7  -2095865.21548  20122824.63048
  21358061.985 6  -8860583.070 6  -6861136.12148  21358063.50948
  23439989.720 5   -547675.211 5   -425588.34446  23439989.48546
  20984828.595 7  -3311411.930 7  -2571709.98448  20984826.76748
  22497555.720 6    176951.422 6    134214.08647  22497558.76347
 18  5 30  0 42  9.9970000  0 10G03G14G16G22G23G26G27G29G31G32       0.000453102
  23139988.978 5  -3282006.395 5  -2543300.21147  23139991.11047
  20206275.603 6  -2009060.609 6  -1556144.80548  20206274.48548
  19808195.032 7  -4855511.660 7  -3759552.42648  19808192.20448
  23163414.048 5  -2423750.410 5  -1879315.69546  23163409.64946
  23054713.478 5  -8685594.855 5  -6699491.37146  23054710.52846
  20120800.665 7  -2715578.207 7  -2104143.66048  20120802.75548
  21351673.603 6  -8894154.313 6  -6887295.52048  21351675.14648
  23439568.837 5   -549886.813 5   -427311.68846  23439568.24746
  20982266.931 7  -3324871.840 7  -2582198.22748  20982265.23148
  22497574.220 6    177047.824 6    134289.19147  22497577.36447
 18  5 30  0 42 14.9970000  0 10G03G14G16G22G23G26G27G29G31G32       0.000442436
  23137609.993 5  -3294507.219 5  -2553041.11347  23137611.83347
  20204930.290 6  -2016131.066 6  -1561654.25048  20204928.99348
  19804790.001 7  -4873404.164 7  -3773494.62948  19804787.74348
  23161542.009 6  -2433589.074 6  -1886982.18046  23161537.14646
  23048427.579 5  -8718628.754 5  -6725232.05547  23048424.82147
  20118778.939 7  -2726202.879 7  -2112422.62548  20118780.38048
  21345285.376 6  -8927725.098 6  -6913454.57048  21345286.38848
  23439148.548 5   -552096.227 5   -429033.30946  23439148.31046
  20979705.267 7  -3338334.750 7  -2592688.80148  20979703.62648
  22497592.571 6    177143.590 6    134363.78947  22497595.68547
 18  5 30  0 42 19.9970000  0 10G03G14G16G22G23G26G27G29G31G32       0.000431767
  23135231.829 5  -3307004.262 5  -2562779.07847  23135234.02847
  20203586.024 6  -2023194.496 6  -1567158.21948  20203585.15348
  19801386.321 6  -4891291.969 6  -3787433.18448  19801383.57148
  23159669.720 6  -2443428.781 6  -1894649.48447  23159665.15747
  23042141.314 5  -8751663.668 5  -6750973.53547  23042138.42347
  20116757.282 7  -2736827.793 7  -2120701.78548  20116759.05248
  21338897.368 6  -8961294.938 6  -6939612.87948  21338898.93148
  23438728.509 5   -554303.094 5   -430752.96946  23438728.54446
  20977142.931 7  -3351800.188 7  -2603181.36348  20977141.12648
  22497611.134 6    177239.238 6    134438.30147  22497614.31047
 18  5 30  0 42 24.9970000  0 10G03G14G16G22G23G26G27G29G31G32       0.000421091
  23132854.228 5  -3319497.375 5  -2572513.97747  23132857.31747
  20202243.853 6  -2030250.691 6  -1572656.55548  20202242.20848
  19797983.384 6  -4909174.883 6  -3801367.92248  19797980.92748
  23157797.017 6  -2453269.375 6  -1902317.47746  23157792.99346
  23035854.868 5  -8784699.418 5  -6776715.66447  23035852.20847
  20114735.446 7  -2747452.801 7  -2128981.01248  20114736.85348
  21332509.548 6  -8994863.645 6  -6965770.30548  21332511.23148
  23438308.923 6   -556507.191 6   -432470.45746  23438308.99346
  20974580.095 7  -3365268.008 7  -2613675.75848  20974578.51348
  22497629.087 6    177334.891 6    134512.81347  22497632.30647
 18  5 30  0 42 29.9970000  0 10G03G14G16G22G23G26G27G29G31G32       0.000410414
  23130476.915 5  -3331987.090 5  -2582246.21547  23130480.31447
  20200901.501 6  -2037300.145 6  -1578149.64548  20200900.50948
  19794580.899 7  -4927053.453 7  -3815299.27048  19794578.87248
  23155923.595 6  -2463111.371 6  -1909986.55146  23155919.98946
  23029567.892 5  -8817736.555 5  -6802458.88747  23029564.88047
  20112713.548 7  -2758078.402 7  -2137260.69948  20112714.72048
  21326121.931 6  -9028431.730 6  -6991927.25848  21326123.15748
  23437890.321 5   -558709.133 5   -434186.27346  23437890.27146
  20972016.376 7  -3378738.766 7  -2624172.46148  20972015.11448
  22497647.134 6    177430.039 6    134586.92647  22497650.20447
 18  5 30  0 42 34.9970000  0 10G03G14G16G22G23G26G27G29G31G32       0.000399733
  23128101.321 5  -3344472.867 5  -2591975.39847  23128104.55647
  20199561.548 6  -2044342.406 6  -1583637.13348  20199560.59148
  19791179.540 6  -4944927.086 6  -3829226.77748  19791177.61448
  23154050.806 5  -2472954.270 5  -1917656.34046  23154046.85346
  23023281.368 5  -8850774.465 5  -6828202.69947  23023278.17747
  20110691.329 7  -2768704.125 7  -2145540.49248  20110692.87248
  21319734.103 6  -9061998.652 6  -7018083.29748  21319735.63448
  23437471.790 5   -560908.340 5   -435899.94546  23437471.30246
  20969452.462 7  -3392211.852 7  -2634670.96948  20969451.05248
  22497665.204 6    177525.152 6    134661.02047  22497668.08347
 18  5 30  0 42 39.9970000  0 10G03G14G16G22G23G26G27G29G31G32       0.000389046
  23125726.001 5  -3356955.480 5  -2601702.14147  23125728.91947
  20198222.564 6  -2051378.188 6  -1589119.56348  20198221.74748
  19787779.118 6  -4962796.613 6  -3843151.08248  19787777.18948
  23152177.360 5  -2482798.746 5  -1925327.37147  23152173.63847
  23016994.478 5  -8883813.918 5  -6853947.71947  23016991.50147
  20108669.165 7  -2779330.648 7  -2153820.89848  20108670.53648
  21313346.579 6  -9095565.160 6  -7044239.01648  21313348.19248
  23437053.110 5   -563105.551 5   -437612.07846  23437053.29046
  20966888.024 7  -3405688.008 7  -2645171.87548  20966886.66148
  22497683.892 6    177619.531 6    134734.54347  22497686.39647
 18  5 30  0 42 44.9970000  0 10G03G14G16G22G23G26G27G29G31G32       0.000378355
  23123351.407 4  -3369434.582 4  -2611426.11747  23123354.70047
  20196885.626 6  -2058407.180 6  -1594596.70348  20196884.06048
  19784379.626 7  -4980661.668 7  -3857071.90648  19784377.53248
  23150303.868 5  -2492644.574 5  -1932999.44147  23150300.15747
  23010706.642 5  -8916854.582 5  -6879693.69547  23010703.66947
  20106647.001 7  -2789957.719 7  -2162101.73448  20106648.47048
  21306959.079 6  -9129130.852 6  -7070394.09848  21306960.76348
  23436635.540 5   -565300.500 5   -439322.44146  23436635.60346
  20964323.157 7  -3419166.941 7  -2655674.94148  20964322.01348
  22497701.235 6    177713.480 6    134807.71947  22497704.08747
 18  5 30  0 42 49.9970000  0 10G03G14G16G22G23G26G27G29G31G32       0.000367661
  23120978.087 4  -3381910.379 4  -2621147.54347  23120980.77847
  20195549.173 6  -2065429.539 6  -1600068.68048  20195547.81748
  19780980.720 6  -4998522.410 6  -3870989.36748  19780978.49348
  23148429.571 5  -2502491.902 5  -1940672.68447  23148426.71247
  23004418.782 5  -8949896.559 5  -6905440.69147  23004416.16147
  20104624.665 7  -2800585.438 7  -2170383.08248  20104626.31448
  21300572.181 6  -9162695.871 6  -7096548.65248  21300573.63448
  23436218.446 5   -567493.309 5   -441031.12546  23436218.42746
  20961757.946 6  -3432648.738 6  -2666180.24648  20961756.48148
  22497719.384 6    177806.863 6    134880.47347  22497722.19247
 18  5 30  0 42 54.9970000  0 10G03G14G16G22G23G26G27G29G31G32       0.000356960
  23118603.970 5  -3394382.141 5  -2630865.79747  23118607.37647
  20194214.024 6  -2072444.578 6  -1605534.94948  20194213.27148
  19777582.892 7  -5016378.145 7  -3884902.93048  19777581.15348
  23146556.032 5  -2512340.051 5  -1948346.57847  23146552.93147
  22998131.024 5  -8982939.145 5  -6931188.17247  22998128.50947
  20102602.110 7  -2811213.156 7  -2178664.42648  20102603.86848
  21294185.212 6  -9196259.590 6  -7122702.19148  21294186.55248
  23435801.571 5   -569683.238 5   -442737.57847  23435801.66147
  20959191.814 6  -3446132.746 6  -2676687.27048  20959190.16548
  22497736.939 6    177900.309 6    134953.25847  22497739.79847
 18  5 30  0 42 59.9970000  0 10G03G14G16G22G23G26G27G29G31G32       0.000346258
  23116232.009 4  -3406850.391 4  -2640581.33647  23116234.41947
  20192880.376 6  -2079452.805 6  -1610995.90248  20192879.26348
  19774185.720 7  -5034229.418 7  -3898813.00848  19774183.68948
  23144681.696 5  -2522189.453 5  -1956021.45747  23144678.86847
  22991842.985 5  -9015982.852 5  -6956936.51647  22991840.75547
  20100579.767 7  -2821841.387 7  -2186946.16448  20100581.33348
  21287798.274 6  -9229822.422 6  -7148855.04348  21287799.84948
  23435385.251 5   -571870.922 5   -444442.25446  23435385.67746
  20956625.728 6  -3459619.461 6  -2687196.39848  20956624.08748
  22497754.954 6    177993.332 6    135025.72747  22497757.16547
 18  5 30  0 43  4.9970000  0 10G03G14G16G22G23G26G27G29G31G32       0.000335552
  23113859.962 5  -3419315.414 5  -2650294.34447  23113862.78247
  20191548.353 6  -2086454.492 6  -1616451.77348  20191546.80648
  19770789.907 7  -5052076.473 7  -3912719.80948  19770787.63448
  23142807.001 5  -2532040.465 5  -1963697.58647  23142804.71247
  22985554.517 5  -9049027.902 5  -6982685.90247  22985552.62647
  20098557.196 7  -2832470.375 7  -2195228.48848  20098558.73548
  21281411.196 6  -9263384.629 6  -7175007.40648  21281412.98548
  23434969.798 5   -574056.578 5   -446145.39146  23434969.66946
  20954058.649 6  -3473109.129 6  -2697707.83648  20954057.21248
  22497772.548 6    178085.656 6    135097.64547  22497774.95847
 18  5 30  0 43  9.9970000  0 10G03G14G16G22G23G26G27G29G31G32       0.000324841
  23111489.345 5  -3431776.395 5  -2660004.21147  23111491.69247
  20190217.524 6  -2093448.797 6  -1621901.88748  20190216.01348
  19767394.485 7  -5069918.438 7  -3926622.64548  19767392.08748
  23140932.368 5  -2541892.250 5  -1971374.29747  23140930.35347
  22979266.399 5  -9082073.477 5  -7008435.70347  22979263.70447
  20096534.603 7  -2843099.293 7  -2203510.77348  20096535.66548
  21275024.946 6  -9296945.355 6  -7201158.61348  21275026.54048
  23434554.282 5   -576239.387 5   -447846.28946  23434554.16146
  20951491.165 7  -3486600.887 7  -2708220.89548  20951489.72448
  22497789.985 6    178178.113 6    135169.67647  22497792.38847
 18  5 30  0 43 14.9970000  0 10G03G14G16G22G23G26G27G29G31G32       0.000314127
  23109118.782 5  -3444233.340 5  -2669710.92247  23109121.28247
  20188887.532 6  -2100435.789 6  -1627346.29748  20188886.36448
  19764000.212 7  -5087755.398 7  -3940521.57448  19763998.19248
  23139057.337 5  -2551744.801 5  -1979051.63347  23139055.26747
  22972977.868 5  -9115119.551 5  -7034185.89847  22972975.48147
  20094511.962 7  -2853728.199 7  -2211793.04348  20094513.47448
  21268638.978 6  -9330504.605 6  -7227308.68448  21268640.71248
  23434139.751 5   -578419.391 5   -449544.99646  23434139.53246
  20948923.118 6  -3500094.773 6  -2718735.62148  20948921.67348
  22497807.774 6    178270.672 6    135241.77347  22497810.05647
 18  5 30  0 43 19.9970000  0 10G03G14G16G22G23G26G27G29G31G32       0.000303410
  23106748.899 5  -3456685.750 5  -2679414.10247  23106751.19247
  20187559.720 6  -2107414.918 6  -1632784.58248  20187558.43548
  19760607.173 7  -5105586.852 7  -3954416.21548  19760604.78248
  23137182.485 5  -2561597.680 5  -1986729.21947  23137180.90747
  22966689.704 6  -9148165.590 6  -7059936.05947  22966686.84947
  20092489.314 7  -2864356.590 7  -2220074.90248  20092490.60348
  21262252.845 6  -9364061.887 6  -7253457.20348  21262255.14948
  23433725.485 5   -580596.082 5   -451241.11346  23433725.50146
  20946355.274 6  -3513590.285 6  -2729251.60548  20946353.87648
  22497825.454 6    178363.848 6    135314.35947  22497828.09947
 18  5 30  0 43 24.9970000  0 10G03G14G16G22G23G26G27G29G31G32       0.000292688
  23104379.353 5  -3469134.125 5  -2689114.10947  23104382.84147
  20186233.048 6  -2114386.629 6  -1638217.08648  20186231.31448
  19757214.892 7  -5123413.203 7  -3968306.87548  19757212.68548
  23135307.384 4  -2571451.363 4  -1994407.43046  23135305.96246
  22960401.493 5  -9181212.031 5  -7085686.51647  22960398.86047
  20090467.314 7  -2874984.902 7  -2228356.70748  20090468.23548
  21255867.446 6  -9397617.621 6  -7279604.52748  21255869.47048
  23433311.564 5   -582769.941 5   -452935.03146  23433311.29846
  20943786.735 6  -3527087.875 6  -2739769.21148  20943785.17748
  22497842.782 6    178457.117 6    135387.03147  22497845.68947
 18  5 30  0 43 29.9970000  0 10G03G14G16G22G23G26G27G29G31G32       0.000281961
  23102010.915 5  -3481579.488 5  -2698811.80147  23102014.34147
  20184907.118 6  -2121351.984 6  -1643644.64848  20184906.10648
  19753823.290 7  -5141235.574 7  -3982194.43848  19753821.30648
  23133432.103 5  -2581306.781 5  -2002086.99247  23133430.44247
  22954112.173 5  -9214260.004 5  -7111438.18447  22954109.52847
  20088444.712 7  -2885614.211 7  -2236639.29348  20088445.84948
  21249482.728 6  -9431172.824 6  -7305751.43448  21249484.29448
  23432898.048 5   -584942.023 5   -454627.56346  23432898.09146
  20941217.595 6  -3540588.559 6  -2750289.22748  20941216.06748
  22497861.095 6    178549.477 6    135458.96947  22497863.23147
 18  5 30  0 43 34.9970000  0 10G03G14G16G22G23G26G27G29G31G32       0.000271231
  23099642.899 5  -3494021.434 5  -2708506.80947  23099646.92747
  20183583.360 6  -2128310.570 6  -1649066.93048  20183581.92348
  19750432.970 7  -5159053.520 7  -3996078.55548  19750430.55248
  23131557.017 5  -2591163.633 5  -2009767.66046  23131554.73146
  22947823.392 5  -9247309.023 5  -7137190.66847  22947820.52847
  20086421.384 7  -2896244.074 7  -2244922.30548  20086423.04048
  21243097.618 6  -9464727.094 6  -7331897.62148  21243099.15748
  23432485.220 5   -587111.910 5   -456318.39546  23432485.63046
  20938647.939 7  -3554091.945 7  -2760811.35248  20938646.48948
  22497878.110 6    178641.309 6    135530.50847  22497880.69647
 18  5 30  0 43 39.9970000  0 10G03G14G16G22G23G26G27G29G31G32       0.000260498
  23097276.892 5  -3506459.004 5  -2718198.41847  23097279.56447
  20182260.892 6  -2135261.480 6  -1654483.21948  20182259.40348
  19747043.298 7  -5176866.078 7  -4009958.47348  19747041.07148
  23129680.939 5  -2601020.922 5  -2017448.68446  23129678.73946
  22941533.767 5  -9280358.102 5  -7162943.19547  22941531.27447
  20084398.704 7  -2906873.625 7  -2253205.07048  20084400.20048
  21236712.384 6  -9498279.441 6  -7358042.30148  21236714.11448
  23432072.610 5   -589278.637 5   -458006.76246  23432073.02146
  20936077.751 7  -3567597.031 7  -2771334.80148  20936076.41148
  22497896.142 6    178733.543 6    135602.35247  22497898.38047
 18  5 30  0 43 44.9970000  0 10G03G14G16G22G23G26G27G29G31G32       0.000249760
  23094910.767 5  -3518893.289 5  -2727887.46947  23094913.68547
  20180939.196 6  -2142205.688 6  -1659894.30148  20180937.65748
  19743654.368 7  -5194674.324 7  -4023835.02348  19743652.02148
  23127804.790 5  -2610879.727 5  -2025130.88746  23127802.98146
  22935245.087 5  -9313408.324 5  -7188696.61347  22935242.16147
  20082376.079 7  -2917503.816 7  -2261488.34448  20082377.59948
  21230327.884 6  -9531830.871 6  -7384186.27348  21230329.79048
  23431661.267 5   -591443.262 5   -459693.48846  23431661.23146
  20933507.321 7  -3581104.875 7  -2781860.39548  20933505.84548
  22497913.399 6    178825.207 6    135673.76647  22497915.59547
 18  5 30  0 43 49.9970000  0 10G03G14G16G22G23G26G27G29G31G32       0.000239019
  23092544.696 5  -3531324.059 5  -2737573.78947  23092547.85647
  20179619.306 6  -2149143.055 6  -1665300.04348  20179617.76748
  19740266.149 7  -5212478.090 7  -4037708.08648  19740264.11048
  23125928.446 5  -2620739.957 5  -2032814.17646  23125925.78646
  22928954.845 5  -9346459.395 5  -7214450.71947  22928952.99747
  20080352.837 7  -2928134.531 7  -2269772.01648  20080354.84148
  21223943.970 6  -9565381.238 6  -7410329.41048  21223945.18548
  23431249.696 5   -593605.664 5   -461378.46946  23431249.81446
  20930936.868 7  -3594615.289 7  -2792387.99648  20930935.17748
  22497930.845 6    178916.375 6    135744.77747  22497933.49347
 18  5 30  0 43 54.9970000  0 10G03G14G16G22G23G26G27G29G31G32       0.000228273
  23090180.626 5  -3543750.441 5  -2747256.70747  23090182.97447
  20178300.579 6  -2156072.668 6  -1670699.74648  20178299.13048
  19736879.454 6  -5230276.426 6  -4051576.91848  19736877.12248
  23124051.564 5  -2630600.539 5  -2040497.75046  23124048.74746
  22922665.954 5  -9379510.477 5  -7240204.79747  22922663.70447
  20078329.985 7  -2938764.828 7  -2278055.37148  20078331.73548
  21217559.314 6  -9598929.586 6  -7436470.98048  21217561.05248
  23430838.407 5   -595764.887 5   -463061.01246  23430838.87246
  20928365.782 7  -3608127.340 7  -2802916.87148  20928364.09948
  22497948.634 6    179008.004 6    135816.16047  22497950.36447
 18  5 30  0 43 59.9970000  0 10G03G14G16G22G23G26G27G29G31G32       0.000217524
  23087816.571 5  -3556173.125 5  -2756936.72747  23087819.10347
  20176983.376 6  -2162995.230 6  -1676093.96148  20176982.04448
  19733493.149 7  -5248070.039 7  -4065442.06648  19733491.18148
  23122174.993 4  -2640462.332 4  -2048182.25846  23122171.80646
  22916376.165 5  -9412562.242 5  -7265959.42647  22916373.70047
  20076306.970 7  -2949395.426 7  -2286338.94948  20076308.74348
  21211176.353 6  -9632476.578 6  -7462611.48848  21211177.43948
  23430428.321 5   -597921.680 5   -464741.61746  23430428.18946
  20925793.946 7  -3621641.754 7  -2813447.58248  20925792.19648
  22497965.673 6    179099.371 6    135887.32847  22497968.11447
 18  5 30  0 44  4.9970000  0 10G03G14G16G22G23G26G27G29G31G32       0.000206772
  23085452.837 5  -3568591.809 5  -2766613.63347  23085455.31747
  20175667.728 6  -2169910.453 6  -1681482.44548  20175666.50548
  19730108.181 7  -5265858.613 7  -4079303.30948  19730106.12248
  23120299.165 5  -2650324.902 5  -2055867.37946  23120294.76746
  22910086.353 5  -9445614.309 5  -7291714.27747  22910084.36047
  20074283.939 7  -2960026.023 7  -2294622.53548  20074286.18148
  21204792.665 6  -9666021.883 6  -7488750.69148  21204793.92748
  23430017.970 5   -600075.711 5   -466420.08246  23430017.73546
  20923221.689 7  -3635158.152 7  -2823979.84048  20923219.56048
  22497982.774 6    179190.773 6    135958.53147  22497985.94247
 18  5 30  0 44  9.9970000  0 10G03G14G16G22G23G26G27G29G31G32       0.000196014
  23083091.532 5  -3581006.227 5  -2776287.22347  23083093.29447
  20174352.962 6  -2176818.078 6  -1686865.01648  20174351.79848
  19726724.087 7  -5283641.906 7  -4093160.42648  19726722.01348
  23118421.767 5  -2660188.082 5  -2063552.96946  23118417.51346
  22903796.728 5  -9478666.426 5  -7317469.17646  22903794.63846
  20072261.431 7  -2970656.340 7  -2302905.91048  20072262.74348
  21198409.689 6  -9699565.246 6  -7514888.37148  21198410.82148
  23429608.931 5   -602226.707 5   -468096.19946  23429608.92746
  20920648.939 7  -3648676.305 7  -2834513.46948  20920647.27848
  22498000.790 6    179282.520 6    136030.00447  22498003.29447
 18  5 30  0 44 14.9970000  0 10G03G14G16G22G23G26G27G29G31G32       0.000185255
  23080729.712 5  -3593417.137 5  -2785958.06347  23080731.32947
  20173039.931 6  -2183718.770 6  -1692242.18448  20173038.44248
  19723341.079 7  -5301420.617 7  -4107013.96148  19723338.88848
  23116544.556 5  -2670052.535 5  -2071239.57846  23116540.50546
  22897507.181 5  -9511719.254 5  -7343224.61347  22897504.68947
  20070238.532 7  -2981287.082 7  -2311189.61748  20070240.32548
  21192026.939 6  -9733107.301 6  -7541025.03948  21192027.90348
  23429200.228 5   -604375.359 5   -469770.47346  23429199.68946
  20918076.618 7  -3662196.910 7  -2845049.00448  20918074.54048
  22498017.673 6    179373.844 6    136101.14547  22498020.59547
 18  5 30  0 44 19.9970000  0 10G03G14G16G22G23G26G27G29G31G32       0.000174490
  23078369.032 5  -3605824.422 5  -2795626.07447  23078370.66947
  20171727.673 6  -2190612.469 6  -1697613.89848  20171726.78648
  19719958.298 7  -5319194.664 7  -4120863.87548  19719956.53248
  23114667.571 5  -2679918.207 5  -2078927.12546  23114662.85646
  22891217.243 5  -9544772.746 5  -7368980.56647  22891215.26747
  20068215.407 7  -2991918.230 7  -2319473.61748  20068217.11848
  21185643.751 6  -9766648.043 6  -7567160.67248  21185645.22848
  23428791.564 5   -606521.637 5   -471442.89546  23428791.81746
  20915503.274 7  -3675719.836 7  -2855586.34848  20915501.22048
  22498034.767 6    179464.883 6    136172.06347  22498038.12647
 18  5 30  0 44 24.9970000  0 10G03G14G16G22G23G26G27G29G31G32       0.000163721
  23076008.064 6  -3618228.465 6  -2805291.56347  23076009.55647
  20170416.790 6  -2197499.594 6  -1702980.49248  20170416.22448
  19716577.142 6  -5336964.465 6  -4134710.47348  19716575.00548
  23112789.157 5  -2689785.539 5  -2086615.96146  23112785.18946
  22884927.282 5  -9577827.230 5  -7394737.31347  22884924.58747
  20066192.368 7  -3002550.113 7  -2327758.21148  20066193.66148
  21179261.556 6  -9800187.777 6  -7593295.53148  21179262.96248
  23428384.181 5   -608665.961 5   -473113.82846  23428383.80646
  20912929.337 7  -3689245.512 7  -2866125.84048  20912927.51348
  22498052.087 6    179555.164 6    136242.40247  22498055.38847
 18  5 30  0 44 29.9970000  0 10G03G14G16G22G23G26G27G29G31G32       0.000152950
  23073648.509 6  -3630628.770 6  -2814954.12947  23073649.70447
  20169107.868 6  -2204379.598 6  -1708341.53548  20169106.91148
  19713196.728 6  -5354729.434 6  -4148553.30148  19713194.57148
  23110911.118 5  -2699653.996 5  -2094305.67646  23110907.66946
  22878636.954 5  -9610882.172 5  -7420494.40647  22878634.64647
  20064169.110 7  -3013182.203 7  -2336042.96548  20064170.25148
  21172879.759 6  -9833725.914 6  -7619429.13748  21172881.06048
  23427976.298 5   -610807.750 5   -474782.74246  23427975.98946
  20910355.024 7  -3702773.375 7  -2876667.03148  20910352.88048
  22498069.173 6    179645.270 6    136312.60547  22498072.16147
 18  5 30  0 44 34.9970000  0 10G03G14G16G22G23G26G27G29G31G32       0.000142174
  23071289.329 6  -3643025.250 6  -2824613.73447  23071290.79047
  20167800.056 6  -2211252.391 6  -1713696.96148  20167799.09148
  19709816.970 6  -5372489.543 6  -4162392.35248  19709814.87648
  23109032.931 5  -2709523.434 5  -2101996.12946  23109029.42746
  22872346.837 5  -9643937.441 5  -7446251.75047  22872344.17747
  20062145.892 7  -3023814.461 7  -2344327.84048  20062147.23548
  21166497.649 6  -9867262.426 6  -7645561.49648  21166498.93548
  23427569.439 5   -612946.965 5   -476449.67246  23427568.93146
  20907780.001 7  -3716303.355 7  -2887209.87948  20907778.36048
  22498086.017 6    179735.238 6    136382.67247  22498089.34547
 18  5 30  0 44 39.9970000  0 10G03G14G16G22G23G26G27G29G31G32       0.000131393
  23068931.556 6  -3655417.270 6  -2834269.85247  23068932.66147
  20166494.071 6  -2218117.336 6  -1719046.28148  20166492.65748
  19706438.673 6  -5390244.121 6  -4176227.09048  19706436.46648
  23107155.165 5  -2719393.328 5  -2109686.96546  23107151.70046
  22866057.048 5  -9676992.414 5  -7472008.87147  22866053.91547
  20060122.603 7  -3034446.238 7  -2352612.34048  20060124.24748
  21160116.360 6  -9900796.613 6  -7671692.02348  21160117.54848
  23427162.876 5   -615082.957 5   -478114.10946  23427162.53246
  20905205.712 7  -3729834.809 7  -2897753.86348  20905203.32948
  22498103.368 6    179825.730 6    136453.18047  22498106.56747
 18  5 30  0 44 44.9970000  0 10G03G14G16G22G23G26G27G29G31G32       0.000120611
  23066573.814 6  -3667805.223 6  -2843922.79747  23066574.94647
  20165189.048 6  -2224974.867 6  -1724389.81648  20165187.91148
  19703060.634 6  -5407993.559 6  -4190057.82448  19703058.75148
  23105276.501 5  -2729264.016 5  -2117378.40246  23105273.54446
  22859766.798 5  -9710047.512 5  -7497766.09447  22859763.58747
  20058099.235 7  -3045077.941 7  -2360896.78148  20058101.09148
  21153735.524 6  -9934328.879 6  -7697821.06348  21153736.33348
  23426757.149 5   -617216.160 5   -479776.35247  23426756.84947
  20902630.095 7  -3743368.066 7  -2908299.26648  20902628.08348
  22498120.993 6    179916.328 6    136523.75847  22498124.02147
 18  5 30  0 44 49.9970000  0 10G03G14G16G22G23G26G27G29G31G32       0.000109825
  23064216.345 6  -3680189.445 6  -2853572.83247  23064218.50947
  20163885.423 6  -2231825.234 6  -1729727.77748  20163884.65748
  19699684.095 6  -5425738.219 6  -4203884.82848  19699682.18148
  23103398.603 5  -2739135.816 5  -2125070.74247  23103395.23547
  22853476.571 5  -9743102.996 5  -7523523.64147  22853473.27147
  20056076.353 7  -3055709.879 7  -2369181.41848  20056077.76348
  21147354.689 6  -9967859.527 6  -7723948.84848  21147355.72848
  23426351.415 5   -619346.895 5   -481436.67247  23426351.01747
  20900054.720 7  -3756903.430 7  -2918846.29748  20900052.20848
  22498138.228 6    180006.691 6    136594.14847  22498140.91147
 18  5 30  0 44 54.9970000  0 10G03G14G16G22G23G26G27G29G31G32       0.000099033
  23061860.376 6  -3692569.844 6  -2863219.90647  23061862.63447
  20162583.142 6  -2238668.410 6  -1735060.12148  20162581.80648
  19696308.290 6  -5443477.992 6  -4217708.03148  19696305.99748
  23101519.790 5  -2749008.590 5  -2132763.80547  23101516.79047
  22847186.235 5  -9776158.711 5  -7549281.33647  22847183.20047
  20054053.095 7  -3066341.938 7  -2377466.14548  20054054.79048
  21140973.892 6 -10001388.395 6  -7750075.22748  21140975.56448
  23425946.204 5   -621475.035 5   -483094.96946  23425946.18546
  20897478.540 7  -3770440.816 7  -2929394.91048  20897476.38048
  22498155.321 6    180096.961 6    136664.47347  22498158.17347
 18  5 30  0 44 59.9970000  0 10G03G14G16G22G23G26G27G29G31G32       0.000088240
  23059505.509 5  -3704946.305 5  -2872863.90647  23059507.42347
  20161282.782 6  -2245504.246 6  -1740386.75448  20161281.11048
  19692933.524 6  -5461212.770 6  -4231527.34048  19692931.28248
  23099640.517 5  -2758882.313 5  -2140457.65247  23099637.68147
  22840896.165 5  -9809214.559 5  -7575039.13347  22840892.81047
  20052030.032 7  -3076974.063 7  -2385750.91448  20052031.47448
  21134594.157 6 -10034915.398 6  -7776200.16848  21134595.47448
  23425541.899 5   -623600.488 5   -484751.17646  23425542.00946
  20894901.845 7  -3783980.168 7  -2939945.06348  20894899.90348
  22498172.329 6    180187.195 6    136734.75847  22498174.98147
 18  5 30  0 45  4.9970000  0 10G03G14G16G22G23G26G27G29G31G32       0.000077442
  23057150.274 5  -3717318.801 5  -2882504.82447  23057153.41947
  20159982.978 6  -2252332.707 6  -1745707.62548  20159981.37248
  19689559.798 6  -5478942.520 6  -4245342.73448  19689557.53648
  23097762.454 5  -2768756.953 5  -2148152.18447  23097758.88447
  22834606.103 5  -9842270.520 5  -7600797.03147  22834602.07947
  20050006.509 7  -3087606.199 7  -2394035.69948  20050008.26348
  21128214.837 6 -10068440.457 6  -7802323.59848  21128215.94248
  23425137.564 5   -625723.258 5   -486405.27346  23425137.66546
  20892325.368 7  -3797521.395 7  -2950496.66448  20892323.07548
  22498189.251 6    180277.445 6    136805.05947  22498192.73947
 18  5 30  0 45  9.9970000  0 10G03G14G16G22G23G26G27G29G31G32       0.000066641
  23054797.610 5  -3729687.352 5  -2892142.66447  23054799.70047
  20158685.126 6  -2259153.855 6  -1751022.81648  20158683.14648
  19686186.923 6  -5496667.250 6  -4259154.21148  19686184.46648
  23095883.024 5  -2778632.516 5  -2155847.44147  23095879.68547
  22828314.806 5  -9875326.559 5  -7626554.98047  22828312.01747
  20047983.189 7  -3098238.336 7  -2402320.49248  20047984.86448
  21121835.251 6 -10101963.602 6  -7828445.52748  21121836.89948
  23424734.415 5   -627843.336 5   -488057.29346  23424734.79846
  20889747.868 7  -3811064.480 7  -2961049.72348  20889745.59148
  22498206.782 6    180367.648 6    136875.32447  22498209.63447
 18  5 30  0 45 14.9970000  0 10G03G14G16G22G23G26G27G29G31G32       0.000055836
  23052444.798 5  -3742052.129 5  -2901777.55147  23052447.10647
  20157388.321 6  -2265967.789 6  -1756332.37148  20157386.89648
  19682814.665 6  -5514387.102 6  -4272961.87948  19682812.73948
  23094003.024 5  -2788509.203 5  -2163543.56347  23094000.26347
  22822024.876 5  -9908382.805 5  -7652313.08647  22822021.80647
  20045960.017 7  -3108870.664 7  -2410605.42648  20045961.81448
  21115456.446 6 -10135484.941 6  -7854566.04748  21115457.78648
  23424331.634 5   -629960.875 5   -489707.31646  23424331.16546
  20887170.524 7  -3824609.586 7  -2971604.34848  20887168.25948
  22498223.970 6    180457.707 6    136945.47747  22498226.67747
 18  5 30  0 45 19.9970000  0 10G03G14G16G22G23G26G27G29G31G32       0.000045027
  23050092.798 5  -3754412.910 5  -2911409.34847  23050094.56747
  20156093.118 6  -2272774.313 6  -1761636.15648  20156091.56748
  19679443.712 6  -5532101.902 6  -4286765.62148  19679441.64648
  23092123.165 5  -2798386.711 5  -2171240.30547  23092120.46247
  22815735.024 5  -9941439.059 5  -7678071.19547  22815730.71247
  20043936.907 7  -3119502.957 7  -2418890.32848  20043938.47848
  21109078.126 6 -10169004.238 6  -7880684.96948  21109079.50548
  23423929.251 5   -632075.699 5   -491355.23846  23423928.88446
  20884592.157 7  -3838156.492 7  -2982160.37148  20884590.56448
  22498240.954 6    180547.805 6    137015.66047  22498243.57547
 18  5 30  0 45 24.9970000  0 10G03G14G16G22G23G26G27G29G31G32       0.000034214
  23047741.196 5  -3766769.438 5  -2921037.82447  23047743.41147
  20154799.071 6  -2279573.188 6  -1766933.98448  20154798.05248
  19676073.923 6  -5549811.375 6  -4300565.21548  19676071.43548
  23090242.720 5  -2808264.871 5  -2178937.57447  23090240.90347
  22809444.173 5  -9974495.008 5  -7703829.07047  22809440.53647
  20041913.595 7  -3130134.980 7  -2427175.03948  20041915.37648
  21102699.485 6 -10202521.246 6  -7906802.12148  21102701.00148
  23423527.603 5   -634187.508 5   -493000.82046  23423527.14646
  20882014.103 7  -3851704.969 7  -2992717.63748  20882011.82548
  22498258.087 6    180638.184 6    137086.06347  22498261.15347
 18  5 30  0 45 29.9970000  0 10G03G14G16G22G23G26G27G29G31G32       0.000023397
  23045391.228 5  -3779122.320 5  -2930663.45347  23045392.56447
  20153506.556 6  -2286364.902 6  -1772226.23448  20153505.23148
  19672704.899 6  -5567516.102 6  -4314361.11348  19672702.92348
  23088363.040 5  -2818144.199 5  -2186635.77047  23088361.33347
  22803154.048 5 -10007551.234 5  -7729587.15247  22803150.36447
  20039890.478 7  -3140767.297 7  -2435459.96548  20039892.11848
  21096322.368 6 -10236036.500 6  -7932917.90248  21096323.14248
  23423125.798 5   -636296.930 5   -494644.52046  23423125.49346
  20879435.407 7  -3865255.539 7  -3003276.51648  20879433.49748
  22498275.165 6    180728.238 6    137156.21547  22498278.28647
 18  5 30  0 45 34.9970000  0 10G03G14G16G22G23G26G27G29G31G32       0.000012579
  23043041.064 5  -3791471.090 5  -2940285.87547  23043042.19247
  20152215.681 6  -2293149.160 6  -1777512.67248  20152214.58748
  19669336.704 6  -5585215.648 6  -4328152.96948  19669334.43948
  23086483.095 5  -2828024.293 5  -2194334.54747  23086481.22447
  22796863.212 5 -10040607.254 5  -7755345.09447  22796859.97047
  20037867.165 7  -3151399.457 7  -2443744.77348  20037868.91948
  21089944.798 6 -10269549.500 6  -7959031.92248  21089946.05648
  23422725.415 5   -638403.523 5   -496286.04346  23422724.82146
  20876856.642 7  -3878807.758 7  -3013836.69148  20876854.58748
  22498292.337 5    180818.461 5    137226.51647  22498295.08347
 18  5 30  0 45 39.9970000  0 10G03G14G16G22G23G26G27G29G31G32       0.000001755
  23040691.954 5  -3803815.754 5  -2949905.09847  23040693.38047
  20150925.907 6  -2299925.883 6  -1782793.23448  20150925.36448
  19665969.485 6  -5602909.984 6  -4341940.77048  19665967.53648
  23084602.962 5  -2837905.215 5  -2202033.98046  23084601.31746
  22790573.064 5 -10073663.094 5  -7781102.88347  22790569.71647
  20035844.149 7  -3162031.488 7  -2452029.46948  20035845.99748
  21083567.618 6 -10303060.250 6  -7985144.19548  21083569.14648
  23422324.899 6   -640507.281 6   -497925.32446  23422324.26746
  20874277.571 7  -3892361.574 7  -3024398.12148  20874275.47848
  22498309.954 6    180908.832 6    137296.90647  22498312.59947
 18  5 30  0 45 44.9970000  0 10G03G14G16G22G23G26G27G29G31G32      -0.000009071
  23038343.149 5  -3816156.898 5  -2959521.57447  23038344.93547
  20149637.946 6  -2306695.664 6  -1788068.40248  20149636.38048
  19662603.274 6  -5620599.703 6  -4355724.96148  19662601.52148
  23082722.798 5  -2847787.473 5  -2209734.45747  23082720.56047
  22784282.704 5 -10106719.324 5  -7806860.98447  22784278.93147
  20033820.845 7  -3172663.930 7  -2460314.48448  20033822.50548
  21077191.399 6 -10336569.328 6  -8011255.16048  21077192.89648
  23421925.157 5   -642608.742 5   -499562.83246  23421924.19646
  20871697.892 7  -3905917.582 7  -3034961.25848  20871695.78648
  22498327.306 6    180998.785 6    137366.98447  22498329.92347
 18  5 30  0 45 49.9970000  0 10G03G14G16G22G23G26G27G29G31G32      -0.000019903
  23035995.587 5  -3828493.883 5  -2969134.79347  23035997.23147
  20148351.384 6  -2313457.859 6  -1793337.64848  20148349.93148
  19659238.032 6  -5638284.148 6  -4369505.04748  19659236.10348
  23080841.884 5  -2857670.387 5  -2217435.44147  23080839.85347
  22777992.774 5 -10139775.277 5  -7832618.89547  22777988.90747
  20031797.048 7  -3183296.148 7  -2468599.32848  20031799.29448
  21070815.485 6 -10370076.059 6  -8037364.29748  21070816.82548
  23421525.243 5   -644707.359 5   -501198.13746  23421524.99746
  20869117.751 7  -3919475.125 7  -3045525.57448  20869115.92348
  22498344.103 5    181088.926 5    137437.19947  22498347.51747
 18  5 30  0 45 54.9970000  0 10G03G14G16G22G23G26G27G29G31G32      -0.000030737
  23033648.774 5  -3840826.164 5  -2978744.37947  23033650.27447
  20147065.845 6  -2320211.910 6  -1798600.55548  20147064.59148
  19655874.009 6  -5655962.770 6  -4383280.59048  19655872.24348
  23078961.892 5  -2867553.527 5  -2225136.60547  23078959.20047
  22771702.282 5 -10172830.359 5  -7858376.10947  22771698.54847
  20029773.618 7  -3193927.605 7  -2476883.58648  20029775.52448
  21064439.946 6 -10403579.840 6  -8063471.13348  21064441.52148
  23421127.071 5   -646802.563 5   -502830.74646  23421126.71646
  20866537.720 7  -3933033.660 7  -3056090.67248  20866536.04048
  22498361.204 5    181179.840 5    137508.03147  22498364.42747
 18  5 30  0 45 59.9970000  0 10G03G14G16G22G23G26G27G29G31G32      -0.000041573
  23031302.712 5  -3853154.699 5  -2988351.01647  23031303.62647
  20145781.712 6  -2326958.727 6  -1803857.82048  20145780.57948
  19652510.556 6  -5673636.523 6  -4397052.35548  19652508.56748
  23077080.829 5  -2877437.770 5  -2232838.60947  23077078.46247
  22765412.298 5 -10205885.461 5  -7884133.32447  22765408.61047
  20027751.157 7  -3204559.305 7  -2485168.01248  20027753.03648
  21058064.821 6 -10437081.660 6  -8089576.44948  21058066.34148
  23420728.087 5   -648895.258 5   -504461.42646  23420727.91146
  20863957.157 7  -3946594.152 7  -3066657.30148  20863955.22848
  22498378.876 5    181270.453 5    137578.60547  22498382.02847
 18  5 30  0 46  4.9970000  0 10G03G14G16G22G23G26G27G29G31G32      -0.000052414
  23028958.110 4  -3865478.828 4  -2997954.26247  23028959.10347
  20144499.462 6  -2333697.742 6  -1809109.00448  20144498.04448
  19649148.431 7  -5691304.762 7  -4410819.82048  19649146.10648
  23075200.274 5  -2887322.484 5  -2240540.99247  23075197.36847
  22759122.314 5 -10238939.949 5  -7909890.05547  22759118.69647
  20025728.032 7  -3215190.531 7  -2493452.09048  20025729.66948
  21051689.751 6 -10470580.820 6  -8115679.68048  21051691.72848
  23420330.610 5   -650984.816 5   -506089.63746  23420330.47846
  20861376.087 7  -3960155.922 7  -3077224.91448  20861374.48548
  22498395.759 5    181361.543 5    137649.58247  22498399.24347
 18  5 30  0 46  9.9970000  0 10G03G14G16G22G23G26G27G29G31G32      -0.000063257
  23026613.665 4  -3877798.336 4  -3007553.88347  23026615.00947
  20143218.814 6  -2340428.676 6  -1814353.88748  20143217.36048
  19645787.532 6  -5708967.262 6  -4424582.80948  19645785.25148
  23073318.603 5  -2897207.441 5  -2248243.57047  23073316.22447
  22752831.712 5 -10271993.574 5  -7935646.11747  22752828.83747
  20023704.837 7  -3225821.105 7  -2501735.66848  20023706.70448
  21045315.923 6 -10504077.098 6  -8141780.67648  21045317.23148
  23419933.845 5   -653071.043 5   -507715.28146  23419933.21646
  20858795.509 7  -3973718.660 7  -3087793.28548  20858793.84148
  22498413.728 5    181453.301 5    137721.06347  22498416.69647
 18  5 30  0 46 14.9970000  0 10G03G14G16G22G23G26G27G29G31G32      -0.000074104
  23024270.735 4  -3890114.324 4  -3017150.77747  23024271.37247
  20141939.610 6  -2347152.617 6  -1819593.32848  20141938.39248
  19642427.524 6  -5726625.129 6  -4438342.18848  19642425.48148
  23071437.134 5  -2907093.758 5  -2255947.19147  23071434.67747
  22746542.134 6 -10305047.410 6  -7961402.35547  22746539.06047
  20021682.024 7  -3236452.078 7  -2510019.53548  20021684.03248
  21038941.978 6 -10537571.496 6  -8167880.19948  21038943.43948
  23419536.915 5   -655154.938 5   -509339.09846  23419536.77846
  20856214.446 7  -3987283.539 7  -3098363.32048  20856213.02448
  22498431.204 5    181544.598 5    137792.18447  22498434.18547
 18  5 30  0 46 19.9970000  0 10G03G14G16G22G23G26G27G29G31G32      -0.000084955
  23021927.548 4  -3902426.348 4  -3026744.55947  23021928.62647
  20140661.251 6  -2353869.141 6  -1824826.98448  20140660.32548
  19639068.243 7  -5744277.902 7  -4452097.60248  19639065.36048
  23069555.673 5  -2916981.012 5  -2263651.55946  23069553.16546
  22740251.806 5 -10338101.031 5  -7987158.41447  22740248.74747
  20019659.228 7  -3247083.051 7  -2518303.41048  20019660.88448
  21032568.735 6 -10571063.598 6  -8193977.93848  21032570.37248
  23419140.798 5   -657236.207 5   -510960.87546  23419141.02146
  20853632.564 7  -4000850.086 7  -3108934.65648  20853631.21648
  22498448.228 6    181635.906 6    137863.32047  22498451.18947
 18  5 30  0 46 24.9970000  0 10G03G14G16G22G23G26G27G29G31G32      -0.000095810
  23019585.064 5  -3914734.652 5  -3036335.44947  23019586.22847
  20139384.579 6  -2360578.473 6  -1830055.03548  20139383.14948
  19635710.079 7  -5761925.820 7  -4465849.22748  19635707.58748
  23067674.228 5  -2926869.352 5  -2271356.74246  23067671.15746
  22733962.134 5 -10371154.566 5  -8012914.42247  22733959.24747
  20017636.064 7  -3257714.211 7  -2526587.44948  20017637.89248
  21026195.728 6 -10604553.605 6  -8220074.03948  21026197.25948
  23418745.829 5   -659314.992 5   -512580.71146  23418744.89646
  20851050.673 7  -4014418.480 7  -3119507.43448  20851049.05648
  22498465.439 5    181726.957 5    137934.24647  22498468.47047
 18  5 30  0 46 29.9970000  0 10G03G14G16G22G23G26G27G29G31G32      -0.000106668
  23017243.595 5  -3927038.145 5  -3045922.58247  23017245.29447
  20138109.196 6  -2367279.531 6  -1835276.64148  20138108.05648
  19632352.845 7  -5779567.816 7  -4479596.23848  19632350.33348
  23065792.798 5  -2936757.781 5  -2279062.00046  23065789.34546
  22727672.931 5 -10404206.988 5  -8038669.55947  22727669.73147
  20015613.337 7  -3268344.508 7  -2534870.80548  20015615.20048
  21019823.524 6 -10638040.414 6  -8246167.66048  21019824.82948
  23418350.423 5   -661390.316 5   -514197.85246  23418350.41546
  20848468.642 7  -4027987.672 7  -3130080.83648  20848466.95448
  22498482.798 6    181818.863 6    138005.85247  22498485.79047
 18  5 30  0 46 34.9970000  0 10G03G14G16G22G23G26G27G29G31G32      -0.000117531
  23014903.142 5  -3939337.508 5  -3055506.50447  23014904.95047
  20136835.368 6  -2373972.977 6  -1840492.31648  20136834.11848
  19628996.931 6  -5797204.559 6  -4493339.14848  19628994.48548
  23063910.821 5  -2946646.867 5  -2286767.79346  23063907.31746
  22721382.899 5 -10437258.941 5  -8064424.32447  22721379.92347
  20013590.267 7  -3278974.633 7  -2543154.02748  20013591.88448
  21013451.470 6 -10671524.711 6  -8272259.30948  21013453.09548
  23417956.595 5   -663462.773 5   -515812.75446  23417956.07946
  20845886.157 7  -4041558.293 7  -3140655.35248  20845884.43948
  22498500.126 5    181910.938 5    138077.58646  22498503.61046
 18  5 30  0 46 39.9970000  0 10G03G14G16G22G23G26G27G29G31G32      -0.000128395
  23012563.587 5  -3951632.637 5  -3065087.13747  23012564.88847
  20135563.321 6  -2380658.715 6  -1845701.98848  20135561.79448
  19625641.314 6  -5814835.957 6  -4507077.89848  19625638.90748
  23062028.665 5  -2956536.652 5  -2294474.14547  23062025.64247
  22715093.587 5 -10470310.316 5  -8090178.64547  22715090.69247
  20011567.673 7  -3289604.453 7  -2551437.00848  20011569.64648
  21007080.517 6 -10705006.336 6  -8298348.89148  21007081.33348
  23417562.571 5   -665532.285 5   -517425.38346  23417562.13046
  20843303.501 7  -4055130.250 7  -3151230.91448  20843301.88848
  22498518.595 5    182003.258 5    138149.49246  22498521.34546
 18  5 30  0 46 44.9970000  0 10G03G14G16G22G23G26G27G29G31G32      -0.000139263
  23010224.282 5  -3963923.496 5  -3074664.42247  23010226.18947
  20134292.337 6  -2387336.668 6  -1850905.59048  20134291.43148
  19622287.149 6  -5832461.898 6  -4520812.39548  19622285.31748
  23060146.970 5  -2966427.098 5  -2302180.99247  23060144.14647
  22708804.017 5 -10503360.992 5  -8115932.41846  22708801.05246
  20009544.704 7  -3300233.891 7  -2559719.68448  20009546.23948
  21000709.001 6 -10738485.211 6  -8324436.32048  21000710.78648
  23417168.915 5   -667598.789 5   -519035.62146  23417168.85646
  20840720.845 7  -4068703.461 7  -3161807.45348  20840719.24348
  22498535.759 5    182095.930 5    138221.70746  22498538.83746
 18  5 30  0 46 49.9970000  0 10G03G14G16G22G23G26G27G29G31G32      -0.000150133
  23007885.587 5  -3976210.695 5  -3084238.86347  23007888.02147
  20133022.978 6  -2394007.480 6  -1856103.63748  20133021.80648
  19618934.149 6  -5850083.066 6  -4534543.18048  19618931.81748
  23058264.735 5  -2976318.781 5  -2309888.82847  23058262.07547
  22702514.993 5 -10536411.563 5  -8141686.10947  22702512.20447
  20007522.064 7  -3310863.629 7  -2568002.62148  20007524.00548
  20994338.720 6 -10771961.910 6  -8350522.04748  20994339.94248
  23416776.485 5   -669662.953 5   -520644.08646  23416776.13046
  20838137.306 7  -4082278.555 7  -3172385.45748  20838136.03648
  22498553.415 5    182188.277 5    138293.64546  22498555.80646
 18  5 30  0 46 54.9970000  0 10G03G14G16G22G23G26G27G29G31G32      -0.000161009
  23005548.649 5  -3988493.680 5  -3093810.01647  23005551.27847
  20131754.939 7  -2400670.625 7  -1861295.69948  20131753.99348
  19615581.790 6  -5867698.820 6  -4548269.74248  19615580.05648
  23056381.657 5  -2986211.137 5  -2317597.18047  23056379.56747
  22696226.110 5 -10569461.477 5  -8167439.29347  22696223.08747
  20005499.415 7  -3321493.070 7  -2576285.29748  20005501.20048
  20987968.493 6 -10805435.930 6  -8376605.70348  20987970.35648
  23416383.845 5   -671724.145 5   -522250.19546  23416383.35646
  20835554.103 7  -4095854.914 7  -3182964.44148  20835552.63048
  22498571.509 5    182280.828 5    138365.74246  22498573.86046
 18  5 30  0 46 59.9970000  0 10G03G14G16G22G23G26G27G29G31G32      -0.000171886
  23003211.814 5  -4000772.129 5  -3103377.63747  23003214.43547
  20130488.970 6  -2407325.770 6  -1866481.53948  20130487.52148
  19612231.321 7  -5885308.922 7  -4561991.91048  19612228.75148
  23054499.235 5  -2996103.930 5  -2325305.86346  23054497.44646
  22689937.274 5 -10602510.348 5  -8193191.65647  22689933.96647
  20003476.696 7  -3332121.926 7  -2584567.53548  20003478.61848
  20981599.556 6 -10838906.867 6  -8402686.94548  20981601.44648
  23415992.915 4   -673782.148 4   -523853.88346  23415992.14246
  20832969.837 7  -4109432.250 7  -3193544.20348  20832968.88848
  22498589.103 5    182373.973 5    138438.31346  22498591.36446
 18  5 30  0 47  4.9970000  0 10G03G14G16G22G23G26G27G29G31G32      -0.000182768
  23000876.087 5  -4013046.777 5  -3112942.30947  23000879.53247
  20129223.587 6  -2413973.613 6  -1871661.68848  20129222.41148
  19608881.071 7  -5902914.051 7  -4575710.18848  19608878.68148
  23052616.282 5  -3005997.816 5  -2333015.36347  23052614.97047
  22683648.384 6 -10635558.973 6  -8218943.82447  22683645.52147
  20001454.142 7  -3342750.867 7  -2592849.81648  20001455.57148
  20975230.337 6 -10872375.422 6  -8428766.33648  20975232.02448
  23415601.157 5   -675837.533 5   -525455.47246  23415601.36446
  20830386.329 7  -4123011.234 7  -3204125.23048  20830384.79048
  22498606.228 5    182466.891 5    138510.66846  22498609.23146
 18  5 30  0 47  9.9970000  0 10G03G14G16G22G23G26G27G29G31G32      -0.000193653
  22998541.157 5  -4025316.859 5  -3122503.41847  22998544.31447
  20127960.407 6  -2420613.465 6  -1876835.59848  20127959.07548
  19605531.540 7  -5920513.469 7  -4589424.02348  19605529.52848
  23050733.189 5  -3015892.027 5  -2340725.13346  23050732.13846
  22677359.509 6 -10668606.520 6  -8244695.16047  22677356.29047
  19999431.556 7  -3353379.188 7  -2601131.62148  19999433.17748
  20968862.399 6 -10905840.898 6  -8454843.33248  20968864.02448
  23415211.353 5   -677889.871 5   -527054.68846  23415210.66146
  20827802.368 7  -4136591.176 7  -3214707.00448  20827800.40348
  22498624.501 5    182560.434 5    138583.56646  22498626.94646
 18  5 30  0 47 14.9970000  0 10G03G14G16G22G23G26G27G29G31G32      -0.000204540
  22996207.329 5  -4037582.180 5  -3132060.82447  22996210.95447
  20126698.478 6  -2427245.051 6  -1882003.06648  20126697.05248
  19602183.907 7  -5938106.996 7  -4603133.26248  19602181.72048
  23048850.095 5  -3025786.410 5  -2348435.03546  23048848.91546
  22671070.837 6 -10701652.785 6  -8270445.48047  22671068.43147
  19997409.665 7  -3364006.723 7  -2609412.82848  19997410.71248
  20962494.259 6 -10939302.988 6  -8480917.68448  20962496.40748
  23414821.532 5   -679938.621 5   -528651.14546  23414820.71246
  20825218.142 7  -4150171.750 7  -3225289.27748  20825216.35648
  22498642.626 5    182654.766 5    138657.04346  22498645.00946
 18  5 30  0 47 19.9970000  0 10G03G14G16G22G23G26G27G29G31G32      -0.000215433
  22993874.228 5  -4049844.156 5  -3141615.62547  22993877.48547
  20125437.853 6  -2433869.750 6  -1887165.17648  20125436.47448
  19598836.642 7  -5955696.012 7  -4616838.99248  19598834.25948
  23046966.681 5  -3035682.281 5  -2356146.11746  23046965.38846
  22664782.806 6 -10734699.129 6  -8296195.88747  22664779.63047
  19995386.954 7  -3374634.773 7  -2617694.43448  19995388.53248
  20956127.556 6 -10972763.070 6  -8506990.46948  20956128.84548
  23414431.103 5   -681985.324 5   -530245.97746  23414431.21646
  20822633.360 7  -4163754.406 7  -3235873.18048  20822631.54448
  22498660.196 5    182748.461 5    138730.01646  22498663.09946
 18  5 30  0 47 24.9970000  0 10G03G14G16G22G23G26G27G29G31G32      -0.000226328
  22991541.189 5  -4062102.207 5  -3151167.36347  22991544.75547
  20124178.821 7  -2440487.023 7  -1892321.50048  20124177.46248
  19595490.587 6  -5973279.891 6  -4630540.71148  19595488.50948
  23045083.345 5  -3045579.113 5  -2363857.93846  23045081.24346
  22658493.571 6 -10767744.988 6  -8321945.91047  22658491.36847
  19993364.564 7  -3385262.820 7  -2625976.02748  19993366.11048
  20949760.556 6 -11006220.594 6  -8533061.26248  20949762.11848
  23414042.384 5   -684029.383 5   -531838.76246  23414041.93546
  20820048.212 7  -4177338.461 7  -3246458.16448  20820046.59148
  22498677.907 5    182842.074 5    138802.95346  22498680.82146
 18  5 30  0 47 29.9970000  0 10G03G14G16G22G23G26G27G29G31G32      -0.000237226
  22989209.884 5  -4074355.793 5  -3160715.63347  22989213.23547
  20122921.064 6  -2447096.281 6  -1897471.57448  20122919.48548
  19592145.446 6  -5990858.121 6  -4644238.03148  19592143.06448
  23043200.657 4  -3055476.387 4  -2371570.10946  23043197.56446
  22652206.087 6 -10800789.746 6  -8347695.07047  22652203.16147
  19991342.579 7  -3395890.293 7  -2634257.17648  19991344.07148
  20943394.470 6 -11039674.957 6  -8559129.58648  20943395.68948
  23413653.782 4   -686070.309 4   -533429.09046  23413653.27146
  20817463.243 7  -4190923.477 7  -3257043.89548  20817461.46648
  22498696.204 5    182936.223 5    138876.28146  22498698.75946
 18  5 30  0 47 34.9970000  0 10G03G14G16G22G23G26G27G29G31G32      -0.000248127
  22986878.907 5  -4086604.695 5  -3170260.23447  22986881.95847
  20121664.767 6  -2453697.383 6  -1902615.28548  20121663.28248
  19588801.517 6  -6008430.504 6  -4657930.80548  19588799.07948
  23041317.212 5  -3065373.918 5  -2379282.47746  23041313.54846
  22645917.860 6 -10833833.215 6  -8373443.22747  22645915.20047
  19989319.876 7  -3406517.027 7  -2642537.75448  19989321.41548
  20937028.837 6 -11073125.945 6  -8585195.29348  20937030.06048
  23413266.540 4   -688107.840 4   -535016.78146  23413265.79046
  20814878.064 7  -4204509.227 7  -3267630.19548  20814875.86048
  22498714.196 5    183031.047 5    138950.16846  22498716.79446
 18  5 30  0 47 39.9970000  0 10G03G14G16G22G23G26G27G29G31G32      -0.000259031
  22984548.954 6  -4098849.488 6  -3179801.64147  22984551.37247
  20120409.681 6  -2460290.828 6  -1907753.03548  20120408.26748
  19585458.548 6  -6025997.578 6  -4671619.43448  19585455.84548
  23039433.954 5  -3075272.188 5  -2386995.40246  23039429.63846
  22639629.954 6 -10866875.895 6  -8399190.75847  22639627.43547
  19987297.806 7  -3417143.547 7  -2650818.14848  19987299.70848
  20930663.509 6 -11106574.078 6  -8611258.77048  20930665.40348
  23412879.110 4   -690142.539 4   -536602.30146  23412878.79846
  20812292.298 7  -4218096.203 7  -3278217.44948  20812290.89248
  22498731.712 5    183126.016 5    139024.12946  22498734.60346
 18  5 30  0 47 44.9970000  0 10G03G14G16G22G23G26G27G29G31G32      -0.000269939
  22982219.579 6  -4111090.133 6  -3189339.81347  22982222.39647
  20119156.915 7  -2466876.555 7  -1912884.78548  20119155.22848
  19582116.626 6  -6043559.313 6  -4685303.91048  19582114.03648
  23037550.454 5  -3085171.227 5  -2394708.96146  23037546.11046
  22633342.548 6 -10899917.703 6  -8424937.61747  22633339.90347
  19985275.524 7  -3427769.797 7  -2659098.33648  19985277.20848
  20924299.970 6 -11140019.281 6  -8637319.96948  20924301.25948
  23412492.939 5   -692174.395 5   -538185.56346  23412492.23546
  20809706.642 7  -4231684.406 7  -3288805.66848  20809704.87648
  22498750.790 5    183221.180 5    139098.25447  22498752.73147
 18  5 30  0 47 49.9970000  0 10G03G14G16G22G23G26G27G29G31G32      -0.000280849
  22979891.110 6  -4123326.363 6  -3198874.53947  22979893.78247
  20117904.642 6  -2473454.402 6  -1918010.38348  20117903.51748
  19578775.892 6  -6061115.461 6  -4698984.02348  19578773.33748
  23035667.345 5  -3095070.742 5  -2402422.87546  23035662.14246
  22627054.704 6 -10932958.426 6  -8450683.62147  22627052.32947
  19983253.564 7  -3438395.578 7  -2667378.16848  19983255.19248
  20917935.821 6 -11173461.344 6  -8663378.71948  20917937.12248
  23412106.829 5   -694203.184 5   -539766.40646  23412106.13046
  20807120.556 7  -4245273.633 7  -3299394.67248  20807119.11848
  22498768.931 5    183316.750 5    139172.70346  22498771.41546
 18  5 30  0 47 54.9970000  0 10G03G14G16G22G23G26G27G29G31G32      -0.000291763
  22977562.774 6  -4135557.934 6  -3208405.63747  22977565.84947
  20116654.743 6  -2480024.043 6  -1923129.59048  20116653.52148
  19575436.743 6  -6078665.773 6  -4712659.60248  19575433.84548
  23033783.165 5  -3104970.512 5  -2410136.97346  23033778.64246
  22620767.282 6 -10965997.773 6  -8476428.55147  22620764.91147
  19981231.782 7  -3449020.578 7  -2675657.38748  19981233.48148
  20911572.798 6 -11206899.898 6  -8689434.73448  20911573.99748
  23411721.376 5   -696228.609 5   -541344.68846  23411720.50146
  20804534.907 7  -4258863.488 7  -3309984.17648  20804532.84548
  22498786.829 5    183413.012 5    139247.68846  22498789.77846
 18  5 30  0 47 59.9970000  0 10G03G14G16G22G23G26G27G29G31G32      -0.000302681
  22975236.665 6  -4147785.305 6  -3217933.45747  22975238.97447
  20115405.868 7  -2486585.973 7  -1928242.78548  20115404.63048
  19572097.915 7  -6096210.691 7  -4726330.96948  19572095.10348
  23031898.868 5  -3114870.965 5  -2417851.62547  23031895.09547
  22614480.056 6 -10999036.172 6  -8502172.75047  22614478.20847
  19979210.048 7  -3459645.309 7  -2683936.39848  19979211.94248
  20905210.470 6 -11240335.469 6  -8715488.41848  20905211.46248
  23411336.524 5   -698251.133 5   -542920.68446  23411336.00946
  20801948.243 7  -4272454.500 7  -3320574.57848  20801946.72448
  22498804.735 5    183509.500 5    139322.83246  22498808.21246
 18  5 30  0 48  4.9970000  0 10G03G14G16G22G23G26G27G29G31G32      -0.000313602
  22972910.821 6  -4160009.156 6  -3227458.55547  22972913.02847
  20114158.728 6  -2493140.855 6  -1933350.48448  20114157.54448
  19568759.853 7  -6113750.871 7  -4739998.64148  19568757.34948
  23030014.689 6  -3124772.848 6  -2425567.39147  23030011.57547
  22608193.470 5 -11032074.301 5  -8527916.74247  22608191.05647
  19977188.228 7  -3470270.418 7  -2692215.70748  19977189.38048
  20898848.118 6 -11273768.648 6  -8741540.24648  20898849.32148
  23410951.923 5   -700271.457 5   -544494.96946  23410951.38446
  20799361.634 7  -4286047.273 7  -3331166.35248  20799360.18148
  22498823.345 5    183605.512 5    139397.64147  22498825.89647
 18  5 30  0 48  9.9970000  0 10G03G14G16G22G23G26G27G29G31G32      -0.000324526
  22970585.376 6  -4172227.949 6  -3236979.69147  22970587.35647
  20112912.704 6  -2499687.164 6  -1938451.51248  20112911.59148
  19565423.087 7  -6131284.801 7  -4753661.43448  19565420.93548
  23028129.946 6  -3134674.598 6  -2433283.03146  23028127.49346
  22601906.673 6 -11065110.582 6  -8553659.29347  22601904.91147
  19975166.368 7  -3480894.410 7  -2700494.15248  19975167.77148
  20892486.642 6 -11307197.875 6  -8767588.99248  20892488.10648
  23410568.337 5   -702288.051 5   -546066.36346  23410567.91546
  20796774.923 7  -4299640.242 7  -3341758.28148  20796773.05648
  22498841.626 5    183702.586 5    139473.25446  22498844.88846
 18  5 30  0 48 14.9970000  0 10G03G14G16G22G23G26G27G29G31G32      -0.000335453
  22968261.571 6  -4184442.379 6  -3246497.43447  22968263.46647
  20111668.657 6  -2506225.492 6  -1943546.31648  20111667.58748
  19562087.720 6  -6148813.105 6  -4767319.85248  19562085.38048
  23026245.634 5  -3144576.891 5  -2440999.10547  23026243.43547
  22595620.329 6 -11098145.668 6  -8579400.90647  22595618.63847
  19973144.829 7  -3491517.906 7  -2708772.22348  19973146.27448
  20886126.267 6 -11340623.848 6  -8793635.21148  20886127.15748
  23410185.056 5   -704301.598 5   -547635.34446  23410184.46246
  20794188.267 7  -4313234.082 7  -3352350.89548  20794186.20448
  22498860.282 5    183800.023 5    139549.16047  22498863.00947
 18  5 30  0 48 19.9970000  0 10G03G14G16G22G23G26G27G29G31G32      -0.000346382
  22965937.829 6  -4196652.531 6  -3256011.84047  22965939.52847
  20110426.056 6  -2512756.047 6  -1948635.06648  20110424.46648
  19558752.970 6  -6166335.926 6  -4780973.99248  19558750.66148
  23024361.603 5  -3154479.840 5  -2448715.69946  23024358.99346
  22589333.939 6 -11131179.691 6  -8605141.70747  22589332.35647
  19971123.649 7  -3502141.051 7  -2717050.01248  19971124.79848
  20879766.134 6 -11374046.621 6  -8819678.92248  20879766.97448
  23409802.618 5   -706312.148 5   -549202.00846  23409802.16946
  20791601.470 7  -4326828.945 7  -3362944.29748  20791599.14648
  22498879.001 5    183897.828 5    139625.35247  22498881.64647
 18  5 30  0 48 24.9970000  0 10G03G14G16G22G23G26G27G29G31G32      -0.000357315
  22963614.673 6  -4208858.555 6  -3265523.02747  22963616.71647
  20109185.056 6  -2519278.938 6  -1953717.84048  20109183.56048
  19555419.814 6  -6183853.410 6  -4794623.98448  19555417.27148
  23022477.157 5  -3164383.570 5  -2456432.92246  23022474.96246
  22583048.540 6 -11164212.691 6  -8630881.69547  22583046.14947
  19969102.009 7  -3512763.934 7  -2725327.59848  19969103.30648
  20873406.509 6 -11407466.316 6  -8845720.24248  20873407.65748
  23409420.040 4   -708319.930 4   -550766.52046  23409420.01346
  20789014.165 7  -4340424.938 7  -3373538.58248  20789012.11848
  22498897.978 5    183995.738 5    139701.62147  22498900.08347
 18  5 30  0 48 29.9970000  0 10G03G14G16G22G23G26G27G29G31G32      -0.000368252
  22961293.220 6  -4221059.902 6  -3275030.57847  22961294.97847
  20107945.009 6  -2525793.609 6  -1958794.20348  20107944.25548
  19552087.564 6  -6201365.051 6  -4808269.42648  19552084.97048
  23020591.696 5  -3174287.543 5  -2464150.32047  23020590.23947
  22576763.071 6 -11197244.191 6  -8656620.52347  22576760.75947
  19967080.431 7  -3523386.020 7  -2733604.54748  19967082.19648
  20867047.571 6 -11440882.367 6  -8871758.72748  20867048.49348
  23409038.517 4   -710324.359 4   -552328.42646  23409038.93546
  20786426.493 7  -4354021.453 7  -3384133.27348  20786424.52848
  22498917.017 6    184094.309 6    139778.40247  22498919.52147
 18  5 30  0 48 34.9970000  0 10G03G14G16G22G23G26G27G29G31G32      -0.000379190
  22958971.517 6  -4233256.461 6  -3284534.40647  22958973.82947
  20106707.087 6  -2532299.934 6  -1963864.07848  20106706.36448
  19548756.173 6  -6218870.641 6  -4821910.14148  19548753.75948
  23018707.079 5  -3184191.629 5  -2471867.81347  23018705.67347
  22570477.501 6 -11230273.906 6  -8682357.94947  22570475.20047
  19965059.603 7  -3534007.203 7  -2741880.80148  19965061.02148
  20860689.649 6 -11474294.605 6  -8897794.23848  20860690.59548
  23408658.017 4   -712325.324 4   -553887.61346  23408657.73146
  20783839.126 7  -4367618.410 7  -3394728.30948  20783837.16948
  22498935.790 6    184193.723 6    139855.85247  22498937.96647
 18  5 30  0 48 39.9970000  0 10G03G14G16G22G23G26G27G29G31G32      -0.000390133
  22956652.103 6  -4245449.012 6  -3294035.09447  22956653.56747
  20105470.228 6  -2538798.664 6  -1968928.02348  20105469.34548
  19545425.954 6  -6236370.996 6  -4835546.78948  19545423.63848
  23016822.735 5  -3194096.570 5  -2479585.96146  23016820.39946
  22564192.462 6 -11263302.703 6  -8708094.68447  22564190.28247
  19963038.439 7  -3544628.238 7  -2750156.93448  19963039.71248
  20854332.353 6 -11507703.816 6  -8923827.37948  20854333.08348
  23408277.360 4   -714323.516 4   -555444.66446  23408277.91946
  20781251.485 7  -4381216.551 7  -3405324.26648  20781249.40348
  22498954.157 6    184293.129 6    139933.28547  22498957.48547
 18  5 30  0 48 44.9970000  0 10G03G14G16G22G23G26G27G29G31G32      -0.000401077
  22954332.415 6  -4257636.918 6  -3303532.17647  22954333.69647
  20104235.274 6  -2545289.254 6  -1973985.63748  20104234.14648
  19542096.782 6  -6253865.512 6  -4849178.87548  19542094.25948
  23014937.665 5  -3204001.934 5  -2487304.43847  23014935.15747
  22557907.704 6 -11296329.980 6  -8733830.22747  22557904.89947
  19961017.571 7  -3555248.520 7  -2758432.46548  19961019.16548
  20847975.329 6 -11541109.355 6  -8949857.66048  20847976.37248
  23407897.985 4   -716318.449 4   -556999.15646  23407898.39246
  20778663.868 7  -4394815.238 7  -3415920.64848  20778661.72848
  22498973.360 6    184393.215 6    140011.24647  22498975.98547
 18  5 30  0 48 49.9970000  0 10G03G14G16G22G23G26G27G29G31G32      -0.000412025
  22952014.017 6  -4269820.523 6  -3313025.89547  22952015.46647
  20103001.610 6  -2551771.945 6  -1979037.09448  20103000.18548
  19538768.837 6  -6271354.492 6  -4862806.65248  19538766.70848
  23013052.720 5  -3213907.898 5  -2495023.36346  23013050.16946
  22551623.134 6 -11329355.980 6  -8759564.77347  22551619.85347
  19958996.556 7  -3565868.430 7  -2766707.73048  19958998.28248
  20841618.884 6 -11574511.516 6  -8975885.31648  20841620.21648
  23407519.415 4   -718310.453 4   -558551.36746  23407519.19246
  20776075.853 7  -4408414.762 7  -3426517.68848  20776073.81048
  22498992.384 6    184493.574 6    140089.43047  22498995.38047
 18  5 30  0 48 54.9970000  0 10G03G14G16G22G23G26G27G29G31G32      -0.000422977
  22949696.665 6  -4281999.102 6  -3322515.68847  22949697.77147
  20101769.665 6  -2558246.004 6  -1984081.81648  20101768.73948
  19535442.071 6  -6288837.160 6  -4876429.50848  19535439.29448
  23011167.884 5  -3223813.711 5  -2502742.16846  23011164.71646
  22545338.774 6 -11362379.934 6  -8785297.71947  22545335.53247
  19956975.860 7  -3576487.125 7  -2774982.03148  19956977.43148
  20835262.970 6 -11607909.527 6  -9001909.74648  20835264.42348
  23407141.024 4   -720298.715 4   -560100.66846  23407140.90746
  20773487.931 7  -4422014.375 7  -3437114.78148  20773485.90348
  22499011.321 6    184595.027 6    140168.46947  22499014.86447
 18  5 30  0 48 59.9970000  0 10G03G14G16G22G23G26G27G29G31G32      -0.000433931
  22947379.548 6  -4294174.102 6  -3332002.70747  22947381.04847
  20100538.884 6  -2564712.934 6  -1989120.98848  20100537.57148
  19532115.954 6  -6306315.039 6  -4890048.62548  19532113.76348
  23009282.134 5  -3233720.898 5  -2510462.07047  23009280.34947
  22539054.845 6 -11395403.363 6  -8811030.26247  22539051.16547
  19954955.009 7  -3587106.133 7  -2783256.57848  19954956.74348
  20828908.728 6 -11641304.855 6  -9027932.07048  20828909.63448
  23406763.024 5   -722284.730 5   -561648.21946  23406763.14946
  20770899.829 7  -4435615.582 7  -3447713.13748  20770897.99748
  22499031.212 6    184696.004 6    140247.13347  22499034.29447
 18  5 30  0 49  4.9970000  0 10G03G14G16G22G23G26G27G29G31G32      -0.000444889
  22945063.314 6  -4306345.012 6  -3341486.53947  22945064.63447
  20099309.681 6  -2571172.242 6  -1994154.21548  20099308.27448
  19528791.345 6  -6323787.566 6  -4903663.58648  19528788.94648
  23007397.110 5  -3243628.901 5  -2518182.60546  23007394.72446
  22532770.759 6 -11428425.598 6  -8836761.87147  22532767.45447
  19952934.337 7  -3597724.918 7  -2791530.96948  19952936.21248
  20822554.314 6 -11674696.902 6  -9053951.85548  20822555.31048
  23406385.681 5   -724267.922 5   -563193.59446  23406385.45046
  20768311.142 7  -4449217.766 7  -3458312.24248  20768309.75148
  22499050.884 6    184797.121 6    140325.91447  22499053.69247
 18  5 30  0 49  9.9970000  0 10G03G14G16G22G23G26G27G29G31G32      -0.000455851
  22942747.689 5  -4318511.367 5  -3350966.82047  22942749.38047
  20098082.134 6  -2577623.379 6  -1999181.07848  20098080.88048
  19525467.454 6  -6341254.336 6  -4917274.05948  19525464.86848
  23005510.962 6  -3253537.277 6  -2525903.43846  23005509.39246
  22526486.798 6 -11461446.273 6  -8862492.25847  22526483.75547
  19950913.360 7  -3608343.043 7  -2799804.82448  19950915.67348
  20816200.642 6 -11708085.285 6  -9079968.77048  20816201.73548
  23406009.306 5   -726247.949 5   -564736.46546  23406008.77446
  20765722.610 7  -4462820.516 7  -3468911.79348  20765721.08348
  22499069.618 6    184898.789 6    140405.11347  22499072.97847
 18  5 30  0 49 14.9970000  0 10G03G14G16G22G23G26G27G29G31G32      -0.000466814
  22940433.501 5  -4330672.984 5  -3360443.41847  22940434.64647
  20096856.048 6  -2584066.238 6  -2004201.49648  20096854.59548
  19522144.517 6  -6358715.070 6  -4930879.83248  19522142.09548
  23003625.579 6  -3263445.824 6  -2533624.39547  23003624.13847
  22520203.564 6 -11494465.105 6  -8888221.20747  22520200.58347
  19948893.212 7  -3618960.293 7  -2808078.00848  19948895.45048
  20809847.970 6 -11741469.703 6  -9105982.60248  20809848.83348
  23405632.704 5   -728224.555 5   -566276.70346  23405632.39646
  20763134.064 7  -4476423.645 7  -3479511.66048  20763132.37648
  22499089.353 6    185001.223 6    140484.91047  22499092.80647
 18  5 30  0 49 19.9970000  0 10G03G14G16G22G23G26G27G29G31G32      -0.000477779
  22938121.009 5  -4342829.941 5  -3369916.37947  22938121.90747
  20095631.657 6  -2590500.926 6  -2009215.52748  20095630.52148
  19518823.228 6  -6376169.945 6  -4944481.03548  19518820.50148
  23001740.103 5  -3273354.664 5  -2541345.59847  23001738.85647
  22513920.728 6 -11527482.195 6  -8913948.80947  22513917.47047
  19946872.993 7  -3629576.746 7  -2816350.56648  19946875.39648
  20803495.337 6 -11774850.266 6  -9131993.43048  20803496.48548
  23405257.314 5   -730197.859 5   -567814.35546  23405256.46246
  20760545.806 7  -4490027.223 7  -3490111.87148  20760543.98148
  22499108.790 6    185104.270 6    140565.18447  22499112.31047
 18  5 30  0 49 24.9970000  0 10G03G14G16G22G23G26G27G29G31G32      -0.000488750
  22935808.798 5  -4354982.918 5  -3379386.24247  22935808.88047
  20094408.446 6  -2596927.957 6  -2014223.61748  20094407.29448
  19515502.946 6  -6393619.570 6  -4958078.14548  19515500.23548
  22999854.392 5  -3283264.480 5  -2549067.53946  22999852.32946
  22507637.298 6 -11560498.172 6  -8939675.52747  22507634.43547
  19944852.743 7  -3640193.094 7  -2824623.05148  19944854.97848
  20797143.681 6 -11808227.602 6  -9158001.74648  20797145.12248
  23404882.478 5   -732168.523 5   -569349.93446  23404881.73146
  20757956.345 7  -4503631.855 7  -3500712.88348  20757955.00148
  22499128.610 6    185207.324 6    140645.46947  22499131.83747
 18  5 30  0 49 29.9970000  0 10G03G14G16G22G23G26G27G29G31G32      -0.000499723
  22933496.978 5  -4367131.617 5  -3388852.76647  22933497.34147
  20093187.306 6  -2603347.051 6  -2019225.52048  20093185.74348
  19512183.228 6  -6411063.602 6  -4971670.89548  19512180.87248
  22997969.524 5  -3293174.926 5  -2556789.97746  22997966.47846
  22501355.040 6 -11593512.645 6  -8965401.09447  22501351.13447
  19942832.735 7  -3650808.988 7  -2832895.18448  19942835.09948
  20790793.298 6 -11841601.285 6  -9184007.20348  20790794.12248
  23404508.251 5   -734136.156 5   -570883.16046  23404507.38446
  20755367.782 7  -4517237.203 7  -3511314.44548  20755366.08348
  22499147.954 6    185310.758 6    140726.04347  22499151.33347
 18  5 30  0 49 34.9960000  0 10G03G14G16G22G23G26G27G29G31G32       0.000489304
  22931186.293 5  -4379273.680 5  -3398314.10247  22931186.41847
  20091967.574 6  -2609757.184 6  -2024220.43048  20091965.72348
  19508865.316 6  -6428498.781 6  -4985256.75448  19508862.85648
  22996083.684 5  -3303084.152 5  -2564511.44146  22996080.44546
  22495073.981 6 -11626519.242 6  -8991120.50447  22495070.80947
  19940812.887 7  -3661422.504 7  -2841165.45748  19940815.41848
  20784444.652 6 -11874964.938 6  -9210004.85948  20784445.53148
  23404133.793 5   -736100.633 5   -572413.93046  23404133.98846
  20752779.098 7  -4530840.781 7  -3521914.63748  20752777.23448
  22499167.496 6    185414.219 6    140806.65247  22499171.24247
 18  5 30  0 49 39.9960000  0 10G03G14G16G22G23G26G27G29G31G32       0.000478325
  22928875.816 5  -4391413.699 5  -3407773.86747  22928876.77047
  20090748.902 6  -2616160.523 6  -2029210.05548  20090747.22748
  19505548.106 6  -6445931.664 6  -4998840.81648  19505545.32848
  22994198.293 6  -3312995.789 6  -2572234.81346  22994193.87546
  22488792.356 6 -11659530.656 6  -9016843.68446  22488788.39546
  19938792.895 7  -3672037.492 7  -2849436.89848  19938795.24248
  20778094.918 6 -11908331.418 6  -9236004.71948  20778095.96548
  23403760.941 5   -738062.363 5   -573942.56346  23403760.77346
  20750189.863 6  -4544447.492 6  -3532517.26648  20750187.79748
  22499187.832 6    185518.270 6    140887.71147  22499191.10947
 18  5 30  0 49 44.9960000  0 10G03G14G16G22G23G26G27G29G31G32       0.000467342
  22926566.887 5  -4403549.180 5  -3417230.08647  22926567.19147
  20089532.301 7  -2622555.688 7  -2034193.30548  20089530.76248
  19502231.645 6  -6463358.680 6  -5012420.30948  19502229.44548
  22992311.777 6  -3322907.797 6  -2579958.45746  22992307.22346
  22482510.418 6 -11692540.332 6  -9042565.50046  22482506.74646
  19936773.231 7  -3682651.762 7  -2857707.75848  19936775.57048
  20771746.356 6 -11941693.984 6  -9262001.52048  20771747.35648
  23403387.723 5   -740020.824 5   -575468.62146  23403387.47346
  20747600.410 7  -4558054.668 7  -3543120.26248  20747598.58648
  22499207.395 6    185622.867 6    140969.19947  22499210.96147
 18  5 30  0 49 49.9960000  0 10G03G14G16G22G23G26G27G29G31G32       0.000456358
  22924258.699 6  -4415680.461 6  -3426683.04747  22924259.58247
  20088316.629 6  -2628943.074 6  -2039170.48848  20088315.43848
  19498916.324 6  -6480780.238 6  -5025995.54348  19498914.19148
  22990424.840 6  -3332820.582 6  -2587682.70747  22990420.68847
  22476229.676 5 -11725548.559 5  -9068286.19146  22476225.37546
  19934753.504 7  -3693265.742 7  -2865978.39548  19934755.45748
  20765398.215 6 -11975053.016 6  -9287995.56648  20765399.13748
  23403015.809 5   -741976.531 5   -576992.55546  23403015.51646
  20745011.145 6  -4571662.625 6  -3553723.87548  20745009.26648
  22499228.098 6    185727.641 6    141050.81647  22499231.07847
 18  5 30  0 49 54.9960000  0 10G03G14G16G22G23G26G27G29G31G32       0.000445370
  22921950.059 6  -4427808.082 6  -3436133.12547  22921951.34447
  20087102.590 6  -2635323.148 6  -2044141.96548  20087101.16848
  19495602.215 6  -6498196.816 6  -5039566.90248  19495599.52748
  22988537.856 6  -3342734.652 6  -2595407.93446  22988533.87146
  22469948.551 6 -11758555.840 6  -9094006.14546  22469944.37146
  19932733.785 7  -3703879.840 7  -2874249.12148  19932735.57448
  20759051.082 6 -12008408.980 6  -9313987.22748  20759051.10248
  23402644.215 4   -743929.859 4   -578514.63746  23402643.60246
  20742421.074 6  -4585271.855 6  -3564328.48048  20742419.62148
  22499247.809 6    185832.109 6    141132.19547  22499250.35647
 18  5 30  0 49 59.9960000  0 10G03G14G16G22G23G26G27G29G31G32       0.000434380
  22919643.106 6  -4439931.070 6  -3445579.61747  22919644.67247
  20085890.098 6  -2641695.000 6  -2049107.05548  20085888.50048
  19492288.832 6  -6515607.469 6  -5053133.64848  19492286.39148
  22986651.246 6  -3352648.988 6  -2603133.39846  22986647.53546
  22463667.621 5 -11791561.195 5  -9119724.61346  22463663.23146
  19930713.762 7  -3714493.191 7  -2882519.27048  19930716.02748
  20752703.871 6 -12041760.867 6  -9339975.71148  20752704.65648
  23402273.059 4   -745879.902 4   -580034.14546  23402272.48446
  20739831.441 6  -4598881.418 6  -3574933.33248  20739829.55948
  22499267.793 6    185937.223 6    141214.09847  22499270.58247
 18  5 30  0 50  4.9960000  0 10G03G14G16G22G23G26G27G29G31G32       0.000423384
  22917337.207 5  -4452049.953 5  -3455022.89847  22917339.38747
  20084678.848 6  -2648059.141 6  -2054066.13348  20084677.60248
  19488977.121 6  -6533012.711 6  -5066696.18048  19488974.24248
  22984764.332 5  -3362564.203 5  -2610859.52046  22984760.41446
  22457387.324 5 -11824565.145 5  -9145441.98846  22457382.75446
  19928694.293 7  -3725106.301 7  -2890789.23848  19928696.47748
  20746358.309 6 -12075109.250 6  -9365961.46148  20746359.08248
  23401902.332 5   -747827.199 5   -581551.49646  23401902.23146
  20737241.449 7  -4612491.766 7  -3585538.80148  20737239.56648
  22499287.996 6    186042.434 6    141296.05147  22499290.53947
 18  5 30  0 50  9.9960000  0 10G03G14G16G22G23G26G27G29G31G32       0.000412388
  22915031.957 5  -4464164.664 5  -3464462.94147  22915034.18847
  20083469.613 6  -2654415.477 6  -2059019.12148  20083468.22748
  19485665.910 6  -6550412.523 6  -5080254.48048  19485663.18448
  22982877.746 5  -3372480.156 5  -2618586.24247  22982873.75847
  22451107.020 5 -11857567.570 5  -9171158.14546  22451102.42246
  19926674.723 7  -3735719.059 7  -2899058.91848  19926676.57848
  20740012.973 6 -12108453.941 6  -9391944.33648  20740013.65248
  23401532.973 5   -749771.707 5   -583066.70746  23401532.43046
  20734651.020 7  -4626102.859 7  -3596144.84848  20734649.48448
  22499307.754 6    186147.836 6    141378.15647  22499310.67647
 18  5 30  0 50 14.9960000  0 10G03G14G16G22G23G26G27G29G31G32       0.000401386
  22912727.098 5  -4476275.211 5  -3473899.71547  22912728.91047
  20082261.043 6  -2660764.031 6  -2063966.05548  20082259.75048
  19482356.402 6  -6567806.852 6  -5093808.50048  19482353.25448
  22980990.434 5  -3382396.875 5  -2626313.54747  22980986.71147
  22444827.098 5 -11890568.516 5  -9196873.17646  22444822.58646
  19924655.496 7  -3746331.520 7  -2907328.39548  19924657.39848
  20733668.199 6 -12141795.000 6  -9417924.38748  20733668.95748
  23401162.637 4   -751713.344 4   -584579.66446  23401162.49246
  20732061.106 7  -4639714.691 7  -3606751.47348  20732059.26248
  22499327.840 6    186253.395 6    141460.37947  22499330.86347
 18  5 30  0 50 19.9960000  0 10G03G14G16G22G23G26G27G29G31G32       0.000390383
  22910423.473 6  -4488382.141 6  -3483333.68447  22910425.60947
  20081054.402 6  -2667105.402 6  -2068907.39548  20081053.09848
  19479047.121 6  -6585196.305 6  -5107358.73848  19479044.20748
  22979103.340 5  -3392314.953 5  -2634041.93446  22979099.86746
  22438547.379 5 -11923568.473 5  -9222587.42646  22438542.78946
  19922636.223 7  -3756944.164 7  -2915597.98848  19922637.81348
  20727324.652 6 -12175132.914 6  -9443901.97348  20727325.21948
  23400793.621 5   -753652.766 5   -586090.87146  23400793.66046
  20729470.324 7  -4653327.805 7  -3617359.11348  20729468.56648
  22499347.934 6    186358.551 6    141542.31647  22499351.00047
 18  5 30  0 50 24.9960000  0 10G03G14G16G22G23G26G27G29G31G32       0.000379375
  22908120.402 6  -4500485.328 6  -3492764.74247  22908122.31647
  20079848.973 7  -2673439.359 7  -2073842.94948  20079847.81348
  19475738.723 6  -6602580.703 6  -5120905.02048  19475736.11348
  22977215.981 5  -3402234.125 5  -2641771.20346  22977212.71546
  22432267.746 5 -11956567.258 5  -9248300.76646  22432263.26646
  19920616.074 7  -3767556.859 7  -2923867.60248  19920618.19148
  20720981.410 6 -12208467.551 6  -9469877.01248  20720981.77748
  23400425.316 5   -755589.742 5   -587600.22746  23400424.75446
  20726879.949 7  -4666942.027 7  -3627967.61348  20726878.15648
  22499367.606 6    186463.504 6    141624.06647  22499370.37947
 18  5 30  0 50 29.9960000  0 10G03G14G16G22G23G26G27G29G31G32       0.000368364
  22905817.988 6  -4512584.289 6  -3502192.50447  22905819.87147
  20078645.090 6  -2679765.461 6  -2078772.39148  20078644.20748
  19472431.465 7  -6619959.594 7  -5134447.01648  19472429.03948
  22975328.934 5  -3412154.086 5  -2649501.07846  22975324.34046
  22425989.106 5 -11989564.406 5  -9274012.82446  22425984.29746
  19918596.965 7  -3778169.215 7  -2932136.95748  19918599.03548
  20714638.207 6 -12241798.414 6  -9495849.11348  20714639.18848
  23400057.535 5   -757523.879 5   -589107.35946  23400056.80146
  20724288.832 7  -4680556.949 7  -3638576.66448  20724286.93048
  22499387.910 6    186568.629 6    141705.96547  22499390.38747
 18  5 30  0 50 34.9960000  0 10G03G14G16G22G23G26G27G29G31G32       0.000357351
  22903517.160 6  -4524678.414 6  -3511616.50447  22903518.75447
  20077443.129 6  -2686083.059 6  -2083695.19548  20077442.11748
  19469125.809 6  -6637332.277 6  -5147984.16048  19469122.72348
  22973440.691 5  -3422074.137 5  -2657231.01246  22973436.99246
  22419710.316 5 -12022559.238 5  -9299723.09046  22419705.75846
  19916578.012 7  -3788780.543 7  -2940405.52348  19916579.38348
  20708296.949 6 -12275124.785 6  -9521817.70748  20708297.28948
  23399690.027 5   -759454.508 5   -590611.72346  23399689.63746
  20721698.098 7  -4694171.793 7  -3649185.63748  20721696.64548
  22499408.356 6    186674.633 6    141788.54347  22499410.83647
 18  5 30  0 50 39.9960000  0 10G03G14G16G22G23G26G27G29G31G32       0.000346336
  22901215.816 6  -4536767.969 6  -3521036.95747  22901218.17647
  20076242.426 6  -2692392.496 6  -2088611.64848  20076241.50848
  19465820.770 6  -6654699.129 6  -5161516.77048  19465818.67248
  22971552.910 5  -3431994.629 5  -2664961.28946  22971549.99246
  22413431.715 6 -12055552.016 6  -9325431.74247  22413428.02747
  19914559.027 7  -3799391.223 7  -2948673.61748  19914560.23848
  20701955.910 6 -12308447.016 6  -9547783.08248  20701956.35948
  23399322.895 4   -761381.945 4   -592113.63346  23399323.07046
  20719107.449 7  -4707786.887 7  -3659794.77748  20719105.29748
  22499428.066 6    186781.168 6    141871.53147  22499430.96147
 18  5 30  0 50 44.9960000  0 10G03G14G16G22G23G26G27G29G31G32       0.000335318
  22898916.184 6  -4548853.738 6  -3530454.43847  22898918.77347
  20075042.981 6  -2698694.500 6  -2093522.30548  20075042.39548
  19462516.668 6  -6672060.820 6  -5175045.36348  19462514.54748
  22969663.863 5  -3441916.367 5  -2672692.48846  22969661.85646
  22407153.770 6 -12088543.543 6  -9351139.41447  22407149.47347
  19912539.699 7  -3810001.910 7  -2956941.71548  19912541.34048
  20695615.340 6 -12341765.824 6  -9573745.78148  20695616.06348
  23398956.645 5   -763306.977 5   -593613.65646  23398956.13346
  20716516.277 7  -4721403.023 7  -3670404.74648  20716514.65648
  22499448.856 6    186887.500 6    141954.36747  22499451.31647
 18  5 30  0 50 49.9960000  0 10G03G14G16G22G23G26G27G29G31G32       0.000324295
  22896617.098 6  -4560935.492 6  -3539868.79347  22896619.49247
  20073845.098 6  -2704988.852 6  -2098427.00848  20073844.56648
  19459214.168 6  -6689417.188 6  -5188569.80548  19459211.62948
  22967776.121 5  -3451839.004 5  -2680424.40646  22967773.96146
  22400875.910 6 -12121533.527 6  -9376845.90647  22400871.39147
  19910520.129 7  -3820612.363 7  -2965209.58648  19910522.10648
  20689275.504 6 -12375080.930 6  -9599705.60548  20689276.45748
  23398590.723 5   -765229.332 5   -595111.60546  23398590.94946
  20713924.770 7  -4735019.930 7  -3681015.31648  20713923.12548
  22499469.481 6    186993.840 6    142037.21547  22499471.68447
 18  5 30  0 50 54.9960000  0 10G03G14G16G22G23G26G27G29G31G32       0.000313269
  22894318.426 6  -4573013.863 6  -3549280.50847  22894321.15247
  20072648.941 6  -2711276.125 6  -2103326.18848  20072647.92248
  19455912.223 6  -6706768.797 6  -5202090.53948  19455909.81648
  22965887.176 5  -3461763.134 5  -2688157.48346  22965884.88346
  22394598.395 6 -12154522.531 6  -9402551.62946  22394594.18846
  19908501.387 7  -3831223.234 7  -2973477.78548  19908502.62148
  20682936.660 6 -12408392.941 6  -9625663.00448  20682937.39848
  23398225.059 4   -767149.594 4   -596607.91846  23398225.06346
  20711333.324 7  -4748638.242 7  -3691627.00848  20711331.28548
  22499488.402 6    187099.586 6    142119.59047  22499491.93847
 18  5 30  0 50 59.9960000  0 10G03G14G16G22G23G26G27G29G31G32       0.000302240
  22892020.559 6  -4585088.539 6  -3558689.34447  22892023.62947
  20071454.035 6  -2717556.070 6  -2108219.64848  20071452.58648
  19452611.488 6  -6724115.418 6  -5215607.39548  19452608.88348
  22963998.856 5  -3471688.566 5  -2695891.59046  22963995.65246
  22388321.168 5 -12187510.316 5  -9428256.38746  22388316.95346
  19906482.309 7  -3841834.223 7  -2981746.05148  19906483.64848
  20676598.262 6 -12441701.566 6  -9651617.77348  20676599.03548
  23397860.379 4   -769067.605 4   -598102.48046  23397860.52046
  20708741.691 7  -4762257.629 7  -3702239.50448  20708739.76648
  22499509.137 6    187205.008 6    142201.71947  22499511.91047
 18  5 30  0 51  4.9960000  0 10G03G14G16G22G23G26G27G29G31G32       0.000291208
  22889723.402 6  -4597159.746 6  -3568095.49647  22889726.47747
  20070260.481 6  -2723828.891 6  -2113107.56648  20070259.15648
  19449311.082 6  -6741457.277 6  -5229120.53548  19449308.91448
  22962109.598 5  -3481615.457 5  -2703626.82846  22962106.91046
  22382043.941 5 -12220497.023 5  -9453960.32046  22382039.87146
  19904462.637 7  -3852445.547 7  -2990014.61748  19904464.16848
  20670260.363 6 -12475006.980 6  -9677570.04348  20670260.94948
  23397495.762 4   -770983.473 4   -599595.35246  23397496.14546
  20706149.699 6  -4775878.262 6  -3712852.98848  20706147.91448
  22499528.887 6    187309.922 6    142283.44547  22499532.74647
 18  5 30  0 51  9.9960000  0 10G03G14G16G22G23G26G27G29G31G32       0.000280172
  22887427.324 6  -4609227.129 6  -3577498.66047  22887430.09447
  20069068.090 6  -2730094.219 6  -2117989.65248  20069066.84848
  19446012.332 7  -6758794.000 7  -5242629.67648  19446010.18448
  22960220.934 4  -3491543.500 4  -2711362.99646  22960217.28146
  22375766.926 5 -12253482.324 5  -9479663.16046  22375762.99246
  19902443.637 7  -3863056.922 7  -2998283.21948  19902445.16448
  20663923.043 6 -12508308.801 6  -9703519.50848  20663923.91848
  23397132.035 4   -772896.883 4   -601086.31646  23397131.92646
  20703557.832 7  -4789499.867 7  -3723467.22748  20703555.95348
  22499549.020 6    187414.613 6    142365.00847  22499552.31347
 18  5 30  0 51 14.9960000  0 10G03G14G16G22G23G26G27G29G31G32       0.000269133
  22885131.762 6  -4621289.961 6  -3586898.28547  22885134.71947
  20067876.949 6  -2736351.355 6  -2122865.35248  20067875.90248
  19442714.527 7  -6776124.805 7  -5256134.19548  19442712.10948
  22958331.988 4  -3501471.875 4  -2719099.41846  22958328.12546
  22369490.371 5 -12286465.387 5  -9505364.24646  22369486.85646
  19900424.402 7  -3873667.547 7  -3006551.23448  19900425.91048
  20657586.457 6 -12541606.301 6  -9729465.62148  20657587.46148
  23396768.371 4   -774807.133 4   -602574.85246  23396768.37146
  20700965.926 7  -4803121.633 7  -3734081.59848  20700964.09448
  22499568.824 6    187519.848 6    142446.97747  22499572.31347
 18  5 30  0 51 19.9960000  0 10G03G14G16G22G23G26G27G29G31G32       0.000258091
  22882836.199 5  -4633348.340 5  -3596294.43047  22882839.86747
  20066687.840 6  -2742600.395 6  -2127734.73048  20066686.93048
  19439417.543 7  -6793449.816 7  -5269634.20748  19439415.07048
  22956442.934 4  -3511400.797 4  -2726836.25846  22956438.48146
  22363214.254 5 -12319446.316 5  -9531063.66446  22363210.82846
  19898405.613 7  -3884277.512 7  -3014818.73448  19898406.82048
  20651251.129 6 -12574899.500 6  -9755408.37548  20651251.67648
  23396405.027 4   -776714.277 4   -604060.95346  23396405.57046
  20698373.066 7  -4816743.617 7  -3744696.14548  20698371.85948
  22499588.863 6    187625.559 6    142529.32047  22499592.57447
 18  5 30  0 51 24.9960000  0 10G03G14G16G22G23G26G27G29G31G32       0.000247047
  22880543.059 6  -4645402.648 6  -3605687.41447  22880545.91447
  20065500.215 6  -2748841.676 6  -2132598.07048  20065498.98448
  19436121.770 7  -6810769.410 7  -5283129.99648  19436119.27348
  22954554.035 5  -3521330.664 5  -2734573.81646  22954549.42246
  22356938.848 5 -12352425.461 5  -9556761.70346  22356934.75446
  19896386.184 7  -3894887.227 7  -3023086.05548  19896387.83248
  20644916.129 6 -12608188.813 6  -9781348.10248  20644917.16848
  23396042.387 4   -778618.766 4   -605544.96146  23396043.60646
  20695781.465 7  -4830366.273 7  -3755311.19948  20695779.70748
  22499609.246 6    187731.316 6    142611.71547  22499612.65647
 18  5 30  0 51 29.9960000  0 10G03G14G16G22G23G26G27G29G31G32       0.000235998
  22878249.606 5  -4657453.688 5  -3615077.82847  22878252.37547
  20064314.535 6  -2755076.043 6  -2137456.02348  20064312.70348
  19432826.441 7  -6828084.387 7  -5296622.18448  19432824.33648
  22952663.035 5  -3531262.199 5  -2742312.66847  22952659.19147
  22350663.051 5 -12385403.602 5  -9582458.94946  22350659.02046
  19894367.324 7  -3905497.477 7  -3031353.77748  19894369.17648
  20638582.082 6 -12641474.984 6  -9807285.37948  20638583.43448
  23395679.887 4   -780521.324 4   -607027.48846  23395681.22346
  20693188.934 7  -4843990.309 7  -3765927.33248  20693187.00048
  22499629.551 6    187836.344 6    142693.53147  22499632.53547
 18  5 30  0 51 34.9960000  0 10G03G14G16G22G23G26G27G29G31G32       0.000224947
  22875957.074 6  -4669500.875 6  -3624465.25047  22875959.62147
  20063128.926 6  -2761302.879 6  -2142308.10548  20063127.75848
  19429532.621 6  -6845394.191 6  -5310110.34448  19429530.42648
  22950772.957 5  -3541194.836 5  -2750052.37946  22950769.87146
  22344387.512 5 -12418380.141 5  -9608154.93846  22344384.16846
  19892348.238 7  -3916107.684 7  -3039621.46948  19892349.75448
  20632248.809 6 -12674757.406 6  -9833219.73048  20632250.73148
  23395318.902 3   -782421.387 3   -608508.05146  23395319.74646
  20690596.059 7  -4857615.129 7  -3776544.08248  20690594.63348
  22499649.191 6    187941.238 6    142775.24647  22499652.66047
 18  5 30  0 51 39.9960000  0 10G03G14G16G22G23G26G27G29G31G32       0.000213892
  22873665.168 6  -4681544.398 6  -3633849.81647  22873668.14547
  20061945.754 6  -2767522.395 6  -2147154.48448  20061944.71148
  19426239.918 6  -6862698.984 6  -5323594.59848  19426237.35248
  22948881.941 5  -3551128.754 5  -2757793.10947  22948879.77747
  22338112.629 5 -12451355.316 5  -9633849.89546  22338108.89146
  19890328.871 7  -3926718.043 7  -3047889.28948  19890330.76648
  20625915.949 6 -12708036.266 6  -9859151.30948  20625917.30548
  23394958.059 3   -784319.215 3   -609986.89546  23394958.58646
  20688002.988 7  -4871240.941 7  -3787161.60548  20688001.80548
  22499669.340 6    188045.801 6    142856.69547  22499672.87547
 18  5 30  0 51 44.9960000  0 10G03G14G16G22G23G26G27G29G31G32       0.000202835
  22871374.629 6  -4693583.879 6  -3643231.24647  22871377.26247
  20060763.949 6  -2773734.223 6  -2151994.88348  20060762.42248
  19422947.816 6  -6879998.391 6  -5337074.64848  19422945.04748
  22946991.262 5  -3561063.613 5  -2765534.54746  22946989.10946
  22331838.145 5 -12484328.648 5  -9659543.38346  22331834.25846
  19888309.785 7  -3937328.125 7  -3056156.90248  19888311.35248
  20619584.145 6 -12741311.160 6  -9885079.79348  20619585.62548
  23394597.715 3   -786214.340 3   -611463.64846  23394598.34046
  20685410.160 6  -4884867.297 6  -3797779.54748  20685409.04348
  22499688.988 6    188150.340 6    142938.12947  22499692.44147
 18  5 30  0 51 49.9960000  0 10G03G14G16G22G23G26G27G29G31G32       0.000191774
  22869083.832 6  -4705619.461 6  -3652609.64147  22869086.91447
  20059583.402 6  -2779938.469 6  -2156829.35948  20059582.06648
  19419656.582 6  -6897292.508 6  -5350550.59048  19419654.30148
  22945100.395 5  -3570999.500 5  -2773276.80546  22945098.11746
  22325563.863 5 -12517300.289 5  -9685235.58246  22325559.92646
  19886290.996 7  -3947938.121 7  -3064424.43048  19886292.96948
  20613252.652 6 -12774582.148 6  -9911005.23848  20613254.02748
  23394237.535 2   -788106.926 2   -612938.41446  23394238.15246
  20682817.027 7  -4898494.309 7  -3808398.00048  20682815.25848
  22499708.957 6    188254.797 6    143019.50047  22499712.23847
 18  5 30  0 51 54.9960000  0 10G03G14G16G22G23G26G27G29G31G32       0.000180710
  22866794.231 5  -4717651.023 5  -3661984.89547  22866797.34047
  20058404.020 6  -2786135.031 6  -2161657.85248  20058403.03148
  19416367.277 6  -6914581.262 6  -5364022.34848  19416364.34448
  22943209.027 4  -3580936.336 4  -2781019.80946  22943206.75846
  22319289.746 5 -12550270.117 5  -9710926.37546  22319285.64846
  19884272.160 7  -3958547.910 7  -3072691.80548  19884273.69148
  20606922.191 6 -12807849.156 6  -9936927.58248  20606923.58648
  23393876.824 2   -789996.816 2   -614411.09046  23393878.31646
  20680223.770 7  -4912121.957 7  -3819016.95348  20680222.36348
  22499729.074 6    188359.270 6    143100.88347  22499732.08247
 18  5 30  0 51 59.9960000  0 10G03G14G16G22G23G26G27G29G31G32       0.000169643
  22864505.785 5  -4729678.785 5  -3671357.18447  22864508.38747
  20057226.309 7  -2792324.063 7  -2166480.48048  20057225.44548
  19413077.770 6  -6931864.824 6  -5377490.05548  19413075.48148
  22941319.395 3  -3590874.359 3  -2788763.73446  22941315.02046
  22313016.270 5 -12583238.285 5  -9736615.85546  22313012.29746
  19882252.988 7  -3969157.637 7  -3080959.10948  19882254.77348
  20600592.746 6 -12841112.363 6  -9962846.96548  20600593.94548
  23393517.207 2   -791884.363 2   -615881.89546  23393518.93846
  20677630.410 7  -4925750.359 7  -3829636.50448  20677628.96948
  22499748.527 6    188463.539 6    143182.10947  22499751.57047
 18  5 30  0 52  4.9960000  0 10G03G14G16G22G23G26G27G29G31G32       0.000158573
  22862218.035 5  -4741702.561 5  -3680726.37547  22862220.27347
  20056050.301 6  -2798505.449 6  -2171297.14848  20056049.23448
  19409789.863 6  -6949143.070 6  -5390953.63348  19409787.55948
  22939429.184 3  -3600813.387 3  -2796508.44946  22939423.46946
  22306743.004 5 -12616204.590 5  -9762303.88746  22306739.39846
  19880233.934 7  -3979767.168 7  -3089226.28148  19880236.07048
  20594263.496 6 -12874371.543 6  -9988763.20748  20594265.07848
  23393159.066 2   -793769.305 2   -617350.70746  23393160.62546
  20675037.012 7  -4939379.355 7  -3840256.52048  20675035.34048
  22499768.770 6    188567.770 6    143263.30547  22499772.00847
 18  5 30  0 52  9.9960000  0 10G03G14G16G22G23G26G27G29G31G32       0.000147501
  22859929.981 5  -4753722.848 5  -3690092.83647  22859932.53147
  20054875.215 6  -2804679.613 6  -2176108.18448  20054874.19948
  19406503.191 6  -6966416.387 6  -5404413.35948  19406500.87148
  22937537.684 3  -3610753.730 3  -2804254.19546  22937531.62146
  22300469.793 5 -12649169.508 5  -9787990.83646  22300466.42646
  19878215.043 6  -3990376.980 6  -3097493.65248  19878216.85648
  20587935.035 6 -12907627.125 6 -10014676.64148  20587936.52748
  23392801.543 2   -795652.172 2   -618817.85946  23392801.99246
  20672443.371 7  -4953009.410 7  -3850877.34048  20672441.36748
  22499788.606 6    188671.520 6    143344.11347  22499791.54347
 18  5 30  0 52 14.9960000  0 10G03G14G16G22G23G26G27G29G31G32       0.000136423
  22857644.566 5  -4765739.152 5  -3699456.19947  22857646.07447
  20053701.481 6  -2810846.145 6  -2180913.28148  20053700.75448
  19403216.824 6  -6983684.344 6  -5417868.91448  19403214.50848
  22935645.285 4  -3620695.281 4  -2812000.84046  22935639.57446
  22294197.613 5 -12682132.547 5  -9813676.32847  22294194.21547
  19876196.465 7  -4000986.617 7  -3105760.89148  19876197.93048
  20581607.715 6 -12940878.668 6 -10040586.93048  20581609.15648
  23392442.707 2   -797532.391 2   -620282.98445  23392444.36745
  20669849.160 7  -4966639.996 7  -3861498.57048  20669847.58648
  22499808.231 6    188775.238 6    143424.90247  22499810.94947
 18  5 30  0 52 19.9960000  0 10G03G14G16G22G23G26G27G29G31G32       0.000125343
  22855358.348 6  -4777751.512 6  -3708816.49647  22855360.08247
  20052529.754 6  -2817005.027 6  -2185712.42248  20052528.66448
  19399931.824 6  -7000946.984 6  -5431320.32048  19399929.40648
  22933752.559 5  -3630637.770 5  -2819748.24246  22933748.00446
  22287924.699 5 -12715093.660 5  -9839360.32046  22287921.82846
  19874177.160 7  -4011596.066 7  -3114027.99648  19874178.80948
  20575281.090 6 -12974126.141 6 -10066494.04748  20575282.19948
  23392085.441 1   -799409.969 1   -621746.02346  23392086.73146
  20667255.043 7  -4980271.160 7  -3872120.26648  20667253.53148
  22499828.098 6    188878.891 6    143505.65247  22499830.60247
 18  5 30  0 52 24.9960000  0 10G03G14G16G22G23G26G27G29G31G32       0.000114262
  22853073.512 6  -4789759.523 6  -3718173.41047  22853075.17647
  20051359.051 6  -2823155.840 6  -2190505.26248  20051358.02048
  19396648.191 6  -7018203.879 6  -5444767.25448  19396646.18848
  22931859.199 5  -3640580.953 5  -2827496.17646  22931855.80546
  22281653.746 5 -12748052.461 5  -9865042.51246  22281650.33646
  19872158.449 7  -4022204.949 7  -3122294.66048  19872160.09048
  20568954.918 6 -13007369.125 6 -10092397.67248  20568956.16448
  23391728.668 2   -801284.805 2   -623206.95746  23391730.38346
  20664661.426 7  -4993902.457 7  -3882742.04748  20664659.73848
  22499847.676 6    188982.871 6    143586.65247  22499850.19947
 18  5 30  0 52 29.9960000  0 10G03G14G16G22G23G26G27G29G31G32       0.000103176
  22850789.199 6  -4801763.969 6  -3727527.53147  22850791.19947
  20050189.668 6  -2829299.352 6  -2195292.42648  20050188.89548
  19393365.348 6  -7035455.801 6  -5458210.32048  19393362.86748
  22929967.652 5  -3650525.535 5  -2835245.18846  22929964.30546
  22275381.816 5 -12781009.707 5  -9890723.47746  22275379.05146
  19870139.684 7  -4032814.078 7  -3130561.52748  19870141.27348
  20562629.356 6 -13040608.398 6 -10118298.39548  20562631.09048
  23391372.652 2   -803157.234 2   -624666.02745  23391373.94945
  20662066.996 7  -5007534.672 7  -3893364.54748  20662065.25448
  22499867.731 6    189086.387 6    143667.29347  22499870.19147
 18  5 30  0 52 34.9960000  0  9G03G14G16G22G23G26G27G31G32          0.000092087
  22848505.004 6  -4813763.859 6  -3736878.09847  22848507.70747
  20049022.606 6  -2835434.633 6  -2200073.17648  20049021.57848
  19390083.621 6  -7052701.738 6  -5471648.71948  19390081.21948
  22928074.465 5  -3660470.469 5  -2842994.49246  22928071.91046
  22269110.301 5 -12813964.359 5  -9916402.42246  22269107.98846
  19868121.270 7  -4043422.410 7  -3138827.77748  19868123.09048
  20556305.574 6 -13073842.926 6 -10144195.42248  20556306.60648
  20659472.988 7  -5021166.832 7  -3903987.01648  20659471.15648
  22499887.285 6    189190.473 6    143748.37547  22499889.82447
 18  5 30  0 52 39.9960000  0  9G03G14G16G22G23G26G27G31G32          0.000080996
  22846222.621 6  -4825759.688 6  -3746225.50047  22846224.48447
  20047856.215 6  -2841562.063 6  -2204847.80148  20047855.23848
  19386803.176 6  -7069942.180 6  -5485082.82848  19386800.60248
  22926181.848 5  -3670416.301 5  -2850744.50446  22926179.41046
  22262839.746 5 -12846916.895 5  -9942079.71147  22262837.59847
  19866102.316 7  -4054030.402 7  -3147093.74648  19866104.18848
  20549981.988 6 -13107073.145 6 -10170089.09848  20549983.18448
  20656878.910 6  -5034799.320 6  -3914609.74248  20656876.98148
  22499907.027 6    189294.648 6    143829.53147  22499909.95347
 18  5 30  0 52 44.9960000  0  9G03G14G16G22G23G26G27G31G32          0.000069902
  22843940.676 5  -4837751.430 5  -3755569.71147  22843942.28147
  20046691.949 6  -2847681.715 6  -2209616.36748  20046690.82848
  19383522.598 6  -7087177.168 6  -5498512.69548  19383520.84848
  22924288.832 5  -3680363.008 5  -2858495.18046  22924286.06346
  22256569.496 5 -12879867.289 5  -9967755.32047  22256567.18847
  19864084.035 7  -4064638.121 7  -3155359.52048  19864085.50048
  20543658.949 6 -13140299.059 6 -10195979.41448  20543660.56648
  20654284.762 7  -5048432.188 7  -3925232.75848  20654282.57448
  22499927.309 6    189398.859 6    143910.70747  22499929.57047
 18  5 30  0 52 49.9960000  0  9G03G14G16G22G23G26G27G31G32          0.000058805
  22841659.621 5  -4849739.203 5  -3764910.83647  22841660.67247
  20045528.871 6  -2853793.703 6  -2214378.96948  20045527.83648
  19380244.457 6  -7104406.797 6  -5511938.37948  19380242.10648
  22922395.731 4  -3690310.715 4  -2866246.64546  22922393.55546
  22250299.871 5 -12912815.676 5  -9993429.38747  22250297.34847
  19862065.277 7  -4075245.605 7  -3163625.08248  19862067.49248
  20537337.363 6 -13173520.730 6 -10221866.43048  20537338.58248
  20651690.387 6  -5062065.508 6  -3935856.12148  20651688.48848
  22499947.160 6    189503.027 6    143991.85247  22499949.66047
 18  5 30  0 52 54.9960000  0  9G03G14G16G22G23G26G27G31G32          0.000047705
  22839378.856 6  -4861722.746 6  -3774248.66447  22839380.52347
  20044367.668 6  -2859897.754 6  -2219135.37548  20044366.29748
  19376966.559 6  -7121630.781 6  -5525359.66848  19376964.37548
  22920503.395 3  -3700259.180 3  -2873998.70746  22920500.30946
  22244030.637 5 -12945761.680 5 -10019101.59047  22244028.25047
  19860046.934 7  -4085852.602 7  -3171890.26248  19860048.70748
  20531016.043 6 -13206737.918 6 -10247749.94548  20531017.39548
  20649095.973 7  -5075699.012 7  -3946479.62948  20649094.08248
  22499966.910 6    189607.410 6    144073.16847  22499969.83247
 18  5 30  0 52 59.9960000  0  9G03G14G16G22G23G26G27G31G32          0.000036602
  22837099.895 5  -4873702.422 5  -3783583.48047  22837100.34847
  20043207.449 6  -2865994.188 6  -2223885.85248  20043205.82448
  19373689.777 6  -7138849.504 6  -5538776.85248  19373687.52048
  22918611.145 4  -3710208.730 4  -2881751.63746  22918606.86346
  22237761.707 6 -12978705.727 6 -10044772.28547  22237758.85247
  19858028.582 7  -4096459.496 7  -3180155.37148  19858029.98448
  20524695.832 6 -13239950.914 6 -10273630.19948  20524697.37148
  20646501.238 7  -5089333.031 7  -3957103.54748  20646499.55148
  22499986.457 6    189711.637 6    144154.35547  22499989.32847
 18  5 30  0 53  4.9960000  0  9G03G14G16G22G23G26G27G31G32          0.000025496
  22834821.035 5  -4885678.746 5  -3792915.68847  22834821.22747
  20042048.762 6  -2872083.523 6  -2228630.78948  20042046.98448
  19370414.582 7  -7156063.453 7  -5552190.32048  19370412.46548
  22916717.902 5  -3720159.914 5  -2889505.83646  22916712.77346
  22231493.113 5 -13011648.215 5 -10070441.75447  22231490.58647
  19856009.801 7  -4107066.809 7  -3188420.81648  19856011.49648
  20518376.293 6 -13273160.219 6 -10299507.58248  20518377.78148
  20643906.551 7  -5102968.043 7  -3967728.23848  20643904.75048
  22500006.606 6    189815.238 6    144235.06347  22500009.80547
 18  5 30  0 53  9.9960000  0  9G03G14G16G22G23G26G27G31G32          0.000014387
  22832542.785 5  -4897650.207 5  -3802244.09847  22832543.29747
  20040891.606 6  -2878164.297 6  -2233369.05548  20040890.11348
  19367140.332 6  -7173271.094 6  -5565598.86748  19367137.98148
  22914823.629 5  -3730111.266 5  -2897260.14546  22914819.24246
  22225224.824 6 -13044587.734 6 -10096108.91847  22225222.14547
  19853991.629 7  -4117672.992 7  -3196685.37148  19853993.41848
  20512057.871 6 -13306364.332 6 -10325380.90248  20512059.38748
  20641312.441 7  -5116602.578 7  -3978352.55148  20641310.73848
  22500026.168 6    189919.660 6    144316.40647  22500029.09447
 18  5 30  0 53 14.9960000  0  9G03G14G16G22G23G26G27G31G32          0.000003275
  22830265.020 5  -4909617.969 5  -3811569.61747  22830266.40647
  20039735.777 6  -2884237.605 6  -2238101.50848  20039734.07448
  19363866.676 6  -7190473.598 6  -5579003.41448  19363864.34448
  22912929.356 5  -3740063.875 5  -2905015.42246  22912925.48146
  22218957.356 6 -13077525.336 6 -10121774.57847  22218954.24647
  19851973.473 7  -4128279.203 7  -3204949.94948  19851974.94948
  20505740.254 6 -13339564.305 6 -10351251.00448  20505741.31348
  20638717.785 7  -5130237.742 7  -3988977.35248  20638715.90648
  22500045.996 6    190023.805 6    144397.53947  22500049.55147
 18  5 30  0 53 19.9960000  0  9G03G14G16G22G23G26G27G31G32         -0.000007839
  22827988.746 5  -4921581.582 5  -3820891.91847  22827990.00447
  20038581.637 6  -2890303.043 6  -2242827.83248  20038580.15248
  19360593.879 6  -7207670.543 6  -5592403.63348  19360591.96948
  22911035.082 5  -3750017.340 5  -2912771.35246  22911031.71546
  22212690.121 6 -13110460.504 6 -10147438.33646  22212687.12146
  19849955.137 7  -4138885.063 7  -3213214.26248  19849956.48448
  20499423.277 6 -13372759.738 6 -10377117.56648  20499424.37148
  20636123.168 7  -5143873.105 7  -3999602.30548  20636120.98148
  22500066.324 6    190128.063 6    144478.74247  22500069.23847
 18  5 30  0 53 24.9960000  0  9G03G14G16G22G23G26G27G31G32         -0.000018957
  22825713.363 5  -4933540.230 5  -3830210.35247  22825714.60947
  20037428.645 6  -2896359.805 6  -2247547.38348  20037427.74248
  19357323.340 6  -7224861.070 6  -5605798.84848  19357320.83648
  22909139.910 5  -3759970.848 5  -2920527.31646  22909137.09046
  22206422.527 5 -13143392.477 5 -10173099.61347  22206420.08247
  19847937.332 7  -4149489.684 7  -3221477.62548  19847939.19948
  20493107.738 6 -13405949.762 6 -10402979.91848  20493108.57048
  20633528.410 7  -5157507.789 7  -4010226.73848  20633526.33648
  22500085.941 6    190233.293 6    144560.72747  22500089.20347
 18  5 30  0 53 29.9960000  0  9G03G14G16G22G23G26G27G31G32         -0.000030077
  22823438.293 5  -4945494.559 5  -3839525.40247  22823440.38347
  20036277.816 6  -2902408.488 6  -2252260.64548  20036276.42648
  19354052.371 6  -7242045.836 6  -5619189.57448  19354050.45748
  22907246.340 5  -3769924.957 5  -2928283.75846  22907243.21146
  22200156.621 5 -13176321.871 5 -10198758.87547  22200153.85947
  19845919.238 7  -4160093.699 7  -3229740.50048  19845921.05548
  20486792.691 6 -13439135.012 6 -10428838.55148  20486793.72748
  20630933.871 7  -5171142.426 7  -4020851.13748  20630932.34448
  22500105.949 6    190338.805 6    144642.92247  22500109.57047
 18  5 30  0 53 34.9960000  0  9G03G14G16G22G23G26G27G31G32         -0.000041199
  22821163.926 5  -4957445.086 5  -3848837.50447  22821166.36347
  20035128.746 7  -2908449.617 7  -2256968.03548  20035127.33248
  19350783.324 6  -7259225.340 6  -5632576.21148  19350781.13348
  22905351.356 5  -3779880.266 5  -2936041.14546  22905348.75446
  22193890.418 5 -13209249.195 5 -10224416.53946  22193887.84046
  19843901.582 7  -4170697.660 7  -3238003.32848  19843903.01248
  20480477.590 6 -13472315.961 6 -10454693.84048  20480479.47348
  20628339.285 7  -5184777.602 7  -4031475.95748  20628337.52748
  22500126.020 6    190444.145 6    144724.98447  22500129.32447
 18  5 30  0 53 39.9960000  0  9G03G14G16G22G23G26G27G31G32         -0.000052326
  22818890.199 5  -4969391.270 5  -3858146.23047  22818893.21547
  20033980.566 6  -2914482.660 6  -2261669.11348  20033978.98848
  19347515.504 6  -7276399.063 6  -5645958.34048  19347513.23448
  22903456.910 5  -3789836.191 5  -2943799.02046  22903454.59846
  22187625.043 5 -13242173.836 5 -10250072.11747  22187622.15647
  19841883.777 7  -4181300.984 7  -3246265.65648  19841885.38748
  20474164.949 6 -13505492.074 6 -10480545.35948  20474166.27748
  20625744.363 7  -5198412.688 7  -4042100.70748  20625742.80548
  22500146.082 6    190549.789 6    144807.27347  22500149.69547
 18  5 30  0 53 44.9960000  0  9G03G14G16G22G23G26G27G31G32         -0.000063454
  22816618.356 5  -4981332.605 5  -3867451.15647  22816620.44947
  20032833.910 6  -2920507.070 6  -2266363.46548  20032832.77348
  19344248.551 7  -7293566.469 7  -5659335.53548  19344246.30148
  22901562.379 5  -3799792.164 5  -2951556.95746  22901560.01646
  22181360.496 5 -13275095.258 5 -10275725.16447  22181357.57847
  19839866.254 7  -4191903.176 7  -3254527.11348  19839868.23448
  20467853.113 6 -13538662.770 6 -10506392.65648  20467854.16448
  20623150.098 7  -5212047.125 7  -4052724.95348  20623148.26248
  22500166.379 6    190656.309 6    144890.25847  22500170.15247
 18  5 30  0 53 49.9960000  0  9G03G14G16G22G23G26G27G31G32         -0.000074585
  22814346.418 6  -4993270.867 6  -3876753.69147  22814348.68847
  20031688.816 6  -2926524.656 6  -2271052.50848  20031687.85648
  19340982.691 6  -7310729.371 6  -5672709.23048  19340980.54348
  22899668.340 5  -3809750.121 5  -2959316.42246  22899664.97746
  22175096.254 6 -13308015.273 6 -10301377.12147  22175093.25047
  19837848.637 7  -4202506.039 7  -3262789.07048  19837850.23848
  20461541.871 6 -13571829.852 6 -10532237.13348  20461542.52348
  20620554.832 7  -5225682.762 7  -4063350.13748  20620553.26648
  22500186.699 6    190761.879 6    144972.49247  22500190.43447
 18  5 30  0 53 54.9960000  0  9G03G14G16G22G23G26G27G31G32         -0.000085720
  22812075.762 5  -5005204.934 5  -3886052.97747  22812077.78947
  20030545.043 6  -2932534.313 6  -2275735.36348  20030544.39148
  19337717.637 6  -7327886.629 6  -5686078.52348  19337715.17648
  22897773.613 5  -3819708.906 5  -2967076.54346  22897769.98146
  22168832.270 6 -13340932.656 6 -10327027.02047  22168829.66447
  19835831.043 7  -4213108.418 7  -3271050.65248  19835832.64148
  20455231.082 6 -13604992.160 6 -10558077.89548  20455232.37948
  20617960.488 7  -5239318.410 7  -4073975.32048  20617958.71148
  22500206.981 6    190867.570 6    145054.82847  22500210.80547
 18  5 30  0 53 59.9960000  0  9G03G14G16G22G23G26G27G31G32         -0.000096857
  22809805.152 5  -5017135.383 5  -3895349.43447  22809807.77047
  20029403.106 6  -2938536.574 6  -2280412.44548  20029401.94148
  19334453.707 6  -7345038.770 6  -5699443.82048  19334451.55548
  22895878.129 5  -3829669.129 5  -2974837.77046  22895874.72346
  22162568.293 6 -13373848.012 6 -10352675.34447  22162565.74647
  19833813.191 7  -4223710.902 7  -3279312.31648  19833814.92248
  20448920.762 6 -13638150.238 6 -10583915.35548  20448922.54348
  20615365.481 7  -5252954.621 7  -4084600.93448  20615363.73148
  22500227.066 6    190972.930 6    145136.89147  22500230.45347
 18  5 30  0 54  4.9960000  0  9G03G14G16G22G23G26G27G31G32         -0.000107996
  22807535.293 5  -5029060.813 5  -3904641.98447  22807538.08647
  20028262.707 6  -2944530.004 6  -2285082.66448  20028261.30948
  19331191.020 6  -7362184.434 6  -5712804.08248  19331188.95748
  22893982.566 6  -3839629.273 6  -2982598.91446  22893979.58246
  22156305.996 6 -13406759.863 6 -10378320.92247  22156302.81647
  19831795.738 7  -4234312.090 7  -3287572.98048  19831797.38348
  20442612.418 6 -13671302.637 6 -10609748.39848  20442613.85948
  20612770.762 7  -5266590.008 7  -4095225.91048  20612769.06348
  22500246.965 6    191079.262 6    145219.73447  22500251.15247
 18  5 30  0 54  9.9960000  0  9G03G14G16G22G23G26G27G31G32         -0.000119139
  22805267.074 6  -5040981.535 6  -3913930.86347  22805269.63747
  20027124.090 6  -2950515.039 6  -2289746.33648  20027122.55548
  19327929.207 6  -7379323.965 6  -5726159.55548  19327927.39848
  22892087.387 6  -3849589.723 6  -2990360.29747  22892084.23147
  22150044.262 6 -13439668.598 6 -10403964.09047  22150040.81647
  19829778.559 7  -4244912.316 7  -3295832.89548  19829780.24248
  20436304.762 6 -13704449.730 6 -10635577.29348  20436306.52748
  20610176.285 7  -5280224.875 7  -4105850.47748  20610174.43848
  22500267.535 6    191186.254 6    145303.08247  22500271.02347
 18  5 30  0 54 14.9960000  0  9G03G14G16G22G23G26G27G31G32         -0.000130281
  22802999.348 6  -5052897.414 6  -3923215.96547  22803002.17247
  20025986.606 7  -2956491.348 7  -2294403.19548  20025985.44148
  19324668.621 6  -7396457.152 6  -5739510.09048  19324667.29348
  22890190.731 6  -3859550.305 6  -2998121.79746  22890188.39546
  22143781.973 6 -13472573.965 6 -10429604.62947  22143779.13747
  19827762.074 7  -4255511.379 7  -3304091.90648  19827763.39148
  20429997.777 6 -13737591.250 6 -10661401.85548  20429999.58248
  20607581.676 7  -5293859.016 7  -4116474.48848  20607579.83248
  22500287.871 6    191294.125 6    145387.10947  22500292.03147
 18  5 30  0 54 19.9960000  0  9G03G14G16G22G23G26G27G31G32         -0.000141430
  22800732.863 5  -5064808.906 5  -3932497.64147  22800735.34047
  20024851.074 7  -2962459.563 7  -2299053.77048  20024849.36348
  19321409.551 6  -7413584.508 6  -5752856.08648  19321407.66048
  22888295.637 6  -3869511.473 6  -3005883.75446  22888293.00046
  22137520.645 6 -13505476.465 6 -10455242.94147  22137517.61347
  19825744.981 7  -4266109.777 7  -3312350.40648  19825746.28548
  20423692.363 6 -13770727.668 6 -10687222.43848  20423694.11748
  20604987.043 7  -5307492.945 7  -4127098.32448  20604985.32848
  22500309.098 6    191402.371 6    145471.43447  22500312.62547
 18  5 30  0 54 24.9960000  0  9G03G14G16G22G23G26G27G31G32         -0.000152580
  22798466.957 5  -5076716.023 5  -3941775.91847  22798469.36347
  20023716.559 6  -2968419.629 6  -2303697.97348  20023715.51248
  19318151.504 6  -7430706.012 6  -5766197.52048  19318149.54748
  22886398.793 5  -3879473.223 5  -3013646.14846  22886397.08646
  22131260.121 6 -13538376.082 6 -10480878.98847  22131257.03547
  19823728.113 7  -4276707.496 7  -3320608.36348  19823729.78948
  20417387.168 6 -13803858.996 6 -10713039.05948  20417389.37948
  20602392.660 7  -5321126.594 7  -4137721.94548  20602390.94548
  22500329.309 6    191510.938 6    145556.00847  22500332.37147
