     2.10           OBSERVATION DATA    GPS(GPS)            RINEX VERSION / TYPE
cnvtToRINEX 3.07.0  convertToRINEX OPR  19-May-20 12:29 UTC PGM / RUN BY / DATE 
----------------------------------------------------------- COMMENT             
GBA0                                                        MARKER NAME         
GBA0                                                        MARKER NUMBER       
GNSS Observer       Trimble                                 OBSERVER / AGENCY   
0220247377          5700                2.32                REC # / TYPE / VERS 
                    UNKNOWN EXT                             ANT # / TYPE        
 -3051022.4671  4927492.4448  2654155.8921                  APPROX POSITION XYZ 
        0.0000        0.0000        0.0000                  ANTENNA: DELTA H/E/N
     1     1     0                                          WAVELENGTH FACT L1/2
     4    C1    L1    L2    P2                              # / TYPES OF OBSERV 
  2020     5    16     5     7   51.0000000     GPS         TIME OF FIRST OBS   
  2020     5    16     6    21   11.0000000     GPS         TIME OF LAST OBS    
     0                                                      RCV CLOCK OFFS APPL 
    18                                                      LEAP SECONDS        
     9                                                      # OF SATELLITES     
   G01  4401  4401  4401  4401                              PRN / # OF OBS      
   G03  4372  4372  4372  4372                              PRN / # OF OBS      
   G07  3323  3192  3082  3082                              PRN / # OF OBS      
   G08  3921  3825  3575  3575                              PRN / # OF OBS      
   G11  4401  4401  4401  4401                              PRN / # OF OBS      
   G17  4401  4401  4401  4401                              PRN / # OF OBS      
   G22  4401  4401  4401  4401                              PRN / # OF OBS      
   G28  4401  4401  4401  4401                              PRN / # OF OBS      
   G30  4372  4372  4372  4372                              PRN / # OF OBS      
CARRIER PHASE MEASUREMENTS: PHASE SHIFTS REMOVED            COMMENT             
                                                            END OF HEADER       
 20  5 16  5  7 51.0000000  0  7G01G07G08G11G17G22G28               -0.000052029
  20072461.63317    -69764.94117    -34986.62959  20072462.49259
  20820069.94516    -49148.93816    -13305.18859  20820068.75059
  22904204.02316    -24883.35916     -9676.39159  22904206.48459
  20982843.21917    -32486.75417     -8587.79758  20982840.04358
  24162565.05514    -73091.91014     -4286.15058  24162565.48458
  22737759.07016    -85914.35916    -26535.42258  22737756.06658
  23873845.19515    -87752.73815     -1992.86357  23873843.68457
 20  5 16  5  7 52.0000000  0  7G01G07G08G11G17G22G28               -0.000054573
  20071759.477 7    -73455.344 7    -37862.27349  20071760.57049
  20819471.641 6    -52293.789 6    -15755.74249  20819470.73849
  22903799.086 6    -27011.766 6    -11334.88749  22903801.45749
  20982436.906 7    -34622.883 7    -10252.29348  20982433.28948
  24161518.477 4    -78594.281 4     -8573.71948  24161518.40648
  22736682.273 6    -91574.316 6    -30945.77748  22736678.75448
  23872608.453 5    -94250.441 5     -7056.02047  23872607.14147
 20  5 16  5  7 53.0000000  0  7G01G07G08G11G17G22G28               -0.000057119
  20071056.844 7    -77147.223 7    -40739.05949  20071057.79749
  20818872.836 6    -55440.164 6    -18207.46949  20818871.10949
  22903393.141 5    -29142.332 5    -12995.07449  22903396.00449
  20982029.922 7    -36760.848 7    -11918.24248  20982026.59848
  24160470.500 4    -84098.617 4    -12862.80948  24160470.82448
  22735604.781 6    -97236.121 6    -35357.57848  22735601.44548
  23871371.656 5   -100750.402 5    -12120.92246  23871370.07046
 20  5 16  5  7 54.0000000  0  7G01G07G08G11G17G22G28               -0.000059668
  20070353.883 7    -80840.602 7    -43617.02049  20070354.90649
  20818274.375 6    -58588.043 6    -20660.35949  20818272.75049
  22902987.633 5    -31275.070 5    -14656.95349  22902990.19549
  20981622.305 7    -38900.676 7    -13585.64548  20981619.20748
  24159422.852 4    -89604.953 4    -17153.45748  24159423.50848
  22734526.859 6   -102899.707 6    -39770.75848  22734523.84048
  23870134.281 5   -107252.578 5    -17187.55547  23870133.36347
 20  5 16  5  7 55.0000000  0  7G01G07G08G11G17G22G28               -0.000062216
  20069650.922 7    -84535.582 7    -46496.22349  20069651.67649
  20817674.461 6    -61737.598 6    -23114.55949  20817673.25849
  22902581.086 5    -33410.184 5    -16320.67649  22902584.00849
  20981215.414 7    -41042.504 7    -15254.60548  20981212.09448
  24158374.195 4    -95113.441 4    -21445.78548  24158374.98848
  22733448.594 6   -108565.281 6    -44185.49248  22733445.66848
  23868896.859 5   -113757.129 5    -22256.03347  23868895.72347
 20  5 16  5  7 56.0000000  0  7G01G07G08G11G17G22G28               -0.000064766
  20068947.406 7    -88232.047 7    -49376.59049  20068948.48849
  20817074.977 7    -64888.672 7    -25569.93449  20817073.72749
  22902174.961 5    -35547.488 5    -17986.11349  22902176.75049
  20980807.188 6    -43186.168 6    -16925.00448  20980804.00848
  24157325.961 4   -100623.984 4    -25739.71148  24157326.16048
  22732370.227 6   -114232.652 6    -48601.63348  22732366.98048
  23867658.758 5   -120263.973 5    -27326.30947  23867657.56647
 20  5 16  5  7 57.0000000  0  7G01G07G08G11G17G22G28               -0.000067320
  20068243.719 7    -91929.941 7    -52258.06649  20068245.07049
  20816474.953 7    -68041.207 7    -28026.46149  20816473.43449
  22901767.141 5    -37686.906 5    -19653.18849  22901769.68849
  20980398.906 7    -45331.621 7    -18596.78548  20980395.71148
  24156277.109 4   -106136.449 4    -30035.14148  24156277.38748
  22731291.039 6   -119901.816 6    -53019.17648  22731288.25448
  23866419.148 4   -126773.012 4    -32398.28546  23866418.57846
 20  5 16  5  7 58.0000000  0  7G01G07G08G11G17G22G28               -0.000069872
  20067539.891 7    -95629.137 7    -55140.55149  20067540.95749
  20815874.977 7    -71195.105 7    -30484.04349  20815873.20749
  22901359.820 5    -39828.391 5    -21321.87149  22901362.02049
  20979990.438 6    -47478.754 6    -20269.87548  20979987.16448
  24155228.070 4   -111650.762 4    -34332.00848  24155227.69148
  22730211.805 6   -125572.609 6    -57437.97748  22730209.35248
  23865180.336 4   -133284.094 4    -37471.84847  23865179.39147
 20  5 16  5  7 59.0000000  0  7G01G07G08G11G17G22G28               -0.000072426
  20066835.742 7    -99329.492 7    -58023.94549  20066836.49249
  20815274.500 7    -74350.219 7    -32942.57049  20815272.76249
  22900952.734 5    -41971.703 5    -22991.99649  22900954.61749
  20979581.258 6    -49627.426 6    -21944.16848  20979578.67648
  24154177.906 4   -117166.797 4    -38630.22348  24154178.15248
  22729132.898 6   -131244.914 6    -61857.95347  22729129.81347
  23863941.016 5   -139797.090 5    -42546.91446  23863940.47746
 20  5 16  5  8  0.0000000  0  7G01G07G08G11G17G22G28               -0.000074982
  20066131.227 7   -103030.938 7    -60908.19549  20066132.17649
  20814673.398 6    -77506.422 6    -35401.95749  20814672.14549
  22900544.195 5    -44116.820 5    -24663.51249  22900546.52749
  20979171.844 6    -51777.539 6    -23619.58248  20979169.23848
  24153128.484 4   -122684.430 4    -42929.68048  24153128.15648
  22728053.273 6   -136918.617 6    -66279.01648  22728050.35248
  23862700.969 4   -146311.953 4    -47623.41846  23862700.22746
 20  5 16  5  8  1.0000000  0  7G01G07G08G11G17G22G28               -0.000077538
  20065426.633 7   -106733.289 7    -63793.14549  20065427.77749
  20814072.703 7    -80663.570 7    -37862.07449  20814072.01249
  22900135.977 5    -46263.520 5    -26336.27049  22900137.59049
  20978762.922 6    -53928.953 6    -25296.00848  20978759.62948
  24152077.930 3   -128203.453 3    -47230.21948  24152078.23848
  22726973.219 6   -142593.543 6    -70701.03147  22726970.37147
  23861461.281 4   -152828.480 4    -52701.23846  23861460.17646
 20  5 16  5  8  2.0000000  0  7G01G07G08G11G17G22G28               -0.000080095
  20064722.320 7   -110436.441 7    -66678.71949  20064722.82449
  20813472.344 7    -83821.566 7    -40322.85249  20813470.35549
  22899726.461 5    -48411.770 5    -28010.23449  22899728.50849
  20978353.297 7    -56081.496 7    -26973.31348  20978350.27048
  24151027.469 3   -133723.871 3    -51531.84048  24151027.92648
  22725893.453 6   -148269.617 6    -75123.94547  22725890.37147
  23860220.992 5   -159346.578 5    -57780.27346  23860219.65246
 20  5 16  5  8  3.0000000  0  7G01G07G08G11G17G22G28               -0.000082653
  20064017.453 7   -114140.301 7    -69564.84449  20064018.00449
  20812870.945 7    -86980.332 7    -42784.22749  20812869.67649
  22899317.734 5    -50561.367 5    -29685.25449  22899319.78149
  20977943.711 7    -58235.145 7    -28651.48848  20977940.16448
  24149976.586 3   -139245.559 3    -55834.44548  24149976.91448
  22724813.242 6   -153946.750 6    -79547.68447  22724809.70347
  23858980.516 5   -165866.172 5    -62860.47746  23858978.81346
 20  5 16  5  8  4.0000000  0  7G01G07G08G11G17G22G28               -0.000085213
  20063312.492 7   -117844.770 7    -72451.44149  20063313.25449
  20812269.906 7    -90139.723 7    -45246.08649  20812267.93449
  22898908.039 5    -52712.348 5    -31361.34849  22898910.66449
  20977533.539 7    -60389.770 7    -30330.41848  20977530.01248
  24148925.797 4   -144768.320 4    -60137.88748  24148925.63348
  22723732.469 6   -159624.801 6    -83972.14547  22723729.28547
  23857739.664 5   -172387.098 5    -67941.73046  23857738.24246
 20  5 16  5  8  5.0000000  0  7G01G07G08G11G17G22G28               -0.000087770
  20062607.414 7   -121549.617 7    -75338.33649  20062608.27049
  20811668.781 6    -93299.566 6    -47708.30949  20811666.63349
  22898499.055 5    -54864.418 5    -33038.28549  22898500.83649
  20977123.320 7    -62545.129 7    -32009.91448  20977119.93048
  24147874.922 4   -150292.078 4    -64442.11748  24147875.13748
  22722651.797 6   -165303.586 6    -88397.18048  22722648.85548
  23856498.438 5   -178909.191 5    -73023.89146  23856497.25046
 20  5 16  5  8  6.0000000  0  7G01G07G08G11G17G22G28               -0.000090332
  20061902.305 7   -125254.777 7    -78225.48049  20061903.00049
  20811066.961 6    -96459.730 6    -50170.77349  20811065.24249
  22898089.320 5    -57017.535 5    -34716.03549  22898091.10949
  20976712.867 7    -64701.203 7    -33689.96948  20976710.20748
  24146823.203 3   -155816.621 3    -68746.95748  24146823.55148
  22721571.109 6   -170983.020 6    -92822.71147  22721568.17247
  23855257.516 5   -185432.398 5    -78106.89546  23855255.59046
 20  5 16  5  8  7.0000000  0  7G01G07G08G11G17G22G28               -0.000092892
  20061197.289 7   -128960.328 7    -81112.91849  20061197.87149
  20810465.555 6    -99620.316 6    -52633.56349  20810463.73849
  22897679.367 5    -59171.699 5    -36394.61349  22897681.24249
  20976302.680 7    -66858.012 7    -35370.60548  20976299.41448
  24145771.992 3   -161342.066 3    -73052.50048  24145772.19548
  22720490.289 6   -176663.172 6    -97248.79747  22720487.42247
  23854016.031 5   -191956.727 5    -83190.78146  23854013.98446
 20  5 16  5  8  8.0000000  0  7G01G07G08G11G17G22G28               -0.000095453
  20060492.023 7   -132665.988 7    -84000.44949  20060492.94949
  20809864.242 6   -102781.082 6    -55096.50449  20809862.32049
  22897268.680 5    -61326.738 5    -38073.87149  22897271.22749
  20975892.211 6    -69015.305 6    -37051.61348  20975889.02048
  24144720.031 3   -166868.184 3    -77358.57448  24144720.51648
  22719408.820 6   -182343.750 6   -101675.22347  22719405.93447
  23852773.898 4   -198481.914 4    -88275.33246  23852772.39846
 20  5 16  5  8  9.0000000  0  7G01G07G08G11G17G22G28               -0.000098015
  20059787.156 7   -136371.645 7    -86887.97749  20059787.89549
  20809262.789 6   -105941.883 6    -57559.46549  20809260.85549
  22896859.242 5    -63482.434 5    -39753.63349  22896860.71949
  20975481.477 6    -71172.965 6    -38732.90648  20975478.08248
  24143668.859 3   -172394.820 3    -81665.05548  24143668.88748
  22718327.961 6   -188024.680 6   -106101.91047  22718325.29347
  23851532.148 4   -205007.871 4    -93360.49646  23851530.73446
 20  5 16  5  8 10.0000000  0  7G01G07G08G11G17G22G28               -0.000100576
  20059082.047 7   -140077.141 7    -89775.37549  20059082.36749
  20808661.305 7   -109102.523 7    -60022.30149  20808659.39549
  22896448.508 5    -65638.695 5    -41433.83649  22896450.36749
  20975070.727 7    -73330.813 7    -40414.34848  20975067.41048
  24142617.906 4   -177921.840 4    -85971.82448  24142616.91848
  22717247.156 6   -193705.766 6   -110528.72747  22717244.23047
  23850290.414 4   -211534.410 4    -98446.10546  23850288.70746
 20  5 16  5  8 11.0000000  0  7G01G07G08G11G17G22G28               -0.000103140
  20058376.641 7   -143782.652 7    -92662.78949  20058377.56349
  20808059.383 7   -112263.250 7    -62485.20349  20808057.91449
  22896038.328 5    -67795.652 5    -43114.58249  22896039.80549
  20974660.172 6    -75489.074 6    -42096.10948  20974656.87148
  24141565.820 3   -183449.391 3    -90279.00848  24141565.49248
  22716165.781 6   -199387.223 6   -114955.83247  22716163.20347
  23849047.438 4   -218061.754 4   -103532.35546  23849046.48046
 20  5 16  5  8 12.0000000  0  7G01G07G08G11G17G22G28               -0.000105701
  20057671.328 7   -147488.031 7    -95550.10249  20057672.32049
  20807458.164 7   -115423.906 7    -64948.05549  20807456.12949
  22895627.578 5    -69953.199 5    -44795.78949  22895629.32849
  20974249.578 6    -77647.586 6    -43778.07048  20974246.16448
  24140513.609 4   -188977.344 4    -94586.50048  24140513.24248
  22715084.453 6   -205068.887 6   -119383.11347  22715081.73847
  23847805.922 4   -224589.742 4   -108619.10946  23847804.20346
 20  5 16  5  8 13.0000000  0  7G01G07G08G11G17G22G28               -0.000108265
  20056966.305 7   -151193.449 7    -98437.44149  20056967.30949
  20806856.977 7   -118584.625 7    -67410.95749  20806854.77049
  22895216.398 5    -72111.496 5    -46477.58249  22895218.46949
  20973838.695 7    -79806.473 7    -45460.32448  20973835.52048
  24139462.000 4   -194505.953 4    -98894.50048  24139461.46548
  22714003.250 6   -210750.898 6   -123810.65647  22714000.53147
  23846563.688 4   -231118.527 4   -113706.48446  23846561.84446
 20  5 16  5  8 14.0000000  0  7G01G07G08G11G17G22G28               -0.000110828
  20056260.961 7   -154898.762 7   -101324.69149  20056262.09849
  20806255.367 7   -121745.281 7    -69873.80149  20806253.45349
  22894805.773 5    -74270.371 5    -48159.82049  22894807.62549
  20973427.602 7    -81965.641 7    -47142.79348  20973424.56348
  24138410.039 4   -200034.906 4   -103202.76648  24138408.80948
  22712922.406 6   -216433.152 6   -128238.38747  22712919.51247
  23845321.547 4   -237647.977 4   -118794.35946  23845319.46146
 20  5 16  5  8 15.0000000  0  7G01G07G08G11G17G22G28               -0.000113394
  20055556.438 7   -158604.086 7   -104211.96549  20055557.05549
  20805653.820 7   -124905.953 7    -72336.66849  20805651.95749
  22894394.805 5    -76429.973 5    -49842.62149  22894396.73049
  20973016.758 6    -84125.207 6    -48825.56648  20973013.45348
  24137357.273 5   -205564.418 5   -107511.46948  24137356.72348
  22711840.633 6   -222115.746 6   -132666.38747  22711838.17647
  23844078.102 5   -244178.203 5   -123882.84046  23844076.59446
 20  5 16  5  8 16.0000000  0  7G01G07G08G11G17G22G28               -0.000115957
  20054851.109 7   -162309.191 7   -107099.05949  20054851.98049
  20805052.664 7   -128066.500 7    -74799.42649  20805050.71949
  22893983.586 5    -78590.027 5    -51525.78549  22893985.76249
  20972605.398 7    -86284.887 7    -50508.43848  20972602.28148
  24136304.961 5   -211094.246 5   -111820.41848  24136304.01648
  22710759.141 6   -227798.441 6   -137094.46147  22710756.22747
  23842835.516 5   -250708.941 5   -128971.72346  23842834.02346
 20  5 16  5  8 17.0000000  0  7G01G07G08G11G17G22G28               -0.000118521
  20054146.102 7   -166014.070 7   -109985.98049  20054147.32849
  20804451.078 6   -131226.813 6    -77262.01649  20804449.27749
  22893572.523 5    -80750.648 5    -53209.39149  22893574.57449
  20972194.602 7    -88444.734 7    -52191.43848  20972192.03548
  24135252.719 5   -216624.410 5   -116129.64148  24135251.80948
  22709678.555 6   -233481.250 6   -141522.62947  22709675.00847
  23841593.344 5   -257240.258 5   -134061.06346  23841591.05546
 20  5 16  5  8 18.0000000  0  7G01G07G08G11G17G22G28               -0.000121086
  20053440.852 7   -169718.707 7   -112872.71149  20053442.01249
  20803849.578 6   -134386.957 6    -79724.46549  20803847.48449
  22893161.891 5    -82911.719 5    -54893.35249  22893163.24249
  20971783.852 7    -90604.719 7    -53874.53948  20971780.64848
  24134200.391 5   -222154.836 5   -120439.06648  24134199.49648
  22708596.750 6   -239164.176 6   -145950.87947  22708593.59447
  23840349.992 5   -263772.078 5   -139150.79346  23840348.53546
 20  5 16  5  8 19.0000000  0  7G01G07G08G11G17G22G28               -0.000123652
  20052735.914 7   -173423.176 7   -115759.31349  20052736.94149
  20803248.242 6   -137546.980 6    -82186.82449  20803246.58249
  22892749.570 5    -85073.285 5    -56577.69549  22892752.29349
  20971372.984 7    -92764.883 7    -55557.78148  20971369.90248
  24133147.461 5   -227685.645 5   -124748.78948  24133147.31348
  22707515.086 6   -244847.246 6   -150379.24647  22707512.30547
  23839106.789 4   -270304.523 4   -144241.02046  23839105.61746
 20  5 16  5  8 20.0000000  0  9G01G03G07G08G11G17G22G28G30         -0.000126217
  20052031.297 7   -177127.426 7   -118645.73449  20052032.49249
  23514710.13314   -219359.21514   -121495.18058  23514713.47758
  20802647.156 6   -140706.789 6    -84649.01249  20802645.21949
  22892338.828 5    -87235.398 5    -58262.46149  22892340.35549
  20970961.445 6    -94925.219 6    -57241.16848  20970958.62148
  24132095.883 5   -233216.730 5   -129058.72348  24132094.76648
  22706433.547 6   -250530.410 6   -154807.68847  22706430.95347
  23837863.336 4   -276837.500 4   -149331.64546  23837862.23846
  21681708.57016   -166793.81316   -117532.69159  21681709.64159
 20  5 16  5  8 21.0000000  0  9G01G03G07G08G11G17G22G28G30         -0.000128782
  20051326.500 7   -180831.387 7   -121531.94149  20051327.40649
  23513418.570 4   -226147.137 4   -126784.46548  23513421.35948
  20802045.594 6   -143866.352 6    -87111.00449  20802043.64849
  22891927.156 5    -89397.922 5    -59947.53949  22891929.06349
  20970550.984 6    -97085.598 6    -58924.57848  20970547.29348
  24131042.453 5   -238748.055 5   -133368.84048  24131042.33248
  22705352.516 6   -256213.617 6   -159236.15648  22705349.23048
  23836620.289 5   -283370.949 5   -154422.63746  23836618.77346
  21680730.688 6   -171931.863 6   -121536.35949  21680731.65649
 20  5 16  5  8 22.0000000  0  9G01G03G07G08G11G17G22G28G30         -0.000131348
  20050621.531 7   -184534.980 7   -124417.85549  20050622.27049
  23512126.984 4   -232935.434 4   -132074.04748  23512129.94148
  20801444.625 7   -147025.594 7    -89572.75449  20801442.23449
  22891515.938 5    -91560.762 5    -61632.86749  22891517.83649
  20970139.375 6    -99246.008 6    -60608.01648  20970136.10548
  24129990.031 5   -244279.621 5   -137679.14848  24129989.73448
  22704270.406 6   -261896.820 6   -163664.63348  22704267.65248
  23835376.289 5   -289904.777 5   -159513.93046  23835375.33246
  21679753.211 6   -177069.637 6   -125539.82849  21679753.80149
 20  5 16  5  8 23.0000000  0  9G01G03G07G08G11G17G22G28G30         -0.000133915
  20049917.070 7   -188238.438 7   -127303.66849  20049918.37149
  23510834.344 3   -239724.137 3   -137363.93848  23510838.34848
  20800843.766 7   -150184.738 7    -92034.42649  20800841.06649
  22891104.414 5    -93724.195 5    -63318.66849  22891105.71949
  20969727.992 6   -101406.633 6    -62291.62548  20969725.29748
  24128937.367 5   -249811.516 5   -141989.71148  24128936.98448
  22703188.797 6   -267580.191 6   -168093.23448  22703186.87148
  23834133.594 5   -296439.262 5   -164605.74246  23834132.02346
  21678775.352 6   -182207.336 6   -129543.22749  21678776.51649
 20  5 16  5  8 24.0000000  0  9G01G03G07G08G11G17G22G28G30         -0.000136482
  20049212.250 7   -191941.645 7   -130189.28949  20049213.27349
  23509542.898 4   -246513.266 4   -142654.16848  23509546.33248
  20800242.203 6   -153343.680 6    -94495.94549  20800239.73449
  22890692.320 5    -95888.082 5    -65004.81649  22890694.14149
  20969316.930 7   -103567.398 7    -63975.33648  20969314.15648
  24127884.500 5   -255343.723 5   -146300.52048  24127884.21548
  22702107.477 6   -273263.652 6   -172521.89847  22702104.59047
  23832890.164 5   -302974.242 5   -169697.93046  23832888.48046
  21677797.664 6   -187344.844 6   -133546.48049  21677798.30949
 20  5 16  5  8 25.0000000  0  9G01G03G07G08G11G17G22G28G30         -0.000139048
  20048507.945 7   -195644.605 7   -133074.71149  20048509.06649
  23508250.945 4   -253302.824 4   -147944.73448  23508253.93048
  20799641.094 7   -156502.426 7    -96957.30549  20799638.68849
  22890280.547 5    -98052.414 5    -66691.31349  22890282.42649
  20968905.773 6   -105728.285 6    -65659.14848  20968903.34048
  24126832.117 5   -260876.227 5   -150611.55148  24126831.34048
  22701026.250 6   -278947.219 6   -176950.65247  22701023.53547
  23831645.859 5   -309509.777 5   -174790.54347  23831644.54347
  21676819.914 6   -192482.203 6   -137549.61749  21676820.46949
 20  5 16  5  8 26.0000000  0  9G01G03G07G08G11G17G22G28G30         -0.000141615
  20047803.117 7   -199347.309 7   -135959.93449  20047804.15649
  23506958.539 4   -260092.715 4   -153235.55148  23506962.06648
  20799040.250 6   -159660.934 6    -99418.47749  20799037.93449
  22889868.188 5   -100217.188 5    -68378.14549  22889870.27049
  20968494.734 6   -107889.254 6    -67343.01248  20968491.59848
  24125779.398 5   -266408.996 5   -154922.78948  24125778.58648
  22699944.891 6   -284630.836 6   -181379.44548  22699942.03148
  23830402.180 5   -316045.746 5   -179883.50846  23830400.69546
  21675842.727 6   -197619.344 6   -141552.58649  21675843.21949
 20  5 16  5  8 27.0000000  0  9G01G03G07G08G11G17G22G28G30         -0.000144182
  20047098.469 7   -203049.793 7   -138844.98849  20047099.32049
  23505666.227 4   -266883.035 4   -158526.69548  23505670.01648
  20798439.156 6   -162819.289 6   -101879.53549  20798437.12949
  22889456.445 5   -102382.477 5    -70065.39149  22889457.80149
  20968083.375 7   -110050.387 7    -69027.00848  20968080.37948
  24124725.938 5   -271942.066 5   -159234.27348  24124726.01648
  22698863.016 6   -290314.547 6   -185808.31348  22698860.33648
  23829158.766 5   -322582.293 5   -184976.91046  23829156.62146
  21674865.281 6   -202756.320 6   -145555.42649  21674865.95349
 20  5 16  5  8 28.0000000  0  9G01G03G07G08G11G17G22G28G30         -0.000146749
  20046393.891 7   -206751.949 7   -141729.77749  20046394.96549
  23504374.266 4   -273673.699 4   -163818.10948  23504377.25048
  20797838.234 6   -165977.340 6   -104340.35249  20797835.41849
  22889044.273 5   -104548.160 5    -71752.93449  22889046.17249
  20967672.336 7   -112211.563 7    -70711.03948  20967669.38748
  24123673.063 5   -277475.320 5   -163545.90248  24123672.98448
  22697781.438 6   -295998.305 6   -190237.21948  22697778.44548
  23827914.594 5   -329119.293 5   -190070.67246  23827912.35546
  21673887.773 6   -207893.055 6   -149558.07449  21673888.00049
 20  5 16  5  8 29.0000000  0  9G01G03G07G08G11G17G22G28G30         -0.000149319
  20045689.234 7   -210453.809 7   -144614.34849  20045690.65649
  23503082.031 4   -280464.652 4   -169109.75848  23503085.09048
  20797237.516 7   -169135.180 7   -106801.01249  20797235.41449
  22888632.086 5   -106714.250 5    -73440.80149  22888633.97749
  20967260.820 7   -114372.844 7    -72395.15648  20967258.16848
  24122619.625 5   -283008.937 5   -167857.81048  24122620.07848
  22696699.672 6   -301682.082 6   -194666.14148  22696696.88748
  23826670.820 5   -335656.773 5   -195164.82446  23826668.88346
  21672909.891 6   -213029.563 6   -153560.54349  21672911.16449
 20  5 16  5  8 30.0000000  0  9G01G03G07G08G11G17G22G28G30         -0.000151886
  20044984.836 7   -214155.453 7   -147498.74649  20044985.83649
  23501789.797 4   -287256.047 4   -174401.75448  23501792.60948
  20796636.789 7   -172292.770 7   -109261.46949  20796634.26249
  22888220.203 5   -108880.832 5    -75129.04349  22888221.23849
  20966849.438 7   -116534.266 7    -74079.39148  20966846.77748
  24121566.344 5   -288542.742 5   -172169.85548  24121566.85248
  22695618.203 6   -307365.957 6   -199095.13348  22695615.40648
  23825426.031 4   -342194.758 4   -200259.35546  23825424.73846
  21671932.711 6   -218165.902 6   -157562.89149  21671933.59849
 20  5 16  5  8 31.0000000  0  9G01G03G07G08G11G17G22G28G30         -0.000154455
  20044280.656 7   -217856.805 7   -150382.91849  20044281.82049
  23500497.719 4   -294047.809 4   -179694.03147  23500500.26647
  20796036.000 7   -175450.148 7   -111721.76649  20796033.53549
  22887807.703 5   -111047.781 5    -76817.58249  22887808.97349
  20966438.203 7   -118695.754 7    -75763.67248  20966435.29348
  24120513.398 5   -294076.813 5   -176482.10948  24120513.68448
  22694536.523 6   -313049.910 6   -203524.18048  22694534.07448
  23824181.828 5   -348733.219 5   -205354.25046  23824180.58646
  21670955.242 6   -223302.023 6   -161565.06649  21670955.78949
 20  5 16  5  8 32.0000000  0  9G01G03G07G08G11G17G22G28G30         -0.000157022
  20043576.516 7   -221557.859 7   -153266.85949  20043577.37949
  23499205.008 3   -300839.855 3   -184986.53147  23499208.35947
  20795435.094 7   -178607.273 7   -114181.85949  20795432.37149
  22887395.906 5   -113215.168 5    -78506.45749  22887396.65649
  20966027.109 7   -120857.313 7    -77448.00448  20966024.39848
  24119459.867 5   -299611.145 5   -180794.56648  24119460.38348
  22693455.492 6   -318733.875 6   -207953.24648  22693451.92248
  23822937.539 5   -355272.168 5   -210449.53546  23822936.09046
  21669978.016 6   -228437.906 6   -165567.04749  21669978.55949
 20  5 16  5  8 33.0000000  0  9G01G03G07G08G11G17G22G28G30         -0.000159592
  20042872.102 7   -225258.672 7   -156150.60549  20042873.30949
  23497912.977 4   -307632.316 4   -190279.35947  23497914.86747
  20794834.141 7   -181764.223 7   -116641.81649  20794831.86749
  22886982.773 5   -115383.051 5    -80195.71949  22886984.02349
  20965615.711 7   -123018.996 7    -79132.43048  20965612.71948
  24118406.656 5   -305145.758 5   -185107.24648  24118407.25048
  22692373.391 6   -324417.926 6   -212382.37948  22692370.52748
  23821693.406 5   -361811.648 5   -215545.22746  23821691.42646
  21669000.836 6   -233573.625 6   -169568.91449  21669001.09049
 20  5 16  5  8 34.0000000  0  9G01G03G07G08G11G17G22G28G30         -0.000162161
  20042167.648 7   -228959.254 7   -159034.18449  20042169.10949
  23496619.523 4   -314425.234 4   -195572.53948  23496622.61348
  20794233.680 7   -184920.938 7   -119101.59849  20794230.79749
  22886570.367 5   -117551.348 5    -81885.30149  22886571.75849
  20965204.258 7   -125180.836 7    -80816.98048  20965201.82848
  24117353.617 4   -310680.664 4   -189420.16048  24117354.33648
  22691292.156 6   -330102.094 6   -216811.60248  22691288.53148
  23820448.352 5   -368351.660 5   -220641.35246  23820447.16046
  21668024.063 6   -238709.156 6   -173570.62549  21668024.66049
 20  5 16  5  8 35.0000000  0  9G01G03G07G08G11G17G22G28G30         -0.000164730
  20041463.828 7   -232659.496 7   -161917.48449  20041465.43849
  23495327.445 4   -321218.387 4   -200865.90248  23495330.13748
  20793632.992 6   -188077.355 6   -121561.14849  20793630.71149
  22886157.297 5   -119720.047 5    -83575.19549  22886158.90649
  20964792.914 7   -127342.719 7    -82501.56348  20964790.21948
  24116300.992 5   -316215.770 5   -193733.23448  24116300.93448
  22690210.094 6   -335786.223 6   -221240.78948  22690206.98048
  23819204.305 5   -374892.109 5   -225737.78946  23819202.76246
  21667046.430 6   -243844.434 6   -177572.14549  21667046.99249
 20  5 16  5  8 36.0000000  0  9G01G03G07G08G11G17G22G28G30         -0.000167299
  20040759.383 7   -236359.434 7   -164800.55549  20040760.97349
  23494034.258 4   -328011.891 4   -206159.53548  23494036.96548
  20793032.359 6   -191233.535 6   -124020.51249  20793029.80149
  22885744.633 5   -121889.133 5    -85265.39149  22885746.13749
  20964381.211 7   -129504.656 7    -84186.18848  20964378.44148
  24115247.563 5   -321751.109 5   -198046.49248  24115247.53948
  22689128.938 6   -341470.414 6   -225670.03148  22689125.03548
  23817959.664 5   -381432.988 5   -230834.58246  23817957.63346
  21666069.430 6   -248979.469 6   -181573.47349  21666069.73049
 20  5 16  5  8 37.0000000  0  9G01G03G07G08G11G17G22G28G30         -0.000169870
  20040055.703 7   -240058.977 7   -167683.32049  20040057.26249
  23492741.328 4   -334805.672 4   -211453.40248  23492744.00848
  20792431.766 7   -194389.336 7   -126479.58649  20792429.67249
  22885332.039 5   -124058.523 5    -86955.82049  22885333.03149
  20963970.117 6   -131666.563 6    -85870.79348  20963967.53948
  24114193.875 5   -327286.590 5   -202359.85948  24114193.84448
  22688047.391 6   -347154.531 6   -230099.21547  22688043.57047
  23816713.922 5   -387974.273 5   -235931.69146  23816713.09846
  21665092.102 6   -254114.184 6   -185574.55149  21665093.24249
 20  5 16  5  8 38.0000000  0  9G01G03G07G08G11G17G22G28G30         -0.000172440
  20039351.938 7   -243758.145 7   -170565.79349  20039352.94949
  23491448.938 4   -341599.617 4   -216747.39148  23491451.55148
  20791831.672 7   -197544.820 7   -128938.40649  20791828.78549
  22884919.313 5   -126228.227 5    -88646.50049  22884920.37149
  20963558.516 7   -133828.434 7    -87555.36348  20963556.12148
  24113140.375 5   -332822.199 5   -206673.32048  24113140.92648
  22686965.563 6   -352838.551 6   -234528.31647  22686962.54747
  23815470.477 5   -394515.879 5   -241029.04746  23815468.04746
  21664115.516 6   -259248.547 6   -189575.34449  21664116.28549
 20  5 16  5  8 39.0000000  0  9G01G03G07G08G11G17G22G28G30         -0.000175009
  20038648.016 7   -247456.891 7   -173447.92649  20038649.06349
  23490155.469 4   -348393.859 4   -222041.61348  23490158.69948
  20791230.875 7   -200699.898 7   -131396.90649  20791228.14549
  22884506.039 5   -128398.281 5    -90337.45349  22884507.12149
  20963147.180 7   -135990.273 7    -89239.91848  20963145.00448
  24112086.906 5   -338357.930 5   -210986.87548  24112087.21948
  22685883.883 6   -358522.539 6   -238957.40647  22685880.73847
  23814224.883 5   -401057.891 5   -246126.72346  23814223.23446
  21663138.430 6   -264382.586 6   -193575.89549  21663139.14549
 20  5 16  5  8 40.0000000  0  9G01G03G07G08G11G17G22G28G30         -0.000177580
  20037944.211 7   -251155.309 7   -176329.80949  20037945.25849
  23488862.672 4   -355188.395 4   -227336.05548  23488865.59448
  20790631.039 6   -203854.699 6   -133855.19549  20790628.18449
  22884091.766 5   -130568.688 5    -92028.68049  22884094.26249
  20962735.938 6   -138152.164 6    -90924.51248  20962733.23848
  24111033.000 5   -343893.898 5   -215300.61748  24111033.74648
  22684802.203 6   -364206.492 6   -243386.45747  22684799.39847
  23812979.250 5   -407600.250 5   -251224.66846  23812978.22746
  21662161.398 6   -269516.336 6   -197576.22749  21662162.20349
 20  5 16  5  8 41.0000000  0  9G01G03G07G08G11G17G22G28G30         -0.000180151
  20037240.367 7   -254853.332 7   -179211.38349  20037241.86349
  23487569.414 4   -361983.164 4   -232630.66848  23487572.40248
  20790030.695 6   -207009.121 6   -136313.18049  20790028.18049
  22883679.438 5   -132739.426 5    -93720.17249  22883680.78549
  20962324.383 6   -140314.027 6    -92609.08248  20962321.98448
  24109979.602 4   -349429.969 4   -219614.43448  24109980.29348
  22683720.156 6   -369890.395 6   -247815.47348  22683717.45748
  23811734.922 5   -414143.074 5   -256322.96946  23811732.97746
  21661184.297 6   -274649.793 6   -201576.32849  21661185.44149
 20  5 16  5  8 42.0000000  0  9G01G03G07G08G11G17G22G28G30         -0.000182722
  20036536.688 7   -258550.898 7   -182092.60549  20036538.00849
  23486277.023 4   -368778.094 4   -237925.40248  23486279.36348
  20789430.055 7   -210163.168 7   -138770.88349  20789427.75449
  22883266.391 5   -134910.418 5    -95411.85249  22883268.36749
  20961913.313 7   -142475.809 7    -94293.58648  20961910.68448
  24108926.414 4   -354966.113 4   -223928.31348  24108926.98848
  22682638.789 6   -375574.164 6   -252244.37947  22682635.98047
  23810489.477 4   -420686.172 4   -261421.49646  23810488.11346
  21660207.906 6   -279782.836 6   -205576.10249  21660208.74649
 20  5 16  5  8 43.0000000  0  9G01G03G07G08G11G17G22G28G30         -0.000185293
  20035833.133 7   -262248.086 7   -184973.53149  20035834.49649
  23484983.563 4   -375573.328 4   -243220.39548  23484986.16848
  20788830.094 7   -213316.852 7   -141228.30149  20788827.55149
  22882853.328 5   -137081.715 5    -97103.77749  22882855.12949
  20961501.797 7   -144637.590 7    -95978.09048  20961499.42648
  24107873.141 4   -360502.406 4   -228242.30148  24107873.25048
  22681556.898 6   -381257.883 6   -256673.25247  22681554.62947
  23809244.398 5   -427229.625 5   -266520.28146  23809242.85546
  21659231.250 6   -284915.566 6   -209575.63349  21659232.05949
 20  5 16  5  8 44.0000000  0  9G01G03G07G08G11G17G22G28G30         -0.000187864
  20035130.047 7   -265944.887 7   -187854.15649  20035130.96549
  23483690.969 4   -382368.734 4   -248515.51248  23483693.23048
  20788230.148 7   -216470.195 7   -143685.45349  20788227.43449
  22882439.914 5   -139253.336 5    -98795.95349  22882441.78949
  20961090.273 7   -146799.340 7    -97662.57048  20961087.68848
  24106819.820 4   -366038.859 4   -232556.42248  24106819.98048
  22680475.719 6   -386941.563 6   -261102.09847  22680472.46947
  23807999.430 5   -433773.434 5   -271619.34046  23807997.41046
  21658254.781 6   -290047.969 6   -213574.90649  21658255.34449
 20  5 16  5  8 45.0000000  0  9G01G03G07G08G11G17G22G28G30         -0.000190435
  20034426.031 7   -269641.313 7   -190734.49249  20034428.03149
  23482397.703 4   -389164.484 4   -253810.90248  23482399.87548
  20787630.266 7   -219623.215 7   -146142.35949  20787627.57049
  22882026.555 5   -141425.313 5   -100488.40649  22882028.10249
  20960679.164 7   -148961.098 7    -99347.05948  20960676.55148
  24105766.461 4   -371575.488 4   -236870.68848  24105766.17248
  22679394.258 6   -392625.223 6   -265530.92247  22679391.42247
  23806753.797 5   -440317.699 5   -276718.76646  23806751.93446
  21657277.844 6   -295180.094 6   -217573.96949  21657278.47749
 20  5 16  5  8 46.0000000  0  9G01G03G07G08G11G17G22G28G30         -0.000193007
  20033723.094 7   -273337.414 7   -193614.57449  20033724.26649
  23481104.109 4   -395960.469 4   -259106.46948  23481107.13748
  20787030.141 6   -222775.914 6   -148599.01249  20787027.42649
  22881613.641 5   -143597.613 5   -102181.10949  22881615.00449
  20960267.789 7   -151122.875 7   -101031.56348  20960265.43848
  24104712.961 5   -377112.297 5   -241185.08648  24104712.44148
  22678311.766 6   -398308.781 6   -269959.67648  22678309.54348
  23805508.180 5   -446862.352 5   -281818.49246  23805506.86346
  21656301.367 6   -300311.906 6   -221572.78149  21656302.35949
 20  5 16  5  8 47.0000000  0  9G01G03G07G08G11G17G22G28G30         -0.000195578
  20033019.406 7   -277033.008 7   -196494.25449  20033020.73849
  23479810.336 4   -402756.660 4   -264402.20348  23479813.52748
  20786430.125 7   -225928.203 7   -151055.34049  20786427.74249
  22881200.008 5   -145770.176 5   -103874.02049  22881201.52049
  20959856.250 7   -153284.555 7   -102715.98448  20959854.00848
  24103659.094 5   -382649.152 5   -245499.51248  24103658.80148
  22677230.609 6   -403992.281 6   -274388.37948  22677228.23848
  23804263.711 5   -453407.273 5   -286918.42646  23804261.43846
  21655324.930 6   -305443.289 6   -225571.26649  21655326.01249
 20  5 16  5  8 48.0000000  0  9G01G03G07G08G11G17G22G28G30         -0.000198149
  20032316.594 7   -280728.184 7   -199373.61349  20032317.90649
  23478517.344 4   -409553.016 4   -269698.06348  23478520.26648
  20785830.594 6   -229080.086 6   -153511.35249  20785828.21149
  22880786.797 5   -147943.000 5   -105567.13349  22880787.96549
  20959445.094 7   -155446.184 7   -104400.37548  20959442.82048
  24102605.414 5   -388186.113 5   -249814.02048  24102605.25048
  22676149.094 6   -409675.625 6   -278816.94547  22676146.81647
  23803017.555 5   -459952.582 5   -292018.68046  23803016.11746
  21654348.430 6   -310574.352 6   -229569.49249  21654349.41449
 20  5 16  5  8 49.0000000  0  9G01G03G07G08G11G17G22G28G30         -0.000200722
  20031613.359 7   -284422.898 7   -202252.60949  20031614.86349
  23477224.758 4   -416349.598 4   -274994.09048  23477226.67648
  20785230.992 7   -232231.563 7   -155967.05149  20785228.56649
  22880373.102 5   -150116.117 5   -107260.47749  22880374.51649
  20959033.602 7   -157607.711 7   -106084.68448  20959031.12948
  24101551.781 5   -393723.172 5   -254128.61348  24101551.39148
  22675067.328 6   -415358.867 6   -283245.44547  22675065.23047
  23801771.906 5   -466498.152 5   -297119.13746  23801770.56346
  21653372.109 6   -315705.008 6   -233567.41849  21653373.58649
 20  5 16  5  8 50.0000000  0  9G01G03G07G08G11G17G22G28G30         -0.000203293
  20030910.273 7   -288117.148 7   -205131.24249  20030911.80149
  23475930.711 4   -423146.281 4   -280290.20748  23475933.44148
  20784630.898 6   -235382.594 6   -158422.39849  20784628.97749
  22879959.063 5   -152289.414 5   -108953.95749  22879961.08249
  20958622.313 7   -159769.164 7   -107768.93448  20958620.06348
  24100498.789 5   -399260.281 5   -258443.24648  24100497.77748
  22673986.039 6   -421041.969 6   -287673.83647  22673983.92247
  23800525.984 5   -473044.008 5   -302219.79746  23800524.35946
  21652395.555 6   -320835.250 6   -237565.00849  21652397.02349
 20  5 16  5  8 51.0000000  0  9G01G03G07G08G11G17G22G28G30         -0.000205866
  20030207.461 7   -291810.848 7   -208009.45749  20030209.19949
  23474638.273 4   -429943.113 4   -285586.43048  23474640.05948
  20784032.039 7   -238533.141 7   -160877.37549  20784029.41049
  22879545.523 5   -154462.910 5   -110647.59049  22879547.76649
  20958211.219 7   -161930.422 7   -109453.02748  20958208.75848
  24099445.000 5   -404797.359 5   -262757.86348  24099443.72748
  22672904.711 6   -426724.820 6   -292102.02747  22672902.30147
  23799280.063 4   -479590.082 4   -307320.63346  23799278.68046
  21651419.617 6   -325965.016 6   -241562.22349  21651420.80949
 20  5 16  5  8 52.0000000  0  9G01G03G07G08G11G17G22G28G30         -0.000208437
  20029504.820 7   -295504.109 7   -210887.32449  20029506.44149
  23473344.430 4   -436740.073 4   -290882.76048  23473346.68848
  20783432.094 6   -241683.277 6   -163332.02749  20783429.98449
  22879131.891 5   -156636.656 5   -112341.41849  22879134.06349
  20957799.656 7   -164091.613 7   -111137.07848  20957797.55948
  24098390.727 5   -410334.539 5   -267072.55548  24098390.36748
  22671823.633 6   -432407.578 6   -296530.14547  22671821.31347
  23798034.828 5   -486136.500 5   -312421.72346  23798032.99246
  21650443.602 6   -331094.387 6   -245559.13749  21650445.05149
 20  5 16  5  8 53.0000000  0  9G01G03G07G08G11G17G22G28G30         -0.000211010
  20028802.008 7   -299196.977 7   -213764.88349  20028803.64549
  23472050.938 4   -443537.320 4   -296179.31648  23472053.00048
  20782832.609 6   -244833.043 6   -165786.39549  20782830.85949
  22878718.453 5   -158810.684 5   -114035.46549  22878720.12549
  20957388.633 7   -166252.762 7   -112821.08248  20957386.41448
  24097337.563 5   -415871.840 5   -271387.32848  24097336.66448
  22670742.016 6   -438090.246 6   -300958.19147  22670739.25847
  23796789.188 5   -492683.238 5   -317523.08246  23796787.32846
  21649467.367 6   -336223.430 6   -249555.79349  21649469.19149
 20  5 16  5  8 54.0000000  0  9G01G03G07G08G11G17G22G28G30         -0.000213583
  20028099.078 7   -302889.359 7   -216642.06649  20028101.00849
  23470756.961 4   -450334.676 4   -301475.95348  23470759.32048
  20782233.289 6   -247982.391 6   -168240.42249  20782231.37949
  22878304.664 5   -160984.977 5   -115729.72749  22878306.18049
  20956977.438 7   -168413.828 7   -114505.03148  20956975.28148
  24096283.313 5   -421409.230 5   -275702.16048  24096282.68848
  22669661.164 6   -443772.789 6   -305386.15647  22669658.52347
  23795543.797 5   -499230.273 5   -322624.66046  23795541.36746
  21648491.813 6   -341352.063 6   -253552.13749  21648492.92249
 20  5 16  5  8 55.0000000  0  9G01G03G07G08G11G17G22G28G30         -0.000216154
  20027396.875 7   -306581.254 7   -219518.87149  20027398.40649
  23469463.523 4   -457132.215 4   -306772.73448  23469466.04348
  20781634.500 7   -251131.301 7   -170694.11749  20781632.19549
  22877890.867 5   -163159.473 5   -117424.13749  22877892.65249
  20956565.953 7   -170574.766 7   -116188.87948  20956563.80548
  24095229.992 5   -426946.672 5   -280017.03548  24095229.28548
  22668579.422 6   -449455.176 6   -309813.99247  22668576.84447
  23794296.656 5   -505777.629 5   -327726.49646  23794295.60546
  21647515.805 6   -346480.277 6   -257548.14849  21647517.32049
 20  5 16  5  8 56.0000000  0  9G01G03G07G08G11G17G22G28G30         -0.000218727
  20026694.398 7   -310272.637 7   -222395.27049  20026696.19549
  23468170.375 4   -463929.859 4   -312069.60548  23468172.57848
  20781035.148 7   -254279.688 7   -173147.40649  20781033.28149
  22877476.977 5   -165334.137 5   -119118.68449  22877478.94949
  20956155.180 7   -172735.555 7   -117872.61748  20956152.75848
  24094176.039 5   -432484.113 5   -284331.92248  24094175.29348
  22667498.430 6   -455137.340 6   -314241.64847  22667496.00047
  23793051.039 5   -512325.145 5   -332828.44546  23793049.37146
  21646539.688 6   -351608.047 6   -261543.81649  21646541.61349
 20  5 16  5  8 57.0000000  0  9G01G03G07G08G11G17G22G28G30         -0.000221300
  20025992.563 7   -313963.441 7   -225271.21949  20025993.74649
  23466876.586 4   -470727.543 4   -317366.50048  23466879.23848
  20780436.078 6   -257427.582 6   -175600.32049  20780434.07849
  22877063.148 5   -167509.000 5   -120813.38749  22877065.07449
  20955743.539 7   -174896.145 7   -119556.19548  20955741.73048
  24093122.570 5   -438021.508 5   -288646.77748  24093121.28948
  22666417.234 6   -460819.289 6   -318669.14147  22666414.66447
  23791805.055 5   -518872.906 5   -337930.60246  23791803.30946
  21645564.516 6   -356735.254 6   -265539.04349  21645565.82849
 20  5 16  5  8 58.0000000  0  9G01G03G07G08G11G17G22G28G30         -0.000223873
  20025289.945 7   -317653.781 7   -228146.80949  20025291.36349
  23465582.391 4   -477525.438 4   -322663.55948  23465585.61348
  20779837.180 6   -260575.059 6   -178052.90249  20779835.27749
  22876649.305 5   -169684.051 5   -122508.23449  22876651.13749
  20955332.820 7   -177056.641 7   -121239.69548  20955330.32848
  24092068.992 5   -443558.961 5   -292961.67648  24092067.43848
  22665335.797 6   -466501.116 6   -323096.53147  22665333.24247
  23790559.695 5   -525420.969 5   -343032.99646  23790557.24646
  21644588.977 6   -361862.113 6   -269533.99249  21644590.41849
 20  5 16  5  8 59.0000000  0  9G01G03G07G08G11G17G22G28G30         -0.000226446
  20024587.828 7   -321343.625 7   -231022.01249  20024589.08249
  23464288.820 4   -484323.438 4   -327960.70348  23464292.01648
  20779238.609 7   -263722.066 7   -180505.11349  20779236.43049
  22876235.234 5   -171859.344 5   -124203.26249  22876237.43849
  20954921.563 7   -179217.020 7   -122923.10948  20954919.29348
  24091014.875 5   -449096.488 5   -297276.63348  24091013.80948
  22664254.250 6   -472182.719 6   -327523.75047  22664252.63347
  23789313.133 5   -531969.289 5   -348135.58646  23789311.43446
  21643613.023 6   -366988.520 6   -273528.59849  21643614.80549
 20  5 16  5  9  0.0000000  0  9G01G03G07G08G11G17G22G28G30         -0.000229019
  20023885.516 7   -325032.941 7   -233896.80949  20023887.22349
  23462996.016 4   -491121.516 4   -333257.89548  23462998.51248
  20778639.531 6   -266868.574 6   -182956.93849  20778637.68049
  22875821.500 5   -174034.797 5   -125898.42649  22875823.28549
  20954510.461 7   -181377.230 7   -124606.39148  20954507.99248
  24089960.938 5   -454633.996 5   -301591.57448  24089960.39148
  22663173.859 6   -477864.156 6   -331950.85247  22663171.23047
  23788067.047 5   -538517.820 5   -353238.34446  23788064.92646
  21642637.438 6   -372114.449 6   -277522.82449  21642639.16049
 20  5 16  5  9  1.0000000  0  9G01G03G07G08G11G17G22G28G30         -0.000231592
  20023183.508 7   -328721.734 7   -236771.18849  20023184.80549
  23461702.000 4   -497919.781 4   -338555.24248  23461705.26248
  20778040.922 6   -270014.629 6   -185408.40249  20778038.98449
  22875407.539 5   -176210.434 5   -127593.73449  22875409.05949
  20954099.227 7   -183537.297 7   -126289.55948  20954096.77748
  24088907.625 5   -460171.543 5   -305906.53948  24088906.57848
  22662092.625 6   -483545.398 6   -336377.78947  22662089.84447
  23786820.672 5   -545066.621 5   -358341.30146  23786818.83246
  21641662.172 6   -377239.961 6   -281516.72749  21641663.51649
 20  5 16  5  9  2.0000000  0  9G01G03G07G08G11G17G22G28G30         -0.000234165
  20022481.539 7   -332410.047 7   -239645.20349  20022483.55149
  23460408.016 4   -504718.117 4   -343852.64848  23460411.30548
  20777442.758 6   -273160.227 6   -187859.52749  20777440.76649
  22874993.070 5   -178386.250 5   -129289.17649  22874995.09449
  20953688.602 7   -185697.266 7   -127972.65648  20953686.68048
  24087853.320 5   -465709.137 5   -310221.53548  24087853.04348
  22661011.102 6   -489226.480 6   -340804.60947  22661008.62547
  23785574.117 5   -551615.684 5   -363444.46546  23785572.69146
  21640686.875 6   -382365.023 6   -285510.28549  21640688.64549
 20  5 16  5  9  3.0000000  0  9G01G03G07G08G11G17G22G28G30         -0.000236740
  20021780.148 7   -336097.883 7   -242518.84049  20021781.46549
  23459114.578 4   -511516.664 4   -349150.21548  23459117.58648
  20776843.703 6   -276305.387 6   -190310.30149  20776841.57049
  22874578.961 5   -180562.309 5   -130984.81349  22874580.76249
  20953277.438 7   -187857.102 7   -129655.64848  20953274.92648
  24086799.281 5   -471246.730 5   -314536.54348  24086799.01648
  22659930.000 6   -494907.383 6   -345231.28547  22659927.84047
  23784327.898 4   -558165.016 4   -368547.84046  23784326.57846
  21639711.758 6   -387489.660 6   -289503.50849  21639713.40649
 20  5 16  5  9  4.0000000  0  9G01G03G07G08G11G17G22G28G30         -0.000239313
  20021078.469 7   -339785.086 7   -245391.98449  20021080.19149
  23457820.406 4   -518315.180 4   -354447.75448  23457823.96548
  20776245.563 6   -279449.945 6   -192760.60549  20776243.68049
  22874165.117 5   -182738.453 5   -132680.50449  22874166.93049
  20952866.211 7   -190016.680 7   -131338.43048  20952864.31648
  24085745.930 5   -476784.281 5   -318851.52048  24085745.52048
  22658849.078 6   -500587.992 6   -349657.73447  22658846.70747
  23783080.758 5   -564714.496 5   -373651.32446  23783080.04746
  21638736.945 6   -392613.742 6   -293496.29749  21638738.15249
 20  5 16  5  9  5.0000000  0  9G01G03G07G08G11G17G22G28G30         -0.000241886
  20020376.609 7   -343471.723 7   -248264.69149  20020378.35949
  23456527.336 4   -525113.773 4   -359745.35948  23456530.22348
  20775647.414 6   -282594.004 6   -195210.51249  20775645.42249
  22873750.453 5   -184914.742 5   -134376.30949  22873752.94549
  20952455.688 7   -192176.090 7   -133021.09448  20952453.39848
  24084691.930 5   -482321.805 5   -323166.47348  24084691.95348
  22657768.641 6   -506268.418 6   -354084.03947  22657765.99247
  23781835.273 5   -571264.164 5   -378754.96146  23781833.76646
  21637761.930 6   -397737.340 6   -297488.71149  21637763.14149
 20  5 16  5  9  6.0000000  0  9G01G03G07G08G11G17G22G28G30         -0.000244461
  20019674.844 7   -347157.953 7   -251137.07849  20019677.10249
  23455233.141 4   -531912.598 4   -365043.14148  23455236.84048
  20775048.953 7   -285737.688 7   -197660.14149  20775047.29749
  22873336.391 5   -187091.352 5   -136072.37149  22873338.80549
  20952044.609 7   -194335.434 7   -134703.69548  20952042.89148
  24083638.117 5   -487859.422 5   -327481.50448  24083637.87148
  22656687.227 6   -511948.672 6   -358510.20347  22656685.12947
  23780588.648 4   -577814.199 4   -383858.89546  23780587.32046
  21636787.375 6   -402860.570 6   -301480.84049  21636788.11749
 20  5 16  5  9  7.0000000  0  9G01G03G07G08G11G17G22G28G30         -0.000247034
  20018973.859 7   -350843.746 7   -254009.12149  20018975.66449
  23453939.438 4   -538711.563 4   -370341.03148  23453942.98048
  20774450.805 7   -288880.969 7   -200109.45349  20774448.78149
  22872922.711 5   -189268.172 5   -137768.59449  22872924.34049
  20951633.773 7   -196494.738 7   -136386.27748  20951631.70348
  24082583.508 5   -493397.145 5   -331796.60548  24082583.81348
  22655606.211 6   -517628.848 6   -362936.32448  22655604.31648
  23779342.156 5   -584364.555 5   -388963.07046  23779340.85946
  21635812.164 6   -407983.426 6   -305472.67649  21635813.41049
 20  5 16  5  9  8.0000000  0  9G01G03G07G08G11G17G22G28G30         -0.000249609
  20018272.688 7   -354528.938 7   -256880.69949  20018274.54749
  23452645.109 4   -545510.637 4   -375639.00848  23452649.48848
  20773853.000 7   -292023.711 7   -202558.34049  20773851.20749
  22872508.117 5   -191445.152 5   -139464.94549  22872509.87149
  20951222.727 7   -198653.785 7   -138068.64848  20951220.59448
  24081530.102 5   -498934.805 5   -336111.64548  24081530.37148
  22654525.492 6   -523308.770 6   -367362.23847  22654523.44547
  23778095.742 4   -590915.039 4   -394067.34046  23778094.26646
  21634837.484 6   -413105.742 6   -309464.09049  21634838.62149
 20  5 16  5  9  9.0000000  0  9G01G03G07G08G11G17G22G28G30         -0.000252182
  20017571.359 7   -358213.520 7   -259751.79749  20017573.69149
  23451351.563 4   -552309.715 4   -380936.98848  23451355.26248
  20773255.195 7   -295165.859 7   -205006.77349  20773253.04349
  22872094.383 5   -193622.207 5   -141161.35949  22872095.48849
  20950811.773 7   -200812.625 7   -139750.85948  20950810.27748
  24080475.891 4   -504472.395 4   -340426.64848  24080476.32448
  22653444.328 6   -528988.406 6   -371787.93048  22653442.48848
  23776849.492 5   -597465.703 5   -399171.73846  23776848.04346
  21633862.898 6   -418227.551 6   -313455.10549  21633863.94949
 20  5 16  5  9 10.0000000  0  9G01G03G07G08G11G17G22G28G30         -0.000254757
  20016870.375 7   -361897.637 7   -262622.53549  20016872.37949
  23450057.148 4   -559108.945 4   -386235.08648  23450061.75448
  20772657.141 7   -298307.594 7   -207454.87949  20772655.83649
  22871679.906 5   -195799.520 5   -142857.96149  22871681.52049
  20950401.344 7   -202971.344 7   -141432.97748  20950399.26248
  24079422.328 5   -510010.047 5   -344741.71548  24079422.90248
  22652364.266 6   -534667.898 6   -376213.50447  22652361.82047
  23775602.648 5   -604016.652 5   -404276.36346  23775601.13346
  21632888.125 6   -423348.898 6   -317445.76649  21632889.41049
 20  5 16  5  9 11.0000000  0  9G01G03G07G08G11G17G22G28G30         -0.000257330
  20016169.789 7   -365581.176 7   -265492.82849  20016171.37549
  23448763.867 4   -565908.219 4   -391533.21548  23448767.66048
  20772059.375 7   -301448.766 7   -209902.54749  20772057.48449
  22871265.719 5   -197976.906 5   -144554.62949  22871267.12949
  20949990.406 7   -205129.852 7   -143114.93448  20949988.57048
  24078368.539 5   -515547.625 5   -349056.71948  24078368.93048
  22651283.258 5   -540347.102 5   -380638.85547  22651280.96947
  23774355.773 5   -610567.762 5   -409381.12546  23774354.93046
  21631913.781 6   -428469.766 6   -321436.05549  21631914.75049
 20  5 16  5  9 12.0000000  0  9G01G03G07G08G11G17G22G28G30         -0.000259905
  20015468.875 7   -369264.125 7   -268362.66049  20015470.59449
  23447470.508 4   -572707.510 4   -396831.34948  23447473.86748
  20771461.984 7   -304589.434 7   -212349.81649  20771460.08649
  22870851.188 5   -200154.477 5   -146251.43049  22870852.90649
  20949580.195 7   -207288.195 7   -144796.76248  20949578.28548
  24077315.367 5   -521085.188 5   -353371.70348  24077314.99648
  22650202.344 5   -546026.086 5   -385064.03947  22650200.23047
  23773108.789 5   -617119.066 5   -414486.04746  23773108.14846
  21630938.938 6   -433590.094 6   -325425.91849  21630940.33249
 20  5 16  5  9 13.0000000  0  9G01G03G07G08G11G17G22G28G30         -0.000262478
  20014768.164 7   -372946.613 7   -271232.12949  20014770.00049
  23446175.922 4   -579507.031 4   -402129.66448  23446180.09048
  20770864.203 7   -307729.648 7   -214796.73849  20770862.73849
  22870436.914 5   -202332.246 5   -147948.40249  22870438.41849
  20949168.977 7   -209446.395 7   -146478.47748  20949167.55948
  24076261.156 4   -526622.801 4   -357686.73448  24076261.35548
  22649122.359 6   -551704.918 6   -389489.10947  22649119.64847
  23771862.836 5   -623670.680 5   -419591.20346  23771861.07846
  21629964.813 6   -438709.992 6   -329415.45349  21629965.91449
 20  5 16  5  9 14.0000000  0  9G01G03G07G08G11G17G22G28G30         -0.000265053
  20014067.242 7   -376628.570 7   -274101.19549  20014069.06649
  23444881.773 4   -586306.621 4   -407428.05148  23444886.00848
  20770266.820 7   -310869.383 7   -217243.28949  20770265.32049
  22870022.172 5   -204510.234 5   -149645.53549  22870023.84049
  20948758.328 6   -211604.473 6   -148160.09848  20948756.78948
  24075207.727 4   -532160.398 4   -362001.74648  24075207.07448
  22648041.883 6   -557383.551 6   -393914.02047  22648039.16447
  23770615.930 4   -630222.516 4   -424696.53146  23770614.41446
  21628990.602 6   -443829.453 6   -333404.64549  21628991.65649
 20  5 16  5  9 15.0000000  0  9G01G03G07G08G11G17G22G28G30         -0.000267628
  20013366.750 7   -380309.949 7   -276969.79749  20013369.03949
  23443587.797 4   -593106.297 4   -412726.49248  23443592.40248
  20769669.438 7   -314008.613 7   -219689.44149  20769667.54349
  22869607.398 5   -206688.383 5   -151342.79349  22869609.64549
  20948347.164 6   -213762.316 6   -149841.53148  20948345.63748
  24074153.469 4   -537698.023 4   -366316.78148  24074153.17648
  22646961.055 6   -563061.949 6   -398338.74247  22646958.40647
  23769369.047 4   -636774.535 4   -429802.00446  23769367.62546
  21628016.875 6   -448948.430 6   -337393.45749  21628017.41049
 20  5 16  5  9 16.0000000  0  9G01G03G07G08G11G17G22G28G30         -0.000270203
  20012666.016 7   -383990.879 7   -279838.05549  20012668.30949
  23442294.063 4   -599906.102 4   -418025.03548  23442298.24248
  20769071.930 7   -317147.379 7   -222135.23849  20769070.63749
  22869193.125 5   -208866.691 5   -153040.17649  22869194.83649
  20947936.781 6   -215920.098 6   -151522.92248  20947935.20748
  24073098.984 4   -543235.688 4   -370631.84048  24073099.78548
  22645880.375 6   -568740.180 6   -402763.33247  22645878.06347
  23768122.602 4   -643326.832 4   -434907.68046  23768120.81646
  21627042.906 6   -454066.961 6   -341381.91849  21627043.73049
 20  5 16  5  9 17.0000000  0  9G01G03G07G08G11G17G22G28G30         -0.000272778
  20011965.719 7   -387671.266 7   -282705.88749  20011967.62949
  23441000.016 4   -606706.000 4   -423323.65648  23441004.30548
  20768474.813 7   -320285.672 7   -224580.66049  20768473.60549
  22868778.289 5   -211045.195 5   -154737.71549  22868780.67249
  20947526.492 6   -218077.711 6   -153204.18448  20947524.75848
  24072046.336 4   -548773.292 4   -374946.84548  24072046.05148
  22644799.992 6   -574418.215 6   -407187.77347  22644797.39147
  23766875.828 5   -649879.379 5   -440013.55946  23766873.80146
  21626068.914 6   -459185.043 6   -345370.03149  21626069.59049
 20  5 16  5  9 18.0000000  0  9G01G03G07G08G11G17G22G28G30         -0.000275352
  20011265.891 7   -391351.195 7   -285573.36349  20011267.89849
  23439705.906 4   -613506.094 4   -428622.43048  23439710.30148
  20767877.570 7   -323423.559 7   -227025.76649  20767877.00049
  22868363.641 5   -213223.977 5   -156435.46549  22868365.34049
  20947115.898 6   -220235.238 6   -154885.37148  20947114.25848
  24070992.227 3   -554311.051 3   -379261.97748  24070992.29348
  22643719.422 6   -580096.086 6   -411612.08647  22643716.75847
  23765628.617 4   -656432.230 4   -445119.66846  23765626.70346
  21625094.961 6   -464302.707 6   -349357.82449  21625095.76249
 20  5 16  5  9 19.0000000  0  9G01G03G07G08G11G17G22G28G30         -0.000277927
  20010565.484 7   -395030.652 7   -288440.47349  20010567.42249
  23438412.109 4   -620306.320 4   -433921.31348  23438416.61748
  20767280.984 7   -326560.992 7   -229470.52049  20767279.14149
  22867949.594 5   -215402.996 5   -158133.40249  22867951.23449
  20946705.328 6   -222392.691 6   -156566.50048  20946703.37548
  24069938.688 3   -559848.840 3   -383577.13748  24069938.82848
  22642638.969 6   -585773.875 6   -416036.33647  22642636.48447
  23764381.453 4   -662985.352 4   -450225.98446  23764379.85546
  21624121.094 6   -469419.984 6   -353345.31649  21624121.72749
 20  5 16  5  9 20.0000000  0  9G01G03G07G08G11G17G22G28G30         -0.000280502
  20009865.844 7   -398709.594 7   -291307.18049  20009867.71949
  23437118.211 4   -627106.660 4   -439220.28148  23437122.68448
  20766683.828 7   -329697.957 7   -231914.91449  20766682.35249
  22867534.859 5   -217582.148 5   -159831.44549  22867536.36749
  20946294.867 6   -224549.961 6   -158247.49248  20946293.33648
  24068884.836 3   -565386.648 3   -387892.32448  24068885.02048
  22641558.664 6   -591451.426 6   -420460.39847  22641556.10947
  23763134.453 4   -669538.723 4   -455332.50846  23763132.72346
  21623147.430 6   -474536.801 6   -357332.45349  21623148.43849
 20  5 16  5  9 21.0000000  0  9G01G03G07G08G11G17G22G28G30         -0.000283077
  20009165.531 7   -402387.898 7   -294173.39849  20009167.23049
  23435823.953 4   -633907.043 4   -444519.27348  23435828.18848
  20766086.898 7   -332834.328 7   -234358.83249  20766085.56649
  22867120.203 5   -219761.410 5   -161529.57449  22867121.77049
  20945884.289 6   -226706.984 6   -159928.28548  20945882.72748
  24067829.984 2   -570924.367 2   -392207.43447  24067831.30547
  22640477.945 6   -597128.699 6   -424884.24247  22640475.94947
  23761887.648 4   -676092.238 4   -460439.13746  23761885.98046
  21622173.609 6   -479653.043 6   -361319.13749  21622174.09449
 20  5 16  5  9 22.0000000  0  9G01G03G07G08G11G17G22G28G30         -0.000285652
  20008465.742 7   -406065.648 7   -297039.18049  20008467.85949
  23434530.023 4   -640707.457 4   -449818.29748  23434534.52348
  20765490.242 7   -335970.195 7   -236802.37149  20765489.02349
  22866705.711 5   -221940.828 5   -163227.82849  22866707.16449
  20945473.906 6   -228863.809 6   -161608.93048  20945472.25848
  24066776.563 3   -576462.035 3   -396522.50447  24066776.85247
  22639398.336 5   -602805.707 5   -429307.88347  22639395.30947
  23760639.961 4   -682645.945 4   -465545.92246  23760638.75846
  21621200.609 6   -484768.789 6   -365305.43049  21621200.64149
 20  5 16  5  9 23.0000000  0  9G01G03G07G08G11G17G22G28G30         -0.000288227
  20007765.766 7   -409742.836 7   -299904.52049  20007767.98849
  23433235.477 4   -647507.941 4   -455117.37148  23433240.45348
  20764893.523 7   -339105.535 7   -239245.49249  20764892.16049
  22866290.531 5   -224120.438 5   -164926.23048  22866291.96148
  20945063.836 6   -231020.477 6   -163289.45348  20945061.82848
  24065723.664 3   -581999.676 3   -400837.54747  24065723.68447
  22638317.969 6   -608482.516 6   -433731.36747  22638315.46947
  23759393.047 4   -689199.867 4   -470652.87546  23759392.00846
  21620226.563 6   -489884.047 6   -369291.34449  21620227.54349
 20  5 16  5  9 24.0000000  0  9G01G03G07G08G11G17G22G28G30         -0.000290804
  20007066.094 7   -413419.449 7   -302769.41049  20007068.54749
  23431941.906 4   -654308.492 4   -460416.49648  23431946.17248
  20764296.797 7   -342240.379 7   -241688.22749  20764295.66849
  22865875.570 5   -226300.129 5   -166624.69148  22865877.30548
  20944653.172 6   -233176.930 6   -164969.80948  20944651.41848
  24064669.570 3   -587537.320 3   -405152.60248  24064669.90248
  22637237.180 5   -614159.070 5   -438154.66047  22637235.11347
  23758145.555 4   -695753.969 4   -475759.96546  23758144.10546
  21619253.594 6   -494998.816 6   -373276.88749  21619253.80149
 20  5 16  5  9 25.0000000  0  9G01G03G07G08G11G17G22G28G30         -0.000293379
  20006366.758 7   -417095.625 7   -305633.96549  20006368.68049
  23430647.469 4   -661109.223 4   -465715.76648  23430651.96548
  20763700.641 7   -345374.758 7   -244130.60249  20763699.38349
  22865460.664 5   -228480.098 5   -168323.36348  22865462.30548
  20944242.945 6   -235333.301 6   -166650.09448  20944241.10548
  24063616.563 4   -593074.980 4   -409467.65648  24063615.80948
  22636156.766 5   -619835.484 5   -442577.84047  22636154.75047
  23756898.297 4   -702308.383 4   -480867.30146  23756897.02346
  21618280.391 6   -500113.133 6   -377262.07049  21618281.16449
 20  5 16  5  9 26.0000000  0  9G01G03G07G08G11G17G22G28G30         -0.000295954
  20005667.438 7   -420771.133 7   -308497.99249  20005669.12149
  23429353.164 4   -667909.910 4   -471014.99648  23429357.53548
  20763103.828 7   -348508.539 7   -246572.51249  20763102.64549
  22865045.789 5   -230660.105 5   -170022.07449  22865047.47349
  20943832.688 6   -237489.398 6   -168330.17248  20943830.98048
  24062562.680 4   -598612.563 4   -413782.65248  24062562.15248
  22635077.188 5   -625511.547 5   -447000.73847  22635074.74647
  23755651.656 4   -708862.852 4   -485974.67246  23755649.90246
  21617307.500 6   -505226.867 6   -381246.80149  21617307.80149
 20  5 16  5  9 27.0000000  0  9G01G03G07G08G11G17G22G28G30         -0.000298531
  20004968.211 7   -424446.129 7   -311361.62949  20004970.12549
  23428059.852 4   -674710.742 4   -476314.34848  23428063.92248
  20762507.945 7   -351641.855 7   -249014.05949  20762506.77049
  22864630.570 5   -232840.305 5   -171720.92648  22864632.50048
  20943422.523 6   -239645.344 6   -170010.12948  20943420.60948
  24061508.781 3   -604150.145 3   -418097.65248  24061508.39548
  22633996.938 6   -631187.469 6   -451423.53147  22633994.39847
  23754404.602 5   -715417.617 5   -491082.29746  23754402.48446
  21616334.313 6   -510340.203 6   -385231.21549  21616335.02349
 20  5 16  5  9 28.0000000  0  9G01G03G07G08G11G17G22G28G30         -0.000301105
  20004268.977 7   -428120.586 7   -314224.84449  20004271.00049
  23426765.492 4   -681511.633 4   -481613.73848  23426769.41048
  20761912.023 7   -354774.668 7   -251455.21549  20761910.47349
  22864215.883 5   -235020.668 5   -173419.91448  22864217.44948
  20943011.844 6   -241801.113 6   -171689.94948  20943010.28948
  24060454.617 3   -609687.738 3   -422412.66448  24060454.45348
  22632916.945 5   -636863.109 5   -455846.10547  22632914.30147
  23753156.781 4   -721972.617 4   -496190.08646  23753155.47746
  21615361.609 6   -515453.016 6   -389215.23049  21615362.04349
 20  5 16  5  9 29.0000000  0  9G01G03G07G08G11G17G22G28G30         -0.000303680
  20003569.852 7   -431794.477 7   -317087.60949  20003571.52749
  23425470.781 4   -688312.594 4   -486913.18448  23425475.57448
  20761315.906 7   -357906.953 7   -253895.95749  20761314.45749
  22863801.289 5   -237201.188 5   -175119.02348  22863802.25048
  20942602.141 6   -243956.711 6   -173369.63748  20942599.83648
  24059401.047 3   -615225.316 3   -426727.64848  24059400.62148
  22631836.734 6   -642538.563 6   -460268.53147  22631834.77347
  23751909.563 5   -728527.734 5   -501297.94946  23751907.85946
  21614388.570 6   -520565.328 6   -393198.85249  21614388.83649
 20  5 16  5  9 30.0000000  0  9G01G03G07G08G11G17G22G28G30         -0.000306257
  20002870.570 7   -435467.879 7   -319950.00449  20002872.77049
  23424177.109 4   -695113.699 4   -492212.74648  23424181.49648
  20760719.602 7   -361038.746 7   -256336.31649  20760718.37949
  22863386.844 5   -239381.895 5   -176818.28148  22863387.77348
  20942191.406 6   -246112.172 6   -175049.21548  20942189.70348
  24058347.297 3   -620762.883 3   -431042.64148  24058346.71148
  22630756.906 5   -648213.832 5   -464690.82047  22630754.52747
  23750661.219 4   -735083.164 4   -506406.08646  23750660.64546
  21613415.883 6   -525677.203 6   -397182.13749  21613416.01649
 20  5 16  5  9 31.0000000  0  9G01G03G07G08G11G17G22G28G30         -0.000308832
  20002171.664 7   -439140.660 7   -322811.90649  20002173.48849
  23422882.242 4   -701914.820 4   -497512.31648  23422886.93848
  20760123.648 7   -364170.035 7   -258776.28549  20760122.84049
  22862971.523 5   -241562.703 5   -178517.61348  22862972.63348
  20941781.445 6   -248267.434 6   -176728.64548  20941779.95748
  24057293.555 4   -626300.402 4   -435357.60248  24057292.85248
  22629677.133 6   -653888.801 6   -469112.87147  22629674.58247
  23749414.164 4   -741638.762 4   -511514.34446  23749412.91846
  21612443.297 6   -530788.551 6   -401165.00849  21612443.52349
 20  5 16  5  9 32.0000000  0  9G01G03G07G08G11G17G22G28G30         -0.000311409
  20001472.656 7   -442812.902 7   -325673.39549  20001474.87549
  23421589.156 4   -708716.039 4   -502811.96548  23421592.55148
  20759528.219 7   -367300.801 7   -261215.84849  20759526.85549
  22862556.180 5   -243743.711 5   -180217.09848  22862557.99648
  20941371.039 6   -250422.492 6   -178407.91848  20941369.95748
  24056240.281 3   -631837.945 3   -439672.57048  24056239.49248
  22628597.352 6   -659563.594 6   -473534.78947  22628594.62947
  23748166.680 5   -748194.555 5   -516622.75446  23748165.53546
  21611470.531 6   -535899.422 6   -405147.50849  21611471.26649
 20  5 16  5  9 33.0000000  0  9G01G03G07G08G11G17G22G28G30         -0.000313986
  20000774.102 7   -446484.629 7   -328534.48449  20000776.19149
  23420294.344 4   -715517.313 4   -508111.65648  23420298.56348
  20758932.703 7   -370431.051 7   -263655.00449  20758931.04749
  22862141.641 5   -245924.848 5   -181916.68448  22862142.75448
  20940961.383 6   -252577.367 6   -180087.03548  20940959.24648
  24055186.789 3   -637375.441 3   -443987.49648  24055185.84048
  22627517.367 6   -665238.090 6   -477956.47747  22627514.54747
  23746919.125 5   -754750.539 5   -521731.31346  23746917.84046
  21610498.039 6   -541009.758 6   -409129.58649  21610498.85949
 20  5 16  5  9 34.0000000  0  9G01G03G07G08G11G17G22G28G30         -0.000316561
  20000075.531 7   -450155.777 7   -331395.11749  20000077.54749
  23419000.813 4   -722318.660 4   -513411.40248  23419004.07048
  20758336.836 7   -373560.781 7   -266093.75049  20758335.53549
  22861726.289 5   -248106.133 5   -183616.38748  22861727.36748
  20940551.477 6   -254732.055 6   -181766.01248  20940549.71948
  24054133.133 4   -642912.938 4   -448302.42648  24054131.90648
  22626437.711 6   -670912.359 6   -482377.98847  22626434.87947
  23745671.719 5   -761306.762 5   -526840.06646  23745670.57846
  21609525.906 6   -546119.645 6   -413111.32049  21609526.36349
 20  5 16  5  9 35.0000000  0  9G01G03G07G08G11G17G22G28G30         -0.000319138
  19999377.289 7   -453826.383 7   -334255.33249  19999379.12149
  23417705.438 4   -729120.129 4   -518711.24648  23417709.84848
  20757741.828 7   -376690.035 7   -268532.13349  20757739.79349
  22861311.086 5   -250287.551 5   -185316.19148  22861312.32048
  20940140.961 6   -256886.602 6   -183444.87548  20940139.52748
  24053078.977 4   -648450.395 4   -452617.32448  24053078.21148
  22625357.930 6   -676586.500 6   -486799.38747  22625354.82847
  23744424.367 5   -767863.203 5   -531948.98046  23744422.78946
  21608552.938 6   -551229.047 6   -417092.67249  21608554.03149
 20  5 16  5  9 36.0000000  0  9G01G03G07G08G11G17G22G28G30         -0.000321714
  19998678.977 7   -457496.445 7   -337115.12549  19998680.85949
  23416411.406 4   -735921.602 4   -524011.08648  23416416.12548
  20757146.125 7   -379818.766 7   -270970.10949  20757144.79749
  22860896.070 5   -252469.141 5   -187016.13348  22860897.35548
  20939731.227 6   -259040.953 6   -185123.59048  20939729.74648
  24052025.469 4   -653987.883 4   -456932.25148  24052024.45348
  22624278.281 6   -682260.348 6   -491220.56647  22624275.70347
  23743176.289 4   -774419.828 4   -537058.03546  23743175.61746
  21607581.117 6   -556337.965 6   -421073.64549  21607581.91849
 20  5 16  5  9 37.0000000  0  9G01G03G07G08G11G17G22G28G30         -0.000324289
  19997980.367 7   -461165.941 7   -339974.46549  19997982.41449
  23415117.070 4   -742723.203 4   -529311.04348  23415121.07048
  20756550.813 7   -382946.961 7   -273407.66449  20756549.63749
  22860480.805 5   -254650.875 5   -188716.18448  22860482.16848
  20939321.086 6   -261195.117 6   -186802.16848  20939319.36748
  24050971.695 4   -659525.273 4   -461247.10548  24050970.89548
  22623198.570 6   -687933.938 6   -495641.54347  22623196.04347
  23741927.961 5   -780976.664 5   -542167.25046  23741927.95746
  21606609.320 6   -561446.359 6   -425054.21549  21606610.03949
 20  5 16  5  9 38.0000000  0  9G01G03G07G08G11G17G22G28G30         -0.000326866
  19997282.250 7   -464834.793 7   -342833.31349  19997284.17249
  23413823.250 4   -749524.777 4   -534610.97748  23413827.11348
  20755955.414 7   -386074.621 7   -275844.80149  20755954.17249
  22860065.719 5   -256832.719 5   -190416.32048  22860066.78548
  20938911.281 6   -263349.039 6   -188480.54748  20938909.67648
  24049917.750 4   -665062.625 4   -465561.93048  24049917.06648
  22622118.750 6   -693607.277 6   -500062.32847  22622116.53947
  23740680.711 4   -787533.625 4   -547276.57046  23740680.11746
  21605637.070 6   -566554.223 6   -429034.37149  21605638.01249
 20  5 16  5  9 39.0000000  0  9G01G03G07G08G11G17G22G28G30         -0.000329443
  19996584.352 7   -468503.117 7   -345691.75049  19996585.96949
  23412528.508 4   -756326.430 4   -539910.96948  23412532.60248
  20755360.508 7   -389201.730 7   -278281.50849  20755358.92249
  22859650.055 5   -259014.672 5   -192116.54748  22859651.55548
  20938501.758 6   -265502.773 6   -190158.78548  20938500.18848
  24048864.242 4   -670599.941 4   -469876.71548  24048863.56648
  22621039.383 6   -699280.375 6   -504482.92247  22621036.85947
  23739432.453 4   -794090.813 4   -552386.06346  23739432.24646
  21604665.297 6   -571661.570 6   -433014.12549  21604666.48449
 20  5 16  5  9 40.0000000  0  9G01G03G07G08G11G17G22G28G30         -0.000332020
  19995886.336 7   -472170.809 7   -348549.68849  19995887.96149
  23411234.750 4   -763128.105 4   -545210.98048  23411238.07448
  20754765.633 7   -392328.242 7   -280717.75449  20754764.22349
  22859234.797 5   -261196.738 5   -193816.85948  22859236.45748
  20938092.227 6   -267656.246 6   -191836.81348  20938090.19148
  24047810.508 4   -676137.168 4   -474191.41848  24047809.85248
  22619959.813 6   -704953.109 6   -508903.23447  22619957.19547
  23738184.836 4   -800648.086 4   -557495.62946  23738184.63746
  21603693.500 6   -576768.328 6   -436993.42249  21603694.46549
 20  5 16  5  9 41.0000000  0  9G01G03G07G08G11G17G22G28G30         -0.000334595
  19995188.539 7   -475838.043 7   -351407.27749  19995190.52349
  23409941.117 4   -769929.930 4   -550511.10548  23409943.88348
  20754170.563 7   -395454.371 7   -283153.70749  20754169.38349
  22858819.875 5   -263379.047 5   -195517.35948  22858820.65248
  20937682.406 6   -269809.652 6   -193514.79748  20937680.35548
  24046756.664 4   -681674.492 4   -478506.20748  24046755.87148
  22618880.391 5   -710625.758 5   -513323.47347  22618877.95347
  23736936.781 4   -807205.719 4   -562605.46946  23736936.64146
  21602721.781 6   -581874.711 6   -440972.42249  21602722.91049
 20  5 16  5  9 42.0000000  0  9G01G03G07G08G11G17G22G28G30         -0.000337172
  19994491.016 7   -479504.723 7   -354264.42649  19994492.44549
  23408646.031 4   -776731.809 4   -555811.26248  23408649.53148
  20753575.609 7   -398579.973 7   -285589.24649  20753574.86349
  22858404.086 5   -265561.480 5   -197217.96148  22858405.12548
  20937272.234 6   -271962.879 6   -195192.63348  20937270.48848
  24045702.391 4   -687211.766 4   -482820.94547  24045702.22747
  22617800.680 5   -716298.156 5   -517743.52347  22617798.24647
  23735688.570 4   -813763.504 4   -567715.43446  23735688.81346
  21601750.078 6   -586980.598 6   -444951.03549  21601751.17649
 20  5 16  5  9 43.0000000  0  9G01G03G07G08G11G17G22G28G30         -0.000339748
  19993793.281 7   -483170.840 7   -357121.14549  19993795.02349
  23407351.398 4   -783533.813 4   -561111.51648  23407354.81348
  20752981.273 7   -401705.063 7   -288024.37949  20752980.18049
  22857989.234 5   -267744.102 5   -198918.70748  22857989.73048
  20936862.625 6   -274115.898 6   -196870.30548  20936860.71148
  24044649.281 5   -692749.012 5   -487135.68048  24044648.02048
  22616721.516 6   -721970.348 6   -522163.40647  22616719.27747
  23734440.992 4   -820321.523 4   -572825.57846  23734440.61346
  21600778.445 6   -592085.992 6   -448929.26249  21600779.97749
 20  5 16  5  9 44.0000000  0  9G01G03G07G08G11G17G22G28G30         -0.000342325
  19993095.477 7   -486836.383 7   -359977.41449  19993097.60249
  23406056.961 4   -790335.816 4   -566411.77748  23406060.61748
  20752386.594 7   -404829.621 7   -290459.10249  20752384.92249
  22857574.594 5   -269926.863 5   -200619.56348  22857575.10548
  20936453.031 6   -276268.758 6   -198547.85548  20936451.39848
  24043595.555 5   -698286.238 5   -491450.39847  24043594.38347
  22615642.438 6   -727642.258 6   -526583.07047  22615639.28147
  23733192.891 4   -826879.688 4   -577935.82846  23733192.59046
  21599807.039 6   -597190.875 6   -452907.09049  21599808.19949
 20  5 16  5  9 45.0000000  0  9G01G03G07G08G11G17G22G28G30         -0.000344902
  19992398.227 7   -490501.316 7   -362833.20749  19992400.16049
  23404762.797 4   -797137.848 4   -571712.06348  23404765.89148
  20751792.156 7   -407953.594 7   -292893.36749  20751791.29349
  22857158.148 5   -272109.664 5   -202320.44148  22857159.63348
  20936043.289 6   -278421.340 6   -200225.19148  20936041.97748
  24042541.359 5   -703823.379 5   -495765.05947  24042540.69947
  22614563.023 6   -733313.836 6   -531002.47747  22614560.33247
  23731944.641 4   -833438.016 4   -583046.20746  23731944.91046
  21598835.883 6   -602295.203 6   -456884.49649  21598837.14149
 20  5 16  5  9 46.0000000  0  9G01G03G07G08G11G17G22G28G30         -0.000347479
  19991700.648 7   -494165.598 7   -365688.49249  19991702.36749
  23403467.984 4   -803939.879 4   -577012.34448  23403472.30948
  20751197.977 7   -411076.969 7   -295327.16849  20751196.46949
  22856742.945 5   -274292.520 5   -204021.36348  22856744.21948
  20935633.875 6   -280573.648 6   -201902.32048  20935632.62548
  24041487.664 5   -709360.340 5   -500079.57047  24041486.97347
  22613484.133 6   -738985.117 6   -535421.66447  22613480.81347
  23730696.984 5   -839996.473 5   -588156.68846  23730696.66446
  21597864.813 6   -607398.906 6   -460861.40249  21597865.91049
 20  5 16  5  9 47.0000000  0  9G01G03G07G08G11G17G22G28G30         -0.000350056
  19991003.492 7   -497829.328 7   -368543.34849  19991005.43449
  23402173.914 4   -810741.910 4   -582312.62148  23402177.29348
  20750603.570 7   -414199.813 7   -297760.55149  20750602.34849
  22856327.438 5   -276475.551 5   -205722.43048  22856328.60248
  20935224.383 6   -282725.773 6   -203579.30548  20935222.62948
  24040434.617 5   -714897.367 5   -504394.14848  24040433.98448
  22612404.461 6   -744656.133 6   -539840.64147  22612401.51247
  23729448.563 4   -846555.098 4   -593267.31346  23729448.74646
  21596893.922 6   -612502.141 6   -464837.95349  21596895.04349
 20  5 16  5  9 48.0000000  0  9G01G03G07G08G11G17G22G28G30         -0.000352634
  19990306.602 7   -501492.484 7   -371397.75449  19990308.27349
  23400879.266 5   -817544.059 5   -587612.99248  23400882.96548
  20750008.977 7   -417322.145 7   -300193.53949  20750007.84849
  22855912.148 5   -278658.680 5   -207423.57448  22855913.27048
  20934815.000 6   -284877.684 6   -205256.11748  20934813.01648
  24039380.742 4   -720434.309 4   -508708.64848  24039379.95348
  22611325.047 6   -750326.922 6   -544259.43447  22611322.69547
  23728200.430 4   -853113.934 4   -598378.09446  23728200.27046
  21595922.789 6   -617604.879 6   -468814.11749  21595923.67649
 20  5 16  5  9 49.0000000  0  9G01G03G07G08G11G17G22G28G30         -0.000355211
  19989609.609 7   -505155.172 7   -374251.79749  19989611.60249
  23399585.391 5   -824346.355 5   -592913.48048  23399588.11748
  20749415.188 7   -420444.059 7   -302626.19949  20749413.66049
  22855496.688 5   -280842.055 5   -209124.90248  22855497.35248
  20934405.422 6   -287029.523 6   -206932.88348  20934403.50448
  24038326.883 5   -725971.324 5   -513023.21148  24038326.41448
  22610246.359 6   -755997.559 6   -548678.11747  22610243.66447
  23726952.242 3   -859673.078 3   -603489.10546  23726952.37146
  21594951.289 6   -622707.184 6   -472789.94149  21594953.07049
 20  5 16  5  9 50.0000000  0  9G01G03G07G08G11G17G22G28G30         -0.000357788
  19988912.945 7   -508817.285 7   -377105.39549  19988914.79349
  23398291.070 5   -831148.700 5   -598214.00648  23398293.80548
  20748821.148 7   -423565.398 7   -305058.41449  20748819.77349
  22855080.984 5   -283025.559 5   -210826.32848  22855081.97748
  20933996.047 6   -289181.141 6   -208609.46548  20933994.29348
  24037272.828 4   -731508.273 4   -517337.71948  24037272.73848
  22609167.539 6   -761667.926 6   -553096.58647  22609164.58647
  23725704.750 4   -866232.367 4   -608600.23446  23725704.10946
  21593980.781 6   -627808.973 6   -476765.35549  21593981.95349
 20  5 16  5  9 51.0000000  0  9G01G03G07G08G11G17G22G28G30         -0.000360365
  19988216.008 7   -512478.813 7   -379958.52749  19988217.69949
  23396995.906 5   -837951.035 5   -603514.52048  23396999.89848
  20748227.297 7   -426686.227 7   -307490.23449  20748226.03149
  22854665.797 5   -285209.215 5   -212527.88348  22854666.61748
  20933586.398 6   -291332.543 6   -210285.88348  20933584.98848
  24036219.820 4   -737045.211 4   -521652.20747  24036219.02347
  22608088.641 6   -767338.047 6   -557514.85947  22608085.64147
  23724456.297 4   -872791.852 4   -613711.52046  23724455.88346
  21593010.047 6   -632910.238 6   -480740.36349  21593011.32849
 20  5 16  5  9 52.0000000  0  9G01G03G07G08G11G17G22G28G30         -0.000362942
  19987519.117 7   -516139.707 7   -382811.17649  19987520.95749
  23395701.875 5   -844753.438 5   -608815.09448  23395704.89848
  20747633.641 7   -429806.465 7   -309921.58249  20747632.14549
  22854250.602 5   -287392.887 5   -214229.45748  22854251.35948
  20933177.375 6   -293483.723 6   -211962.11748  20933175.87548
  24035166.023 5   -742582.043 5   -525966.62547  24035165.23047
  22607009.578 6   -773007.859 6   -561932.89147  22607006.74247
  23723207.219 3   -879351.457 3   -618822.88746  23723207.48446
  21592039.195 6   -638010.973 6   -484714.96149  21592040.85949
 20  5 16  5  9 53.0000000  0  9G01G03G07G08G11G17G22G28G30         -0.000365520
  19986822.781 7   -519800.066 7   -385663.40649  19986824.59849
  23394407.039 5   -851555.891 5   -614115.69548  23394410.71548
  20747040.008 7   -432926.219 7   -312352.56649  20747038.48849
  22853834.633 5   -289576.770 5   -215931.18848  22853835.85948
  20932767.992 6   -295634.715 6   -213638.21948  20932766.12948
  24034112.234 4   -748118.859 4   -530281.02048  24034111.70748
  22605931.172 6   -778677.461 6   -566350.76647  22605927.79747
  23721960.219 4   -885911.289 4   -623934.43846  23721959.10946
  21591068.555 6   -643111.180 6   -488689.15649  21591070.27349
 20  5 16  5  9 54.0000000  0  9G01G03G07G08G11G17G22G28G30         -0.000368097
  19986126.430 7   -523459.852 7   -388515.18449  19986128.43449
  23393112.500 5   -858358.387 5   -619416.34048  23393116.01648
  20746446.430 7   -436045.422 7   -314783.11349  20746444.80549
  22853419.102 5   -291760.750 5   -217632.99648  22853419.96948
  20932358.102 6   -297785.496 6   -215314.15248  20932356.88348
  24033058.398 4   -753655.637 4   -534595.38748  24033058.38348
  22604852.063 6   -784346.781 6   -570768.41447  22604848.69147
  23720710.875 3   -892471.277 3   -629046.12146  23720710.92646
  21590098.672 6   -648210.891 6   -492662.95749  21590099.75449
 20  5 16  5  9 55.0000000  0  9G01G03G07G08G11G17G22G28G30         -0.000370674
  19985429.984 7   -527118.957 7   -391366.43849  19985432.14149
  23391818.461 5   -865160.848 5   -624716.95348  23391821.38348
  20745852.531 7   -439163.996 7   -317213.17249  20745851.05949
  22853003.258 5   -293944.805 5   -219334.85548  22853004.65248
  20931949.305 6   -299936.004 6   -216989.87948  20931947.33648
  24032004.250 4   -759192.254 4   -538909.63347  24032004.50847
  22603773.516 6   -790015.793 6   -575185.82047  22603769.99247
  23719463.031 4   -899031.379 4   -634157.89846  23719462.43446
  21589127.852 6   -653309.980 6   -496636.27049  21589129.37949
 20  5 16  5  9 56.0000000  0  9G01G03G07G08G11G17G22G28G30         -0.000373253
  19984734.109 7   -530777.461 7   -394217.21949  19984735.74649
  23390523.594 4   -871963.348 4   -630017.59048  23390526.89848
  20745259.469 7   -442282.023 7   -319642.80149  20745258.07849
  22852588.555 5   -296128.949 5   -221036.78148  22852589.09848
  20931540.148 6   -302086.250 6   -218665.39848  20931538.53948
  24030951.055 4   -764728.824 4   -543223.84448  24030951.03948
  22602694.688 6   -795684.484 6   -579602.98447  22602690.88347
  23718214.484 4   -905591.613 4   -639269.76246  23718214.12546
  21588157.766 6   -658408.543 6   -500609.16849  21588159.87149
 20  5 16  5  9 57.0000000  0  9G01G03G07G08G11G17G22G28G30         -0.000375830
  19984037.578 7   -534435.422 7   -397067.57849  19984039.41049
  23389229.016 5   -878765.879 5   -635318.25848  23389232.40648
  20744666.656 7   -445399.496 7   -322072.00449  20744664.58249
  22852172.320 5   -298313.219 5   -222738.82048  22852173.44548
  20931131.047 6   -304236.340 6   -220340.79748  20931129.31348
  24029897.109 4   -770265.352 4   -547538.02047  24029897.40247
  22601615.930 6   -801352.938 6   -584019.96547  22601612.48847
  23716966.227 4   -912152.027 4   -644381.78146  23716965.67646
  21587187.867 6   -663506.590 6   -504581.67249  21587189.27049
 20  5 16  5  9 58.0000000  0  9G01G03G07G08G11G17G22G28G30         -0.000378407
  19983341.602 7   -538092.758 7   -399917.44949  19983343.16449
  23387934.523 5   -885568.457 5   -640618.96148  23387938.03148
  20744072.906 7   -448516.434 7   -324500.78549  20744071.58649
  22851756.953 5   -300497.637 5   -224440.96148  22851757.63748
  20930722.039 6   -306386.195 6   -222016.00048  20930720.37948
  24028844.070 4   -775801.828 4   -551852.16447  24028843.39547
  22600536.813 6   -807021.113 6   -588436.72747  22600534.09847
  23715717.766 4   -918712.605 4   -649493.93446  23715717.32046
  21586217.672 6   -668604.078 6   -508553.73449  21586219.21549
 20  5 16  5  9 59.0000000  0  9G01G03G07G08G11G17G22G28G30         -0.000380985
  19982645.938 7   -541749.563 7   -402766.91049  19982647.52749
  23386640.672 5   -892371.078 5   -645919.70748  23386643.45748
  20743479.992 7   -451632.836 7   -326929.15249  20743478.39549
  22851340.727 5   -302682.152 5   -226143.17648  22851342.25048
  20930312.477 6   -308535.852 6   -223691.05948  20930310.96948
  24027790.258 4   -781338.242 4   -556166.25447  24027790.03147
  22599458.578 6   -812689.055 6   -592853.30947  22599455.37547
  23714469.359 4   -925273.395 4   -654606.24246  23714468.96546
  21585247.633 6   -673701.070 6   -512525.41849  21585249.14149
 20  5 16  5 10  0.0000000  0  9G01G03G07G08G11G17G22G28G30         -0.000383562
  19981950.148 7   -545405.785 7   -405615.91449  19981951.77349
  23385345.930 5   -899173.801 5   -651220.52348  23385349.02748
  20742886.898 7   -454748.766 7   -329357.14849  20742885.45349
  22850925.117 5   -304866.855 5   -227845.54348  22850926.54748
  20929903.992 6   -310685.340 6   -225365.98448  20929902.00848
  24026736.438 4   -786874.680 4   -560480.35947  24026736.22347
  22598380.336 6   -818356.750 6   -597269.68847  22598377.16047
  23713220.258 4   -931834.391 4   -659718.70346  23713220.15646
  21584277.695 6   -678797.582 6   -516496.73049  21584279.26249
 20  5 16  5 10  1.0000000  0  9G01G03G07G08G11G17G22G28G30         -0.000386141
  19981254.305 7   -549061.441 7   -408464.48049  19981256.02749
  23384051.875 5   -905976.563 5   -656521.37948  23384054.52348
  20742294.125 7   -457864.125 7   -331784.69949  20742292.71149
  22850509.117 5   -307051.668 5   -229547.99248  22850510.89148
  20929494.891 6   -312834.625 6   -227040.75048  20929493.11748
  24025683.930 4   -792411.063 4   -564794.43847  24025682.95347
  22597301.820 6   -824024.195 6   -601685.87547  22597298.50447
  23711972.648 4   -938395.578 4   -664831.32046  23711971.94546
  21583308.070 6   -683893.594 6   -520467.65249  21583309.58649
 20  5 16  5 10  2.0000000  0  9G01G03G07G08G11G17G22G28G30         -0.000388718
  19980558.758 7   -552716.543 7   -411312.60949  19980560.49249
  23382756.555 5   -912779.355 5   -661822.24248  23382759.91848
  20741701.484 7   -460978.988 7   -334211.86749  20741699.92249
  22850093.406 5   -309236.633 5   -231250.57048  22850095.05948
  20929086.031 6   -314983.703 6   -228715.36748  20929084.46948
  24024629.805 4   -797947.441 4   -569108.49248  24024629.19948
  22596223.039 6   -829691.418 6   -606101.89547  22596219.82047
  23710723.672 4   -944956.957 4   -669944.08246  23710723.32846
  21582338.609 6   -688989.098 6   -524438.17649  21582339.77749
 20  5 16  5 10  3.0000000  0  9G01G03G07G08G11G17G22G28G30         -0.000391296
  19979863.766 7   -556371.043 7   -414160.27349  19979865.20349
  23381461.492 5   -919582.176 5   -667123.14148  23381465.50048
  20741108.828 7   -464093.273 7   -336638.58649  20741107.34849
  22849678.531 5   -311421.699 5   -232953.22348  22849678.85548
  20928677.070 6   -317132.594 6   -230389.82848  20928675.11748
  24023576.375 4   -803483.711 4   -573422.47347  24023575.68847
  22595144.422 6   -835358.332 6   -610517.67247  22595141.48847
  23709475.016 4   -951518.445 4   -675056.91846  23709474.91446
  21581368.844 6   -694084.016 6   -528408.23449  21581370.51249
 20  5 16  5 10  4.0000000  0  9G01G03G07G08G11G17G22G28G30         -0.000393873
  19979168.047 7   -560024.906 7   -417007.43849  19979169.76649
  23380167.664 5   -926385.020 5   -672424.05148  23380171.32848
  20740516.234 7   -467206.984 7   -339064.85249  20740514.85949
  22849262.156 5   -313606.875 5   -234655.95748  22849262.93448
  20928268.117 6   -319281.195 6   -232064.05948  20928266.16448
  24022522.586 3   -809019.875 3   -577736.36347  24022522.44147
  22594066.289 6   -841024.949 6   -614933.22748  22594063.55548
  23708226.547 4   -958080.100 4   -680169.90346  23708226.26646
  21580399.516 6   -699178.375 6   -532377.86749  21580400.79749
 20  5 16  5 10  5.0000000  0  9G01G03G07G08G11G17G22G28G30         -0.000396452
  19978473.008 7   -563678.230 7   -419854.18449  19978474.80549
  23378873.227 5   -933187.883 5   -677724.97348  23378876.53148
  20739923.859 7   -470320.176 7   -341490.71949  20739921.75849
  22848846.195 5   -315792.145 5   -236358.76248  22848847.19548
  20927859.766 6   -321429.617 6   -233738.15248  20927857.26648
  24021468.781 4   -814556.008 4   -582050.23047  24021468.65647
  22592987.938 6   -846691.324 6   -619348.57848  22592985.13748
  23706977.719 4   -964641.965 4   -685283.05146  23706977.48846
  21579430.320 6   -704272.246 6   -536347.11749  21579431.74249
 20  5 16  5 10  6.0000000  0  9G01G03G07G08G11G17G22G28G30         -0.000399031
  19977777.820 7   -567330.914 7   -422700.43449  19977779.05949
  23377578.563 5   -939990.789 5   -683025.93848  23377581.95748
  20739331.617 7   -473432.777 7   -343916.12149  20739329.61349
  22848430.414 5   -317977.523 5   -238061.64848  22848431.65648
  20927451.055 6   -323577.785 6   -235412.04748  20927448.82448
  24020415.242 3   -820092.094 3   -586364.06647  24020415.50847
  22591909.664 6   -852357.387 6   -623763.69148  22591906.75048
  23705728.703 3   -971203.941 3   -690396.28546  23705729.03146
  21578460.992 6   -709365.559 6   -540315.93849  21578462.17249
 20  5 16  5 10  7.0000000  0  9G01G03G07G08G11G17G22G28G30         -0.000401608
  19977082.938 7   -570983.012 7   -425546.21949  19977084.37549
  23376284.469 5   -946793.703 5   -688326.91048  23376287.70748
  20738739.328 6   -476544.855 6   -346341.11749  20738737.48449
  22848014.438 5   -320163.020 5   -239764.62948  22848016.00848
  20927041.984 6   -325725.758 6   -237085.78948  20927039.74248
  24019363.023 3   -825628.066 3   -590677.81347  24019361.63347
  22590831.836 6   -858023.203 6   -628178.61348  22590828.41848
  23704480.531 4   -977766.066 4   -695509.62146  23704480.08646
  21577491.961 6   -714458.352 6   -544284.34849  21577492.76649
 20  5 16  5 10  8.0000000  0  9G01G03G07G08G11G17G22G28G30         -0.000404186
  19976388.133 7   -574634.566 7   -428391.59049  19976389.96149
  23374989.273 5   -953596.660 5   -693627.91448  23374993.09448
  20738147.266 6   -479656.383 6   -348765.68849  20738145.50049
  22847599.094 5   -322348.637 5   -241467.71148  22847599.86348
  20926633.320 6   -327873.516 6   -238759.37148  20926631.18448
  24018309.344 3   -831164.063 3   -594991.59047  24018308.71547
  22589753.539 6   -863688.742 6   -632593.31647  22589750.80947
  23703231.680 3   -984328.406 3   -700623.14146  23703231.18046
  21576522.438 6   -719550.609 6   -548252.34049  21576523.64549
 20  5 16  5 10  9.0000000  0  9G01G03G07G08G11G17G22G28G30         -0.000406765
  19975693.422 7   -578285.445 7   -431236.43049  19975695.04749
  23373694.219 5   -960399.633 5   -698928.93448  23373698.65648
  20737555.289 6   -482767.324 6   -351189.79349  20737552.90249
  22847182.141 5   -324534.313 5   -243170.83648  22847183.87948
  20926224.703 6   -330021.027 6   -240432.75848  20926222.50448
  24017254.969 3   -836699.945 3   -599305.26647  24017254.92247
  22588675.422 6   -869353.988 6   -637007.79747  22588672.36747
  23701982.992 4   -990890.887 4   -705736.75446  23701982.29746
  21575553.867 6   -724642.332 6   -552219.91849  21575554.90249
 20  5 16  5 10 10.0000000  0  9G01G03G07G08G11G17G22G28G30         -0.000409344
  19974998.711 7   -581935.844 7   -434080.89149  19975000.23849
  23372399.156 5   -967202.695 5   -704230.02048  23372403.73848
  20736963.250 6   -485877.801 6   -353613.54349  20736961.13749
  22846766.633 5   -326720.211 5   -244874.13348  22846768.23448
  20925816.203 6   -332168.406 6   -242106.04748  20925813.88748
  24016201.375 3   -842235.871 3   -603618.96147  24016201.55947
  22587597.336 6   -875019.051 6   -641422.12547  22587594.46147
  23700733.969 4   -997453.582 4   -710850.53946  23700733.69546
  21574584.930 6   -729733.578 6   -556187.12549  21574585.87949
 20  5 16  5 10 11.0000000  0  9G01G03G07G08G11G17G22G28G30         -0.000411921
  19974304.109 7   -585585.617 7   -436924.87549  19974305.55149
  23371105.242 5   -974005.793 5   -709531.12948  23371109.57848
  20736371.680 6   -488987.707 6   -356036.84849  20736369.36749
  22846350.734 5   -328906.195 5   -246577.50048  22846352.57448
  20925407.336 6   -334315.555 6   -243779.15248  20925405.12948
  24015148.953 3   -847771.707 3   -607932.59847  24015148.07847
  22586519.336 6   -880683.809 6   -645836.22348  22586516.16848
  23699484.742 3  -1004016.441 3   -715964.44946  23699484.54746
  21573616.195 6   -734824.273 6   -560153.89849  21573616.89549
 20  5 16  5 10 12.0000000  0  9G01G03G07G08G11G17G22G28G30         -0.000414499
  19973609.813 7   -589234.820 7   -439768.41449  19973611.09849
  23369811.117 4   -980808.934 4   -714832.27748  23369815.05548
  20735780.023 6   -492097.090 6   -358459.74649  20735777.81649
  22845934.508 5   -331092.316 5   -248280.97748  22845936.43448
  20924998.797 6   -336462.496 6   -245452.08648  20924996.38748
  24014096.109 4   -853307.492 4   -612246.18447  24014094.63347
  22585441.555 6   -886348.309 6   -650250.12947  22585438.41447
  23698236.688 3  -1010579.441 3   -721078.46946  23698236.02746
  21572648.000 6   -739914.477 6   -564120.29349  21572648.43849
 20  5 16  5 10 13.0000000  0  9G01G03G07G08G11G17G22G28G30         -0.000417078
  19972915.672 7   -592883.402 7   -442611.45749  19972916.90649
  23368516.055 4   -987612.063 4   -720133.40648  23368520.49648
  20735188.500 6   -495205.883 6   -360882.18849  20735186.35549
  22845518.766 5   -333278.508 5   -249984.50048  22845520.92248
  20924590.227 6   -338609.188 6   -247124.83248  20924588.00048
  24013042.313 3   -858843.168 3   -616559.69147  24013041.21547
  22584363.547 6   -892012.508 6   -654663.79347  22584360.35247
  23696986.992 3  -1017142.648 3   -726192.65246  23696987.03946
  21571679.172 6   -745004.066 6   -568086.20749  21571680.14849
 20  5 16  5 10 14.0000000  0  9G01G03G07G08G11G17G22G28G30         -0.000419657
  19972221.125 7   -596531.387 7   -445454.04349  19972222.72749
  23367221.672 4   -994415.203 4   -725434.55148  23367226.04348
  20734596.953 6   -498314.117 6   -363304.18449  20734594.87149
  22845102.727 5   -335464.820 5   -251688.12148  22845104.58248
  20924181.844 6   -340755.633 6   -248797.39148  20924179.68848
  24011989.117 4   -864378.777 4   -620873.16047  24011987.83247
  22583285.984 6   -897676.402 6   -659077.21148  22583282.73848
  23695739.000 4  -1023705.984 4   -731306.95346  23695737.70346
  21570710.461 6   -750093.125 6   -572051.71149  21570711.13349
 20  5 16  5 10 15.0000000  0  9G01G03G07G08G11G17G22G28G30         -0.000422235
  19971527.258 7   -600178.840 7   -448296.21549  19971528.69149
  23365926.852 4  -1001218.426 4   -730735.76648  23365931.55148
  20734005.719 6   -501421.848 6   -365725.78949  20734003.14549
  22844686.844 5   -337651.320 5   -253391.88748  22844688.44548
  20923773.695 6   -342901.926 6   -250469.82448  20923770.96548
  24010935.641 4   -869914.371 4   -625186.61347  24010934.49647
  22582208.023 6   -903340.070 6   -663490.45348  22582205.20748
  23694489.984 4  -1030269.469 4   -736421.35246  23694489.19146
  21569742.242 6   -755181.715 6   -576016.85249  21569742.81649
 20  5 16  5 10 16.0000000  0  9G01G03G07G08G11G17G22G28G30         -0.000424814
  19970833.414 7   -603825.645 7   -451137.88349  19970834.86749
  23364632.133 4  -1008021.660 4   -736036.98848  23364636.89548
  20733414.125 6   -504528.984 6   -368146.93849  20733411.61749
  22844270.133 5   -339837.844 5   -255095.67248  22844272.39848
  20923365.031 6   -345047.961 6   -252142.07448  20923362.44548
  24009881.781 4   -875449.902 4   -629500.02747  24009881.06647
  22581129.977 6   -909003.453 6   -667903.47347  22581127.27347
  23693240.430 4  -1036833.160 4   -741535.90646  23693240.08646
  21568774.258 6   -760269.734 6   -579981.54349  21568774.76249
 20  5 16  5 10 17.0000000  0  9G01G03G07G08G11G17G22G28G30         -0.000427391
  19970139.242 7   -607471.914 7   -453979.12949  19970140.88749
  23363337.289 4  -1014824.984 4   -741338.27748  23363342.43048
  20732823.258 6   -507635.625 6   -370567.69949  20732820.56649
  22843854.547 5   -342024.578 5   -256799.62148  22843856.51648
  20922956.930 6   -347193.844 6   -253814.18848  20922954.63348
  24008828.680 4   -880985.461 4   -633813.44147  24008827.82447
  22580052.461 6   -914666.617 6   -672316.33247  22580049.88747
  23691991.297 4  -1043397.016 4   -746650.60246  23691991.07446
  21567806.266 6   -765357.277 6   -583945.86749  21567806.87149
 20  5 16  5 10 18.0000000  0  9G01G03G07G08G11G17G22G28G30         -0.000429972
  19969445.617 7   -611117.609 7   -456819.93449  19969447.03149
  23362042.820 4  -1021628.359 4   -746639.60548  23362047.74648
  20732232.086 7   -510741.723 7   -372988.03949  20732229.87949
  22843438.164 5   -344211.395 5   -258503.64148  22843440.19948
  20922548.477 6   -349339.508 6   -255486.13348  20922545.96148
  24007774.469 4   -886520.902 4   -638126.76247  24007774.51247
  22578974.742 6   -920329.477 6   -676728.95348  22578972.44148
  23690742.336 4  -1049961.043 4   -751765.42646  23690742.02046
  21566837.805 6   -770444.285 6   -587909.76649  21566838.44549
 20  5 16  5 10 19.0000000  0  9G01G03G07G08G11G17G22G28G30         -0.000432550
  19968751.891 7   -614762.703 7   -459660.26649  19968752.97749
  23360748.336 4  -1028431.676 4   -751940.89548  23360752.97748
  20731641.305 6   -513847.285 6   -375407.95749  20731638.73049
  22843021.703 5   -346398.332 5   -260207.75448  22843024.34048
  20922140.445 6   -351484.949 6   -257157.90648  20922137.78948
  24006721.500 4   -892056.313 4   -642440.05547  24006720.90647
  22577897.164 6   -925992.102 6   -681141.39148  22577894.78548
  23689492.969 4  -1056525.273 4   -756880.41046  23689492.79746
  21565870.023 6   -775530.742 6   -591873.24249  21565870.84449
 20  5 16  5 10 20.0000000  0  9G01G03G07G08G11G17G22G28G30         -0.000435129
  19968058.359 7   -618407.230 7   -462500.16049  19968059.46149
  23359453.695 4  -1035235.124 4   -757242.28248  23359458.18448
  20731050.242 7   -516952.285 7   -377827.44149  20731048.11349
  22842605.680 5   -348585.387 5   -261911.94548  22842607.85948
  20921731.898 6   -353630.203 6   -258829.52748  20921729.44548
  24005667.828 4   -897591.691 4   -646753.33647  24005667.07047
  22576819.719 6   -931654.430 6   -685553.59448  22576817.27748
  23688244.313 4  -1063089.645 4   -761995.50846  23688243.49646
  21564902.328 6   -780616.684 6   -595836.31649  21564902.84049
 20  5 16  5 10 21.0000000  0  9G01G03G07G08G11G17G22G28G30         -0.000437708
  19967364.867 7   -622051.176 7   -465339.59449  19967366.29749
  23358159.367 4  -1042038.555 4   -762543.66448  23358163.43848
  20730459.578 6   -520056.801 6   -380246.54749  20730457.34849
  22842189.125 5   -350772.582 5   -263616.25048  22842191.31348
  20921323.469 7   -355775.242 7   -260500.99248  20921321.50448
  24004614.859 4   -903126.980 4   -651066.54747  24004613.75847
  22575742.469 6   -937316.520 6   -689965.60948  22575739.70748
  23686994.594 4  -1069654.188 4   -767110.73446  23686994.44546
  21563934.492 6   -785702.129 6   -599799.00049  21563935.31349
 20  5 16  5 10 22.0000000  0  9G01G03G07G08G11G17G22G28G30         -0.000440287
  19966671.969 7   -625694.523 7   -468178.56649  19966673.34449
  23356864.578 4  -1048842.027 4   -767845.07848  23356868.48448
  20729868.859 6   -523160.723 6   -382665.18849  20729866.46549
  22841773.320 5   -352959.902 5   -265320.65648  22841775.60548
  20920915.617 7   -357920.066 7   -262172.27748  20920913.26248
  24003561.594 4   -908662.250 4   -655379.73847  24003560.60547
  22574664.852 6   -942978.344 6   -694377.42647  22574661.70747
  23685745.578 4  -1076218.945 4   -772226.12146  23685745.15246
  21562966.453 6   -790787.016 6   -603761.25449  21562967.38749
 20  5 16  5 10 23.0000000  0  9G01G03G07G08G11G17G22G28G30         -0.000442865
  19965978.578 7   -629337.305 7   -471017.09849  19965979.80949
  23355569.570 4  -1055645.547 4   -773146.52048  23355574.68448
  20729278.227 6   -526264.145 6   -385083.43849  20729275.73049
  22841356.609 5   -355147.305 5   -267025.12548  22841358.91848
  20920507.672 7   -360064.680 7   -263843.40648  20920505.03148
  24002507.773 4   -914197.480 4   -659692.89847  24002507.12147
  22573587.438 6   -948639.898 6   -698789.02347  22573584.73847
  23684496.492 4  -1082783.844 4   -777341.62147  23684496.11747
  21561999.180 6   -795871.402 6   -607723.11749  21562000.21949
 20  5 16  5 10 24.0000000  0  9G01G03G07G08G11G17G22G28G30         -0.000445444
  19965285.445 7   -632979.500 7   -473855.17249  19965287.10949
  23354274.891 4  -1062449.102 4   -778447.98848  23354279.70748
  20728688.063 6   -529366.988 6   -387501.23449  20728685.46949
  22840940.180 5   -357334.852 5   -268729.71548  22840943.12548
  20920099.438 7   -362209.070 7   -265514.36348  20920096.67248
  24001454.500 4   -919732.668 4   -664006.02747  24001453.98847
  22572510.531 6   -954301.188 6   -703200.42248  22572507.44948
  23683246.914 4  -1089348.902 4   -782457.25847  23683246.70747
  21561032.000 6   -800955.238 6   -611684.54749  21561032.92249
 20  5 16  5 10 25.0000000  0  9G01G03G07G08G11G17G22G28G30         -0.000448023
  19964592.344 7   -636621.090 7   -476692.78149  19964593.65249
  23352980.852 4  -1069252.672 4   -783749.46948  23352985.27048
  20728097.469 6   -532469.277 6   -389918.60549  20728094.87149
  22840524.102 5   -359522.477 5   -270434.35949  22840526.85249
  20919691.633 6   -364353.238 6   -267185.14548  20919689.13748
  24000400.875 4   -925267.766 4   -668319.08647  24000400.71947
  22571433.320 6   -959962.172 6   -707611.57447  22571430.49247
  23681998.070 4  -1095914.141 4   -787573.02046  23681997.51646
  21560064.164 6   -806038.527 6   -615645.55549  21560065.32049
 20  5 16  5 10 26.0000000  0  9G01G03G07G08G11G17G22G28G30         -0.000450602
  19963899.469 7   -640262.066 7   -479529.89549  19963900.66449
  23351686.297 4  -1076056.246 4   -789050.96148  23351690.28948
  20727507.125 6   -535570.984 6   -392335.52349  20727504.67649
  22840108.148 5   -361710.199 5   -272139.08249  22840110.63349
  20919283.602 6   -366497.184 6   -268855.75448  20919280.82848
  23999347.758 4   -930802.738 4   -672632.04347  23999347.32047
  22570356.203 6   -965622.879 6   -712022.51647  22570353.13747
  23680748.211 4  -1102479.461 4   -792688.84846  23680748.15646
  21559097.141 6   -811121.270 6   -619606.13349  21559098.09049
 20  5 16  5 10 27.0000000  0  9G01G03G07G08G11G17G22G28G30         -0.000453182
  19963206.633 7   -643902.441 7   -482366.55549  19963208.35949
  23350391.719 4  -1082859.840 4   -794352.46148  23350395.63748
  20726917.125 6   -538672.172 6   -394752.03149  20726914.42649
  22839691.359 5   -363898.027 5   -273843.88349  22839694.10549
  20918875.398 6   -368640.883 6   -270526.16848  20918872.58248
  23998294.398 4   -936337.648 4   -676944.96547  23998294.26647
  22569278.656 6   -971283.273 6   -716433.21547  22569276.13747
  23679499.094 4  -1109044.984 4   -797804.84446  23679498.47346
  21558130.094 6   -816203.469 6   -623566.29349  21558131.28149
 20  5 16  5 10 28.0000000  0  9G01G03G07G08G11G17G22G28G30         -0.000455761
  19962514.156 7   -647542.223 7   -485202.74649  19962515.50449
  23349096.313 4  -1089663.461 4   -799653.98848  23349100.81648
  20726326.789 6   -541772.785 6   -397168.10249  20726324.54749
  22839275.508 5   -366086.008 5   -275548.80549  22839277.63349
  20918467.570 6   -370784.398 6   -272196.44148  20918465.14848
  23997242.008 4   -941872.593 4   -681257.90847  23997240.50847
  22568201.898 6   -976943.414 6   -720843.71948  22568199.16448
  23678250.008 4  -1115610.652 4   -802920.94546  23678249.13346
  21557163.172 6   -821285.137 6   -627526.03549  21557164.09849
 20  5 16  5 10 29.0000000  0  9G01G03G07G08G11G17G22G28G30         -0.000458340
  19961821.523 7   -651181.391 7   -488038.46549  19961822.99649
  23347801.922 4  -1096467.082 4   -804955.50848  23347806.18448
  20725737.055 6   -544872.832 6   -399583.72349  20725734.51649
  22838858.609 4   -368274.023 4   -277253.75448  22838861.83248
  20918060.102 6   -372927.645 6   -273866.50448  20918057.64848
  23996188.164 4   -947407.371 4   -685570.72747  23996187.75047
  22567124.727 6   -982603.238 6   -725253.97348  22567121.90648
  23677000.258 4  -1122176.465 4   -808037.16046  23676999.91846
  21556196.172 6   -826366.219 6   -631485.32049  21556197.33249
 20  5 16  5 10 30.0000000  0  9G01G03G07G08G11G17G22G28G30         -0.000460918
  19961129.203 7   -654819.957 7   -490873.71149  19961130.22349
  23346507.320 4  -1103270.750 4   -810257.07048  23346511.47748
  20725147.484 6   -547972.328 6   -401998.91049  20725144.76649
  22838442.680 5   -370462.176 5   -278958.80548  22838444.93448
  20917652.188 6   -375070.656 6   -275536.38348  20917649.66048
  23995134.773 4   -952942.117 4   -689883.51647  23995134.39147
  22566047.898 6   -988262.793 6   -729664.01248  22566045.16048
  23675751.109 4  -1128742.434 4   -813153.49646  23675750.59846
  21555229.531 6   -831446.797 6   -635444.21549  21555230.66849
 20  5 16  5 10 31.0000000  0  9G01G03G07G08G11G17G22G28G30         -0.000463499
  19960436.719 7   -658457.875 7   -493708.44949  19960437.98449
  23345212.164 4  -1110074.383 4   -815558.60548  23345216.77748
  20724557.664 6   -551071.234 6   -404413.64549  20724555.03549
  22838026.219 5   -372650.387 5   -280663.91048  22838028.92648
  20917244.383 6   -377213.438 6   -277206.08248  20917241.68848
  23994081.445 3   -958476.754 3   -694196.22347  23994081.44547
  22564970.922 6   -993922.035 6   -734073.81348  22564968.06648
  23674501.445 4  -1135308.539 4   -818269.94147  23674501.05947
  21554262.656 6   -836526.785 6   -639402.64849  21554263.74649
 20  5 16  5 10 32.0000000  0  9G01G03G07G08G11G17G22G28G30         -0.000466078
  19959744.656 7   -662095.234 7   -496542.76249  19959746.19949
  23343918.164 5  -1116878.059 5   -820860.16848  23343922.12148
  20723968.125 6   -554169.590 6   -406827.94949  20723965.44949
  22837609.703 5   -374838.727 5   -282369.10948  22837612.23048
  20916836.586 6   -379355.996 6   -278875.60948  20916834.00448
  23993028.117 3   -964011.348 3   -698508.89147  23993028.30547
  22563894.016 6   -999580.977 6   -738483.37548  22563891.21548
  23673251.672 4  -1141874.781 4   -823386.49646  23673251.45346
  21553296.391 6   -841606.250 6   -643360.67649  21553297.56349
 20  5 16  5 10 33.0000000  0  9G01G03G07G08G11G17G22G28G30         -0.000468657
  19959052.758 7   -665732.047 7   -499376.64149  19959054.07849
  23342623.180 5  -1123681.816 5   -826161.80148  23342627.19948
  20723378.719 7   -557267.469 7   -409241.87949  20723376.09849
  22837193.336 5   -377027.250 5   -284074.44948  22837195.91448
  20916428.813 6   -381498.391 6   -280545.00848  20916426.04348
  23991975.672 3   -969545.914 3   -702821.52047  23991974.89547
  22562817.305 6  -1005239.727 6   -742892.78948  22562814.51248
  23672001.891 4  -1148441.266 4   -828503.24247  23672001.56647
  21552330.008 6   -846685.219 6   -647318.30949  21552330.73449
 20  5 16  5 10 34.0000000  0  9G01G03G07G08G11G17G22G28G30         -0.000471237
  19958361.102 7   -669368.254 7   -502210.04749  19958361.87149
  23341328.711 5  -1130485.563 5   -831463.42248  23341332.63348
  20722789.344 7   -560364.734 7   -411655.33249  20722786.55149
  22836776.586 4   -379215.852 4   -285779.85548  22836779.29748
  20916021.227 6   -383640.559 6   -282214.23048  20916018.79748
  23990922.063 3   -975080.430 3   -707134.12147  23990921.83247
  22561740.586 6  -1010898.168 6   -747301.96548  22561737.90648
  23670752.852 5  -1155007.844 5   -833620.05946  23670752.34446
  21551363.438 6   -851763.652 6   -651275.53549  21551364.88749
 20  5 16  5 10 35.0000000  0  9G01G03G07G08G11G17G22G28G30         -0.000473816
  19957669.102 7   -673003.906 7   -505043.02349  19957670.12549
  23340033.641 5  -1137289.383 5   -836765.09448  23340037.79748
  20722199.508 7   -563461.512 7   -414068.40649  20722197.54749
  22836359.813 4   -381404.574 4   -287485.34848  22836362.97748
  20915613.539 6   -385782.543 6   -283883.32048  20915611.07448
  23989868.648 3   -980614.910 3   -711446.69947  23989868.46547
  22560663.563 6  -1016556.371 6   -751710.95748  22560660.70748
  23669502.914 4  -1161574.695 4   -838737.08247  23669502.18847
  21550397.266 6   -856841.559 6   -655232.34449  21550398.53949
 20  5 16  5 10 36.0000000  0  9G01G03G07G08G11G17G22G28G30         -0.000476397
  19956977.242 7   -676638.977 7   -507875.55149  19956978.43049
  23338739.234 5  -1144093.250 5   -842066.80148  23338742.66048
  20721610.750 7   -566557.773 7   -416481.08249  20721607.80949
  22835943.250 4   -383593.441 4   -289190.96148  22835946.60948
  20915206.039 6   -387924.313 6   -285552.23048  20915203.89548
  23988816.031 2   -986149.344 2   -715759.24647  23988815.19147
  22559587.430 6  -1022214.305 6   -756119.73848  22559584.21948
  23668253.063 4  -1168141.680 4   -843854.20747  23668252.74647
  21549430.930 6   -861918.977 6   -659188.77349  21549432.74249
 20  5 16  5 10 37.0000000  0  9G01G03G07G08G11G17G22G28G30         -0.000478975
  19956285.742 7   -680273.371 7   -510707.54749  19956286.85949
  23337444.352 5  -1150897.051 5   -847368.46148  23337448.24648
  20721021.672 7   -569653.379 7   -418893.25049  20721019.06349
  22835526.992 4   -385782.332 4   -290896.59048  22835530.32048
  20914798.391 6   -390065.805 6   -287220.92248  20914796.08648
  23987762.945 2   -991683.637 2   -720071.67647  23987762.43047
  22558510.539 6  -1027871.875 6   -760528.23448  22558507.66448
  23667003.352 4  -1174708.770 4   -848971.41847  23667002.98047
  21548464.633 6   -866995.766 6   -663144.71549  21548466.62149
 20  5 16  5 10 38.0000000  0  9G01G03G07G08G11G17G22G28G30         -0.000481556
  19955594.359 7   -683907.191 7   -513539.09449  19955595.18449
  23336149.805 5  -1157700.895 5   -852670.16048  23336153.37148
  20720432.633 7   -572748.465 7   -421305.00449  20720430.26649
  22835110.578 4   -387971.320 4   -292602.30148  22835113.21948
  20914391.281 7   -392207.090 7   -288889.46148  20914388.63348
  23986709.273 2   -997217.871 2   -724384.07047  23986709.25447
  22557434.164 6  -1033529.180 6   -764936.52748  22557430.80948
  23665754.031 4  -1181276.004 4   -854088.73847  23665753.12947
  21547498.555 6   -872072.039 6   -667100.24649  21547500.61749
 20  5 16  5 10 39.0000000  0  9G01G03G07G08G11G17G22G28G30         -0.000484135
  19954902.922 7   -687540.422 7   -516370.18449  19954904.31649
  23334854.852 5  -1164504.777 5   -857971.88348  23334858.83248
  20719843.961 7   -575843.000 7   -423716.32449  20719841.14849
  22834694.242 4   -390160.477 4   -294308.14148  22834697.02048
  20913983.602 6   -394348.148 6   -290557.81648  20913980.95748
  23985656.609 2  -1002752.098 2   -728696.46147  23985656.11347
  22556357.664 6  -1039186.223 6   -769344.61348  22556354.54348
  23664504.414 4  -1187843.422 4   -859206.19947  23664503.34047
  21546532.891 6   -877147.750 6   -671055.34449  21546535.09849
 20  5 16  5 10 40.0000000  0  9G01G03G07G08G11G17G22G28G30         -0.000486715
  19954211.813 7   -691173.004 7   -519200.77049  19954212.96149
  23333559.836 5  -1171308.625 5   -863273.58248  23333563.65648
  20719255.141 7   -578936.938 7   -426127.18449  20719252.26249
  22834276.781 4   -392349.660 4   -296013.99248  22834280.02048
  20913576.258 6   -396488.957 6   -292225.98048  20913573.41448
  23984603.594 2  -1008286.145 2   -733008.70747  23984602.88747
  22555280.914 6  -1044842.934 6   -773752.44148  22555278.25048
  23663254.141 4  -1194410.977 4   -864323.77747  23663253.05547
  21545566.875 6   -882222.930 6   -675010.03149  21545569.16849
 20  5 16  5 10 41.0000000  0  9G01G03G07G08G11G17G22G28G30         -0.000489294
  19953520.484 7   -694805.035 7   -522030.92249  19953521.81649
  23332265.641 5  -1178112.535 5   -868575.32848  23332268.74648
  20718666.484 7   -582030.344 7   -428537.62949  20718664.16849
  22833860.492 4   -394539.000 4   -297719.98048  22833864.12548
  20913168.969 6   -398629.578 6   -293893.99648  20913166.41448
  23983550.711 2  -1013820.180 2   -737320.94947  23983549.62147
  22554204.703 6  -1050499.363 6   -778160.04348  22554201.61748
  23662004.781 5  -1200978.648 5   -869441.44147  23662003.68847
  21544601.359 6   -887297.539 6   -678964.27749  21544603.51249
 20  5 16  5 10 42.0000000  0  9G01G03G07G08G11G17G22G28G30         -0.000491875
  19952829.242 7   -698436.418 7   -524860.57449  19952830.57849
  23330971.164 5  -1184916.414 5   -873877.05148  23330973.98048
  20718078.266 7   -585123.156 7   -430947.61749  20718075.69149
  22833443.992 4   -396728.422 4   -299426.02348  22833447.15248
  20912761.906 6   -400769.906 6   -295561.78948  20912759.27348
  23982496.945 2  -1019354.090 2   -741633.09447  23982496.92247
  22553128.680 6  -1056155.500 6   -782567.42248  22553125.58648
  23660754.766 5  -1207546.465 5   -874559.22747  23660753.82447
  21543635.828 6   -892371.625 6   -682918.10949  21543638.01649
 20  5 16  5 10 43.0000000  0  9G01G03G07G08G11G17G22G28G30         -0.000494453
  19952138.234 7   -702067.273 7   -527689.81349  19952139.42649
  23329677.000 5  -1191720.391 5   -879178.84448  23329679.60948
  20717489.438 7   -588215.484 7   -433357.22749  20717486.80149
  22833027.703 4   -398917.984 4   -301132.17648  22833029.95748
  20912354.258 6   -402910.125 6   -297229.49248  20912352.00848
  23981444.906 2  -1024888.051 2   -745945.27747  23981443.77347
  22552052.242 6  -1061811.402 6   -786974.62148  22552048.93048
  23659505.156 5  -1214114.555 5   -879677.21547  23659503.97747
  21542670.398 6   -897445.176 6   -686871.52349  21542672.50849
 20  5 16  5 10 44.0000000  0  9G01G03G07G08G11G17G22G28G30         -0.000497034
  19951447.641 7   -705697.547 7   -530518.59849  19951448.94949
  23328381.664 5  -1198524.352 5   -884480.62548  23328384.75048
  20716900.969 7   -591307.246 7   -435766.38749  20716898.24249
  22832610.688 4   -401107.676 4   -302838.43848  22832613.57048
  20911947.422 6   -405050.074 6   -298896.98448  20911944.79348
  23980391.492 2  -1030421.922 2   -750257.39147  23980391.10947
  22550976.195 6  -1067467.020 6   -791381.59848  22550973.25448
  23658255.273 5  -1220682.758 5   -884795.30146  23658254.03946
  21541705.086 6   -902518.207 6   -690824.53549  21541706.82049
 20  5 16  5 10 45.0000000  0  9G01G03G07G08G11G17G22G28G30         -0.000499615
  19950756.828 7   -709327.148 7   -533346.85949  19950758.50049
  23327086.586 5  -1205328.320 5   -889782.41448  23327089.30548
  20716313.078 7   -594398.383 7   -438175.06649  20716310.46149
  22832194.367 4   -403297.383 4   -304544.70348  22832196.78148
  20911539.969 6   -407189.758 6   -300564.27048  20911537.88348
  23979339.000 2  -1035955.652 2   -754569.39547  23979337.99247
  22549900.023 6  -1073122.281 6   -795788.30148  22549897.01648
  23657005.148 5  -1227251.055 5   -889913.44546  23657004.25446
  21540740.250 6   -907590.633 6   -694777.07849  21540741.32049
 20  5 16  5 10 46.0000000  0  9G01G03G07G08G11G17G22G28G30         -0.000502193
  19950066.289 7   -712956.113 7   -536174.62549  19950067.85549
  23325792.547 5  -1212132.254 5   -895084.18048  23325795.12548
  20715725.227 7   -597488.945 7   -440583.29749  20715722.23449
  22831777.430 4   -405487.152 4   -306251.01648  22831780.15648
  20911132.789 6   -409329.180 6   -302231.34848  20911130.56348
  23978285.477 2  -1041489.285 2   -758881.32047  23978284.77047
  22548823.867 6  -1078777.234 6   -800194.75848  22548820.25848
  23655755.641 4  -1233819.449 4   -895031.65646  23655754.36346
  21539774.383 6   -912662.500 6   -698729.18049  21539776.59849
 20  5 16  5 10 46.9990000  0  9G01G03G07G08G11G17G22G28G30          0.000495228
  19949376.605 7   -716580.828 7   -538999.07849  19949378.01549
  23324498.612 5  -1218929.375 5   -900380.62948  23324501.12448
  20715137.714 7   -600575.836 7   -442988.67249  20715134.91349
  22831361.222 4   -407674.844 4   -307955.71148  22831364.15548
  20910726.456 6   -411466.246 6   -303896.59848  20910723.89048
  23977234.183 3  -1047017.305 3   -763188.88747  23977232.44847
  22547748.753 6  -1084426.215 6   -804596.56348  22547746.23348
  23654506.565 4  -1240381.434 4   -900144.89846  23654505.46046
  21538810.573 6   -917728.688 6   -702676.85249  21538812.76149
 20  5 16  5 10 47.9990000  0  9G01G03G07G08G11G17G22G28G30          0.000492649
  19948686.612 7   -720208.574 7   -541825.89549  19948687.48749
  23323204.151 5  -1225733.324 5   -905682.40648  23323206.39048
  20714549.503 7   -603665.258 7   -445396.01649  20714547.11649
  22830944.292 4   -409864.824 4   -309662.19548  22830946.66748
  20910319.269 6   -413605.207 6   -305563.32848  20910316.85848
  23976181.401 3  -1052550.789 3   -767500.70747  23976179.85847
  22546672.300 6  -1090080.574 6   -809002.55548  22546669.73348
  23653256.526 5  -1246950.156 5   -905263.38346  23653254.93746
  21537845.511 6   -922799.465 6   -706628.10549  21537847.58149
 20  5 16  5 10 48.9990000  0  9G01G03G07G08G11G17G22G28G30          0.000490068
  19947995.940 7   -723835.793 7   -544652.29749  19947997.42149
  23321908.620 5  -1232537.316 5   -910984.21148  23321912.09348
  20713961.761 7   -606754.184 7   -447802.96549  20713959.21049
  22830527.823 5   -412054.910 5   -311368.75848  22830530.42148
  20909912.331 6   -415743.980 6   -307229.90248  20909910.08948
  23975128.323 3  -1058084.238 3   -771812.48447  23975126.62047
  22545597.261 6  -1095734.676 6   -813408.35248  22545593.89748
  23652006.644 5  -1253519.031 5   -910381.99246  23652005.22246
  21536881.308 6   -927869.695 6   -710578.93849  21536882.64749
 20  5 16  5 10 49.9990000  0  9G01G03G07G08G11G17G22G28G30          0.000487488
  19947305.784 7   -727462.402 7   -547478.22749  19947307.28049
  23320613.870 5  -1239341.375 5   -916286.07448  23320617.03448
  20713373.815 7   -609842.531 7   -450209.47349  20713371.74149
  22830111.331 5   -414245.160 5   -313075.44548  22830113.36648
  20909505.355 6   -417882.586 6   -308896.34848  20909503.07348
  23974075.933 3  -1063617.680 3   -776124.24647  23974074.24547
  22544520.886 6  -1101388.523 6   -817813.94948  22544517.96448
  23650756.800 5  -1260088.113 5   -915500.75846  23650755.39046
  21535916.355 6   -932939.426 6   -714529.38349  21535918.23049
 20  5 16  5 10 50.9990000  0  9G01G03G07G08G11G17G22G28G30          0.000484907
  19946615.980 7   -731088.371 7   -550303.66049  19946617.41749
  23319319.230 5  -1246145.355 5   -921587.87548  23319322.31948
  20712786.542 7   -612930.289 7   -452615.51649  20712783.78049
  22829694.370 5   -416435.508 5   -314782.21548  22829696.79648
  20909098.292 6   -420020.875 6   -310562.55148  20909096.05448
  23973023.284 3  -1069150.992 3   -780435.91847  23973021.31547
  22543444.839 6  -1107042.012 6   -822219.25448  22543441.91348
  23649506.120 5  -1266657.285 5   -920619.59046  23649505.02646
  21534951.558 6   -938008.551 6   -718479.34849  21534953.71849
 20  5 16  5 10 51.9990000  0  9G01G03G07G08G11G17G22G28G30          0.000482328
  19945926.206 7   -734713.684 7   -553128.57849  19945927.33549
  23318024.995 5  -1252949.328 5   -926889.66848  23318026.95648
  20712199.245 7   -616017.461 7   -455021.10949  20712196.60549
  22829277.706 4   -418625.875 4   -316488.99248  22829280.13648
  20908691.550 6   -422158.918 6   -312228.55548  20908689.08548
  23971970.159 3  -1074684.191 3   -784747.50047  23971968.51947
  22542369.956 6  -1112695.188 6   -826624.32448  22542366.72248
  23648256.792 5  -1273226.574 5   -925738.51646  23648255.44046
  21533987.050 6   -943077.082 6   -722428.84449  21533988.70649
 20  5 16  5 10 52.9990000  0  9G01G03G07G08G11G17G22G28G30          0.000479748
  19945236.472 7   -738338.508 7   -555953.12549  19945237.58549
  23316729.792 5  -1259753.410 5   -932191.54348  23316732.41748
  20711611.315 7   -619104.133 7   -457426.30549  20711608.98049
  22828860.823 4   -420816.426 4   -318195.91848  22828863.29248
  20908284.901 6   -424296.813 6   -313894.44948  20908282.54648
  23970917.011 4  -1080217.383 4   -789059.07447  23970915.21847
  22541293.690 6  -1118348.176 6   -831029.24648  22541290.94048
  23647006.394 5  -1279796.109 5   -930857.63746  23647004.97246
  21533022.448 6   -948145.156 6   -726378.00049  21533024.27249
 20  5 16  5 10 53.9990000  0  9G01G03G07G08G11G17G22G28G30          0.000477167
  19944546.792 7   -741962.758 7   -558777.20749  19944547.59349
  23315434.917 5  -1266557.547 5   -937493.46548  23315437.39448
  20711024.175 7   -622190.332 7   -459831.13349  20711022.04649
  22828443.292 4   -423007.152 4   -319902.98448  22828446.31948
  20907877.886 6   -426434.551 6   -315560.21948  20907875.67948
  23969864.589 4  -1085750.574 4   -793370.65247  23969862.40547
  22540218.136 6  -1124000.922 6   -835433.98848  22540215.31948
  23645756.355 5  -1286365.824 5   -935976.89546  23645755.06946
  21532058.526 6   -953212.742 6   -730326.76649  21532060.10149
 20  5 16  5 10 54.9990000  0  9G01G03G07G08G11G17G22G28G30          0.000474586
  19943857.159 7   -745586.371 7   -561600.80149  19943858.32749
  23314139.878 5  -1273361.660 5   -942795.36348  23314142.63648
  20710437.511 7   -625275.895 7   -462235.47349  20710434.72649
  22828026.315 4   -425197.918 4   -321610.07048  22828029.09348
  20907471.214 6   -428571.992 6   -317225.75448  20907468.90148
  23968810.909 4  -1091283.680 4   -797682.16447  23968809.15947
  22539142.284 6  -1129653.320 6   -839838.45348  22539139.16348
  23644506.050 5  -1292935.660 5   -941096.23446  23644504.81546
  21531094.144 6   -958279.715 6   -734275.05549  21531095.40549
 20  5 16  5 10 55.9990000  0  9G01G03G07G08G11G17G22G28G30          0.000472006
  19943167.519 7   -749209.387 7   -564423.93049  19943168.94449
  23312844.901 5  -1280165.789 5   -948097.27748  23312848.09348
  20709850.097 7   -628360.914 7   -464639.38349  20709847.62049
  22827609.573 5   -427388.762 5   -323317.22748  22827612.60548
  20907064.323 6   -430709.207 6   -318891.11748  20907062.04248
  23967758.151 4  -1096816.668 4   -801993.58647  23967756.74947
  22538067.237 6  -1135305.410 6   -844242.68448  22538064.12848
  23643255.886 5  -1299505.633 5   -946215.69547  23643254.43347
  21530130.065 6   -963346.172 6   -738222.94149  21530131.35549
 20  5 16  5 10 56.9990000  0  9G01G03G07G08G11G17G22G28G30          0.000469425
  19942478.448 7   -752831.793 7   -567246.59049  19942479.56949
  23311550.019 5  -1286969.906 5   -953399.18048  23311553.09748
  20709263.175 7   -631445.359 7   -467042.85249  20709260.71049
  22827192.730 5   -429579.691 5   -325024.44548  22827195.61648
  20906657.870 6   -432846.215 6   -320556.31648  20906655.84348
  23966705.730 4  -1102349.598 4   -806304.96147  23966703.78047
  22536991.175 6  -1140957.211 6   -848646.68048  22536988.23748
  23642004.933 5  -1306075.781 5   -951335.29346  23642003.76146
  21529166.245 6   -968412.059 6   -742170.38349  21529167.35149
 20  5 16  5 10 57.9990000  0  9G01G03G07G08G11G17G22G28G30          0.000466846
  19941789.284 7   -756453.609 7   -570068.78949  19941790.19049
  23310255.565 5  -1293774.066 5   -958701.12948  23310258.40148
  20708676.448 7   -634529.281 7   -469445.90649  20708673.77249
  22826775.636 4   -431770.766 4   -326731.78148  22826778.65148
  20906251.276 6   -434983.000 6   -322221.34448  20906248.95648
  23965652.722 4  -1107882.504 4   -810616.30947  23965650.58147
  22535915.855 6  -1146608.758 6   -853050.48848  22535912.76548
  23640754.894 5  -1312646.059 5   -956454.99246  23640753.75746
  21528202.151 6   -973477.422 6   -746117.42249  21528203.08149
 20  5 16  5 10 58.9990000  0  9G01G03G07G08G11G17G22G28G30          0.000464266
  19941099.972 7   -760074.773 7   -572890.47349  19941101.25349
  23308960.667 5  -1300578.199 5   -964003.03548  23308963.39448
  20708089.526 7   -637612.582 7   -471848.47349  20708087.45649
  22826358.620 4   -433961.906 4   -328439.16448  22826361.55048
  20905844.769 6   -437119.508 6   -323886.15648  20905842.47248
  23964599.784 5  -1113415.281 5   -814927.55547  23964598.01547
  22534840.573 6  -1152259.949 6   -857454.01248  22534837.69848
  23639504.964 5  -1319216.457 5   -961574.78546  23639503.64746
  21527238.269 6   -978542.188 6   -750063.99649  21527239.55849
 20  5 16  5 10 59.9990000  0  9G01G03G07G08G11G17G22G28G30          0.000461685
  19940411.198 7   -763695.277 7   -575711.64549  19940412.38649
  23307665.417 5  -1307382.277 5   -969304.91448  23307668.70648
  20707502.792 7   -640695.277 7   -474250.57449  20707500.93349
  22825941.776 4   -436153.063 4   -330146.56348  22825944.55848
  20905438.245 6   -439255.746 6   -325550.75848  20905436.27248
  23963546.901 4  -1118947.906 4   -819238.68847  23963545.20647
  22533765.269 6  -1157910.813 6   -861857.28148  22533762.00748
  23638254.730 5  -1325786.934 5   -966694.63346  23638253.17546
  21526274.690 6   -983606.344 6   -754010.09849  21526276.21849
 20  5 16  5 11  0.9990000  0  9G01G03G07G08G11G17G22G28G30          0.000459105
  19939722.409 7   -767315.262 7   -578532.41449  19939723.47649
  23306370.550 5  -1314186.434 5   -974606.85248  23306373.76948
  20706916.159 7   -643777.480 7   -476652.29349  20706914.17149
  22825525.019 5   -438344.395 5   -331854.09848  22825527.94448
  20905031.651 6   -441391.777 6   -327215.20748  20905029.74948
  23962494.440 4  -1124480.539 4   -823549.82847  23962492.78447
  22532689.956 6  -1163561.418 6   -866260.34848  22532686.73748
  23637004.159 5  -1332357.629 5   -971814.65646  23637002.32346
  21525311.151 6   -988670.039 6   -757955.82849  21525312.03849
 20  5 16  5 11  1.9990000  0  9G01G03G07G08G11G17G22G28G30          0.000456524
  19939033.628 7   -770934.621 7   -581352.69149  19939034.64449
  23305075.628 5  -1320990.621 5   -979908.81348  23305078.90548
  20706330.034 7   -646859.082 7   -479053.54349  20706327.65949
  22825107.151 4   -440535.840 4   -333561.72348  22825110.44448
  20904624.886 6   -443527.625 6   -328879.49648  20904622.79648
  23961440.784 4  -1130013.113 4   -827860.92647  23961439.82347
  22531614.573 6  -1169211.730 6   -870663.18848  22531611.61248
  23635753.683 5  -1338928.488 5   -976934.79746  23635752.36646
  21524347.831 6   -993733.145 6   -761901.10949  21524348.71049
 20  5 16  5 11  2.9990000  0  9G01G03G07G08G11G17G22G28G30          0.000453941
  19938345.120 7   -774553.391 7   -584172.52049  19938345.97649
  23303781.472 5  -1327794.773 5   -985210.74648  23303784.47648
  20705743.620 7   -649940.152 7   -481454.37549  20705741.59349
  22824690.120 4   -442727.324 4   -335269.37548  22824693.08948
  20904218.511 6   -445663.215 6   -330543.60248  20904216.62848
  23960388.300 5  -1135545.594 5   -832171.95747  23960387.11647
  22530539.769 6  -1174861.746 6   -875065.80148  22530536.23048
  23634503.214 5  -1345499.477 5   -982055.03546  23634501.91746
  21523384.058 6   -998795.715 6   -765845.96949  21523385.17149
 20  5 16  5 11  3.9990000  0  9G01G03G07G08G11G17G22G28G30          0.000451363
  19937656.237 7   -778171.574 7   -586991.87949  19937657.24949
  23302486.401 4  -1334598.977 4   -990512.71948  23302489.53048
  20705157.784 7   -653020.680 7   -483854.78949  20705155.58949
  22824273.089 4   -444918.969 4   -336977.14848  22824276.15148
  20903812.386 6   -447798.629 6   -332207.56348  20903810.37048
  23959335.519 5  -1141078.059 5   -836482.96947  23959334.29647
  22529464.276 6  -1180511.496 6   -879468.20348  22529460.97248
  23633252.964 5  -1352070.609 5   -987175.40246  23633251.51946
  21522420.589 6  -1003857.785 6   -769790.44549  21522421.55449
 20  5 16  5 11  4.9990000  0  9G01G03G07G08G11G17G22G28G30          0.000448780
  19936967.925 7   -781789.195 7   -589810.80949  19936969.13249
  23301191.284 4  -1341403.207 4   -995814.70748  23301194.58148
  20704571.401 7   -656100.660 7   -486254.77349  20704569.48349
  22823856.456 4   -447110.754 4   -338685.03148  22823859.06948
  20903406.120 6   -449933.828 6   -333871.34848  20903403.72248
  23958282.558 5  -1146610.453 5   -840793.91847  23958281.24547
  22528389.628 6  -1186160.992 6   -883870.40648  22528386.76148
  23632002.995 5  -1358641.957 5   -992295.93046  23632000.86246
  21521457.440 6  -1008919.309 6   -773734.49249  21521458.39049
 20  5 16  5 11  5.9990000  0  9G01G03G07G08G11G17G22G28G30          0.000446199
  19936279.737 7   -785406.172 7   -592629.23049  19936280.83149
  23299896.526 4  -1348207.477 4  -1001116.73848  23299899.73748
  20703985.675 7   -659180.055 7   -488654.30149  20703983.57349
  22823438.894 4   -449302.578 4   -340392.94948  22823442.23348
  20903000.065 6   -452068.785 6   -335534.94948  20902997.89748
  23957229.706 5  -1152142.750 5   -845104.79747  23957228.56247
  22527314.753 6  -1191810.160 6   -888272.35248  22527311.44848
  23630752.105 5  -1365213.430 5   -997416.56646  23630750.45246
  21520494.651 6  -1013980.270 6   -777678.09849  21520495.31249
 20  5 16  5 11  6.9990000  0  9G01G03G07G08G11G17G22G28G30          0.000443619
  19935591.417 7   -789022.566 7   -595447.20349  19935592.76549
  23298602.206 4  -1355011.715 4  -1006418.74248  23298605.58148
  20703399.675 7   -662258.922 7   -491053.41849  20703397.35849
  22823021.808 4   -451494.602 4   -342101.02348  22823025.05448
  20902593.628 6   -454203.543 6   -337198.39848  20902591.67148
  23956177.230 5  -1157675.004 5   -849415.63747  23956175.78047
  22526239.237 6  -1197459.051 6   -892674.08648  22526236.28448
  23629501.675 5  -1371785.059 5  -1002537.31646  23629499.67146
  21519531.605 6  -1019040.684 6   -781621.27349  21519532.15549
 20  5 16  5 11  7.9990000  0  9G01G03G07G08G11G17G22G28G30          0.000441038
  19934903.308 7   -792638.316 7   -598264.66849  19934904.71049
  23297307.128 4  -1361815.938 4  -1011720.73448  23297310.33948
  20702813.472 7   -665337.191 7   -493452.07049  20702811.67949
  22822604.487 4   -453686.602 4   -343809.07848  22822607.85848
  20902187.401 6   -456338.008 6   -338861.62148  20902185.65948
  23955124.565 5  -1163207.141 5   -853726.39847  23955123.04247
  22525164.417 6  -1203107.629 6   -897075.57448  22525160.98748
  23628250.956 5  -1378356.785 5  -1007658.13346  23628249.02646
  21518568.448 6  -1024100.520 6   -785564.00849  21518569.53449
 20  5 16  5 11  8.9990000  0  9G01G03G07G08G11G17G22G28G30          0.000438457
  19934215.597 7   -796253.461 7   -601081.66049  19934216.91349
  23296012.417 4  -1368620.164 4  -1017022.72748  23296015.46448
  20702228.300 7   -668414.898 7   -495850.28549  20702226.05449
  22822188.105 4   -455878.730 4   -345517.23048  22822190.47248
  20901781.019 6   -458472.258 6   -340524.66848  20901778.99948
  23954072.097 5  -1168739.211 5   -858037.10547  23954070.64047
  22524089.800 6  -1208755.863 6   -901476.80148  22524086.59748
  23627000.831 5  -1384928.664 5  -1012779.08246  23626998.87446
  21517606.237 6  -1029159.824 6   -789506.32849  21517606.73749
 20  5 16  5 11  9.9990000  0  9G01G03G07G08G11G17G22G28G30          0.000435877
  19933527.550 7   -799868.051 7   -603898.22749  19933528.85549
  23294717.456 4  -1375424.441 4  -1022324.75848  23294720.92948
  20701642.558 7   -671492.074 7   -498248.08649  20701640.11249
  22821770.659 4   -458071.012 4   -347225.50848  22821773.63248
  20901375.081 6   -460606.309 6   -342187.56648  20901373.19048
  23953018.855 5  -1174271.285 5   -862347.80547  23953017.79647
  22523015.269 6  -1214403.875 6   -905877.84048  22523011.95648
  23625749.831 5  -1391500.691 5  -1017900.15246  23625748.45246
  21516643.901 6  -1034218.578 6   -793448.21149  21516644.07749
 20  5 16  5 11 10.9990000  0  9G01G03G07G08G11G17G22G28G30          0.000433294
  19932840.245 7   -803482.016 7   -606714.30949  19932841.38249
  23293422.292 4  -1382228.738 4  -1027626.80148  23293426.03048
  20701056.987 7   -674568.699 7   -500645.45349  20701055.11649
  22821353.433 4   -460263.359 4   -348933.82848  22821356.59748
  20900968.901 6   -462740.137 6   -343850.29348  20900966.87848
  23951965.776 5  -1179803.238 5   -866658.40647  23951965.48047
  22521940.136 6  -1220051.574 6   -910278.64548  22521937.18748
  23624499.042 5  -1398072.930 5  -1023021.38346  23624497.54646
  21515681.503 6  -1039276.789 6   -797389.67249  21515681.53849
 20  5 16  5 11 11.9990000  0  9G01G03G07G08G11G17G22G28G30          0.000430714
  19932152.487 7   -807095.344 7   -609529.88349  19932153.45649
  23292127.925 4  -1389032.973 4  -1032928.80148  23292131.10848
  20700471.558 7   -677644.719 7   -503042.34449  20700469.82749
  22820936.198 4   -462455.777 4   -350642.20748  22820939.03048
  20900562.722 6   -464873.699 6   -345512.80948  20900561.08948
  23950913.003 5  -1185335.102 5   -870968.93447  23950912.39047
  22520865.339 6  -1225698.977 6   -914679.21548  22520862.44048
  23623248.315 5  -1404645.234 5  -1028142.65646  23623246.59746
  21514718.862 6  -1044334.441 6   -801330.70749  21514719.05849
 20  5 16  5 11 12.9990000  0  9G01G03G07G08G11G17G22G28G30          0.000428133
  19931464.995 7   -810708.051 7   -612344.98049  19931466.25749
  23290833.581 4  -1395837.184 4  -1038230.78148  23290836.36248
  20699886.409 7   -680720.148 7   -505438.78949  20699884.45649
  22820519.394 4   -464648.254 4   -352350.63348  22820521.57748
  20900157.300 6   -467007.012 6   -347175.13348  20900155.22248
  23949861.472 5  -1190866.855 5   -875279.37947  23949860.08947
  22519790.815 6  -1231345.984 6   -919079.47748  22519787.71048
  23621997.151 5  -1411217.676 5  -1033264.04746  23621996.21046
  21513755.972 6  -1049391.461 6   -805271.23849  21513756.77649
 20  5 16  5 11 13.9990000  0  9G01G03G07G08G11G17G22G28G30          0.000425552
  19930777.394 7   -814320.141 7   -615159.59849  19930778.67549
  23289538.519 4  -1402641.461 4  -1043532.81648  23289541.72248
  20699301.261 7   -683795.012 7   -507834.78549  20699299.35149
  22820102.065 4   -466840.887 4   -354059.17648  22820104.81248
  20899751.276 6   -469140.078 6   -348837.26248  20899749.43748
  23948807.628 5  -1196398.543 5   -879589.78547  23948807.21847
  22518716.651 6  -1236992.754 6   -923479.55948  22518713.56548
  23620745.784 4  -1417790.230 4  -1038385.52046  23620745.55046
  21512793.933 6  -1054447.965 6   -809211.37549  21512794.48349
 20  5 16  5 11 14.9990000  0  9G01G03G07G08G11G17G22G28G30          0.000422970
  19930090.472 7   -817931.688 7   -617973.79349  19930091.48749
  23288244.034 4  -1409445.754 4  -1048834.85948  23288246.69448
  20698716.495 7   -686869.363 7   -510230.38749  20698714.42149
  22819684.995 4   -469033.617 4   -355767.79348  22819687.16348
  20899345.464 6   -471272.980 6   -350499.25848  20899343.36648
  23947755.019 5  -1201930.195 5   -883900.16847  23947754.73347
  22517641.917 6  -1242639.262 6   -927879.43448  22517639.06248
  23619496.089 5  -1424363.031 5  -1043507.17646  23619494.62446
  21511831.722 6  -1059503.961 6   -813151.11349  21511832.27649
 20  5 16  5 11 15.9990000  0  9G01G03G07G08G11G17G22G28G30          0.000420389
  19929403.269 7   -821542.621 7   -620787.50449  19929404.57749
  23286948.792 4  -1416250.043 4  -1054136.91048  23286952.24148
  20698131.245 7   -689943.145 7   -512625.54349  20698129.70249
  22819267.659 4   -471226.508 4   -357476.54348  22819269.71848
  20898939.644 6   -473405.652 6   -352161.08248  20898937.60848
  23946702.972 5  -1207461.770 5   -888210.49247  23946701.80047
  22516567.097 6  -1248285.461 6   -932279.06648  22516564.31248
  23618244.456 4  -1430935.926 4  -1048628.91446  23618244.00346
  21510869.597 6  -1064559.395 6   -817090.41049  21510870.26949
 20  5 16  5 11 16.9990000  0  9G01G03G07G08G11G17G22G28G30          0.000417809
  19928716.300 7   -825152.934 7   -623600.74249  19928717.48049
  23285654.612 4  -1423054.340 4  -1059438.95748  23285657.44048
  20697546.558 7   -693016.328 7   -515020.22749  20697544.67149
  22818850.339 4   -473419.395 4   -359185.28548  22818853.03048
  20898533.784 6   -475538.070 6   -353822.70348  20898531.55848
  23945649.683 5  -1212993.270 5   -892520.74647  23945649.46047
  22515493.175 6  -1253931.363 6   -936678.46548  22515489.67148
  23616993.706 4  -1437509.006 4  -1053750.79346  23616993.04646
  21509908.097 6  -1069614.270 6   -821029.28149  21509908.63249
 20  5 16  5 11 17.9990000  0  9G01G03G07G08G11G17G22G28G30          0.000415226
  19928029.284 7   -828762.586 7   -626413.45749  19928030.31249
  23284359.386 4  -1429858.586 4  -1064740.97348  23284362.65948
  20696961.831 7   -696088.918 7   -517414.45349  20696959.74949
  22818432.847 4   -475612.363 4   -360894.10248  22818435.03848
  20898128.183 6   -477670.219 6   -355484.12548  20898125.71448
  23944597.034 5  -1218524.621 5   -896830.89147  23944596.78047
  22514418.573 6  -1259576.910 6   -941077.59848  22514415.54648
  23615742.730 4  -1444082.094 4  -1058872.68846  23615742.67946
  21508946.089 6  -1074668.520 6   -824967.66449  21508946.85549
 20  5 16  5 11 18.9990000  0  9G01G03G07G08G11G17G22G28G30          0.000412645
  19927342.511 7   -832371.672 7   -629225.73049  19927343.73749
  23283064.214 4  -1436662.875 4  -1070043.01648  23283067.42948
  20696377.355 7   -699160.980 7   -519808.27349  20696375.56949
  22818015.808 4   -477805.453 4   -362602.99648  22818018.03848
  20897722.456 6   -479802.199 6   -357145.40648  20897720.23048
  23943544.878 5  -1224055.961 5   -901141.02047  23943544.53047
  22513344.370 6  -1265222.191 6   -945476.51248  22513341.46448
  23614492.409 5  -1450655.422 5  -1063994.76246  23614491.15946
  21507984.112 6  -1079722.289 6   -828905.66049  21507984.83949
 20  5 16  5 11 19.9990000  0  9G01G03G07G08G11G17G22G28G30          0.000410065
  19926655.855 7   -835980.195 7   -632037.56649  19926657.28849
  23281770.230 4  -1443467.152 4  -1075345.05148  23281773.26148
  20695792.940 7   -702232.500 7   -522201.66449  20695790.97249
  22817598.300 4   -479998.680 4   -364312.01248  22817600.85848
  20897316.690 6   -481933.945 6   -358806.50848  20897314.38248
  23942492.245 5  -1229587.262 5   -905451.11747  23942491.97247
  22512270.105 6  -1270867.219 6   -949875.23048  22512267.03848
  23613242.011 5  -1457228.938 5  -1069116.99247  23613240.70247
  21507022.683 6  -1084775.516 6   -832843.23849  21507023.42149
 20  5 16  5 11 20.9990000  0  9G01G03G07G08G11G17G22G28G30          0.000407482
  19925969.331 7   -839588.102 7   -634848.92249  19925970.73049
  23280475.706 4  -1450271.520 4  -1080647.15648  23280478.02248
  20695208.230 7   -705303.477 7   -524594.63349  20695206.58149
  22817180.503 4   -482192.039 4   -366021.11748  22817183.42948
  20896911.190 6   -484065.477 6   -360467.44548  20896908.98048
  23941439.862 5  -1235118.488 5   -909761.16447  23941439.28447
  22511196.198 6  -1276511.973 6   -954273.73848  22511192.95648
  23611991.073 5  -1463802.594 5  -1074239.32046  23611989.73746
  21506061.019 6  -1089828.191 6   -836780.38749  21506061.91749
 20  5 16  5 11 21.9990000  0  9G01G03G07G08G11G17G22G28G30          0.000404902
  19925283.214 7   -843195.363 7   -637659.77349  19925284.31249
  23279180.714 4  -1457075.793 4  -1085949.18848  23279183.10848
  20694624.167 7   -708373.832 7   -526987.11349  20694622.38249
  22816762.558 4   -484385.399 4   -367730.24148  22816766.14448
  20896505.433 6   -486196.703 6   -362128.13748  20896503.39448
  23940387.542 5  -1240649.551 5   -914071.08647  23940386.75747
  22510121.651 6  -1282156.320 6   -958671.93448  22510119.09348
  23610740.081 5  -1470376.320 5  -1079361.68846  23610738.61246
  21505099.855 6  -1094880.238 6   -840717.05549  21505100.61649
 20  5 16  5 11 22.9990000  0  9G01G03G07G08G11G17G22G28G30          0.000402319
  19924596.370 7   -846802.031 7   -640470.17249  19924597.98049
  23277885.237 4  -1463880.109 4  -1091251.25048  23277888.38648
  20694040.144 7   -711443.629 7   -529379.16849  20694038.25349
  22816346.144 4   -486578.863 4   -369439.43848  22816348.93748
  20896099.878 6   -488327.734 6   -363788.68048  20896097.57748
  23939334.745 5  -1246180.594 5   -918380.98847  23939333.93747
  22509047.745 6  -1287800.422 6   -963069.94148  22509044.94448
  23609488.870 5  -1476950.199 5  -1084484.18846  23609487.85146
  21504138.370 6  -1099931.781 6   -844653.32049  21504139.38649
 20  5 16  5 11 23.9990000  0  9G01G03G07G08G11G17G22G28G30          0.000399738
  19923910.331 7   -850408.102 7   -643280.09449  19923911.58549
  23276591.230 4  -1470684.438 4  -1096553.32048  23276593.80048
  20693456.042 7   -714512.879 7   -531770.78549  20693453.96049
  22815928.378 4   -488772.438 4   -371148.70748  22815931.52648
  20895694.448 6   -490458.559 6   -365449.05548  20895692.37848
  23938281.597 4  -1251711.570 4   -922690.84047  23938281.32347
  22507973.847 6  -1293444.211 6   -967467.69548  22507971.32748
  23608237.792 5  -1483524.262 5  -1089606.82446  23608236.54246
  21503177.315 6  -1104982.777 6   -848589.16449  21503178.45249
 20  5 16  5 11 24.9990000  0  9G01G03G07G08G11G17G22G28G30          0.000397156
  19923224.253 7   -854013.535 7   -646089.52049  19923225.60849
  23275296.503 4  -1477488.750 4  -1101855.37948  23275299.33948
  20692871.980 7   -717581.559 7   -534161.96949  20692870.01549
  22815510.776 4   -490966.086 4   -372858.04748  22815513.76548
  20895288.800 6   -492589.105 6   -367109.22748  20895287.01548
  23937229.425 5  -1257242.410 5   -927000.57847  23937229.15947
  22506900.347 6  -1299087.723 6   -971865.23448  22506896.95248
  23606987.276 5  -1490098.441 5  -1094729.57046  23606985.72646
  21502216.745 6  -1110033.188 6   -852524.55149  21502217.32349
 20  5 16  5 11 25.9990000  0  9G01G03G07G08G11G17G22G28G30          0.000394575
  19922537.940 7   -857618.430 7   -648898.53149  19922539.70249
  23274001.394 4  -1484293.090 4  -1107157.46148  23274004.15548
  20692288.315 7   -720649.711 7   -536552.73849  20692286.57749
  22815093.550 4   -493159.914 4   -374567.52348  22815096.03848
  20894883.550 6   -494719.496 6   -368769.27748  20894881.44448
  23936176.456 4  -1262773.293 4   -931310.34847  23936176.49947
  22505826.190 6  -1304730.926 6   -976262.53548  22505823.21848
  23605735.808 5  -1496672.781 5  -1099852.43847  23605734.65547
  21501255.581 6  -1115083.082 6   -856459.53149  21501256.63249
 20  5 16  5 11 26.9990000  0  9G01G03G07G08G11G17G22G28G30          0.000391993
  19921852.034 7   -861222.738 7   -651707.08249  19921853.30449
  23272706.425 4  -1491097.512 4  -1112459.60548  23272709.82748
  20691704.073 7   -723717.367 7   -538943.12149  20691702.17949
  22814676.401 4   -495353.895 4   -376277.12148  22814678.69848
  20894477.964 6   -496849.680 6   -370429.15648  20894476.26548
  23935124.800 4  -1268304.094 4   -935620.06647  23935124.08947
  22504752.292 6  -1310373.922 6   -980659.67248  22504749.20248
  23604484.659 5  -1503247.352 5  -1104975.48446  23604483.50346
  21500294.558 6  -1120132.504 6   -860394.14149  21500295.79649
 20  5 16  5 11 27.9990000  0  9G01G03G07G08G11G17G22G28G30          0.000389412
  19921166.737 7   -864826.496 7   -654515.20349  19921167.80849
  23271411.331 4  -1497901.945 4  -1117761.75848  23271414.92548
  20691120.862 7   -726784.461 7   -541333.07049  20691118.96449
  22814259.081 4   -497547.965 4   -377986.78548  22814260.99948
  20894072.612 6   -498979.672 6   -372088.88748  20894070.69448
  23934071.526 4  -1273834.852 4   -939929.73847  23934071.65947
  22503678.355 6  -1316016.609 6   -985056.57048  22503675.30048
  23603234.323 5  -1509822.109 5  -1110098.67246  23603232.36246
  21499333.980 6  -1125181.383 6   -864328.34049  21499335.42549
 20  5 16  5 11 28.9990000  0  9G01G03G07G08G11G17G22G28G30          0.000386829
  19920481.065 7   -868429.633 7   -657322.84449  19920482.03049
  23270116.948 4  -1504706.387 4  -1123063.92248  23270120.13248
  20690537.261 7   -729850.980 7   -543722.57049  20690535.58949
  22813841.183 4   -499742.102 4   -379696.49648  22813843.79248
  20893667.308 6   -501109.430 6   -373748.44548  20893665.54248
  23933019.105 4  -1279365.543 4   -944239.35547  23933019.00347
  22502604.526 6  -1321659.035 6   -989453.26648  22502602.00348
  23601983.269 5  -1516396.977 5  -1115221.94546  23601980.85846
  21498373.136 6  -1130229.715 6   -868262.10249  21498374.74149
 20  5 16  5 11 29.9990000  0  9G01G03G07G08G11G17G22G28G30          0.000384247
  19919795.401 7   -872032.090 7   -660129.94949  19919796.81549
  23268821.831 4  -1511510.762 4  -1128366.02748  23268825.46048
  20689953.605 7   -732916.883 7   -546111.57849  20689952.01949
  22813423.636 4   -501936.285 4   -381406.25448  22813426.46048
  20893262.308 6   -503238.883 6   -375407.75448  20893260.08548
  23931966.097 4  -1284896.105 4   -948548.88347  23931966.29647
  22501531.050 6  -1327301.059 6   -993849.64848  22501527.92148
  23600731.972 5  -1522971.898 5  -1120345.25846  23600729.75746
  21497412.386 6  -1135277.410 6   -872195.37149  21497414.11249
 20  5 16  5 11 30.9990000  0  9G01G03G07G08G11G17G22G28G30          0.000381666
  19919109.901 7   -875633.953 7   -662936.59849  19919111.65549
  23267527.034 4  -1518315.137 4  -1133668.13348  23267530.63648
  20689370.526 7   -735982.211 7   -548500.14849  20689368.91349
  22813006.159 4   -504130.570 4   -383116.09448  22813008.89048
  20892856.597 6   -505368.125 6   -377066.90648  20892854.89448
  23930914.237 4  -1290426.594 4   -952858.34847  23930913.59747
  22500457.292 6  -1332942.805 6   -998245.81648  22500454.26548
  23599480.862 5  -1529546.953 5  -1125468.67646  23599478.82746
  21496452.276 6  -1140324.551 6   -876128.20749  21496453.58549
 20  5 16  5 11 31.9990000  0  9G01G03G07G08G11G17G22G28G30          0.000379084
  19918424.558 7   -879235.266 7   -665742.81649  19918426.35149
  23266232.401 4  -1525119.578 4  -1138970.29348  23266235.56548
  20688787.026 7   -739047.047 7   -550888.33649  20688785.17549
  22812588.456 4   -506325.004 4   -384826.03948  22812591.53048
  20892451.917 6   -507497.184 6   -378725.91848  20892450.11248
  23929861.776 4  -1295957.055 4   -957167.79747  23929861.31547
  22499383.698 6  -1338584.285 6  -1002641.77748  22499380.73348
  23598230.105 5  -1536122.277 5  -1130592.29346  23598227.40146
  21495491.886 6  -1145371.184 6   -880060.65249  21495493.31249
 20  5 16  5 11 32.9990000  0  9G01G03G07G08G11G17G22G28G30          0.000376503
  19917739.347 7   -882835.977 7   -668548.56349  19917740.48749
  23264937.183 4  -1531924.031 4  -1144272.46548  23264941.26948
  20688204.308 7   -742111.316 7   -553276.07849  20688202.33549
  22812170.667 4   -508519.559 4   -386536.08648  22812173.69448
  20892046.847 6   -509626.008 6   -380384.74648  20892044.91348
  23928809.011 4  -1301487.430 4   -961477.18047  23928808.75347
  22498310.456 6  -1344225.473 6  -1007037.50848  22498307.50748
  23596978.784 5  -1542697.715 5  -1135716.00846  23596976.44446
  21494531.612 6  -1150417.305 6   -883992.69149  21494532.69849
 20  5 16  5 11 33.9990000  0  9G01G03G07G08G11G17G22G28G30          0.000373920
  19917054.276 7   -886436.055 7   -671353.82049  19917055.78849
  23263642.534 4  -1538728.473 4  -1149574.61748  23263645.93748
  20687621.276 7   -745175.012 7   -555663.37949  20687619.28449
  22811753.347 4   -510714.152 4   -388246.15648  22811756.42548
  20891641.706 6   -511754.613 6   -382043.39548  20891639.83148
  23927756.847 3  -1307017.773 3   -965786.53547  23927756.32747
  22497237.065 6  -1349866.371 6  -1011433.00048  22497233.85848
  23595727.144 5  -1549273.289 5  -1140839.83646  23595725.34346
  21493571.706 6  -1155462.836 6   -887924.27749  21493573.81249
 20  5 16  5 11 34.9990000  0  9G01G03G07G08G11G17G22G28G30          0.000371338
  19916369.503 7   -890035.520 7   -674158.60249  19916370.86249
  23262347.909 5  -1545532.895 5  -1154876.75848  23262351.16748
  20687037.925 7   -748238.105 7   -558050.20349  20687036.03849
  22811335.823 4   -512908.813 4   -389956.28148  22811338.69048
  20891236.855 6   -513882.941 6   -383701.83648  20891234.89048
  23926703.995 3  -1312547.969 3   -970095.77747  23926703.83147
  22496163.448 6  -1355506.945 6  -1015828.25448  22496160.91748
  23594475.644 5  -1555848.949 5  -1145963.73047  23594473.89047
  21492611.667 6  -1160507.789 6   -891855.41449  21492613.27649
 20  5 16  5 11 35.9990000  0  9G01G03G07G08G11G17G22G28G30          0.000368755
  19915684.573 7   -893634.344 7   -676962.87949  19915686.10849
  23261052.394 4  -1552337.285 4  -1160178.87948  23261056.62048
  20686455.331 7   -751300.625 7   -560436.58249  20686453.96449
  22810918.339 4   -515103.594 4   -391666.50848  22810921.19848
  20890832.081 6   -516011.027 6   -385360.08648  20890829.55848
  23925651.909 3  -1318078.043 3   -974404.92647  23925651.43747
  22495090.589 6  -1361147.168 6  -1020223.23448  22495087.59748
  23593224.526 5  -1562424.719 5  -1151087.70746  23593222.60546
  21491651.628 6  -1165552.172 6   -895786.09849  21491653.35149
 20  5 16  5 11 36.9990000  0  9G01G03G07G08G11G17G22G28G30          0.000366175
  19914999.776 7   -897232.543 7   -679766.67649  19915001.19049
  23259758.058 4  -1559141.664 4  -1165480.98448  23259762.03848
  20685872.769 7   -754362.555 7   -562822.50049  20685871.15149
  22810500.730 4   -517298.461 4   -393376.78948  22810503.57348
  20890426.675 6   -518138.867 6   -387018.13748  20890424.62448
  23924599.339 3  -1323608.078 3   -978714.04347  23924599.51547
  22494017.097 6  -1366787.063 6  -1024617.95748  22494014.15148
  23591972.972 5  -1569000.676 5  -1156211.82846  23591971.24146
  21490691.667 6  -1170595.980 6   -899716.33649  21490693.62449
 20  5 16  5 11 37.9990000  0  9G01G03G07G08G11G17G22G28G30          0.000363592
  19914315.308 7   -900830.160 7   -682570.01649  19914316.69849
  23258462.792 4  -1565946.039 4  -1170783.09448  23258467.50348
  20685290.222 7   -757423.934 7   -565207.99249  20685288.64749
  22810083.034 4   -519493.383 4   -395087.12948  22810086.12848
  20890021.714 6   -520266.469 6   -388676.01248  20890019.87848
  23923546.792 3  -1329138.016 3   -983023.08647  23923547.05847
  22492943.589 6  -1372426.707 6  -1029012.48848  22492940.48048
  23590722.167 5  -1575576.734 5  -1161336.03947  23590719.77647
  21489731.862 6  -1175639.223 6   -903646.13749  21489733.75749
 20  5 16  5 11 38.9990000  0  9G01G03G07G08G11G17G22G28G30          0.000361010
  19913630.745 7   -904427.117 7   -685372.83649  19913632.46049
  23257168.206 4  -1572750.402 4  -1176085.19148  23257172.43748
  20684707.737 7   -760484.715 7   -567593.01249  20684705.80449
  22809665.503 5   -521688.359 5   -396797.49648  22809668.30848
  20889616.933 6   -522393.820 6   -390333.68848  20889614.63248
  23922495.323 3  -1334667.875 3   -987332.06347  23922494.84347
  22491870.706 6  -1378065.996 6  -1033406.73848  22491867.62448
  23589470.886 5  -1582152.914 5  -1166460.32047  23589468.13247
  21488772.276 6  -1180681.898 6   -907575.48849  21488774.22249
 20  5 16  5 11 39.9990000  0  9G01G03G07G08G11G17G22G28G30          0.000358427
  19912946.683 7   -908023.453 7   -688175.18049  19912947.76949
  23255873.261 4  -1579554.730 4  -1181387.26648  23255877.81248
  20684125.565 7   -763544.918 7   -569977.59049  20684123.62449
  22809248.003 5   -523883.418 5   -398507.93448  22809250.02248
  20889212.128 6   -524520.898 6   -391991.14548  20889210.08148
  23921442.714 3  -1340197.578 3   -991640.92247  23921442.56947
  22490798.050 6  -1383704.945 6  -1037800.72348  22490794.69448
  23588219.581 5  -1588729.211 5  -1171584.70747  23588217.24947
  21487812.651 6  -1185723.992 6   -911504.39849  21487814.72249
 20  5 16  5 11 40.9990000  0  9G01G03G07G08G11G17G22G28G30          0.000355844
  19912262.050 7   -911619.230 7   -690977.08249  19912263.48349
  23254577.745 4  -1586359.129 4  -1186689.38748  23254582.83948
  20683543.167 7   -766604.613 7   -572361.77049  20683541.64749
  22808829.769 5   -526078.629 5   -400218.48848  22808832.53048
  20888807.589 6   -526647.816 6   -393648.49248  20888805.18748
  23920390.433 3  -1345727.285 3   -995949.78147  23920390.26947
  22489724.417 6  -1389343.676 6  -1042194.53948  22489721.80448
  23586967.972 5  -1595305.691 5  -1176709.23447  23586965.48047
  21486853.550 6  -1190765.566 6   -915432.89849  21486855.24149
 20  5 16  5 11 41.9990000  0  9G01G03G07G08G11G17G22G28G30          0.000353264
  19911578.284 7   -915214.367 7   -693778.48849  19911579.88649
  23253283.237 4  -1593163.496 4  -1191991.48048  23253287.83148
  20682960.823 7   -769663.695 7   -574745.47349  20682959.46849
  22808412.464 5   -528273.891 5   -401929.09048  22808415.04248
  20888402.589 6   -528774.461 6   -395305.61348  20888401.01948
  23919338.667 3  -1351256.887 3  -1000258.56647  23919337.78047
  22488651.901 6  -1394982.059 6  -1046588.08648  22488648.92948
  23585716.589 5  -1601882.293 5  -1181833.85547  23585713.88647
  21485894.159 6  -1195806.559 6   -919360.94549  21485896.12049
 20  5 16  5 11 42.9990000  0  9G01G03G07G08G11G17G22G28G30          0.000350681
  19910893.823 7   -918808.879 7   -696579.39849  19910895.92949
  23251988.675 4  -1599967.859 4  -1197293.57848  23251992.90148
  20682378.714 7   -772722.199 7   -577128.72749  20682377.10549
  22807994.792 5   -530469.207 5   -403639.72348  22807997.45248
  20887998.151 6   -530900.867 6   -396962.55948  20887995.92548
  23918286.097 3  -1356786.395 3  -1004567.28547  23918285.68747
  22487579.245 6  -1400620.109 6  -1050981.36748  22487575.74548
  23584464.855 5  -1608459.016 5  -1186958.57447  23584462.61247
  21484935.112 6  -1200846.984 6   -923288.54349  21484937.24549
 20  5 16  5 11 43.9990000  0  9G01G03G07G08G11G17G22G28G30          0.000348099
  19910209.901 7   -922402.840 7   -699379.88749  19910211.69449
  23250693.503 4  -1606772.207 4  -1202595.65648  23250698.23048
  20681796.948 7   -775780.203 7   -579511.59049  20681795.09749
  22807576.519 5   -532664.684 5   -405350.48848  22807579.63648
  20887593.565 6   -533027.063 6   -398619.33248  20887591.41348
  23917233.659 3  -1362315.891 3  -1008875.98447  23917233.51547
  22486506.198 6  -1406257.898 6  -1055374.44548  22486503.06948
  23583213.722 6  -1615035.922 6  -1192083.43847  23583211.15947
  21483976.362 6  -1205886.875 6   -927215.73449  21483978.03449
 20  5 16  5 11 44.9990000  0  9G01G03G07G08G11G17G22G28G30          0.000345516
  19909526.448 7   -925996.164 7   -702179.89149  19909528.17549
  23249398.159 4  -1613576.559 4  -1207897.74648  23249403.39748
  20681215.019 7   -778837.605 7   -581893.98049  20681214.06549
  22807158.167 5   -534860.258 5   -407061.32448  22807161.46048
  20887188.972 6   -535153.035 6   -400275.93848  20887186.85548
  23916182.042 3  -1367845.242 3  -1013184.55947  23916181.33147
  22485433.167 6  -1411895.371 6  -1059767.28548  22485430.36248
  23581961.737 5  -1621612.926 5  -1197208.37947  23581959.69447
  21483017.081 6  -1210926.211 6   -931142.48849  21483018.89449
 20  5 16  5 11 45.9990000  0  9G01G03G07G08G11G17G22G28G30          0.000342934
  19908842.870 7   -929588.895 7   -704979.41849  19908844.21049
  23248103.347 4  -1620380.941 4  -1213199.85948  23248108.63648
  20680633.784 7   -781894.453 7   -584275.94149  20680631.87449
  22806741.065 5   -537055.902 5   -408772.21948  22806743.65948
  20886784.167 6   -537278.770 6   -401932.35548  20886781.85848
  23915129.565 3  -1373374.594 3  -1017493.14547  23915129.54247
  22484360.776 6  -1417532.547 6  -1064159.89148  22484357.53848
  23580710.714 5  -1628190.125 5  -1202333.47747  23580708.21847
  21482058.308 6  -1215964.961 6   -935068.79349  21482060.13249
 20  5 16  5 11 46.9990000  0  9G01G03G07G08G11G17G22G28G30          0.000340351
  19908159.081 7   -933181.059 7   -707778.50449  19908160.83949
  23246808.636 4  -1627185.336 4  -1218501.98048  23246813.66748
  20680051.917 7   -784950.773 7   -586657.49249  20680050.37849
  22806322.886 5   -539251.680 5   -410483.21148  22806325.98748
  20886380.253 6   -539404.309 6   -403588.61748  20886377.81248
  23914076.894 3  -1378903.859 3  -1021801.66047  23914077.28047
  22483287.987 6  -1423169.477 6  -1068552.30948  22483284.98348
  23579459.097 5  -1634767.453 5  -1207458.66447  23579456.46047
  21481099.175 6  -1221003.242 6   -938994.72349  21481101.51149
 20  5 16  5 11 47.9990000  0  9G01G03G07G08G11G17G22G28G30          0.000337769
  19907475.511 7   -936772.574 7   -710577.09449  19907477.59349
  23245513.933 4  -1633989.672 4  -1223804.05948  23245518.58148
  20679470.159 7   -788006.488 7   -589038.57049  20679468.60549
  22805905.737 5   -541447.531 5   -412194.26249  22805908.33949
  20885975.503 6   -541529.586 6   -405244.67648  20885973.26948
  23913025.183 3  -1384433.000 3  -1026110.08247  23913025.03047
  22482215.089 6  -1428806.035 6  -1072944.43048  22482212.24148
  23578207.480 5  -1641344.898 5  -1212583.94147  23578205.05847
  21480140.886 6  -1226040.910 6   -942920.18449  21480143.04649
 20  5 16  5 11 48.9990000  0  9G01G03G07G08G11G17G22G28G30          0.000335186
  19906792.136 7   -940363.465 7   -713375.18849  19906793.90149
  23244218.948 4  -1640794.020 4  -1229106.14848  23244224.16748
  20678889.144 7   -791061.602 7   -591419.17649  20678887.70649
  22805487.761 5   -543643.473 5   -413905.38749  22805489.94049
  20885571.448 6   -543654.609 6   -406900.54748  20885569.00748
  23911972.761 3  -1389962.105 3  -1030418.49647  23911972.92947
  22481142.675 6  -1434442.277 6  -1077336.30548  22481139.81548
  23576955.198 6  -1647922.492 6  -1217709.34447  23576952.96447
  21479182.073 6  -1231078.008 6   -946845.19149  21479183.94049
 20  5 16  5 11 49.9990000  0  9G01G03G07G08G11G17G22G28G30          0.000332603
  19906109.058 7   -943953.781 7   -716172.83649  19906110.84749
  23242924.058 4  -1647598.398 4  -1234408.25448  23242928.92948
  20678307.683 7   -794116.207 7   -593799.39549  20678306.00749
  22805069.745 5   -545839.508 5   -415616.58649  22805072.20249
  20885166.956 6   -545779.445 6   -408556.26248  20885164.84348
  23910920.417 3  -1395491.102 3  -1034726.80947  23910920.75347
  22480070.386 6  -1440078.270 6  -1081727.99248  22480067.31248
  23575703.230 5  -1654500.203 5  -1222834.84047  23575701.23747
  21478224.417 6  -1236114.574 6   -950769.78549  21478225.63649
 20  5 16  5 11 50.9990000  0  9G01G03G07G08G11G17G22G28G30          0.000330021
  19905426.128 7   -947543.488 7   -718970.00849  19905427.39449
  23241629.519 4  -1654402.719 4  -1239710.31648  23241633.85848
  20677726.628 7   -797170.211 7   -596179.13349  20677724.89449
  22804652.136 5   -548035.652 5   -417327.86349  22804654.21849
  20884762.722 6   -547904.008 6   -410211.76648  20884760.37048
  23909869.011 4  -1401020.051 4  -1039035.09047  23909868.94447
  22478998.050 6  -1445713.902 6  -1086119.39148  22478994.72248
  23574451.472 5  -1661078.027 5  -1227960.42247  23574449.44447
  21477265.831 6  -1241150.559 6   -954693.93049  21477267.10149
 20  5 16  5 11 51.9990000  0  9G01G03G07G08G11G17G22G28G30          0.000327438
  19904742.901 7   -951132.477 7   -721766.62149  19904744.29649
  23240334.480 3  -1661207.023 3  -1245012.36748  23240339.30848
  20677145.370 7   -800223.594 7   -598558.39549  20677144.15949
  22804233.550 5   -550231.773 5   -419039.12949  22804236.63249
  20884358.401 6   -550028.285 6   -411867.04348  20884355.76148
  23908816.605 3  -1406548.785 3  -1043343.19947  23908817.05447
  22477925.886 6  -1451349.184 6  -1090510.51648  22477922.13248
  23573200.136 6  -1667655.980 6  -1233086.10247  23573197.80047
  21476307.456 6  -1246185.941 6   -958617.60249  21476309.22649
 20  5 16  5 11 52.9990000  0  9G01G03G07G08G11G17G22G28G30          0.000324856
  19904060.073 7   -954720.914 7   -724562.80549  19904061.65549
  23239039.769 3  -1668011.352 3  -1250314.43448  23239044.13248
  20676564.581 6   -803276.445 6   -600937.24249  20676562.96449
  22803815.565 5   -552428.020 5   -420750.49249  22803818.42149
  20883954.292 6   -552152.359 6   -413522.16848  20883951.83548
  23907764.472 3  -1412077.520 3  -1047651.30147  23907764.62447
  22476853.323 6  -1456984.203 6  -1094901.43848  22476850.06548
  23571948.386 6  -1674234.086 6  -1238211.89847  23571946.22247
  21475349.378 6  -1251220.793 6   -962540.87149  21475350.89049
 20  5 16  5 11 53.9990000  0  9G01G03G07G08G11G17G22G28G30          0.000322273
  19903377.433 7   -958308.730 7   -727358.50049  19903378.89749
  23237744.800 3  -1674815.637 3  -1255616.46948  23237749.37048
  20675983.628 6   -806328.711 6   -603315.63349  20675982.11249
  22803397.925 5   -554624.367 5   -422461.93449  22803400.48349
  20883549.948 6   -554276.199 6   -415177.10948  20883547.46048
  23906712.722 3  -1417606.203 3  -1051959.35947  23906712.37447
  22475780.792 6  -1462618.879 6  -1099292.09048  22475777.80048
  23570697.300 6  -1680812.328 6  -1243337.80147  23570694.08147
  21474391.472 6  -1256255.051 6   -966463.67249  21474392.66749
 20  5 16  5 11 54.9990000  0  9G01G03G07G08G11G17G22G28G30          0.000319691
  19902694.862 7   -961895.984 7   -730153.76649  19902696.30049
  23236449.581 3  -1681619.988 3  -1260918.55948  23236454.40948
  20675402.675 6   -809380.477 6   -605693.62949  20675401.15949
  22802979.730 5   -556820.852 5   -424173.48449  22802982.76949
  20883146.019 6   -556399.840 6   -416831.89848  20883143.44448
  23905661.144 3  -1423134.828 3  -1056267.37547  23905660.81247
  22474708.511 6  -1468253.313 6  -1103682.55548  22474705.55848
  23569445.042 6  -1687390.738 6  -1248463.83247  23569442.32347
  21473433.237 6  -1261288.801 6   -970386.07849  21473435.47249
 20  5 16  5 11 55.9990000  0  9G01G03G07G08G11G17G22G28G30          0.000317108
  19902012.269 7   -965482.613 7   -732948.53949  19902013.93349
  23235155.230 3  -1688424.281 3  -1266220.60248  23235159.71848
  20674822.183 6   -812431.641 6   -608071.16449  20674820.98349
  22802562.558 5   -559017.414 5   -425885.09049  22802564.82749
  20882741.792 6   -558523.266 6   -418486.51248  20882738.94848
  23904608.878 3  -1428663.344 3  -1060575.30947  23904608.50347
  22473636.480 6  -1473887.414 6  -1108072.77048  22473633.33948
  23568193.292 6  -1693969.301 6  -1253589.98447  23568190.69847
  21472475.987 6  -1266322.000 6   -974308.05549  21472477.04249
 20  5 16  5 11 56.9990000  0  9G01G03G07G08G11G17G22G28G30          0.000314526
  19901329.667 7   -969068.621 7   -735742.83649  19901331.35549
  23233859.519 2  -1695228.590 2  -1271522.65648  23233864.83548
  20674241.886 6   -815482.238 6   -610448.25049  20674240.77249
  22802144.362 5   -561214.004 5   -427596.71949  22802146.51949
  20882338.151 6   -560646.422 6   -420140.92248  20882335.26948
  23903556.808 3  -1434191.828 3  -1064883.21947  23903556.37047
  22472564.167 6  -1479521.203 6  -1112462.73848  22472561.35548
  23566941.800 6  -1700547.926 6  -1258716.18447  23566939.10547
  21471517.722 6  -1271354.617 6   -978229.57049  21471519.14449
 20  5 16  5 11 57.9990000  0  9G01G03G07G08G11G17G22G28G30          0.000311943
  19900647.565 7   -972653.977 7   -738536.61749  19900649.01149
  23232565.378 3  -1702032.848 3  -1276824.67248  23232569.93748
  20673661.331 6   -818532.219 6   -612824.85549  20673659.65949
  22801725.784 5   -563410.723 5   -429308.45749  22801728.78849
  20881934.511 6   -562769.313 6   -421795.11748  20881930.95248
  23902504.659 3  -1439720.121 3  -1069190.97747  23902504.49147
  22471491.940 6  -1485154.629 6  -1116852.41848  22471489.18348
  23565689.698 6  -1707126.699 6  -1263842.50047  23565686.83147
  21470560.472 6  -1276386.629 6   -982150.61349  21470561.92949
 20  5 16  5 11 58.9990000  0  9G01G03G07G08G11G17G22G28G30          0.000309361
  19899965.315 7   -976238.719 7   -741329.92249  19899967.28449
  23231269.831 2  -1708837.129 2  -1282126.71548  23231275.03048
  20673081.362 6   -821581.625 6   -615201.01649  20673079.76549
  22801307.870 5   -565607.523 5   -431020.25049  22801310.19049
  20881530.183 6   -564891.969 6   -423449.14148  20881527.37048
  23901453.222 4  -1445248.344 4  -1073498.68047  23901452.53847
  22470420.362 6  -1490787.777 6  -1121241.88348  22470417.51948
  23564437.198 6  -1713705.578 6  -1268968.90247  23564435.15547
  21469602.698 6  -1281418.078 6   -986071.22349  21469604.06249
 20  5 16  5 11 59.9990000  0  9G01G03G07G08G11G17G22G28G30          0.000306776
  19899283.058 7   -979822.875 7   -744122.77349  19899285.18349
  23229975.425 2  -1715641.367 2  -1287428.72348  23229980.04648
  20672501.019 6   -824630.496 6   -617576.76249  20672499.60549
  22800889.847 5   -567804.395 5   -432732.10249  22800892.43749
  20881126.261 6   -567014.387 6   -425102.96948  20881123.33948
  23900400.722 3  -1450776.551 3  -1077806.37547  23900400.71047
  22469348.394 6  -1496420.605 6  -1125631.10248  22469345.61248
  23563185.503 6  -1720284.602 6  -1274095.41847  23563183.23347
  21468645.058 6  -1286448.977 6   -989991.40249  21468646.82749
 20  5 16  5 12  0.9990000  0  9G01G03G07G08G11G17G22G28G30          0.000304193
  19898601.487 7   -983406.395 7   -746915.12549  19898603.20249
  23228681.401 2  -1722445.566 2  -1292730.70348  23228685.42548
  20671921.003 6   -827678.773 6   -619952.04749  20671919.53449
  22800471.206 5   -570001.352 5   -434444.00849  22800474.44849
  20880722.487 6   -569136.582 6   -426756.64148  20880719.20248
  23899349.120 4  -1456304.590 4  -1082113.93847  23899348.63647
  22468276.503 6  -1502053.117 6  -1130020.07048  22468273.74948
  23561933.573 6  -1726863.762 6  -1279222.04747  23561931.31247
  21467688.292 6  -1291479.293 6   -993911.13349  21467689.60849
 20  5 16  5 12  1.9990000  0  9G01G03G07G08G11G17G22G28G30          0.000301611
  19897919.659 7   -986989.254 7   -749706.96149  19897921.76549
  23227386.237 2  -1729249.738 2  -1298032.65248  23227390.11648
  20671340.972 6   -830726.438 6   -622326.84849  20671339.42149
  22800053.362 5   -572198.336 5   -436155.94549  22800055.92549
  20880318.690 6   -571258.488 6   -428410.07048  20880315.30048
  23898296.870 4  -1461832.535 4  -1086421.42647  23898296.96847
  22467204.558 6  -1507685.238 6  -1134408.73848  22467201.82748
  23560682.058 6  -1733442.984 6  -1284348.71147  23560679.21047
  21466731.300 6  -1296508.988 6   -997830.37949  21466732.38649
 20  5 16  5 12  2.9990000  0  9G01G03G07G08G11G17G22G28G30          0.000299028
  19897238.019 7   -990571.500 7   -752498.33249  19897239.83149
  23226091.448 2  -1736053.883 2  -1303334.58248  23226094.99548
  20670761.440 6   -833773.520 6   -624701.19949  20670759.27249
  22799635.339 5   -574395.445 5   -437867.97749  22799637.87849
  20879915.183 6   -573380.148 6   -430063.32048  20879911.71448
  23897244.683 4  -1467360.414 4  -1090728.85947  23897244.83147
  22466132.987 6  -1513317.109 6  -1138797.20348  22466130.23048
  23559430.019 6  -1740022.406 6  -1289475.53147  23559427.36647
  21465773.878 6  -1301538.156 6  -1001749.21549  21465775.03849
 20  5 16  5 12  3.9990000  0  9G01G03G07G08G11G17G22G28G30          0.000296446
  19896556.339 7   -994153.176 7   -755289.24249  19896558.35149
  23224796.230 1  -1742858.090 1  -1308636.56348  23224800.84748
  20670181.448 6   -836820.070 6   -627075.13749  20670179.91749
  22799217.136 5   -576592.609 5   -439580.05149  22799219.71449
  20879511.370 6   -575501.621 6   -431716.41048  20879508.58548
  23896192.823 4  -1472888.254 4  -1095036.26647  23896193.08547
  22465061.503 6  -1518948.641 6  -1143185.41048  22465058.67948
  23558178.190 6  -1746601.926 6  -1294602.43047  23558175.10847
  21464817.347 6  -1306566.773 6  -1005667.62149  21464818.37049
 20  5 16  5 12  4.9990000  0  9G01G03G07G08G11G17G22G28G30          0.000293861
  19895874.800 7   -997734.262 7   -758079.69549  19895876.78049
  23223501.526 2  -1749662.301 2  -1313938.53948  23223505.86648
  20669601.651 6   -839866.078 6   -629448.64849  20669600.12449
  22798799.323 5   -578789.922 5   -441292.24649  22798801.81249
  20879107.589 6   -577622.879 6   -433369.34048  20879104.63648
  23895141.144 4  -1478416.016 4  -1099343.61347  23895140.79647
  22463989.823 6  -1524579.930 6  -1147573.42648  22463986.81248
  23556925.776 6  -1753181.621 6  -1299729.46947  23556923.50747
  21463860.003 6  -1311594.859 6  -1009585.60949  21463861.53849
 20  5 16  5 12  5.9990000  0  9G01G03G07G08G11G17G22G28G30          0.000291279
  19895193.511 7  -1001314.777 7   -760869.70749  19895195.44849
  23222207.089 2  -1756466.484 2  -1319240.50448  23222211.15148
  20669022.159 6   -842911.535 6   -631821.73449  20669020.35549
  22798380.909 5   -580987.332 5   -443004.50849  22798383.71049
  20878703.894 6   -579743.926 6   -435022.10248  20878700.54648
  23894089.167 4  -1483943.719 4  -1103650.91047  23894088.91747
  22462918.378 6  -1530210.918 6  -1151961.21148  22462915.38648
  23555673.511 6  -1759761.484 6  -1304856.63747  23555671.31547
  21462903.401 6  -1316622.410 6  -1013503.18849  21462904.80049
 20  5 16  5 12  6.9990000  0  9G01G03G07G08G11G17G22G28G30          0.000288696
  19894512.011 7  -1004894.605 7   -763659.18449  19894513.88249
  23220912.417 1  -1763270.668 1  -1324542.46948  23220915.77648
  20668442.987 6   -845956.391 6   -634194.34449  20668441.31249
  22797962.808 5   -583184.816 5   -444716.83649  22797965.21049
  20878300.230 6   -581864.707 6   -436674.65648  20878297.09348
  23893037.315 4  -1489471.289 4  -1107958.10247  23893037.10547
  22461846.315 6  -1535841.535 6  -1156348.69948  22461844.50748
  23554421.651 6  -1766341.449 6  -1309983.87947  23554419.07347
  21461946.823 6  -1321649.344 6  -1017420.27349  21461948.12049
 20  5 16  5 12  7.9990000  0  9G01G03G07G08G11G17G22G28G30          0.000286114
  19893831.159 7  -1008473.836 7   -766448.19949  19893833.02249
  23219617.128 1  -1770074.824 1  -1329844.40648  23219621.03848
  20667863.901 6   -849000.656 6   -636566.49649  20667862.02649
  22797544.769 5   -585382.344 5   -446429.20349  22797547.47649
  20877897.144 6   -583985.211 6   -438327.00448  20877893.87448
  23891985.237 5  -1494998.813 5  -1112265.25847  23891985.46847
  22460775.253 6  -1541471.863 6  -1160735.97348  22460772.83148
  23553169.480 6  -1772921.508 6  -1315111.19947  23553167.31547
  21460990.651 6  -1326675.695 6  -1021336.91449  21460991.28849
 20  5 16  5 12  8.9990000  0  9G01G03G07G08G11G17G22G28G30          0.000283529
  19893149.987 7  -1012052.402 7   -769236.69149  19893151.83949
  23218323.440 1  -1776878.906 1  -1335146.29748  23218326.24948
  20667284.378 6   -852044.316 6   -638938.18449  20667282.76149
  22797125.995 5   -587579.930 5   -448141.60549  22797128.76949
  20877493.706 6   -586105.477 6   -439979.15648  20877490.48348
  23890933.347 4  -1500526.152 4  -1116572.27347  23890933.17947
  22459704.464 6  -1547101.801 6  -1165122.93448  22459701.48048
  23551917.401 6  -1779501.664 6  -1320238.59047  23551914.69047
  21460034.362 6  -1331701.469 6  -1025253.09849  21460035.53049
 20  5 16  5 12  9.9990000  0  9G01G03G07G08G11G17G22G28G30          0.000280947
  19892469.433 7  -1015630.355 7   -772024.70749  19892471.37449
  23217028.331 1  -1783683.027 1  -1340448.19948  23217031.82748
  20666705.565 6   -855087.410 6   -641309.43049  20666703.75349
  22796708.284 5   -589777.625 5   -449854.09049  22796711.01949
  20877089.651 6   -588225.484 6   -441631.11748  20877086.99548
  23889881.386 4  -1506053.488 4  -1120879.29347  23889881.53447
  22458632.956 6  -1552731.469 6  -1169509.69148  22458630.14748
  23550665.042 6  -1786081.980 6  -1325366.10947  23550662.48047
  21459077.784 6  -1336726.648 6  -1029168.82849  21459079.24949
 20  5 16  5 12 10.9990000  0  9G01G03G07G08G11G17G22G28G30          0.000278364
  19891788.487 7  -1019207.719 7   -774812.25849  19891789.88249
  23215733.401 1  -1790487.168 1  -1345750.12148  23215736.90148
  20666126.519 6   -858129.953 6   -643680.24249  20666125.05449
  22796290.151 5   -591975.410 5   -451566.65249  22796292.59349
  20876686.862 6   -590345.273 6   -443282.89848  20876683.60848
  23888829.987 5  -1511580.734 5  -1125186.22747  23888829.72247
  22457561.534 6  -1558360.801 6  -1173896.18448  22457558.80448
  23549412.683 6  -1792662.422 6  -1330493.73047  23549410.69447
  21458121.675 6  -1341751.332 6  -1033084.16449  21458123.11249
 20  5 16  5 12 11.9990000  0  9G01G03G07G08G11G17G22G28G30          0.000275780
  19891108.136 7  -1022784.449 7   -777599.32849  19891109.87049
  23214439.081 1  -1797291.172 1  -1351051.95748  23214442.07348
  20665547.612 6   -861171.879 6   -646050.57449  20665546.01549
  22795871.667 5   -594173.250 5   -453279.25049  22795874.26549
  20876283.394 6   -592464.816 6   -444934.49248  20876280.05848
  23887778.136 5  -1517107.840 5  -1129493.05547  23887777.57747
  22456490.894 6  -1563989.824 6  -1178282.43848  22456488.05848
  23548160.245 6  -1799242.996 6  -1335621.44947  23548157.98747
  21457165.784 6  -1346775.391 6  -1036999.01649  21457166.54249
 20  5 16  5 12 12.9990000  0  9G01G03G07G08G11G17G22G28G30          0.000273197
  19890427.753 7  -1026360.551 7   -780385.89849  19890429.39449
  23213144.370 1  -1804095.250 1  -1356353.84448  23213147.26148
  20664968.815 6   -864213.285 6   -648420.50049  20664967.04649
  22795453.480 5   -596371.160 5   -454991.91449  22795455.95249
  20875879.948 6   -594584.137 6   -446585.90648  20875876.92548
  23886726.503 4  -1522634.902 4  -1133799.85247  23886725.84347
  22455419.315 6  -1569618.535 6  -1182668.44948  22455416.72248
  23546907.987 6  -1805823.691 6  -1340749.27347  23546905.50747
  21456209.394 6  -1351798.867 6  -1040913.41049  21456210.81949
 20  5 16  5 12 13.9990000  0  9G01G03G07G08G11G17G22G28G30          0.000270615
  19889747.089 7  -1029936.047 7   -783172.00049  19889749.26949
  23211849.581 1  -1810899.316 1  -1361655.71148  23211852.33948
  20664390.214 6   -867254.086 6   -650789.95749  20664388.26949
  22795034.948 5   -598569.203 5   -456704.68048  22795037.63248
  20875476.675 6   -596703.180 6   -448237.11348  20875473.69848
  23885674.620 4  -1528161.863 4  -1138106.57847  23885674.00747
  22454348.659 6  -1575246.918 6  -1187054.20748  22454345.87848
  23545655.894 6  -1812404.508 6  -1345877.17647  23545653.08547
  21455253.659 6  -1356821.816 6  -1044827.40249  21455255.11249
 20  5 16  5 12 14.9990000  0  9G01G03G07G08G11G17G22G28G30          0.000268030
  19889066.855 7  -1033510.934 7   -785957.62949  19889068.48749
  23210555.089 1  -1817703.352 1  -1366957.55547  23210557.38247
  20663811.769 6   -870294.324 6   -653158.97749  20663809.99149
  22794616.886 5   -600767.309 5   -458417.49648  22794619.20248
  20875073.628 7   -598822.031 7   -449888.16448  20875069.99948
  23884622.714 4  -1533688.801 4  -1142413.28547  23884622.43747
  22453277.417 6  -1580875.004 6  -1191439.72748  22453274.71048
  23544403.855 6  -1818985.453 6  -1351005.18447  23544401.26547
  21454298.300 6  -1361844.191 6  -1048740.93849  21454299.22649
 20  5 16  5 12 15.9990000  0  9G01G03G07G08G11G17G22G28G30          0.000265448
  19888386.753 7  -1037085.246 7   -788742.80949  19888388.05449
  23209259.737 1  -1824507.480 1  -1372259.46147  23209262.84747
  20663233.034 6   -873334.031 6   -655527.58649  20663231.85549
  22794198.831 5   -602965.531 5   -460130.39848  22794200.96848
  20874670.644 6   -600940.656 6   -451539.04348  20874667.17148
  23883571.144 4  -1539215.609 4  -1146719.88347  23883570.65547
  22452206.534 6  -1586502.785 6  -1195825.01248  22452203.84748
  23543151.073 6  -1825566.621 6  -1356133.37147  23543148.72647
  21453342.425 6  -1366866.051 6  -1052654.07449  21453343.89449
 20  5 16  5 12 16.9990000  0  9G01G03G07G08G11G17G22G28G30          0.000262863
  19887706.331 7  -1040658.969 7   -791527.52049  19887708.25749
  23207963.823 1  -1831311.457 1  -1377561.25847  23207968.01547
  20662655.089 6   -876373.184 6   -657895.75449  20662653.26149
  22793780.034 5   -605163.922 5   -461843.42648  22793782.62848
  20874267.503 7   -603059.063 7   -453189.74648  20874263.89448
  23882519.730 4  -1544742.398 4  -1151026.46547  23882519.31547
  22451135.784 6  -1592130.281 6  -1200210.07048  22451133.05048
  23541898.581 6  -1832147.867 6  -1361261.62147  23541895.85147
  21452386.917 6  -1371887.352 6  -1056566.77749  21452388.17549
 20  5 16  5 12 17.9990000  0  9G01G03G07G08G11G17G22G28G30          0.000260281
  19887026.714 7  -1044232.016 7   -794311.71549  19887028.29249
  23206669.347 1  -1838115.484 1  -1382863.10247  23206673.29647
  20662076.573 6   -879411.699 6   -660263.42649  20662074.88649
  22793362.276 5   -607362.305 5   -463556.44548  22793364.39048
  20873864.425 7   -605177.180 7   -454840.23048  20873860.92148
  23881468.105 4  -1550269.047 4  -1155332.94147  23881467.42547
  22450064.651 6  -1597757.406 6  -1204594.84848  22450062.07748
  23540646.198 6  -1838729.230 6  -1366389.95347  23540643.50347
  21451431.839 6  -1376908.035 6  -1060478.99649  21451432.89449
 20  5 16  5 12 18.9990000  0  9G01G03G07G08G11G17G22G28G30          0.000257696
  19886346.901 7  -1047804.453 7   -797095.43049  19886348.28849
  23205375.237 2  -1844919.488 2  -1388164.92247  23205378.17947
  20661498.433 6   -882449.652 6   -662630.66049  20661496.77249
  22792943.565 5   -609560.773 5   -465269.53548  22792945.89748
  20873461.089 7   -607295.094 7   -456490.55548  20873458.03448
  23880415.612 4  -1555795.594 4  -1159639.34447  23880415.76947
  22448994.315 6  -1603384.238 6  -1208979.38348  22448991.39748
  23539394.144 6  -1845310.719 6  -1371518.38347  23539391.79647
  21450476.386 6  -1381928.113 6  -1064390.75449  21450477.26549
 20  5 16  5 12 19.9990000  0  9G01G03G07G08G11G17G22G28G30          0.000255114
  19885667.276 7  -1051376.313 7   -799878.69949  19885668.71049
  23204080.269 1  -1851723.492 1  -1393466.73847  23204083.89047
  20660920.800 6   -885487.078 6   -664997.48049  20660918.55049
  22792525.183 5   -611759.363 5   -466982.72348  22792527.28048
  20873058.222 7   -609412.773 7   -458140.69548  20873054.95248
  23879364.128 4  -1561322.090 4  -1163945.70347  23879363.86647
  22447923.440 6  -1609010.797 6  -1213363.72348  22447921.05048
  23538141.370 6  -1851892.371 6  -1376646.94547  23538138.76947
  21449521.136 6  -1386947.711 6  -1068302.13349  21449522.69449
 20  5 16  5 12 20.9990000  0  9G01G03G07G08G11G17G22G28G30          0.000252529
  19884988.026 7  -1054947.543 7   -802661.47749  19884989.13649
  23202785.151 1  -1858527.488 1  -1398768.54747  23202788.95247
  20660342.753 6   -888523.898 6   -667363.84049  20660341.18349
  22792107.120 5   -613958.020 5   -468695.95748  22792109.20648
  20872655.542 7   -611530.199 7   -459790.63748  20872652.14048
  23878313.128 4  -1566848.531 4  -1168252.01247  23878312.40547
  22446852.472 6  -1614636.984 6  -1217747.76248  22446850.14048
  23536888.964 6  -1858474.129 6  -1381775.59447  23536886.36247
  21448566.089 6  -1391966.727 6  -1072213.05149  21448567.30049
 20  5 16  5 12 21.9990000  0  9G01G03G07G08G11G17G22G28G30          0.000249947
  19884308.151 7  -1058518.145 7   -805443.76649  19884309.90149
  23201490.401 1  -1865331.418 1  -1404070.30547  23201494.17947
  20659765.050 6   -891560.148 6   -669729.75049  20659763.37849
  22791688.565 5   -616156.719 5   -470409.23448  22791690.85148
  20872252.573 7   -613647.383 7   -461440.39148  20872249.17548
  23877260.917 4  -1572374.832 4  -1172558.21147  23877261.01147
  22445781.855 6  -1620262.863 6  -1222131.56348  22445779.62048
  23535636.440 6  -1865056.047 6  -1386904.35947  23535633.75747
  21447611.190 6  -1396985.137 6  -1076123.50449  21447612.45249
 20  5 16  5 12 22.9990000  0  9G01G03G07G08G11G17G22G28G30          0.000247362
  19883628.737 7  -1062088.090 7   -808225.54349  19883630.33149
  23200196.214 2  -1872135.434 2  -1409372.12947  23200199.40547
  20659187.550 6   -894595.820 6   -672095.21549  20659185.92149
  22791270.003 5   -618355.504 5   -472122.56648  22791271.90148
  20871849.425 7   -615764.305 7   -463089.94548  20871846.76148
  23876208.761 4  -1577901.082 4  -1176864.37547  23876209.35847
  22444711.472 6  -1625888.418 6  -1226515.11348  22444709.16348
  23534384.167 6  -1871638.059 6  -1392033.19547  23534381.30447
  21446656.230 6  -1402002.965 6  -1080033.49649  21446657.63249
 20  5 16  5 12 23.9990000  0  9G01G03G07G08G11G17G22G28G30          0.000244780
  19882949.526 7  -1065657.508 7   -811006.90649  19882951.53049
  23198901.269 2  -1878939.324 2  -1414673.85947  23198904.63247
  20658609.722 6   -897630.953 6   -674460.25049  20658608.19449
  22790851.292 5   -620554.461 5   -473836.04348  22790853.81948
  20871447.159 7   -617881.051 7   -464739.35548  20871443.91348
  23875157.620 4  -1583427.273 4  -1181170.50047  23875157.69047
  22443640.847 6  -1631513.699 6  -1230898.44948  22443638.38648
  23533131.675 6  -1878220.238 6  -1397162.16047  23533129.01147
  21445701.284 6  -1407020.293 6  -1083943.10549  21445702.97249
 20  5 16  5 12 24.9990000  0  9G01G03G07G08G11G17G22G28G30          0.000242195
  19882270.292 7  -1069226.285 7   -813787.77049  19882271.89449
  23197605.730 1  -1885743.289 1  -1419975.65247  23197609.89447
  20658032.503 6   -900665.523 6   -676824.85549  20658030.89049
  22790433.175 5   -622753.434 5   -475549.53548  22790435.36248
  20871044.128 7   -619997.555 7   -466388.58248  20871041.00748
  23874105.698 4  -1588953.336 4  -1185476.53147  23874106.31947
  22442570.589 6  -1637138.664 6  -1235281.53948  22442568.50748
  23531878.878 6  -1884802.555 6  -1402291.23047  23531876.42147
  21444746.855 6  -1412037.039 6  -1087852.26249  21444748.66349
 20  5 16  5 12 25.9990000  0  9G01G03G07G08G11G17G22G28G30          0.000239613
  19881591.237 7  -1072794.430 7   -816568.14149  19881593.12849
  23196311.019 2  -1892547.160 2  -1425277.36347  23196315.43747
  20657454.901 6   -903699.484 6   -679188.98049  20657453.28849
  22790014.706 5   -624952.504 5   -477263.09448  22790017.00748
  20870641.565 7   -622113.797 7   -468037.60548  20870638.21448
  23873054.394 3  -1594479.301 3  -1189782.46947  23873055.03047
  22441500.315 6  -1642763.281 6  -1239664.36348  22441497.67548
  23530626.683 6  -1891384.969 6  -1407420.37547  23530623.27647
  21443792.519 6  -1417053.191 6  -1091760.94949  21443793.91349
 20  5 16  5 12 26.9990000  0  9G01G03G07G08G11G17G22G28G30          0.000237028
  19880912.276 7  -1076361.969 7   -819348.04349  19880914.11249
  23195015.855 2  -1899351.086 2  -1430579.12147  23195020.67947
  20656877.589 6   -906732.914 6   -681552.68449  20656876.32749
  22789596.534 5   -627151.680 5   -478976.73448  22789598.28448
  20870238.503 7   -624229.816 7   -469686.44948  20870235.79248
  23872002.331 3  -1600005.234 3  -1194088.39147  23872002.89447
  22440430.159 6  -1648387.578 6  -1244046.93048  22440427.76948
  23529374.089 6  -1897967.492 6  -1412549.61747  23529370.74947
  21442837.886 6  -1422068.809 6  -1095669.22349  21442839.58549
 20  5 16  5 12 27.9990000  0  9G01G03G07G08G11G17G22G28G30          0.000234444
  19880233.722 7  -1079928.906 7   -822127.47349  19880235.31549
  23193721.362 2  -1906155.004 2  -1435880.87547  23193725.84747
  20656300.487 6   -909765.738 6   -683915.91449  20656298.79649
  22789177.472 5   -629350.914 5   -480690.42248  22789180.05848
  20869836.339 7   -626345.570 7   -471335.08648  20869833.08948
  23870951.339 4  -1605531.051 4  -1198394.22747  23870951.56547
  22439360.011 6  -1654011.578 6  -1248429.26648  22439357.28848
  23528121.292 6  -1904550.188 6  -1417678.99647  23528117.96847
  21441883.722 6  -1427083.828 6  -1099577.02749  21441885.23049
 20  5 16  5 12 28.9990000  0  9G01G03G07G08G11G17G22G28G30          0.000231861
  19879554.925 7  -1083495.223 7   -824906.42249  19879556.67149
  23192427.370 1  -1912958.891 1  -1441182.59047  23192431.19047
  20655723.362 6   -912798.008 6   -686278.71149  20655721.85849
  22788758.901 5   -631550.289 5   -482404.21948  22788761.18348
  20869433.519 7   -628461.141 7   -472983.59048  20869430.69448
  23869900.058 3  -1611056.746 3  -1202699.95747  23869900.14447
  22438289.839 6  -1659635.266 6  -1252811.35248  22438287.29648
  23526868.440 6  -1911132.980 6  -1422808.45347  23526865.03047
  21440929.394 6  -1432098.316 6  -1103484.41849  21440931.21049
 20  5 16  5 12 29.9990000  0  9G01G03G07G08G11G17G22G28G30          0.000229277
  19878876.550 7  -1087060.930 7   -827684.89149  19878878.46849
  23191132.175 2  -1919762.699 2  -1446484.25447  23191136.27247
  20655146.464 6   -915829.695 6   -688641.07049  20655144.68749
  22788340.714 5   -633749.688 5   -484118.04348  22788342.81548
  20869030.980 7   -630576.422 7   -474631.85948  20869028.07348
  23868847.901 3  -1616582.410 3  -1207005.67247  23868848.76947
  22437219.370 6  -1665258.629 6  -1257193.19548  22437217.19848
  23525616.347 6  -1917715.918 6  -1427938.02047  23525612.63647
  21439975.089 6  -1437112.223 6  -1107391.35949  21439977.24949
 20  5 16  5 12 30.9990000  0  9G01G03G07G08G11G17G22G28G30          0.000226692
  19878198.003 7  -1090625.938 7   -830462.82049  19878199.76549
  23189837.253 2  -1926566.477 2  -1451785.89847  23189841.60847
  20654569.683 6   -918860.742 6   -691002.92649  20654567.98349
  22787922.487 5   -635949.137 5   -485831.89548  22787923.97648
  20868628.808 7   -632691.422 7   -476279.90648  20868625.52648
  23867796.503 3  -1622107.930 3  -1211311.28947  23867797.65547
  22436150.120 6  -1670881.621 6  -1261574.75048  22436147.42148
  23524363.526 6  -1924298.898 6  -1433067.62147  23524360.25347
  21439021.355 6  -1442125.453 6  -1111297.77349  21439023.26949
 20  5 16  5 12 31.9990000  0  9G01G03G07G08G11G17G22G28G30          0.000224110
  19877519.823 7  -1094190.340 7   -833240.27749  19877521.62449
  23188543.058 2  -1933370.199 2  -1457087.50047  23188546.80047
  20653993.222 6   -921891.238 6   -693364.35549  20653991.64749
  22787503.401 5   -638148.652 5   -487545.80548  22787505.45648
  20868226.050 6   -634806.180 6   -477927.77748  20868223.09348
  23866745.253 3  -1627633.340 3  -1215616.80547  23866745.98047
  22435080.019 6  -1676504.281 6  -1265956.05148  22435077.32748
  23523110.011 6  -1930882.051 6  -1438197.34047  23523107.49547
  21438067.347 6  -1447138.168 6  -1115203.78949  21438069.44049
 20  5 16  5 12 32.9990000  0  9G01G03G07G08G11G17G22G28G30          0.000221525
  19876841.784 7  -1097754.102 7   -836017.23449  19876843.44049
  23187248.151 2  -1940173.973 2  -1462389.14548  23187252.32348
  20653416.355 6   -924921.129 6   -695725.31649  20653414.83549
  22787084.964 5   -640348.242 5   -489259.77048  22787087.28048
  20867823.730 7   -636920.688 7   -479575.44548  20867820.82748
  23865693.355 3  -1633158.656 3  -1219922.25047  23865694.57747
  22434009.956 6  -1682126.590 6  -1270337.07048  22434007.54248
  23521858.050 6  -1937465.277 6  -1443327.12547  23521854.48347
  21437113.589 6  -1452150.273 6  -1119109.33249  21437115.60549
 20  5 16  5 12 33.9990000  0  9G01G03G07G08G11G17G22G28G30          0.000218941
  19876163.745 7  -1101317.230 7   -838793.70349  19876164.91349
  23185953.472 2  -1946977.707 2  -1467690.75048  23185957.78448
  20652840.120 6   -927950.410 6   -698085.79749  20652838.31549
  22786666.276 5   -642547.918 5   -490973.80148  22786668.39448
  20867421.745 7   -639034.941 7   -481222.91848  20867418.69048
  23864642.737 3  -1638683.848 3  -1224227.60247  23864643.09347
  22432940.276 6  -1687748.566 6  -1274717.83248  22432937.76948
  23520605.237 6  -1944048.621 6  -1448457.00447  23520601.78047
  21436159.886 6  -1457161.785 6  -1123014.40249  21436161.82749
 20  5 16  5 12 34.9990000  0  9G01G03G07G08G11G17G22G28G30          0.000216358
  19875485.706 7  -1104879.840 7   -841569.76249  19875487.14749
  23184658.089 3  -1953781.402 3  -1472992.32848  23184662.79248
  20652263.667 6   -930979.211 6   -700445.89849  20652261.94049
  22786247.667 5   -644747.715 5   -492687.93448  22786249.81548
  20867019.198 7   -641149.031 7   -482870.26648  20867015.87848
  23863591.456 3  -1644209.066 3  -1228532.96548  23863592.02248
  22431870.433 6  -1693370.305 6  -1279098.39848  22431868.21048
  23519352.495 6  -1950632.188 6  -1453587.05547  23519349.01547
  21435206.097 6  -1462172.824 6  -1126919.11349  21435208.43349
 20  5 16  5 12 35.9990000  0  9G01G03G07G08G11G17G22G28G30          0.000213774
  19874807.948 7  -1108441.766 7   -844345.28949  19874809.49949
  23183363.761 3  -1960585.105 3  -1478293.91048  23183368.24148
  20651687.667 6   -934007.395 6   -702805.52749  20651685.77249
  22785828.769 5   -646947.602 5   -494402.12948  22785830.80448
  20866617.058 7   -643262.844 7   -484517.39148  20866614.01948
  23862539.722 3  -1649734.195 3  -1232838.25848  23862540.16348
  22430800.519 6  -1698991.707 6  -1283478.71548  22430798.15548
  23518099.659 6  -1957215.844 6  -1458717.16447  23518096.27647
  21434253.222 6  -1467183.234 6  -1130823.32449  21434254.93749
 20  5 16  5 12 36.9990000  0  9G01G03G07G08G11G17G22G28G30          0.000211189
  19874130.362 7  -1112003.063 7   -847120.32449  19874132.10849
  23182068.753 3  -1967388.715 3  -1483595.41848  23182073.48748
  20651111.347 6   -937034.992 6   -705164.69549  20651109.45249
  22785409.956 5   -649147.492 5   -496116.32848  22785412.40548
  20866214.776 7   -645376.398 7   -486164.31348  20866211.90548
  23861488.995 3  -1655259.133 3  -1237143.40248  23861489.08948
  22429731.050 6  -1704612.754 6  -1287858.75448  22429728.39748
  23516846.698 6  -1963799.594 6  -1463847.35947  23516843.19447
  21433299.745 6  -1472193.066 6  -1134727.09049  21433301.76549
 20  5 16  5 12 37.9990000  0  9G01G03G07G08G11G17G22G28G30          0.000208605
  19873452.573 7  -1115563.754 7   -849894.89149  19873454.28449
  23180773.940 3  -1974192.363 3  -1488896.96948  23180778.95648
  20650535.253 6   -940061.996 6   -707523.39549  20650533.70249
  22784991.667 5   -651347.441 5   -497830.58248  22784994.18348
  20865812.636 7   -647489.691 7   -487811.04348  20865809.80048
  23860437.394 3  -1660784.070 3  -1241448.55148  23860437.52248
  22428661.339 6  -1710233.457 6  -1292238.51248  22428659.14048
  23515594.253 6  -1970383.430 6  -1468977.62947  23515589.90147
  21432346.331 6  -1477202.313 6  -1138630.40249  21432348.24949
 20  5 16  5 12 38.9990000  0  9G01G03G07G08G11G17G22G28G30          0.000206022
  19872775.105 7  -1119123.801 7   -852668.95349  19872776.95249
  23179480.034 3  -1980995.988 3  -1494198.49248  23179484.45648
  20649959.519 6   -943088.402 6   -709881.64149  20649958.07349
  22784573.558 5   -653547.492 5   -499544.90648  22784575.42548
  20865410.292 7   -649602.738 7   -489457.57048  20865407.90148
  23859386.034 3  -1666308.855 3  -1245753.58648  23859386.44848
  22427592.237 6  -1715853.816 6  -1296618.01248  22427589.72248
  23514341.612 6  -1976967.430 6  -1474108.01647  23514337.53447
  21431392.855 6  -1482210.984 6  -1142533.26249  21431395.31949
 20  5 16  5 12 39.9990000  0  9G01G03G07G08G11G17G22G28G30          0.000203438
  19872098.198 7  -1122683.219 7   -855442.52049  19872099.39749
  23178185.753 3  -1987799.531 3  -1499499.94948  23178189.76148
  20649383.855 6   -946114.242 6   -712239.43849  20649381.91349
  22784154.386 5   -655747.621 5   -501259.29348  22784156.46848
  20865008.565 7   -651715.551 7   -491103.91848  20865005.44048
  23858334.800 3  -1671833.578 3  -1250058.56348  23858335.12848
  22426522.550 6  -1721473.871 6  -1300997.27748  22426520.33548
  23513087.925 6  -1983551.516 6  -1479238.46947  23513084.10847
  21430440.183 6  -1487219.090 6  -1146435.68049  21430442.06249
 20  5 16  5 12 40.9990000  0  9G01G03G07G08G11G17G22G28G30          0.000200853
  19871420.745 7  -1126242.059 7   -858215.64549  19871422.17549
  23176890.269 3  -1994603.086 3  -1504801.41448  23176895.16748
  20648807.323 6   -949139.500 6   -714596.78149  20648805.80849
  22783736.433 5   -657947.828 5   -502973.74648  22783737.36648
  20864606.440 7   -653828.129 7   -492750.08248  20864603.80448
  23857283.995 3  -1677358.211 3  -1254363.48048  23857283.74948
  22425453.034 6  -1727093.613 6  -1305376.30148  22425450.52648
  23511835.261 6  -1990135.758 6  -1484369.04347  23511831.03847
  21429487.456 6  -1492226.605 6  -1150337.64849  21429489.26149
 20  5 16  5 12 41.9990000  0  9G01G03G07G08G11G17G22G28G30          0.000198269
  19870743.901 7  -1129800.277 7   -860988.28149  19870745.27249
  23175595.987 3  -2001406.641 3  -1510102.88748  23175600.48748
  20648232.401 6   -952164.242 6   -716953.72349  20648230.64449
  22783317.378 5   -660148.172 5   -504688.30548  22783318.49948
  20864204.550 7   -655940.512 7   -494396.09848  20864201.73748
  23856232.792 4  -1682882.773 4  -1258668.34048  23856232.79248
  22424383.440 6  -1732713.070 6  -1309755.09848  22424380.96048
  23510582.190 6  -1996720.160 6  -1489499.74647  23510578.68747
  21428534.308 6  -1497233.602 6  -1154239.20349  21428536.54249
 20  5 16  5 12 42.9990000  0  9G01G03G07G08G11G17G22G28G30          0.000195686
  19870066.472 7  -1133357.871 7   -863760.43449  19870068.31549
  23174300.839 3  -2008210.211 3  -1515404.35548  23174306.10548
  20647656.901 6   -955188.379 6   -719310.19549  20647654.86249
  22782898.401 5   -662348.551 5   -506402.88748  22782900.37848
  20863802.550 7   -658052.613 7   -496041.89548  20863800.12048
  23855181.073 4  -1688407.246 4  -1262973.12148  23855181.37448
  22423314.433 6  -1738332.176 6  -1314133.62548  22423311.93348
  23509329.425 6  -2003304.656 6  -1494630.52347  23509325.38647
  21427581.714 6  -1502240.004 6  -1158140.29749  21427583.99549
 20  5 16  5 12 43.9990000  0  9G01G03G07G08G11G17G22G28G30          0.000193102
  19869389.581 7  -1136914.816 7   -866532.07849  19869391.35549
  23173006.347 3  -2015013.691 3  -1520705.77348  23173010.98348
  20647081.425 6   -958211.906 6   -721666.18849  20647079.85549
  22782479.519 5   -664549.008 5   -508117.53148  22782481.51948
  20863400.550 6   -660164.453 6   -497687.48448  20863398.04648
  23854129.855 4  -1693931.574 4  -1267277.78947  23854130.01147
  22422244.675 6  -1743950.922 6  -1318511.87148  22422242.47248
  23508076.487 6  -2009889.234 6  -1499761.36747  23508072.40947
  21426629.425 6  -1507245.809 6  -1162040.92649  21426631.33549
 20  5 16  5 12 44.9990000  0  9G01G03G07G08G11G17G22G28G30          0.000190517
  19868713.136 7  -1140471.121 7   -869303.22749  19868714.62449
  23171712.526 3  -2021817.125 3  -1526007.14848  23171716.56248
  20646506.222 6   -961234.832 6   -724021.72349  20646504.59749
  22782060.980 5   -666749.543 5   -509832.23448  22782062.51548
  20862998.831 6   -662276.016 6   -499332.85548  20862996.40548
  23853078.308 4  -1699455.832 4  -1271582.40248  23853078.87848
  22421175.683 6  -1749569.344 6  -1322889.85948  22421173.36248
  23506823.136 6  -2016473.914 6  -1504892.28547  23506819.42947
  21425676.589 6  -1512251.023 6  -1165941.09049  21425679.12449
 20  5 16  5 12 45.9990000  0  9G01G03G07G08G11G17G22G28G30          0.000187933
  19868036.378 7  -1144026.813 7   -872073.89849  19868038.13249
  23170417.386 3  -2028620.543 3  -1531308.51248  23170422.29648
  20645931.323 6   -964257.172 6   -726376.78549  20645929.38649
  22781642.050 5   -668950.105 5   -511546.95748  22781643.60148
  20862597.089 6   -664387.348 6   -500978.05948  20862594.37448
  23852027.792 4  -1704979.930 4  -1275886.89547  23852027.68747
  22420106.730 6  -1755187.418 6  -1327267.57448  22420104.46848
  23505570.331 6  -2023058.703 6  -1510023.29347  23505566.05447
  21424724.636 6  -1517255.621 6  -1169840.78149  21424726.39049
 20  5 16  5 12 46.9990000  0  9G01G03G07G08G11G17G22G28G30          0.000185349
  19867359.870 7  -1147581.867 7   -874844.07849  19867360.97249
  23169122.456 3  -2035423.922 3  -1536609.84448  23169127.46848
  20645355.815 6   -967278.934 6   -728731.41049  20645354.31249
  22781223.300 5   -671150.770 5   -513261.76648  22781224.89748
  20862195.409 6   -666498.441 6   -502623.06648  20862192.70248
  23850976.128 4  -1710503.992 4  -1280191.35247  23850976.32747
  22419037.620 6  -1760805.191 6  -1331645.05548  22419035.58148
  23504317.276 6  -2029643.648 6  -1515154.41847  23504313.26547
  21423772.120 6  -1522259.672 6  -1173740.04349  21423774.13649
 20  5 16  5 12 47.9990000  0  9G01G03G07G08G11G17G22G28G30          0.000182764
  19866683.409 7  -1151136.324 7   -877613.77749  19866685.10549
  23167828.105 3  -2042227.324 3  -1541911.19548  23167833.00348
  20644780.995 6   -970300.156 6   -731085.60949  20644779.40149
  22780804.214 5   -673351.527 5   -514976.63748  22780806.14448
  20861793.542 6   -668609.293 6   -504267.88348  20861791.13648
  23849925.534 3  -1716027.996 3  -1284495.77047  23849925.59347
  22417968.487 6  -1766422.645 6  -1336022.29348  22417966.37048
  23503064.190 6  -2036228.703 6  -1520285.63747  23503060.32747
  21422819.761 6  -1527263.164 6  -1177638.87549  21422821.62449
 20  5 16  5 12 48.9990000  0  9G01G03G07G08G11G17G22G28G30          0.000180180
  19866007.542 7  -1154690.129 7   -880382.98049  19866008.97249
  23166533.269 3  -2049030.660 3  -1547212.48848  23166538.15948
  20644206.097 6   -973320.773 6   -733439.33649  20644204.42149
  22780385.995 5   -675552.340 5   -516691.56348  22780387.21848
  20861391.839 6   -670719.910 6   -505912.51648  20861389.79648
  23848873.823 3  -1721551.840 3  -1288800.05947  23848873.78447
  22416899.753 6  -1772039.734 6  -1340399.24648  22416897.47648
  23501811.323 6  -2042813.883 6  -1525416.93447  23501807.15147
  21421868.323 6  -1532266.070 6  -1181537.23849  21421870.06249
 20  5 16  5 12 49.9990000  0  9G01G03G07G08G11G17G22G28G30          0.000177595
  19865330.940 7  -1158243.359 7   -883151.73049  19865332.58949
  23165238.300 3  -2055834.023 3  -1552513.80148  23165243.56948
  20643631.394 6   -976340.816 6   -735792.61349  20643629.72649
  22779966.815 5   -677753.277 5   -518406.57448  22779968.31948
  20860990.433 6   -672830.289 6   -507556.97348  20860987.95248
  23847823.026 3  -1727075.633 3  -1293104.31647  23847823.21047
  22415830.855 6  -1777656.551 6  -1344775.98048  22415828.78848
  23500558.050 6  -2049399.207 6  -1530548.35547  23500554.21847
  21420916.222 6  -1537268.410 6  -1185435.16849  21420917.71849
 20  5 16  5 12 50.9990000  0  9G01G03G07G08G11G17G22G28G30          0.000175011
  19864655.151 7  -1161795.930 7   -885919.96949  19864656.52249
  23163944.034 3  -2062637.293 3  -1557815.04348  23163949.05848
  20643057.019 6   -979360.285 6   -738145.44949  20643055.24149
  22779548.339 5   -679954.227 5   -520121.60248  22779549.67948
  20860588.394 6   -674940.398 6   -509201.22348  20860586.42948
  23846771.628 4  -1732599.316 4  -1297408.48847  23846771.65147
  22414762.136 6  -1783272.992 6  -1349152.43048  22414760.14048
  23499305.026 6  -2055984.602 6  -1535679.82847  23499300.64447
  21419964.589 6  -1542270.145 6  -1189332.62549  21419966.62449
 20  5 16  5 12 51.9990000  0  9G01G03G07G08G11G17G22G28G30          0.000172426
  19863979.128 7  -1165347.914 7   -888687.75049  19863980.48049
  23162649.612 3  -2069440.570 3  -1563116.30148  23162654.42548
  20642482.300 6   -982379.195 6   -740497.84449  20642480.63249
  22779129.230 5   -682155.309 5   -521836.73848  22779130.85148
  20860187.175 6   -677050.309 6   -510845.30548  20860184.92148
  23845720.425 4  -1738122.914 4  -1301712.59847  23845720.74947
  22413693.370 6  -1788889.156 6  -1353528.66048  22413691.00348
  23498051.355 6  -2062570.160 6  -1540811.43847  23498047.94447
  21419012.620 6  -1547271.359 6  -1193229.67649  21419014.12449
 20  5 16  5 12 52.9990000  0  9G01G03G07G08G11G17G22G28G30          0.000169844
  19863303.776 7  -1168899.277 7   -891455.04749  19863304.75349
  23161355.222 3  -2076243.840 3  -1568417.55148  23161360.08948
  20641908.433 6   -985397.516 6   -742849.78549  20641906.48049
  22778710.120 5   -684356.465 5   -523551.92248  22778711.96048
  20859785.901 6   -679159.973 6   -512489.19548  20859784.03848
  23844669.495 4  -1743646.453 4  -1306016.66047  23844669.50747
  22412624.831 6  -1794504.984 6  -1357904.63348  22412622.24548
  23496798.308 6  -2069155.840 6  -1545943.13747  23496794.54647
  21418061.230 6  -1552271.996 6  -1197126.27049  21418062.53449
 20  5 16  5 12 53.9990000  0  9G01G03G07G08G11G17G22G28G30          0.000167257
  19862627.753 7  -1172450.078 7   -894221.90249  19862629.17549
  23160060.628 3  -2083047.148 3  -1573718.83248  23160065.68348
  20641333.808 6   -988415.309 6   -745201.30949  20641331.90549
  22778291.448 5   -686557.746 5   -525267.20748  22778293.67948
  20859384.433 6   -681269.441 6   -514132.93848  20859382.45248
  23843617.753 4  -1749169.969 4  -1310320.68447  23843618.47247
  22411556.237 6  -1800120.539 6  -1362280.39148  22411553.68748
  23495545.198 6  -2075741.691 6  -1551074.96947  23495541.13247
  21417109.542 6  -1557272.102 6  -1201022.46149  21417111.16749
 20  5 16  5 12 54.9990000  0  9G01G03G07G08G11G17G22G28G30          0.000164673
  19861951.980 7  -1176000.270 7   -896988.28949  19861953.50749
  23158766.261 3  -2089850.473 3  -1579020.12148  23158771.10148
  20640759.776 6   -991432.559 6   -747552.41849  20640757.81949
  22777872.823 5   -688759.164 5   -526982.59848  22777874.12848
  20858982.464 6   -683378.711 6   -515776.53148  20858980.65548
  23842567.542 4  -1754693.391 4  -1314624.63347  23842567.47247
  22410487.745 6  -1805735.797 6  -1366655.91848  22410485.22648
  23494291.690 6  -2082327.715 6  -1556206.94147  23494287.89747
  21416158.519 6  -1562271.656 6  -1204918.21549  21416160.13249
 20  5 16  5 12 55.9990000  0  9G01G03G07G08G11G17G22G28G30          0.000162088
  19861276.636 7  -1179549.816 7   -899754.16849  19861277.92549
  23157471.987 3  -2096653.680 3  -1584321.31648  23157476.48348
  20640186.136 6   -994449.184 6   -749903.03149  20640184.02649
  22777453.550 5   -690960.586 5   -528697.99248  22777455.60548
  20858581.628 6   -685487.676 6   -517419.87548  20858579.82348
  23841516.245 4  -1760216.715 4  -1318928.52047  23841516.79247
  22409419.487 6  -1811350.676 6  -1371031.14148  22409416.81248
  23493038.050 6  -2088913.797 6  -1561338.94547  23493034.26547
  21415206.792 6  -1567270.621 6  -1208813.50849  21415208.40149
 20  5 16  5 12 56.9990000  0  9G01G03G07G08G11G17G22G28G30          0.000159504
  19860601.417 7  -1183098.738 7   -902519.56349  19860602.59349
  23156176.784 3  -2103456.867 3  -1589622.49648  23156181.95248
  20639611.894 6   -997465.246 6   -752253.21549  20639609.98749
  22777034.690 5   -693162.090 5   -530413.44948  22777036.49148
  20858180.206 6   -687596.387 6   -519063.03548  20858178.40148
  23840464.956 4  -1765739.938 4  -1323232.32847  23840465.89447
  22408350.386 6  -1816965.219 6  -1375406.10948  22408348.43348
  23491784.784 6  -2095499.965 6  -1566471.02347  23491781.41347
  21414256.026 6  -1572268.977 6  -1212708.33249  21414257.28449
 20  5 16  5 12 57.9990000  0  9G01G03G07G08G11G17G22G28G30          0.000156919
  19859926.128 7  -1186647.035 7   -905284.46549  19859927.43349
  23154882.190 3  -2110260.039 3  -1594923.67648  23154886.71848
  20639038.261 6  -1000480.691 6   -754602.91449  20639035.80849
  22776615.487 5   -695363.613 5   -532128.92248  22776617.49148
  20857779.183 6   -689704.879 6   -520706.02048  20857777.14748
  23839413.472 4  -1771263.039 4  -1327536.03547  23839414.42547
  22407282.425 6  -1822579.434 6  -1379780.82048  22407279.87448
  23490531.464 6  -2102086.289 6  -1571603.23047  23490527.80447
  21413304.714 6  -1577266.754 6  -1216602.71149  21413306.37849
 20  5 16  5 12 58.9990000  0  9G01G03G07G08G11G17G22G28G30          0.000154335
  19859251.011 7  -1190194.672 7   -908048.86349  19859252.36649
  23153587.644 3  -2117063.109 3  -1600224.77048  23153592.39748
  20638464.487 6  -1003495.535 6   -756952.14549  20638462.39049
  22776197.112 5   -697565.230 5   -533844.46948  22776198.50348
  20857377.698 6   -691813.082 6   -522348.77748  20857376.00348
  23838363.003 4  -1776786.027 4  -1331839.66447  23838363.39447
  22406214.245 6  -1828193.313 6  -1384155.27348  22406212.01148
  23489278.464 6  -2108672.672 6  -1576735.47747  23489274.01947
  21412353.714 6  -1582263.930 6  -1220496.61749  21412355.16349
 20  5 16  5 12 59.9990000  0  9G01G03G07G08G11G17G22G28G30          0.000151751
  19858575.839 7  -1193741.641 7   -910812.73049  19858577.28849
  23152293.276 3  -2123866.184 3  -1605525.87548  23152298.13248
  20637890.714 6  -1006509.797 6   -759300.91849  20637888.62049
  22775777.870 5   -699766.863 5   -535560.03548  22775780.00348
  20856976.784 6   -693920.988 6   -523991.29748  20856974.91348
  23837311.472 4  -1782308.920 4  -1336143.21947  23837312.15947
  22405146.151 6  -1833806.801 6  -1388529.41848  22405142.99548
  23488025.214 6  -2115259.137 6  -1581867.78547  23488020.84747
  21411402.776 6  -1587260.492 6  -1224390.03949  21411404.58549
 20  5 16  5 13  0.9990000  0  9G01G03G07G08G11G17G22G28G30          0.000149166
  19857901.323 7  -1197288.023 7   -913576.15249  19857902.76149
  23150998.690 3  -2130669.246 3  -1610826.96148  23151003.15148
  20637317.659 6  -1009523.484 6   -761649.24649  20637315.39449
  22775358.675 5   -701968.617 5   -537275.68048  22775360.43748
  20856575.769 6   -696028.715 6   -525633.67248  20856573.73748
  23836260.925 4  -1787831.691 4  -1340446.68447  23836261.17547
  22404078.245 6  -1839420.004 6  -1392903.34448  22404075.30848
  23486771.815 6  -2121845.773 6  -1587000.22747  23486767.78847
  21410452.065 6  -1592256.508 6  -1228283.03949  21410453.76949
 20  5 16  5 13  1.9990000  0  9G01G03G07G08G11G17G22G28G30          0.000146582
  19857226.511 7  -1200833.770 7   -916339.07449  19857227.90549
  23149704.519 3  -2137472.219 3  -1616127.97348  23149708.87848
  20636743.808 6  -1012536.574 6   -763997.10549  20636741.85549
  22774940.331 5   -704170.406 5   -538991.36348  22774941.40548
  20856174.605 6   -698136.152 6   -527275.83648  20856172.59748
  23835209.722 4  -1793354.371 4  -1344750.07047  23835210.39447
  22403009.589 6  -1845032.859 6  -1397276.99648  22403006.78048
  23485518.581 6  -2128432.520 6  -1592132.75447  23485514.18347
  21409501.753 6  -1597251.906 6  -1232175.55949  21409502.98749
 20  5 16  5 13  2.9990000  0  9G01G03G07G08G11G17G22G28G30          0.000143997
  19856551.792 7  -1204378.836 7   -919101.46149  19856553.08949
  23148409.581 3  -2144275.156 3  -1621428.96548  23148414.26948
  20636170.862 6  -1015549.035 6   -766344.48049  20636168.43749
  22774520.776 5   -706372.219 5   -540707.06348  22774522.37848
  20855773.526 6   -700243.289 6   -528917.75848  20855771.56548
  23834159.714 4  -1798876.910 4  -1349053.34047  23834159.35147
  22401941.690 6  -1850645.324 6  -1401650.34448  22401938.86248
  23484265.050 6  -2135019.285 6  -1597265.29747  23484260.83147
  21408551.472 6  -1602246.695 6  -1236067.59849  21408552.54649
 20  5 16  5 13  3.9990000  0  9G01G03G07G08G11G17G22G28G30          0.000141413
  19855877.519 7  -1207923.316 7   -921863.39849  19855879.02249
  23147115.440 4  -2151078.094 4  -1626729.95748  23147120.00748
  20635597.136 6  -1018560.984 6   -768691.45349  20635595.03449
  22774102.245 5   -708574.176 5   -542422.87948  22774103.43748
  20855372.487 6   -702350.250 6   -530559.54748  20855370.65548
  23833108.190 4  -1804399.418 4  -1353356.59447  23833108.38247
  22400873.784 6  -1856257.527 6  -1406023.48848  22400870.98748
  23483011.480 6  -2141606.246 6  -1602397.99647  23483007.20647
  21407601.081 6  -1607240.957 6  -1239959.23449  21407602.25349
 20  5 16  5 13  4.9990000  0  9G01G03G07G08G11G17G22G28G30          0.000138828
  19855203.144 7  -1211467.195 7   -924624.85949  19855204.74949
  23145820.925 4  -2157880.996 4  -1632030.91448  23145825.30448
  20635024.151 6  -1021572.332 6   -771037.96149  20635022.49549
  22773683.183 5   -710776.215 5   -544138.75448  22773684.53048
  20854971.706 6   -704456.961 6   -532201.14548  20854969.88648
  23832057.175 3  -1809921.781 3  -1357659.73848  23832057.67948
  22399806.253 6  -1861869.383 6  -1410396.36348  22399803.55048
  23481757.847 6  -2148193.332 6  -1607530.78547  23481753.52247
  21406650.331 6  -1612234.629 6  -1243850.41049  21406651.85549
 20  5 16  5 13  5.9990000  0  9G01G03G07G08G11G17G22G28G30          0.000136244
  19854528.776 7  -1215010.430 7   -927385.82049  19854530.22249
  23144526.815 4  -2164683.887 4  -1637331.86748  23144530.76548
  20634451.378 6  -1024583.094 6   -773384.01249  20634449.25349
  22773263.565 5   -712978.297 5   -545854.66448  22773265.46848
  20854571.112 6   -706563.414 6   -533842.53948  20854569.01948
  23831006.737 3  -1815444.145 3  -1361962.87548  23831006.33948
  22398738.026 6  -1867480.902 6  -1414768.97348  22398735.44848
  23480504.440 6  -2154780.512 6  -1612663.64847  23480500.14047
  21405701.058 6  -1617227.727 6  -1247741.14149  21405701.68349
 20  5 16  5 13  6.9990000  0  9G01G03G07G08G11G17G22G28G30          0.000133657
  19853854.894 7  -1218553.094 7   -930146.33649  19853855.98049
  23143232.206 4  -2171486.758 4  -1642632.80148  23143235.48748
  20633878.620 6  -1027593.324 6   -775729.64149  20633876.37049
  22772844.933 5   -715180.461 5   -547570.63348  22772846.67148
  20854169.948 6   -708669.668 6   -535483.77048  20854168.64048
  23829955.659 4  -1820966.344 4  -1366265.89148  23829955.81548
  22397670.276 6  -1873092.133 6  -1419141.35548  22397667.69448
  23479251.620 6  -2161367.863 6  -1617796.64847  23479246.65947
  21404751.120 6  -1622220.285 6  -1251631.43849  21404751.68749
 20  5 16  5 13  7.9990000  0  9G01G03G07G08G11G17G22G28G30          0.000131073
  19853180.284 7  -1222095.172 7   -932906.39849  19853181.99949
  23141936.956 4  -2178289.625 4  -1647933.74248  23141941.71048
  20633305.855 6  -1030602.988 6   -778074.84049  20633304.11649
  22772425.597 5   -717382.801 5   -549286.74248  22772427.82348
  20853768.886 6   -710775.719 6   -537124.85248  20853767.68748
  23828904.276 3  -1826488.559 3  -1370568.90648  23828904.92548
  22396602.862 6  -1878703.055 6  -1423513.50048  22396599.74948
  23477997.331 6  -2167955.344 6  -1622929.74647  23477993.08947
  21403800.480 6  -1627212.281 6  -1255521.30149  21403801.73349
 20  5 16  5 13  8.9990000  0  9G01G03G07G08G11G17G22G28G30          0.000128489
  19852506.745 7  -1225636.598 7   -935665.94949  19852508.09749
  23140643.105 4  -2185092.469 4  -1653234.66048  23140646.51148
  20632733.409 6  -1033612.055 6   -780419.57049  20632731.53049
  22772006.683 5   -719585.180 5   -551002.88348  22772008.50748
  20853368.800 6   -712881.484 6   -538765.70748  20853366.94048
  23827854.550 3  -1832010.676 3  -1374871.84447  23827854.33947
  22395534.886 6  -1884313.645 6  -1427885.39548  22395532.06548
  23476743.761 6  -2174542.938 6  -1628062.94147  23476739.50347
  21402850.901 6  -1632203.703 6  -1259410.72349  21402851.94849
 20  5 16  5 13  9.9990000  0  9G01G03G07G08G11G17G22G28G30          0.000125904
  19851832.558 7  -1229177.355 7   -938424.98449  19851834.56249
  23139348.886 4  -2191895.230 4  -1658535.50848  23139352.38648
  20632160.980 6  -1036620.512 6   -782763.82049  20632158.98749
  22771587.495 5   -721787.609 5   -552719.06648  22771589.76148
  20852967.980 6   -714986.992 6   -540406.36748  20852966.09348
  23826803.644 4  -1837532.625 4  -1379174.65648  23826803.07348
  22394467.581 6  -1889923.867 6  -1432256.99648  22394464.58948
  23475490.511 6  -2181130.629 6  -1633196.21147  23475486.03047
  21401901.144 6  -1637194.500 6  -1263299.66049  21401902.07349
 20  5 16  5 13 10.9990000  0  9G01G03G07G08G11G17G22G28G30          0.000123320
  19851158.980 7  -1232717.551 7   -941183.57849  19851160.69049
  23138053.878 4  -2198698.020 4  -1663836.37948  23138057.46848
  20631588.605 6  -1039628.449 6   -785107.67249  20631586.48349
  22771168.839 5   -723990.137 5   -554435.31648  22771170.55048
  20852567.128 6   -717092.273 6   -542046.84448  20852565.51148
  23825752.417 3  -1843054.504 3  -1383477.42248  23825752.58548
  22393399.839 6  -1895533.781 6  -1436628.35248  22393397.10148
  23474236.495 6  -2187718.449 6  -1638329.57447  23474232.24947
  21400951.636 6  -1642184.750 6  -1267188.16849  21400952.26949
 20  5 16  5 13 11.9990000  0  9G01G03G07G08G11G17G22G28G30          0.000120735
  19850485.526 7  -1236257.063 7   -943941.63349  19850487.24549
  23136759.698 4  -2205500.762 4  -1669137.21948  23136762.93748
  20631016.019 6  -1042635.742 6   -787451.01649  20631014.10549
  22770749.776 5   -726192.727 5   -556151.62948  22770751.37448
  20852166.730 6   -719197.289 6   -543687.11348  20852164.90948
  23824701.487 3  -1848576.293 3  -1387780.11347  23824701.52247
  22392332.042 6  -1901143.324 6  -1440999.42648  22392329.63648
  23472983.503 6  -2194306.363 6  -1643463.00447  23472978.91347
  21400002.167 6  -1647174.391 6  -1271076.20349  21400003.19049
 20  5 16  5 13 12.9990000  0  9G01G03G07G08G11G17G22G28G30          0.000118149
  19849812.308 7  -1239796.000 7   -946699.25049  19849813.87849
  23135465.456 4  -2212303.438 4  -1674438.00448  23135468.48748
  20630443.800 6  -1045642.516 6   -789793.95749  20630441.81249
  22770330.542 5   -728395.359 5   -557867.96948  22770332.01548
  20851766.565 6   -721302.102 6   -545327.22748  20851764.11648
  23823651.300 4  -1854098.004 4  -1392082.74248  23823650.69048
  22391264.776 6  -1906752.586 6  -1445370.27348  22391262.24948
  23471729.323 6  -2200894.426 6  -1648596.56347  23471725.05047
  21399052.815 6  -1652163.488 6  -1274963.81349  21399053.62849
 20  5 16  5 13 13.9990000  0  9G01G03G07G08G11G17G22G28G30          0.000115564
  19849138.987 7  -1243334.266 7   -949456.34049  19849140.52649
  23134170.722 5  -2219106.113 5  -1679738.78548  23134174.24548
  20629871.839 6  -1048648.656 6   -792136.40649  20629870.14449
  22769911.136 5   -730598.090 5   -559584.39148  22769912.67948
  20851365.589 6   -723406.625 6   -546967.11348  20851364.02248
  23822600.565 4  -1859619.559 4  -1396385.25447  23822600.11247
  22390197.823 6  -1912361.473 6  -1449740.83248  22390194.63648
  23470475.737 6  -2207482.578 6  -1653730.18447  23470471.66347
  21398103.487 6  -1657151.984 6  -1278850.94949  21398104.69049
 20  5 16  5 13 14.9990000  0  9G01G03G07G08G11G17G22G28G30          0.000112980
  19848465.597 7  -1246871.996 7   -952213.01649  19848467.62049
  23132876.175 5  -2225908.813 5  -1685039.58248  23132879.54248
  20629300.347 6  -1051654.285 6   -794478.45349  20629298.14049
  22769491.909 5   -732800.934 5   -561300.89147  22769493.47247
  20850965.456 6   -725510.961 6   -548606.85548  20850964.05048
  23821550.105 4  -1865141.121 4  -1400687.77047  23821549.51947
  22389130.183 6  -1917970.086 6  -1454111.18048  22389127.85548
  23469221.644 6  -2214070.883 6  -1658863.93447  23469217.55447
  21397154.237 6  -1662139.926 6  -1282737.66849  21397155.48349
 20  5 16  5 13 15.9990000  0  9G01G03G07G08G11G17G22G28G30          0.000110395
  19847792.573 7  -1250409.070 7   -954969.17249  19847794.58549
  23131581.909 5  -2232711.434 5  -1690340.32448  23131585.12848
  20628728.026 6  -1054659.336 6   -796820.05549  20628726.06949
  22769072.253 5   -735003.875 5   -563017.47347  22769074.42547
  20850564.675 6   -727615.051 6   -550246.40248  20850563.22248
  23820498.690 4  -1870662.594 4  -1404990.21147  23820498.87847
  22388063.261 6  -1923578.367 6  -1458481.27048  22388060.14748
  23467968.081 6  -2220659.316 6  -1663997.77747  23467963.71847
  21396204.862 6  -1667127.328 6  -1286623.95349  21396206.17949
 20  5 16  5 13 16.9990000  0  9G01G03G07G08G11G17G22G28G30          0.000107809
  19847119.401 7  -1253945.430 7   -957724.77749  19847121.32749
  23130286.862 5  -2239513.965 5  -1695640.99648  23130290.65548
  20628156.315 6  -1057663.664 6   -799161.08649  20628154.73049
  22768652.956 5   -737206.754 5   -564734.00847  22768655.44447
  20850164.511 6   -729718.793 6   -551885.68448  20850163.01548
  23819448.589 4  -1876183.859 4  -1409292.49647  23819448.12847
  22386996.222 6  -1929186.211 6  -1462851.01248  22386992.92148
  23466714.456 6  -2227247.773 6  -1669131.64547  23466710.53847
  21395256.151 6  -1672114.012 6  -1290509.68049  21395257.27249
 20  5 16  5 13 17.9990000  0  9G01G03G07G08G11G17G22G28G30          0.000105225
  19846446.815 7  -1257481.156 7   -960479.89149  19846448.86249
  23128992.690 5  -2246316.453 5  -1700941.63748  23128995.77248
  20627584.901 6  -1060667.465 6   -801501.71149  20627582.91749
  22768234.190 5   -739409.742 5   -566450.62547  22768236.20647
  20849763.792 6   -731822.309 6   -553524.78948  20849762.21048
  23818397.722 4  -1881705.016 4  -1413594.69147  23818397.72247
  22385929.105 6  -1934793.715 6  -1467220.49648  22385926.28048
  23465460.690 6  -2233836.332 6  -1674265.58647  23465456.98047
  21394307.534 6  -1677100.125 6  -1294394.96949  21394308.65949
 20  5 16  5 13 18.9990000  0  9G01G03G07G08G11G17G22G28G30          0.000102640
  19845773.972 7  -1261016.293 7   -963234.54349  19845775.31549
  23127698.011 5  -2253118.922 5  -1706242.26248  23127701.37048
  20627013.355 6  -1063670.691 6   -803841.88749  20627011.39449
  22767815.034 5   -741612.789 5   -568167.28147  22767817.01547
  20849363.847 6   -733925.605 6   -555163.71948  20849362.14448
  23817347.144 4  -1887226.137 4  -1417896.85948  23817346.76948
  22384861.886 6  -1940400.934 6  -1471589.75848  22384859.10548
  23464206.761 6  -2240425.043 6  -1679399.64547  23464202.73047
  21393358.636 6  -1682085.691 6  -1298279.82449  21393359.86649
 20  5 16  5 13 19.9990000  0  9G01G03G07G08G11G17G22G28G30          0.000100056
  19845101.456 7  -1264550.824 7   -965988.72749  19845103.39449
  23126403.909 5  -2259921.367 5  -1711542.86748  23126406.97648
  20626441.987 6  -1066673.340 6   -806181.61749  20626440.20649
  22767395.667 5   -743815.930 5   -569884.02047  22767397.58147
  20848963.823 6   -736028.664 6   -556802.46548  20848961.84348
  23816296.651 4  -1892747.148 4  -1422198.94948  23816296.18348
  22383795.206 6  -1946007.805 6  -1475958.75448  22383792.08148
  23462952.886 6  -2247013.883 6  -1684533.80947  23462949.48347
  21392409.956 6  -1687070.684 6  -1302164.23049  21392411.24949
 20  5 16  5 13 20.9990000  0  9G01G03G07G08G11G17G22G28G30          0.000097469
  19844428.683 7  -1268084.719 7   -968742.41049  19844430.55449
  23125109.214 5  -2266723.816 5  -1716843.47348  23125112.32748
  20625870.839 6  -1069675.418 6   -808520.90249  20625868.87849
  22766976.487 5   -746019.141 5   -571600.80947  22766977.91347
  20848563.487 6   -738131.453 6   -558441.00048  20848561.86648
  23815245.839 4  -1898268.074 4  -1426500.96948  23815245.57748
  22382728.112 6  -1951614.340 6  -1480327.47748  22382725.23748
  23461698.839 6  -2253602.805 6  -1689668.02747  23461695.30047
  21391461.620 6  -1692055.074 6  -1306048.17649  21391462.98049
 20  5 16  5 13 21.9990000  0  9G01G03G07G08G11G17G22G28G30          0.000094885
  19843756.659 7  -1271617.973 7   -971495.59449  19843758.49149
  23123814.792 5  -2273526.156 5  -1722143.98848  23123818.22248
  20625299.323 6  -1072676.910 6   -810859.72349  20625297.36249
  22766557.331 5   -748222.402 5   -573317.64547  22766558.90147
  20848163.706 6   -740233.996 6   -560079.34048  20848161.71848
  23814195.261 4  -1903788.940 4  -1430802.94448  23814195.10548
  22381661.409 6  -1957220.531 6  -1484695.93448  22381658.19048
  23460444.878 6  -2260191.859 6  -1694802.34847  23460441.12847
  21390513.214 6  -1697038.883 6  -1309931.66849  21390514.41349
 20  5 16  5 13 22.9990000  0  9G01G03G07G08G11G17G22G28G30          0.000092300
  19843084.315 7  -1275150.566 7   -974248.26249  19843086.08149
  23122520.464 5  -2280328.469 5  -1727444.48848  23122523.47648
  20624728.511 6  -1075677.762 6   -813198.04749  20624726.75349
  22766138.050 5   -750425.711 5   -575034.50447  22766139.98047
  20847763.948 6   -742336.246 6   -561717.45748  20847761.70248
  23813144.308 4  -1909309.566 4  -1435104.73047  23813144.76147
  22380594.440 6  -1962826.359 6  -1489064.11348  22380591.87848
  23459191.269 6  -2266780.992 6  -1699936.72347  23459187.31947
  21389564.886 6  -1702022.074 6  -1313814.67649  21389566.20649
 20  5 16  5 13 23.9990000  0  9G01G03G07G08G11G17G22G28G30          0.000089714
  19842412.050 7  -1278682.582 7   -977000.48449  19842413.97249
  23121226.144 5  -2287130.777 5  -1732744.98048  23121229.33948
  20624157.565 6  -1078678.082 6   -815535.95749  20624155.74549
  22765719.042 5   -752629.094 5   -576751.43047  22765720.67947
  20847363.425 6   -744438.285 6   -563355.41048  20847361.46048
  23812094.667 4  -1914830.215 4  -1439406.53548  23812094.21048
  22379528.003 6  -1968431.875 6  -1493432.05148  22379524.95648
  23457937.050 6  -2273370.234 6  -1705071.19547  23457933.42147
  21388616.644 6  -1707004.719 6  -1317697.25849  21388617.80049
 20  5 16  5 13 24.9990000  0  9G01G03G07G08G11G17G22G28G30          0.000087130
  19841740.089 7  -1282213.988 7   -979752.23049  19841742.06249
  23119932.230 5  -2293933.074 5  -1738045.47348  23119934.77248
  20623586.495 6  -1081677.852 6   -817873.44549  20623584.90549
  22765299.784 5   -754832.613 5   -578468.46147  22765301.06547
  20846963.589 6   -746540.137 6   -564993.21148  20846961.62048
  23811043.417 4  -1920350.754 4  -1443708.25048  23811043.44848
  22378461.347 6  -1974037.094 6  -1497799.75048  22378458.42148
  23456683.144 6  -2279959.664 6  -1710205.82447  23456679.66747
  21387669.034 6  -1711986.789 6  -1321579.38749  21387670.04649
 20  5 16  5 13 25.9990000  0  9G01G03G07G08G11G17G22G28G30          0.000084545
  19841068.136 7  -1285744.789 7   -982503.50849  19841069.92149
  23118636.980 5  -2300735.340 5  -1743345.94148  23118639.98748
  20623015.917 6  -1084677.055 6   -820210.48449  20623014.17949
  22764879.980 5   -757036.207 5   -580185.54347  22764882.03847
  20846563.370 6   -748641.754 6   -566630.84448  20846561.68348
  23809992.698 4  -1925871.285 4  -1448009.96948  23809993.16748
  22377395.034 6  -1979642.004 6  -1502167.21548  22377392.12048
  23455429.261 6  -2286549.219 6  -1715340.54747  23455425.91347
  21386720.401 6  -1716968.340 6  -1325461.10949  21386722.16349
 20  5 16  5 13 26.9990000  0  9G01G03G07G08G11G17G22G28G30          0.000081959
  19840396.315 7  -1289275.016 7   -985254.32849  19840398.48349
  23117342.909 5  -2307537.609 5  -1748646.40248  23117345.81548
  20622445.300 6  -1087675.699 6   -822547.09449  20622443.65149
  22764460.956 5   -759239.922 5   -581902.71947  22764462.73047
  20846163.636 6   -750743.141 6   -568268.28148  20846161.87448
  23808942.644 4  -1931391.688 4  -1452311.57048  23808942.38248
  22376328.065 6  -1985246.582 6  -1506534.41448  22376325.33948
  23454175.394 6  -2293138.906 6  -1720475.36747  23454172.26947
  21385772.894 6  -1721949.301 6  -1329342.38349  21385774.62449
 20  5 16  5 13 27.9990000  0  9G01G03G07G08G11G17G22G28G30          0.000079374
  19839724.940 7  -1292804.551 7   -988004.62149  19839726.87049
  23116048.847 5  -2314339.801 5  -1753946.80948  23116051.17148
  20621874.808 6  -1090673.711 6   -824883.21149  20621873.21849
  22764041.378 5   -761443.625 5   -583619.89847  22764043.47647
  20845763.730 6   -752844.242 6   -569905.50448  20845762.00748
  23807892.378 3  -1936911.949 3  -1456613.06648  23807891.89048
  22375261.612 6  -1990850.766 6  -1510901.30948  22375258.87848
  23452921.214 6  -2299728.625 6  -1725610.21547  23452917.62847
  21384825.401 6  -1726929.645 6  -1333223.17249  21384826.56949
 20  5 16  5 13 28.9990000  0  9G01G03G07G08G11G17G22G28G30          0.000076788
  19839053.042 7  -1296333.367 7   -990754.34849  19839055.01949
  23114753.737 5  -2321141.863 5  -1759247.11748  23114756.75348
  20621304.667 6  -1093671.043 6   -827218.79749  20621302.85149
  22763622.425 5   -763647.301 5   -585337.05147  22763623.74547
  20845364.136 6   -754944.996 6   -571542.45748  20845362.17548
  23806841.503 4  -1942432.066 4  -1460914.44948  23806841.35848
  22374195.183 6  -1996454.566 6  -1515267.90648  22374192.22648
  23451667.394 6  -2306318.410 6  -1730745.10247  23451663.68747
  21383877.315 6  -1731909.324 6  -1337103.44149  21383878.99549
 20  5 16  5 13 29.9990000  0  9G01G03G07G08G11G17G22G28G30          0.000074203
  19838381.769 7  -1299861.621 7   -993503.63749  19838383.56249
  23113459.800 5  -2327943.961 5  -1764547.44948  23113462.38648
  20620734.183 6  -1096667.863 6   -829553.98049  20620732.51549
  22763202.730 5   -765851.141 5   -587054.33247  22763204.58547
  20844964.050 6   -757045.578 6   -573179.27048  20844962.65148
  23805791.151 4  -1947952.090 4  -1465215.76248  23805790.92948
  22373129.011 6  -2002058.063 6  -1519634.26648  22373126.30448
  23450413.315 6  -2312908.383 6  -1735880.14147  23450409.90147
  21382930.019 6  -1736888.477 6  -1340983.30549  21382931.28049
 20  5 16  5 13 30.9990000  0  9G01G03G07G08G11G17G22G28G30          0.000071617
  19837710.644 7  -1303389.270 7   -996252.45349  19837712.84749
  23112164.980 5  -2334746.035 5  -1769847.76248  23112168.36248
  20620164.394 6  -1099664.109 6   -831888.71949  20620162.31249
  22762783.261 5   -768055.035 5   -588771.65247  22762785.36247
  20844564.386 6   -759145.922 6   -574815.89848  20844562.91348
  23804741.112 4  -1953472.055 4  -1469517.02748  23804740.61248
  22372062.933 6  -2007661.246 6  -1524000.38748  22372060.13648
  23449158.987 6  -2319498.441 6  -1741015.25047  23449155.62847
  21381982.620 6  -1741867.063 6  -1344862.71949  21381984.24149
 20  5 16  5 13 31.9990000  0  9G01G03G07G08G11G17G22G28G30          0.000069033
  19837039.425 7  -1306916.309 7   -999000.79749  19837041.32349
  23110871.464 5  -2341548.074 5  -1775148.05548  23110873.45248
  20619594.237 6  -1102659.805 6   -834223.02749  20619592.48349
  22762363.855 5   -770259.027 5   -590489.05147  22762365.76147
  20844165.097 6   -761246.055 6   -576452.36748  20844163.24948
  23803690.370 3  -1958991.984 3  -1473818.27348  23803689.95648
  22370996.573 6  -2013264.102 6  -1528366.25048  22370993.69048
  23447905.112 6  -2326088.621 6  -1746150.44547  23447901.88247
  21381035.269 6  -1746845.070 6  -1348741.68849  21381036.70649
 20  5 16  5 13 32.9990000  0  9G01G03G07G08G11G17G22G28G30          0.000066448
  19836368.495 7  -1310442.715 7  -1001748.64549  19836370.08549
  23109576.628 5  -2348350.090 5  -1780448.32048  23109579.46448
  20619024.315 6  -1105654.926 6   -836556.89149  20619022.42149
  22761944.550 5   -772463.066 5   -592206.48047  22761946.35547
  20843765.401 6   -763345.922 6   -578088.62948  20843763.82348
  23802640.386 4  -1964511.742 4  -1478119.38348  23802639.71848
  22369930.401 6  -2018866.637 6  -1532731.85948  22369927.56948
  23446651.089 6  -2332678.938 6  -1751285.76647  23446647.70647
  21380088.448 6  -1751822.500 6  -1352620.20349  21380089.97649
 20  5 16  5 13 33.9990000  0  9G01G03G07G08G11G17G22G28G30          0.000063862
  19835697.175 7  -1313968.570 7  -1004496.06349  19835699.09749
  23108281.753 5  -2355152.133 5  -1785748.61348  23108285.03048
  20618454.480 6  -1108649.508 6   -838890.33649  20618452.55049
  22761525.331 5   -774667.301 5   -593924.07047  22761527.12447
  20843365.769 6   -765445.621 6   -579724.76248  20843364.13248
  23801589.612 4  -1970031.527 4  -1482420.51648  23801589.51148
  22368864.440 6  -2024468.875 6  -1537097.23848  22368861.92948
  23445397.386 6  -2339269.434 6  -1756421.21947  23445393.83547
  21379141.128 6  -1756799.441 6  -1356498.34049  21379142.41349
 20  5 16  5 13 34.9990000  0  9G01G03G07G08G11G17G22G28G30          0.000061277
  19835026.534 7  -1317493.797 7  -1007242.98849  19835028.49549
  23106987.730 5  -2361954.133 5  -1791048.86748  23106990.83948
  20617884.308 6  -1111643.512 6   -841223.32049  20617882.62449
  22761106.073 5   -776871.555 5   -595641.66847  22761107.55447
  20842966.355 6   -767545.070 6   -581360.69548  20842964.62048
  23800539.534 4  -1975551.191 4  -1486721.54747  23800538.92547
  22367798.386 6  -2030070.789 6  -1541462.37548  22367795.77248
  23444142.878 6  -2345860.023 6  -1761556.74647  23444139.44847
  21378194.058 6  -1761775.777 6  -1360376.00449  21378195.30049
 20  5 16  5 13 35.9990000  0  9G01G03G07G08G11G17G22G28G30          0.000058691
  19834355.659 7  -1321018.445 7  -1009989.46549  19834357.95249
  23105693.425 5  -2368756.152 5  -1796349.14148  23105696.24948
  20617314.730 6  -1114636.992 6   -843555.90649  20617313.11649
  22760686.378 5   -779075.949 5   -597359.37147  22760687.77247
  20842566.737 6   -769644.328 6   -582996.47748  20842565.23048
  23799488.737 3  -1981070.789 3  -1491022.52748  23799488.50348
  22366732.605 6  -2035672.406 6  -1545827.27048  22366729.97648
  23442888.112 6  -2352450.789 6  -1766692.40247  23442885.26547
  21377247.214 6  -1766751.574 6  -1364253.25049  21377248.41749
 20  5 16  5 13 36.9990000  0  9G01G03G07G08G11G17G22G28G30          0.000056107
  19833685.089 7  -1324542.430 7  -1012735.43049  19833686.94049
  23104398.675 5  -2375558.086 5  -1801649.34848  23104401.60148
  20616745.026 6  -1117629.836 6   -845887.99249  20616743.93349
  22760266.745 5   -781280.363 5   -599077.10247  22760268.64447
  20842167.753 6   -771743.293 6   -584632.03148  20842165.62448
  23798438.558 4  -1986590.262 4  -1495323.41448  23798438.38648
  22365666.526 6  -2041273.645 6  -1550191.86348  22365664.09748
  23441634.284 6  -2359041.648 6  -1771828.14147  23441630.87847
  21376300.925 6  -1771726.742 6  -1368130.00049  21376301.45649
 20  5 16  5 13 37.9990000  0  9G01G03G07G08G11G17G22G28G30          0.000053520
  19833014.776 7  -1328065.754 7  -1015480.87949  19833017.00749
  23103104.894 5  -2382359.953 5  -1806949.50848  23103107.68748
  20616175.948 6  -1120622.074 6   -848219.60949  20616174.48049
  22759846.964 5   -783484.832 5   -600794.87147  22759849.05447
  20841768.198 6   -773841.973 6   -586267.36748  20841766.08948
  23797388.565 4  -1992109.602 4  -1499624.19548  23797388.24148
  22364600.776 6  -2046874.527 6  -1554556.19148  22364598.13248
  23440380.237 6  -2365632.547 6  -1776963.91047  23440376.46847
  21375354.026 6  -1776701.305 6  -1372006.28149  21375355.25749
 20  5 16  5 13 38.9990000  0  9G01G03G07G08G11G17G22G28G30          0.000050934
  19832344.151 7  -1331588.434 7  -1018225.82449  19832346.47249
  23101809.753 5  -2389161.801 5  -1812249.64848  23101813.24148
  20615606.683 6  -1123613.707 6   -850550.75449  20615605.13249
  22759427.956 5   -785689.336 5   -602512.66447  22759429.26547
  20841368.706 6   -775940.395 6   -587902.50448  20841366.67548
  23796337.534 4  -1997628.879 4  -1503924.93048  23796337.86248
  22363535.112 6  -2052475.035 6  -1558920.22748  22363532.53448
  23439125.698 6  -2372223.547 6  -1782099.75447  23439122.52247
  21374407.581 6  -1781675.266 6  -1375882.09049  21374408.44049
 20  5 16  5 13 39.9990000  0  9G01G03G07G08G11G17G22G28G30          0.000048349
  19831674.081 7  -1335110.488 7  -1020970.28149  19831676.03449
  23100514.909 5  -2395963.547 5  -1817549.70748  23100518.92148
  20615037.495 6  -1126604.750 6   -852881.43449  20615035.76549
  22759008.222 5   -787893.922 5   -604230.52347  22759010.20647
  20840969.456 6   -778038.563 6   -589537.44148  20840967.68748
  23795287.503 3  -2003147.992 3  -1508225.53548  23795287.26548
  22362469.315 6  -2058075.195 6  -1563283.99248  22362466.89448
  23437871.378 6  -2378814.664 6  -1787235.68847  23437868.29647
  21373461.605 6  -1786648.625 6  -1379757.43849  21373461.93749
 20  5 16  5 13 40.9990000  0  9G01G03G07G08G11G17G22G28G30          0.000045763
  19831004.167 7  -1338632.008 7  -1023714.32449  19831005.92149
  23099220.964 5  -2402765.348 5  -1822849.80948  23099224.68748
  20614468.300 6  -1129595.320 6   -855211.74649  20614466.97249
  22758588.495 5   -790098.652 5   -605948.49647  22758590.43747
  20840570.433 6   -780136.582 6   -591172.26248  20840568.15948
  23794237.761 4  -2008667.148 4  -1512526.17248  23794237.34348
  22361404.120 6  -2063675.109 6  -1567647.55548  22361401.47248
  23436617.237 6  -2385405.992 6  -1792371.78147  23436613.80847
  21372514.628 6  -1791621.504 6  -1383632.41049  21372515.71849
 20  5 16  5 13 41.9990000  0  9G01G03G07G08G11G17G22G28G30          0.000043179
  19830333.956 7  -1342152.949 7  -1026457.91449  19830335.79649
  23097926.542 5  -2409567.180 5  -1828149.93448  23097930.42948
  20613899.425 6  -1132585.352 6   -857541.64149  20613897.98749
  22758168.792 5   -792303.504 5   -607666.56347  22758171.03847
  20840171.230 6   -782234.398 6   -592806.92248  20840169.10148
  23793187.112 4  -2014186.254 4  -1516826.77348  23793186.74948
  22360338.245 6  -2069274.754 6  -1572010.91448  22360335.89448
  23435362.870 6  -2391997.473 6  -1797508.00047  23435359.25347
  21371568.644 6  -1796593.848 6  -1387506.96549  21371569.75749
 20  5 16  5 13 42.9990000  0  9G01G03G07G08G11G17G22G28G30          0.000040592
  19829663.870 7  -1345673.238 7  -1029200.99249  19829665.98749
  23096632.190 5  -2416368.973 5  -1833450.03148  23096636.11248
  20613330.909 6  -1135574.773 6   -859871.05949  20613329.22649
  22757749.667 5   -794508.426 5   -609384.68847  22757751.19847
  20839771.745 6   -784331.941 6   -594441.36748  20839769.98348
  23792136.745 4  -2019705.207 4  -1521127.25448  23792136.77648
  22359272.534 6  -2074874.031 6  -1576373.98848  22359270.52648
  23434108.589 6  -2398589.043 6  -1802644.30147  23434104.87447
  21370622.565 6  -1801565.578 6  -1391381.03949  21370623.80449
 20  5 16  5 13 43.9990000  0  9G01G03G07G08G11G17G22G28G30          0.000038006
  19828994.425 7  -1349192.895 7  -1031943.58249  19828995.87849
  23095338.308 5  -2423170.668 5  -1838750.05148  23095341.77648
  20612761.847 6  -1138563.629 6   -862200.03949  20612760.37049
  22757330.144 5   -796713.383 5   -611102.82847  22757331.60547
  20839372.776 6   -786429.230 6   -596075.62148  20839370.67948
  23791086.237 4  -2025224.109 4  -1525427.69947  23791086.34347
  22358207.722 6  -2080472.969 6  -1580736.79748  22358204.79648
  23432854.230 6  -2405180.699 6  -1807780.64847  23432850.74147
  21369676.503 6  -1806536.738 6  -1395254.66449  21369677.32749
 20  5 16  5 13 44.9990000  0  9G01G03G07G08G11G17G22G28G30          0.000035421
  19828324.878 7  -1352711.945 7  -1034685.70349  19828326.79249
  23094043.487 5  -2429972.406 5  -1844050.10548  23094047.40548
  20612193.167 6  -1141551.871 6   -864528.53949  20612191.85849
  22756910.534 5   -798918.406 5   -612821.03947  22756912.32747
  20838973.878 6   -788526.270 6   -597709.67648  20838971.89048
  23790036.800 4  -2030742.836 4  -1529728.00448  23790036.32748
  22357141.769 6  -2086071.547 6  -1585099.32448  22357139.23748
  23431600.339 6  -2411772.492 6  -1812917.10947  23431596.48747
  21368730.972 6  -1811507.297 6  -1399127.82849  21368731.90949
 20  5 16  5 13 45.9990000  0  9G01G03G07G08G11G17G22G28G30          0.000032835
  19827655.183 7  -1356230.379 7  -1037427.33649  19827657.20649
  23092749.409 5  -2436774.063 5  -1849350.09848  23092753.05048
  20611624.355 6  -1144539.570 6   -866856.62549  20611623.32349
  22756490.714 5   -801123.547 5   -614539.32447  22756492.59747
  20838574.917 6   -790623.074 6   -599343.55548  20838572.95248
  23788986.355 4  -2036261.543 4  -1534028.30148  23788986.13248
  22356076.784 6  -2091669.824 6  -1589461.62548  22356073.99148
  23430345.565 6  -2418364.414 6  -1818053.67647  23430342.08547
  21367785.026 6  -1816477.301 6  -1403000.56349  21367785.78449
 20  5 16  5 13 46.9990000  0  9G01G03G07G08G11G17G22G28G30          0.000030249
  19826985.753 7  -1359748.141 7  -1040168.45349  19826987.53449
  23091454.839 5  -2443575.664 5  -1854650.03948  23091458.60148
  20611056.245 6  -1147526.660 6   -869184.22749  20611054.39749
  22756070.769 5   -803328.711 5   -616257.63747  22756072.81947
  20838175.964 6   -792719.641 6   -600977.23848  20838173.77248
  23787936.472 4  -2041780.152 4  -1538328.51248  23787935.77648
  22355011.378 6  -2097267.715 6  -1593823.61748  22355008.54248
  23429090.745 6  -2424956.398 6  -1823190.28147  23429087.47247
  21366839.722 6  -1821446.691 6  -1406872.80949  21366840.57349
 20  5 16  5 13 47.9990000  0  9G01G03G07G08G11G17G22G28G30          0.000027664
  19826316.644 7  -1363265.301 7  -1042909.09849  19826318.52649
  23090160.612 5  -2450377.227 5  -1859949.96148  23090164.10548
  20610488.026 6  -1150513.160 6   -871511.37149  20610486.46449
  22755651.120 5   -805533.914 5   -617975.97747  22755653.49547
  20837776.776 6   -794815.945 6   -602610.71948  20837774.49148
  23786885.847 3  -2047298.605 3  -1542628.59447  23786885.45647
  22353946.253 6  -2102865.289 6  -1598185.36348  22353943.48048
  23427836.261 6  -2431548.488 6  -1828326.97747  23427833.15547
  21365893.792 6  -1826415.473 6  -1410744.59849  21365894.50349
 20  5 16  5 13 48.9990000  0  9G01G03G07G08G11G17G22G28G30          0.000025078
  19825647.253 7  -1366781.781 7  -1045649.21149  19825649.00749
  23088866.198 5  -2457178.711 5  -1865249.81648  23088870.28448
  20609919.909 6  -1153499.000 6   -873838.00449  20609918.16749
  22755232.050 5   -807739.188 5   -619694.37947  22755233.76947
  20837378.073 6   -796911.945 6   -604243.97348  20837375.75748
  23785836.065 3  -2052816.949 3  -1546928.59447  23785835.84747
  22352881.464 6  -2108462.465 6  -1602546.79348  22352878.35848
  23426582.401 6  -2438140.652 6  -1833463.73047  23426578.81247
  21364948.308 6  -1831383.645 6  -1414615.89849  21364948.92549
 20  5 16  5 13 49.9990000  0  9G01G03G07G08G11G17G22G28G30          0.000022491
  19824978.331 7  -1370297.590 7  -1048388.79749  19824979.95649
  23087572.214 5  -2463980.098 5  -1870549.60248  23087575.88648
  20609351.495 6  -1156484.219 6   -876164.15249  20609350.34349
  22754812.136 5   -809944.465 5   -621412.77347  22754813.96047
  20836979.292 6   -799007.664 6   -605877.00048  20836977.06548
  23784786.136 3  -2058335.117 3  -1551228.44947  23784785.51547
  22351816.284 6  -2114059.254 6  -1606907.92648  22351813.87848
  23425327.245 6  -2444732.898 6  -1838600.54347  23425324.17547
  21364003.003 6  -1836351.180 6  -1418486.70349  21364004.36649
 20  5 16  5 13 50.9990000  0  9G01G03G07G08G11G17G22G28G30          0.000019907
  19824309.370 7  -1373812.762 7  -1051127.89149  19824310.87849
  23086277.737 5  -2470781.445 5  -1875849.34848  23086281.64448
  20608783.464 6  -1159468.840 6   -878489.82849  20608782.31249
  22754392.347 5   -812149.809 5   -623131.21947  22754394.35147
  20836580.667 6   -801103.109 6   -607509.81648  20836578.00748
  23783736.190 4  -2063853.227 4  -1555528.27047  23783735.04647
  22350751.183 6  -2119655.672 6  -1611268.77748  22350748.69848
  23424073.065 6  -2451325.219 6  -1843737.41447  23424070.12447
  21363058.019 6  -1841318.137 6  -1422357.05949  21363058.32349
 20  5 16  5 13 51.9990000  0  9G01G03G07G08G11G17G22G28G30          0.000017321
  19823640.511 7  -1377327.328 7  -1053866.51649  19823642.28049
  23084983.534 5  -2477582.777 5  -1881149.09448  23084987.39448
  20608215.862 6  -1162452.902 6   -880815.07449  20608214.33949
  22753972.964 5   -814355.230 5   -624849.72747  22753974.65947
  20836181.730 6   -803198.336 6   -609142.45748  20836180.04248
  23782685.620 3  -2069371.230 3  -1559828.01647  23782685.55447
  22349686.378 6  -2125251.785 6  -1615629.38748  22349684.23348
  23422818.784 6  -2457917.680 6  -1848874.40647  23422815.35147
  21362112.823 6  -1846284.488 6  -1426226.93849  21362113.51949
 20  5 16  5 13 52.9990000  0  9G01G03G07G08G11G17G22G28G30          0.000014734
  19822971.753 7  -1380841.281 7  -1056604.66849  19822973.86249
  23083689.073 5  -2484384.047 5  -1886448.77748  23083693.45648
  20607647.589 6  -1165436.402 6   -883139.87549  20607646.55049
  22753553.339 5   -816560.754 5   -626568.32847  22753555.14047
  20835783.315 6   -805293.344 6   -610774.93448  20835781.19448
  23781635.815 4  -2074889.172 4  -1564127.72347  23781635.25347
  22348621.089 6  -2130847.598 6  -1619989.75848  22348618.59348
  23421563.917 6  -2464510.258 6  -1854011.47347  23421560.83147
  21361168.065 6  -1851250.273 6  -1430096.38749  21361168.56249
 20  5 16  5 13 53.9990000  0  9G01G03G07G08G11G17G22G28G30          0.000012150
  19822303.394 7  -1384354.633 7  -1059342.34049  19822305.03049
  23082395.597 5  -2491185.344 5  -1891748.49248  23082399.04248
  20607080.487 6  -1168419.340 6   -885464.24649  20607078.88649
  22753133.417 5   -818766.355 5   -628286.98047  22753135.49147
  20835384.511 6   -807388.105 6   -612407.21548  20835381.91348
  23780585.190 3  -2080406.992 3  -1568427.32447  23780585.46847
  22347556.784 6  -2136443.066 6  -1624349.85948  22347554.25348
  23420309.526 6  -2471102.988 6  -1859148.66447  23420306.63647
  21360222.940 6  -1856215.531 6  -1433965.42249  21360223.84749
 20  5 16  5 13 54.9990000  0  9G01G03G07G08G11G17G22G28G30          0.000009563
  19821634.823 7  -1387867.344 7  -1062079.51649  19821636.52649
  23081100.698 5  -2497986.574 5  -1897048.15248  23081104.57348
  20606512.769 6  -1171401.707 6   -887788.16849  20606511.33149
  22752713.847 5   -820972.043 5   -630005.69947  22752715.76947
  20834986.112 6   -809482.625 6   -614039.30548  20834983.59348
  23779535.597 4  -2085924.781 4  -1572726.89147  23779535.38647
  22346491.417 6  -2142038.211 6  -1628709.71148  22346489.15948
  23419055.347 6  -2477695.820 6  -1864285.93047  23419051.39747
  21359278.089 6  -1861180.207 6  -1437833.99649  21359279.00749
 20  5 16  5 13 55.9990000  0  9G01G03G07G08G11G17G22G28G30          0.000006977
  19820966.394 7  -1391379.438 7  -1064816.21549  19820968.06549
  23079806.620 5  -2504787.781 5  -1902347.79348  23079810.99948
  20605945.323 6  -1174383.484 6   -890111.63349  20605943.93349
  22752294.073 5   -823177.809 5   -631724.48447  22752295.58947
  20834587.331 6   -811576.902 6   -615671.20748  20834585.16348
  23778485.464 4  -2091442.508 4  -1577026.42247  23778485.46047
  22345426.831 6  -2147633.020 6  -1633069.30548  22345424.46448
  23417800.159 6  -2484288.746 6  -1869423.27747  23417797.17147
  21358333.870 6  -1866144.281 6  -1441702.10949  21358334.46049
 20  5 16  5 13 56.9990000  0  9G01G03G07G08G11G17G22G28G30          0.000004391
  19820298.308 7  -1394890.949 7  -1067552.45349  19820300.39049
  23078512.323 4  -2511588.984 4  -1907647.43048  23078516.30448
  20605377.964 6  -1177364.688 6   -892434.64549  20605376.64049
  22751874.261 6   -825383.621 6   -633443.30147  22751876.22647
  20834188.964 6   -813670.961 6   -617302.94548  20834186.75348
  23777436.073 3  -2096960.125 3  -1581325.86747  23777435.73747
  22344362.534 6  -2153227.473 6  -1637428.61348  22344359.74548
  23416545.886 6  -2490881.793 6  -1874560.72747  23416542.81247
  21357389.183 6  -1871107.770 6  -1445569.76249  21357389.76549
 20  5 16  5 13 57.9990000  0  9G01G03G07G08G11G17G22G28G30          0.000001806
  19819630.472 7  -1398401.797 7  -1070288.18449  19819632.03849
  23077218.183 5  -2518390.098 5  -1912946.99648  23077221.78848
  20604811.151 6  -1180345.332 6   -894757.23049  20604809.46049
  22751454.894 5   -827589.520 5   -635162.18047  22751456.11247
  20833790.847 6   -815764.758 6   -618934.47748  20833788.42948
  23776385.761 3  -2102477.543 3  -1585625.14847  23776385.52647
  22343297.831 6  -2158821.594 6  -1641787.66848  22343295.15948
  23415290.745 6  -2497474.988 6  -1879698.27747  23415287.89447
  21356445.175 6  -1876070.688 6  -1449436.97349  21356445.46849
 20  5 16  5 13 58.9990000  0  9G01G03G07G08G11G17G22G28G30         -0.000000780
  19818962.558 7  -1401912.012 7  -1073023.41049  19818963.91749
  23075924.487 5  -2525191.184 5  -1918246.54748  23075927.69048
  20604243.605 6  -1183325.355 6   -897079.32449  20604242.45249
  22751034.815 6   -829795.445 6   -636881.08647  22751036.51547
  20833392.347 6   -817858.293 6   -620565.79748  20833389.85548
  23775334.815 3  -2107994.957 3  -1589924.43047  23775335.53447
  22342233.620 6  -2164415.352 6  -1646146.44148  22342231.13248
  23414035.526 5  -2504068.246 5  -1884835.88747  23414033.30447
  21355500.409 6  -1881032.992 6  -1453303.70749  21355501.36249
 20  5 16  5 13 59.9990000  0  9G01G03G07G08G11G17G22G28G30         -0.000003366
  19818294.394 7  -1405421.617 7  -1075758.16849  19818296.19049
  23074629.534 5  -2531992.219 5  -1923546.04748  23074633.72248
  20603676.511 6  -1186304.816 6   -899400.98849  20603675.47249
  22750615.042 5   -832001.496 5   -638600.08247  22750616.61247
  20832993.823 7   -819951.578 7   -622196.93448  20832991.35548
  23774285.644 4  -2113512.211 4  -1594223.58647  23774285.89047
  22341169.065 6  -2170008.785 6  -1650504.95748  22341166.33948
  23412781.480 5  -2510661.641 5  -1889973.59447  23412778.25747
  21354556.526 6  -1885994.727 6  -1457169.99649  21354556.99149
 20  5 16  5 14  0.9990000  0  9G01G03G07G08G11G17G22G28G30         -0.000005953
  19817626.651 7  -1408930.578 7  -1078492.42249  19817628.36249
  23073335.456 5  -2538793.207 5  -1928845.51648  23073339.47648
  20603109.987 6  -1189283.695 6   -901722.18849  20603108.46849
  22750195.292 5   -834207.594 5   -640319.12147  22750196.49947
  20832595.190 7   -822044.656 7   -623827.90248  20832593.16748
  23773236.339 4  -2119029.402 4  -1598522.69548  23773236.48748
  22340104.581 6  -2175601.898 6  -1654863.22748  22340102.41748
  23411526.862 5  -2517255.129 5  -1895111.37147  23411523.74547
  21353612.214 6  -1890955.891 6  -1461035.83649  21353612.86649
 20  5 16  5 14  1.9990000  0  9G01G03G07G08G11G17G22G28G30         -0.000008539
  19816959.230 7  -1412439.008 7  -1081226.26249  19816960.70649
  23072041.815 5  -2545594.246 5  -1934145.03548  23072045.50748
  20602543.386 6  -1192262.086 6   -904043.01649  20602541.72649
  22749775.347 5   -836413.828 5   -642038.26647  22749777.23047
  20832197.526 6   -824137.535 6   -625458.71948  20832194.62448
  23772185.862 4  -2124546.555 4  -1602821.78547  23772186.06247
  22339040.261 6  -2181194.730 6  -1659221.27748  22339038.05848
  23410272.284 5  -2523848.820 5  -1900249.30947  23410268.94047
  21352668.487 6  -1895916.535 6  -1464901.27749  21352668.92549
 20  5 16  5 14  2.9990000  0  9G01G03G07G08G11G17G22G28G30         -0.000011124
  19816291.855 7  -1415946.867 7  -1083959.66449  19816293.12049
  23070747.331 5  -2552395.285 5  -1939444.54348  23070750.86648
  20601976.605 6  -1195239.938 6   -906363.42649  20601975.12449
  22749354.972 5   -838620.191 5   -643757.51247  22749357.20647
  20831799.284 6   -826230.234 6   -627089.39148  20831796.89448
  23771135.917 4  -2130063.703 4  -1607120.87147  23771136.16747
  22337976.019 6  -2186787.285 6  -1663579.10948  22337973.58548
  23409017.597 6  -2530442.668 6  -1905387.37547  23409013.84347
  21351724.425 6  -1900876.645 6  -1468766.29749  21351724.99949
 20  5 16  5 14  3.9990000  0  9G01G03G07G08G11G17G22G28G30         -0.000013710
  19815624.292 7  -1419454.059 7  -1086692.53949  19815625.79649
  23069453.355 5  -2559196.289 5  -1944744.02748  23069456.62048
  20601410.198 6  -1198217.176 6   -908683.35249  20601408.31949
  22748935.050 5   -840826.578 5   -645476.77747  22748937.51147
  20831400.925 6   -828322.664 6   -628719.85548  20831398.64748
  23770086.776 4  -2135580.699 4  -1611419.83247  23770085.82347
  22336912.370 6  -2192379.480 6  -1667936.66448  22336909.51148
  23407762.284 5  -2537036.594 5  -1910525.50047  23407759.40947
  21350780.628 6  -1905836.137 6  -1472630.83649  21350781.44049
 20  5 16  5 14  4.9990000  0  9G01G03G07G08G11G17G22G28G30         -0.000016296
  19814957.058 7  -1422960.637 7  -1089424.93449  19814958.67949
  23068159.128 5  -2565997.234 5  -1950043.46148  23068162.46048
  20600843.808 6  -1201193.820 6   -911002.80949  20600842.22649
  22748515.628 5   -843033.051 5   -647196.10947  22748517.62047
  20831002.839 6   -830414.840 6   -630350.12548  20831000.15548
  23769036.214 4  -2141097.570 4  -1615718.69147  23769036.65547
  22335847.917 6  -2197971.309 6  -1672293.93048  22335845.67148
  23406508.097 5  -2543630.621 5  -1915663.69947  23406504.65147
  21349836.847 6  -1910795.066 6  -1476494.94149  21349837.65549
 20  5 16  5 14  5.9990000  0  9G01G03G07G08G11G17G22G28G30         -0.000018883
  19814289.823 7  -1426466.613 7  -1092156.87149  19814291.39749
  23066865.050 5  -2572798.141 5  -1955342.86748  23066868.32348
  20600277.159 6  -1204169.930 6   -913321.85549  20600275.74549
  22748095.956 5   -845239.625 5   -648915.52347  22748098.01147
  20830604.894 6   -832506.789 6   -631980.21948  20830602.26948
  23767986.378 4  -2146614.449 4  -1620017.55547  23767987.03447
  22334784.019 6  -2203562.809 6  -1676650.94148  22334781.19048
  23405252.995 5  -2550224.797 5  -1920802.02347  23405250.10847
  21348893.511 6  -1915753.395 6  -1480358.57449  21348894.11649
 20  5 16  5 14  6.9990000  0  9G01G03G07G08G11G17G22G28G30         -0.000021469
  19813622.698 7  -1429971.930 7  -1094888.28949  19813624.36649
  23065570.503 5  -2579598.969 5  -1960642.21148  23065574.43748
  20599711.222 6  -1207145.418 6   -915640.41849  20599709.87049
  22747675.565 5   -847446.230 5   -650634.95747  22747677.46847
  20830206.808 6   -834598.488 6   -633610.11748  20830204.30848
  23766936.800 4  -2152131.230 4  -1624316.35347  23766936.67947
  22333719.823 6  -2209153.949 6  -1681007.67648  22333717.79648
  23403998.315 5  -2556819.078 5  -1925940.42647  23403994.93747
  21347950.151 6  -1920711.141 6  -1484221.75849  21347950.76949
 20  5 16  5 14  7.9990000  0  9G01G03G07G08G11G17G22G28G30         -0.000024055
  19812955.714 7  -1433476.648 7  -1097619.23449  19812957.50349
  23064276.495 5  -2586399.805 5  -1965941.56348  23064280.04648
  20599144.800 6  -1210120.359 6   -917958.56649  20599143.71449
  22747255.886 5   -849652.938 5   -652354.47747  22747257.57747
  20829808.753 6   -836689.953 6   -635239.82848  20829806.66348
  23765887.089 4  -2157647.789 4  -1628614.96547  23765887.63647
  22332656.167 6  -2214744.809 6  -1685364.18848  22332653.56248
  23402743.253 5  -2563413.434 5  -1931078.88347  23402740.51147
  21347006.667 6  -1925668.316 6  -1488084.49249  21347007.56249
 20  5 16  5 14  8.9990000  0  9G01G03G07G08G11G17G22G28G30         -0.000026642
  19812288.917 7  -1436980.770 7  -1100349.71549  19812290.65949
  23062981.526 5  -2593200.645 5  -1971240.91448  23062986.10848
  20598579.128 6  -1213094.738 6   -920276.25849  20598577.12049
  22746835.847 5   -851859.715 5   -654074.03947  22746837.74547
  20829410.776 6   -838781.203 6   -636869.37548  20829408.18348
  23764837.526 3  -2163164.410 3  -1632913.62548  23764837.60848
  22331592.269 6  -2220335.320 6  -1689720.43048  22331589.73348
  23401488.362 5  -2570007.969 5  -1936217.48047  23401484.88247
  21346063.331 6  -1930624.949 6  -1491946.80149  21346064.37849
 20  5 16  5 14  9.9990000  0  9G01G03G07G08G11G17G22G28G30         -0.000029228
  19811622.378 7  -1440484.234 7  -1103079.69149  19811623.81249
  23061688.089 5  -2600001.395 5  -1976540.19948  23061691.74148
  20598012.839 6  -1216068.477 6   -922593.45749  20598011.39449
  22746415.683 5   -854066.570 5   -655793.66847  22746417.83547
  20829012.948 6   -840872.176 6   -638498.69948  20829010.13648
  23763787.933 3  -2168680.836 3  -1637212.14547  23763787.89047
  22330528.597 6  -2225925.461 6  -1694076.37948  22330526.16748
  23400233.534 5  -2576602.555 5  -1941356.10947  23400230.43347
  21345120.167 6  -1935580.934 6  -1495808.61349  21345121.17549
 20  5 16  5 14 10.9990000  0  9G01G03G07G08G11G17G22G28G30         -0.000031815
  19810955.769 7  -1443987.102 7  -1105809.20349  19810957.47649
  23060393.448 5  -2606802.109 5  -1981839.45748  23060397.76948
  20597447.112 6  -1219041.699 6   -924910.26249  20597445.94449
  22745996.339 5   -856273.520 5   -657513.36747  22745997.74547
  20828615.151 6   -842962.922 6   -640127.85248  20828612.54648
  23762738.073 4  -2174197.191 4  -1641510.61747  23762738.22647
  22329464.862 6  -2231515.281 6  -1698432.09048  22329462.18348
  23398978.128 5  -2583197.293 5  -1946494.86747  23398975.24947
  21344177.222 6  -1940536.383 6  -1499670.00449  21344178.38649
 20  5 16  5 14 11.9990000  0  9G01G03G07G08G11G17G22G28G30         -0.000034401
  19810289.276 7  -1447489.293 7  -1108538.18449  19810291.07349
  23059099.620 5  -2613602.809 5  -1987138.70348  23059103.79248
  20596881.417 6  -1222014.320 6   -927226.58649  20596880.13249
  22745576.378 5   -858480.465 5   -659233.07047  22745578.01147
  20828217.089 6   -845053.414 6   -641756.81348  20828214.78048
  23761688.644 3  -2179713.461 3  -1645809.01247  23761688.58547
  22328401.097 6  -2237104.730 6  -1702787.50448  22328398.58948
  23397722.980 5  -2589792.113 5  -1951633.68847  23397720.18747
  21343234.105 6  -1945491.223 6  -1503530.91849  21343235.39749
 20  5 16  5 14 12.9990000  0  9G01G03G07G08G11G17G22G28G30         -0.000036987
  19809622.901 7  -1450990.910 7  -1111266.71949  19809624.60849
  23057805.456 5  -2620403.410 5  -1992437.87148  23057809.20648
  20596316.347 6  -1224986.328 6   -929542.43849  20596314.45649
  22745156.355 5   -860687.531 5   -660952.86347  22745157.86647
  20827819.167 6   -847143.656 6   -643385.57048  20827817.17548
  23760638.808 3  -2185229.617 3  -1650107.32447  23760638.71447
  22327337.909 6  -2242693.852 6  -1707142.66448  22327334.65548
  23396468.378 5  -2596387.059 5  -1956772.60947  23396465.31947
  21342291.472 6  -1950445.449 6  -1507391.35249  21342292.80449
 20  5 16  5 14 13.9990000  0  9G01G03G07G08G11G17G22G28G30         -0.000039574
  19808956.815 7  -1454491.879 7  -1113994.74249  19808958.34749
  23056511.315 5  -2627203.992 5  -1997737.02048  23056515.32348
  20595750.620 6  -1227957.785 6   -931857.86349  20595749.01949
  22744735.995 5   -862894.645 5   -662672.68847  22744738.02647
  20827421.800 6   -849233.680 6   -645014.16848  20827419.27248
  23759588.175 3  -2190745.703 3  -1654405.58647  23759589.05847
  22326274.065 6  -2248282.648 6  -1711497.57048  22326271.35848
  23395213.292 5  -2602982.125 5  -1961911.61747  23395210.10547
  21341348.823 6  -1955399.148 6  -1511251.37549  21341349.94849
 20  5 16  5 14 14.9990000  0  9G01G03G07G08G11G17G22G28G30         -0.000042160
  19808290.597 7  -1457992.234 7  -1116722.29749  19808292.38249
  23055217.565 5  -2634004.563 5  -2003036.16448  23055220.97248
  20595184.987 6  -1230928.648 6   -934172.82049  20595183.62449
  22744316.073 5   -865101.840 5   -664392.58647  22744318.03847
  20827024.206 7   -851323.449 7   -646642.55948  20827021.49548
  23758538.581 3  -2196261.625 3  -1658703.70747  23758539.60547
  22325210.511 6  -2253871.098 6  -1715852.19948  22325207.89448
  23393958.167 5  -2609577.258 5  -1967050.68847  23393954.76947
  21340406.409 6  -1960352.238 6  -1515110.93049  21340407.70649
 20  5 16  5 14 15.9990000  0  9G01G03G07G08G11G17G22G28G30         -0.000044746
  19807624.605 7  -1461491.969 7  -1119449.35949  19807625.83949
  23053922.792 5  -2640805.078 5  -2008335.26248  23053926.99548
  20594620.073 6  -1233898.930 6   -936487.33249  20594618.78449
  22743895.628 5   -867309.109 5   -666112.53147  22743897.71847
  20826626.519 7   -853412.973 7   -648270.76648  20826624.00348
  23757489.831 3  -2201777.543 3  -1663001.82447  23757490.24547
  22324147.378 6  -2259459.195 6  -1720206.55548  22324144.52648
  23392703.073 5  -2616172.512 5  -1972189.85546  23392700.01946
  21339464.003 6  -1965304.734 6  -1518970.01249  21339465.26549
 20  5 16  5 14 16.9990000  0  9G01G03G07G08G11G17G22G28G30         -0.000047333
  19806958.964 7  -1464991.051 7  -1122175.92249  19806960.28049
  23052628.995 5  -2647605.492 5  -2013634.28548  23052632.74148
  20594055.112 6  -1236868.648 6   -938801.40249  20594053.31549
  22743476.073 5   -869516.422 5   -667832.52047  22743478.10547
  20826229.214 6   -855502.223 6   -649898.75048  20826226.56548
  23756439.776 3  -2207293.316 3  -1667299.82447  23756440.68747
  22323083.917 6  -2265046.938 6  -1724560.64548  22323081.45648
  23391447.823 5  -2622767.883 5  -1977329.10246  23391444.82346
  21338521.722 6  -1970256.629 6  -1522828.63749  21338522.96449
 20  5 16  5 14 17.9990000  0  9G01G03G07G08G11G17G22G28G30         -0.000049919
  19806293.183 7  -1468489.473 7  -1124901.96149  19806294.55049
  23051335.464 5  -2654405.879 5  -2018933.28948  23051339.25348
  20593489.995 6  -1239837.715 6   -941114.95749  20593488.58149
  22743055.862 5   -871723.773 5   -669552.53947  22743057.84747
  20825831.714 7   -857591.219 7   -651526.53948  20825829.06948
  23755390.784 4  -2212808.965 4  -1671597.73048  23755390.75348
  22322020.292 6  -2270634.277 6  -1728914.41448  22322018.08548
  23390193.073 5  -2629363.324 5  -1982468.40646  23390189.57346
  21337579.683 6  -1975207.902 6  -1526686.77049  21337580.49549
 20  5 16  5 14 18.9990000  0  9G01G03G07G08G11G17G22G28G30         -0.000052505
  19805627.487 7  -1471987.246 7  -1127627.49649  19805629.17149
  23050040.300 5  -2661206.145 5  -2024232.20348  23050045.07748
  20592924.972 6  -1242806.180 6   -943428.05149  20592923.42549
  22742635.495 5   -873931.113 5   -671272.54747  22742637.73747
  20825434.300 7   -859679.895 7   -653154.07448  20825431.27648
  23754341.276 4  -2218324.484 4  -1675895.53548  23754341.57748
  22320957.355 6  -2276221.277 6  -1733267.93048  22320954.44448
  23388937.659 5  -2635958.816 5  -1987607.74646  23388934.78846
  21336637.245 6  -1980158.559 6  -1530544.42249  21336638.73749
 20  5 16  5 14 19.9990000  0  9G01G03G07G08G11G17G22G28G30         -0.000055092
  19804962.284 7  -1475484.383 7  -1130352.53949  19804963.44049
  23048746.511 5  -2668006.387 5  -2029531.08648  23048751.07348
  20592360.542 6  -1245774.059 6   -945740.69149  20592358.86649
  22742216.534 5   -876138.543 5   -672992.61747  22742217.61247
  20825036.737 6   -861768.340 6   -654781.44148  20825033.91748
  23753291.565 4  -2223839.898 4  -1680193.26248  23753291.61248
  22319894.605 6  -2281807.914 6  -1737621.14848  22319891.57748
  23387682.292 5  -2642554.430 5  -1992747.17647  23387679.35147
  21335695.284 6  -1985108.629 6  -1534401.62949  21335696.99549
 20  5 16  5 14 20.9990000  0  9G01G03G07G08G11G17G22G28G30         -0.000057678
  19804296.831 7  -1478980.914 7  -1133077.10549  19804298.16349
  23047452.761 5  -2674806.625 5  -2034829.96948  23047456.93348
  20591796.105 6  -1248741.383 6   -948052.89149  20591794.18749
  22741795.667 5   -878346.051 5   -674712.75847  22741797.95647
  20824639.003 6   -863856.563 6   -656408.62548  20824636.54648
  23752242.331 4  -2229355.234 4  -1684490.93048  23752242.22648
  22318831.206 6  -2287394.227 6  -1741974.12148  22318828.67148
  23386426.980 5  -2649150.156 5  -1997886.71146  23386424.16746
  21334753.573 6  -1990058.145 6  -1538258.38749  21334754.98049
 20  5 16  5 14 21.9990000  0  9G01G03G07G08G11G17G22G28G30         -0.000060265
  19803631.519 7  -1482476.777 7  -1135801.16049  19803633.04649
  23046158.480 5  -2681606.742 5  -2040128.75848  23046162.66748
  20591231.292 6  -1251708.094 6   -950364.61349  20591229.55849
  22741376.011 5   -880553.605 5   -676432.93447  22741377.70647
  20824241.651 6   -865944.492 6   -658035.59048  20824239.44448
  23751192.886 4  -2234870.414 4  -1688788.47348  23751192.78448
  22317768.339 6  -2292980.168 6  -1746326.79748  22317765.67148
  23385172.323 5  -2655745.977 5  -2003026.31346  23385169.26546
  21333811.706 6  -1995007.000 6  -1542114.63749  21333813.14449
 20  5 16  5 14 22.9990000  0  9G01G03G07G08G11G17G22G28G30         -0.000062851
  19802966.308 7  -1485972.063 7  -1138524.75849  19802968.09749
  23044864.714 5  -2688406.867 5  -2045427.54348  23044868.58148
  20590666.815 6  -1254674.246 6   -952675.90649  20590665.40149
  22740955.628 5   -882761.246 5   -678153.17247  22740957.67147
  20823844.745 7   -868032.227 7   -659662.39548  20823841.89448
  23750143.800 4  -2240385.559 4  -1693085.99248  23750143.12848
  22316705.628 6  -2298565.789 6  -1750679.23448  22316702.73348
  23383917.081 5  -2662341.914 5  -2008165.99646  23383914.11646
  21332869.925 6  -1999955.336 6  -1545970.48849  21332871.47249
 20  5 16  5 14 23.9990000  0  9G01G03G07G08G11G17G22G28G30         -0.000065437
  19802301.308 7  -1489466.707 7  -1141247.85549  19802302.67149
  23043570.605 5  -2695206.961 5  -2050726.31648  23043574.63648
  20590102.073 6  -1257639.813 6   -954986.73449  20590100.97649
  22740535.862 5   -884968.980 5   -679873.48847  22740537.17147
  20823447.800 7   -870119.691 7   -661288.99248  20823444.63648
  23749093.683 4  -2245900.613 4  -1697383.44148  23749093.98748
  22315642.870 6  -2304151.055 6  -1755031.39148  22315639.99948
  23382662.050 5  -2668937.973 5  -2013305.78946  23382658.83546
  21331928.386 6  -2004903.043 6  -1549825.84049  21331930.13649
 20  5 16  5 14 24.9990000  0  9G01G03G07G08G11G17G22G28G30         -0.000068026
  19801636.300 7  -1492960.699 7  -1143970.45349  19801637.85549
  23042276.808 5  -2702006.973 5  -2056025.02348  23042280.42948
  20589537.964 6  -1260604.781 6   -957297.10249  20589536.60849
  22740115.323 5   -887176.789 5   -681593.85947  22740116.99947
  20823049.894 6   -872206.922 6   -662915.40648  20823047.20248
  23748044.909 4  -2251415.547 4  -1701680.78548  23748044.57348
  22314579.980 6  -2309735.977 6  -1759383.27748  22314577.12448
  23381406.980 5  -2675534.133 5  -2018445.66046  23381403.30846
  21330987.073 6  -2009850.184 6  -1553680.75849  21330988.76549
 20  5 16  5 14 25.9990000  0  9G01G03G07G08G11G17G22G28G30         -0.000070612
  19800971.948 7  -1496454.063 7  -1146692.55149  19800973.29649
  23040982.831 5  -2708806.938 5  -2061323.69548  23040986.27248
  20588974.167 6  -1263569.145 6   -959606.99249  20588972.52249
  22739695.808 5   -889384.594 5   -683314.23047  22739697.25347
  20822653.253 6   -874293.852 6   -664541.59448  20822650.45648
  23746994.581 4  -2256930.344 4  -1705978.03148  23746995.30048
  22313517.573 6  -2315320.520 6  -1763734.86748  22313514.69848
  23380151.495 5  -2682130.352 5  -2023585.56647  23380147.95647
  21330046.042 6  -2014796.695 6  -1557535.17649  21330047.50749
 20  5 16  5 14 26.9990000  0  9G01G03G07G08G11G17G22G28G30         -0.000073198
  19800306.987 7  -1499946.762 7  -1149414.13349  19800308.53449
  23039688.362 4  -2715606.793 4  -2066622.28548  23039692.72248
  20588410.011 6  -1266532.898 6   -961916.41449  20588408.85849
  22739275.370 5   -891592.480 5   -685034.66047  22739276.96447
  20822256.222 7   -876380.539 7   -666167.57848  20822253.46448
  23745945.198 4  -2262445.027 4  -1710275.18448  23745945.58148
  22312454.597 6  -2320904.688 6  -1768086.16848  22312451.78048
  23378896.034 5  -2688726.652 5  -2028725.53147  23378893.45647
  21329105.019 6  -2019742.613 6  -1561389.13349  21329106.44849
 20  5 16  5 14 27.9990000  0  9G01G03G07G08G11G17G22G28G30         -0.000075785
  19799642.448 7  -1503438.879 7  -1152135.26249  19799643.78049
  23038394.440 5  -2722406.629 5  -2071920.85548  23038398.80048
  20587845.675 6  -1269496.113 6   -964225.41849  20587844.51549
  22738855.089 5   -893800.441 5   -686755.15247  22738856.71447
  20821858.870 6   -878466.965 6   -667793.36348  20821856.05448
  23744895.909 5  -2267959.660 5  -1714572.29348  23744896.04248
  22311391.722 6  -2326488.535 6  -1772437.21148  22311389.17548
  23377640.886 5  -2695323.078 5  -2033865.60946  23377637.80446
  21328163.870 6  -2024687.930 6  -1565242.62949  21328165.26949
 20  5 16  5 14 28.9990000  0  9G01G03G07G08G11G17G22G28G30         -0.000078371
  19798978.198 7  -1506930.371 7  -1154855.91049  19798979.78049
  23037100.511 5  -2729206.445 5  -2077219.41448  23037104.87448
  20587282.362 6  -1272458.750 6   -966533.96149  20587280.92949
  22738435.183 5   -896008.484 5   -688475.70747  22738436.88647
  20821462.128 6   -880553.230 6   -669419.03148  20821459.08948
  23743846.690 5  -2273474.188 5  -1718869.32448  23743846.71848
  22310329.308 6  -2332072.051 6  -1776788.00448  22310326.54248
  23376386.065 5  -2701919.652 5  -2039005.80547  23376382.09747
  21327222.690 6  -2029632.711 6  -1569095.70749  21327224.20249
 20  5 16  5 14 29.9990000  0  9G01G03G07G08G11G17G22G28G30         -0.000080957
  19798313.847 7  -1510421.266 7  -1157576.08649  19798315.24149
  23035806.870 5  -2736006.246 5  -2082517.96148  23035811.03448
  20586718.737 6  -1275420.820 6   -968842.07049  20586717.15549
  22738015.206 5   -898216.629 5   -690196.34047  22738016.25347
  20821065.511 6   -882639.195 6   -671044.46148  20821061.80048
  23742797.401 5  -2278988.664 5  -1723166.32848  23742797.47648
  22309266.847 6  -2337655.242 6  -1781138.54348  22309264.23048
  23375130.261 5  -2708516.328 5  -2044146.07446  23375127.06246
  21326281.878 6  -2034576.930 6  -1572948.34849  21326283.47649
 20  5 16  5 14 30.9990000  0  9G01G03G07G08G11G17G22G28G30         -0.000083544
  19797649.628 7  -1513911.504 7  -1160295.75049  19797650.96049
  23034512.230 4  -2742805.954 4  -2087816.42848  23034516.82348
  20586155.261 6  -1278382.309 6   -971149.72349  20586153.58949
  22737594.550 5   -900424.813 5   -691917.00047  22737596.35547
  20820668.253 6   -884724.949 6   -672669.72348  20820665.20648
  23741747.323 5  -2284502.992 5  -1727463.20748  23741747.96448
  22308204.464 6  -2343238.066 6  -1785488.79348  22308201.31548
  23373874.620 5  -2715113.086 5  -2049286.40246  23373871.70246
  21325341.151 6  -2039520.527 6  -1576800.49249  21325342.36249
 20  5 16  5 14 31.9990000  0  9G01G03G07G08G11G17G22G28G30         -0.000086130
  19796985.433 7  -1517401.133 7  -1163014.94549  19796987.08549
  23033218.683 5  -2749605.684 5  -2093114.91848  23033222.71848
  20585591.683 6  -1281343.203 6   -973456.91049  20585590.24949
  22737174.245 5   -902633.074 5   -693637.72747  22737176.55447
  20820271.331 6   -886810.461 6   -674294.80148  20820268.34348
  23740698.480 5  -2290017.258 5  -1731760.03548  23740699.23048
  22307142.440 6  -2348820.563 6  -1789838.79348  22307139.44048
  23372619.847 5  -2721709.973 5  -2054426.83646  23372616.15146
  21324400.722 6  -2044463.543 6  -1580652.19149  21324401.90549
 20  5 16  5 14 32.9990000  0  9G01G03G07G08G11G17G22G28G30         -0.000088718
  19796321.573 7  -1520890.129 7  -1165733.64149  19796323.02249
  23031925.206 4  -2756405.332 4  -2098413.34448  23031928.79248
  20585028.331 6  -1284303.516 6   -975763.64849  20585027.20249
  22736753.651 5   -904841.402 5   -695358.50447  22736756.04647
  20819874.378 7   -888895.715 7   -675919.66848  20819871.54248
  23739648.847 5  -2295531.402 5  -1736056.77048  23739649.55848
  22306080.003 6  -2354402.715 6  -1794188.52048  22306077.13648
  23371364.409 5  -2728306.992 5  -2059567.36747  23371361.23047
  21323459.823 6  -2049405.969 6  -1584503.43049  21323461.24949
 20  5 16  5 14 33.9990000  0  9G01G03G07G08G11G17G22G28G30         -0.000091305
  19795657.651 7  -1524378.461 7  -1168451.82049  19795659.10849
  23030631.042 4  -2763204.855 4  -2103711.67648  23030634.87448
  20584464.925 6  -1287263.207 6   -978069.90249  20584463.79249
  22736333.823 5   -907049.762 5   -697079.30547  22736335.68747
  20819478.058 6   -890980.672 6   -677544.31648  20819474.95648
  23738599.464 5  -2301045.434 5  -1740353.41048  23738600.05448
  22305018.003 6  -2359984.480 6  -1798537.93448  22305015.31948
  23370109.222 5  -2734904.039 5  -2064707.92647  23370105.60847
  21322519.651 6  -2054347.754 6  -1588354.16849  21322520.92549
 20  5 16  5 14 34.9990000  0  9G01G03G07G08G11G17G22G28G30         -0.000093891
  19794993.933 7  -1527866.109 7  -1171169.46549  19794995.51949
  23029337.417 4  -2770004.328 4  -2109009.96948  23029340.92548
  20583902.011 6  -1290222.262 6   -980375.66849  20583900.45249
  22735913.480 5   -909258.145 5   -698800.12547  22735915.45647
  20819081.315 6   -893065.328 6   -679168.72348  20819078.37848
  23737550.526 5  -2306559.289 5  -1744649.91448  23737550.71848
  22303955.862 6  -2365565.824 6  -1802887.03548  22303952.65548
  23368854.011 5  -2741501.168 5  -2069848.54746  23368850.30446
  21321579.417 6  -2059288.906 6  -1592204.41849  21321580.70649
 20  5 16  5 14 35.9990000  0  9G01G03G07G08G11G17G22G28G30         -0.000096478
  19794330.417 7  -1531353.117 7  -1173886.61749  19794331.90149
  23028042.980 4  -2776803.715 4  -2114308.18848  23028046.86248
  20583339.159 6  -1293180.723 6   -982680.96149  20583337.90949
  22735492.925 5   -911466.586 5   -700520.99247  22735495.21047
  20818684.487 6   -895149.762 6   -680792.95748  20818681.09748
  23736501.675 5  -2312073.070 5  -1748946.36348  23736501.18748
  22302893.269 6  -2371146.820 6  -1807235.86748  22302890.56948
  23367598.245 5  -2748098.367 5  -2074989.22346  23367594.49546
  21320639.386 6  -2064229.465 6  -1596054.21149  21320640.43749
 20  5 16  5 14 36.9990000  0  9G01G03G07G08G11G17G22G28G30         -0.000099066
  19793666.917 7  -1534839.391 7  -1176603.19549  19793668.86649
  23026750.206 4  -2783602.965 4  -2119606.30548  23026753.33148
  20582776.198 6  -1296138.508 6   -984985.73049  20582774.75349
  22735072.737 5   -913674.965 5   -702241.80947  22735074.91747
  20818287.550 6   -897233.805 6   -682416.88348  20818284.77648
  23735452.409 5  -2317586.609 5  -1753242.63348  23735452.55448
  22301831.628 6  -2376727.371 6  -1811584.34448  22301828.24948
  23366342.800 5  -2754695.586 5  -2080129.91446  23366339.17546
  21319699.167 6  -2069169.324 6  -1599903.44949  21319700.49149
 20  5 16  5 14 37.9990000  0  9G01G03G07G08G11G17G22G28G30         -0.000101652
  19793003.565 7  -1538325.102 7  -1179319.33649  19793005.42949
  23025455.651 4  -2790402.191 4  -2124904.40648  23025459.64748
  20582213.190 6  -1299095.707 6   -987290.04349  20582211.60849
  22734652.839 5   -915883.480 5   -703962.73447  22734654.96847
  20817891.151 6   -899317.645 6   -684040.66048  20817887.89448
  23734403.573 5  -2323100.102 5  -1757538.85948  23734402.80448
  22300769.792 6  -2382307.605 6  -1815932.57848  22300766.73048
  23365087.519 5  -2761292.914 5  -2085270.68846  23365083.47246
  21318758.909 6  -2074108.613 6  -1603752.25049  21318760.50749
 20  5 16  5 14 38.9990000  0  9G01G03G07G08G11G17G22G28G30         -0.000104239
  19792340.472 7  -1541810.133 7  -1182034.94949  19792342.10849
  23024162.112 4  -2797201.352 4  -2130202.45348  23024165.73048
  20581650.870 6  -1302052.336 6   -989593.91049  20581649.79649
  22734232.222 5   -918092.027 5   -705683.67647  22734234.33547
  20817494.620 6   -901401.246 6   -685664.24248  20817492.13648
  23733353.855 5  -2328613.473 5  -1761834.98448  23733353.80048
  22299708.253 6  -2387887.477 6  -1820280.53148  22299704.96848
  23363831.714 5  -2767890.363 5  -2090411.56647  23363828.19847
  21317819.683 6  -2079047.332 6  -1607600.59849  21317820.59749
 20  5 16  5 14 39.9990000  0  9G01G03G07G08G11G17G22G28G30         -0.000106825
  19791677.315 7  -1545294.578 7  -1184750.09849  19791679.23049
  23022868.464 4  -2804000.492 4  -2135500.48048  23022871.97248
  20581088.003 6  -1305008.402 6   -991897.33649  20581087.08149
  22733812.175 6   -920300.660 6   -707404.69147  22733814.04247
  20817098.386 6   -903484.609 6   -687287.64548  20817095.25348
  23732304.480 4  -2334126.777 4  -1766131.06348  23732304.81948
  22298646.144 6  -2393467.027 6  -1824628.22748  22298643.34748
  23362577.065 5  -2774487.898 5  -2095552.50446  23362572.90146
  21316879.847 6  -2083985.453 6  -1611448.48449  21316880.98049
 20  5 16  5 14 40.9990000  0  9G01G03G07G08G11G17G22G28G30         -0.000109411
  19791014.628 7  -1548778.395 7  -1187464.76249  19791015.99149
  23021573.784 4  -2810799.594 4  -2140798.48048  23021577.71048
  20580525.667 6  -1307963.879 6   -994200.31349  20580524.44849
  22733391.948 6   -922509.355 6   -709125.75047  22733393.73347
  20816701.940 6   -905567.719 6   -688910.85248  20816699.10848
  23731255.394 4  -2339639.988 4  -1770427.06648  23731255.53048
  22297584.534 6  -2399046.211 6  -1828975.64548  22297581.55848
  23361320.737 5  -2781085.578 5  -2100693.54746  23361316.90546
  21315940.214 6  -2088922.992 6  -1615295.92249  21315941.31949
 20  5 16  5 14 41.9990000  0  9G01G03G07G08G11G17G22G28G30         -0.000111998
  19790351.714 7  -1552261.555 7  -1190178.91849  19790353.32749
  23020280.511 4  -2817598.586 4  -2146096.39848  23020284.23048
  20579963.714 6  -1310918.750 6   -996502.80549  20579962.24549
  22732971.659 6   -924718.113 6   -710846.85247  22732974.07747
  20816305.776 6   -907650.566 6   -690533.84448  20816303.03448
  23730206.120 5  -2345153.078 5  -1774722.97348  23730206.12848
  22296523.175 6  -2404625.023 6  -1833322.77048  22296519.77248
  23360065.503 5  -2787683.332 5  -2105834.65647  23360061.64047
  21315000.894 6  -2093859.926 6  -1619142.88349  21315001.73049
 20  5 16  5 14 42.9990000  0  9G01G03G07G08G11G17G22G28G30         -0.000114586
  19789688.886 7  -1555744.102 7  -1192892.58649  19789690.37449
  23018986.644 4  -2824397.547 4  -2151394.29348  23018990.40948
  20579401.315 6  -1313873.051 6   -998804.85549  20579399.75349
  22732551.245 6   -926926.910 6   -712567.99647  22732553.04647
  20815909.261 6   -909733.188 6   -692156.67248  20815906.43348
  23729157.925 5  -2350666.094 5  -1779018.83248  23729157.14748
  22295461.503 6  -2410203.523 6  -1837669.64848  22295458.39748
  23358810.339 6  -2794281.203 6  -2110975.84446  23358806.26546
  21314061.519 6  -2098796.266 6  -1622989.38349  21314062.57749
 20  5 16  5 14 43.9990000  0  9G01G03G07G08G11G17G22G28G30         -0.000117172
  19789026.487 7  -1559225.973 7  -1195605.73449  19789027.78849
  23017693.636 4  -2831196.457 4  -2156692.14148  23017696.67948
  20578839.300 6  -1316826.723 6  -1001106.42649  20578837.89449
  22732131.222 6   -929135.773 6   -714289.19147  22732132.82747
  20815512.722 6   -911815.527 6   -693779.27348  20815510.13648
  23728108.605 4  -2356178.961 4  -1783314.56648  23728107.95648
  22294399.839 6  -2415781.617 6  -1842016.21948  22294396.98048
  23357554.730 6  -2800879.109 6  -2116117.05946  23357550.59746
  21313122.112 6  -2103731.996 6  -1626835.40649  21313123.10849
 20  5 16  5 14 44.9990000  0  9G01G03G07G08G11G17G22G28G30         -0.000119759
  19788363.769 7  -1562707.270 7  -1198318.44149  19788365.54249
  23016399.925 5  -2837995.340 5  -2161989.97348  23016402.90548
  20578277.167 6  -1319779.875 6  -1003407.58249  20578276.19049
  22731710.690 5   -931344.727 5   -716010.45747  22731712.54647
  20815116.659 6   -913897.664 6   -695401.71548  20815113.74948
  23727058.925 4  -2361691.781 4  -1787610.25848  23727058.96048
  22293338.440 6  -2421359.426 6  -1846362.55948  22293335.48348
  23356298.589 6  -2807477.191 6  -2121258.42646  23356295.11646
  21312182.644 6  -2108667.168 6  -1630680.99649  21312184.26549
 20  5 16  5 14 45.9990000  0  9G01G03G07G08G11G17G22G28G30         -0.000122345
  19787701.901 7  -1566187.887 7  -1201030.60249  19787703.03849
  23015105.737 4  -2844794.141 4  -2167287.74448  23015108.95648
  20577715.315 6  -1322732.379 6  -1005708.23449  20577714.54649
  22731290.605 6   -933553.715 6   -717731.74647  22731292.66347
  20814720.964 6   -915979.484 6   -697023.91848  20814718.21848
  23726010.042 4  -2367204.441 4  -1791905.83448  23726009.62448
  22292277.019 6  -2426936.801 6  -1850708.56648  22292274.20248
  23355043.534 5  -2814075.316 5  -2126399.83246  23355039.31546
  21311243.714 6  -2113601.707 6  -1634526.09449  21311244.89049
 20  5 16  5 14 46.9990000  0  9G01G03G07G08G11G17G22G28G30         -0.000124933
  19787039.948 7  -1569667.910 7  -1203742.31649  19787041.06549
  23013812.261 4  -2851592.871 4  -2172585.44948  23013815.35848
  20577153.605 6  -1325684.336 6  -1008008.46149  20577152.45249
  22730870.175 6   -935762.770 6   -719453.09047  22730871.91747
  20814324.315 6   -918061.098 6   -698645.94548  20814321.23748
  23724961.128 5  -2372716.984 5  -1796201.32848  23724960.67148
  22291215.636 6  -2432513.895 6  -1855054.34848  22291212.96048
  23353788.269 5  -2820673.582 5  -2131541.33646  23353783.94446
  21310305.175 6  -2118535.691 6  -1638370.75449  21310305.64449
 20  5 16  5 14 47.9990000  0  9G01G03G07G08G11G17G22G28G30         -0.000127520
  19786377.284 7  -1573147.332 7  -1206453.55149  19786379.09349
  23012518.675 4  -2858391.637 4  -2177883.18448  23012521.56948
  20576591.917 6  -1328635.738 6  -1010308.25449  20576591.03449
  22730449.636 6   -937971.957 6   -721174.53547  22730451.69847
  20813928.323 6   -920142.492 6   -700267.82048  20813925.52248
  23723912.315 4  -2378229.504 4  -1800496.80548  23723911.56248
  22290154.698 6  -2438090.637 6  -1859399.85948  22290151.67148
  23352532.276 5  -2827271.969 5  -2136682.94146  23352528.10846
  21309366.026 6  -2123469.105 6  -1642214.97349  21309367.12849
 20  5 16  5 14 48.9990000  0  9G01G03G07G08G11G17G22G28G30         -0.000130106
  19785715.394 7  -1576626.137 7  -1209164.30549  19785716.89449
  23011224.659 4  -2865190.305 4  -2183180.85248  23011227.67948
  20576030.433 6  -1331586.566 6  -1012607.59849  20576029.15549
  22730029.097 5   -940181.188 5   -722896.02347  22730031.21047
  20813532.058 6   -922223.652 6   -701889.50048  20813529.65548
  23722863.237 4  -2383741.930 4  -1804792.21548  23722862.47648
  22289093.206 6  -2443667.027 6  -1863745.09848  22289090.67548
  23351277.105 6  -2833870.473 6  -2141824.63746  23351272.49546
  21308427.440 6  -2128401.914 6  -1646058.72349  21308428.85149
 20  5 16  5 14 49.9990000  0  9G01G03G07G08G11G17G22G28G30         -0.000132692
  19785053.534 7  -1580104.359 7  -1211874.60949  19785054.91349
  23009930.940 5  -2871989.020 5  -2188478.54748  23009934.17548
  20575468.933 6  -1334536.813 6  -1014906.49649  20575468.14049
  22729608.761 5   -942390.484 5   -724617.55947  22729610.66347
  20813136.050 6   -924304.570 6   -703510.99648  20813133.29648
  23721814.323 4  -2389254.277 4  -1809087.54748  23721814.01548
  22288032.690 6  -2449243.117 6  -1868090.10248  22288029.28848
  23350021.042 6  -2840469.121 6  -2146966.44146  23350016.96846
  21307488.347 6  -2133334.172 6  -1649902.03949  21307489.97649
 20  5 16  5 14 50.9990000  0  9G01G03G07G08G11G17G22G28G30         -0.000135281
  19784391.667 7  -1583581.828 7  -1214584.32849  19784393.19049
  23008637.355 5  -2878787.504 5  -2193776.06348  23008640.22248
  20574907.667 6  -1337486.418 6  -1017204.89149  20574906.55049
  22729187.987 5   -944599.797 5   -726339.10247  22729190.51947
  20812740.440 6   -926385.168 6   -705132.24248  20812737.56948
  23720765.019 4  -2394766.449 4  -1813382.73848  23720764.85548
  22286971.331 6  -2454818.742 6  -1872434.74648  22286968.53048
  23348764.987 6  -2847067.746 6  -2152108.22347  23348761.17547
  21306550.581 6  -2138265.762 6  -1653744.83649  21306551.34349
 20  5 16  5 14 51.9990000  0  9G01G03G07G08G11G17G22G28G30         -0.000137867
  19783730.058 7  -1587058.598 7  -1217293.50049  19783731.79649
  23007343.534 5  -2885585.898 5  -2199073.51648  23007346.81948
  20574346.815 6  -1340435.336 6  -1019502.75849  20574345.58149
  22728767.839 6   -946809.051 6   -728060.59447  22728770.23347
  20812344.394 7   -928465.402 7   -706753.20748  20812341.70648
  23719716.073 4  -2400278.391 4  -1817677.75848  23719716.13248
  22285910.261 6  -2460393.934 6  -1876779.05948  22285907.65948
  23347509.261 6  -2853666.402 6  -2157250.03146  23347505.54246
  21305611.948 6  -2143196.656 6  -1657587.09849  21305612.83949
 20  5 16  5 14 52.9990000  0  9G01G03G07G08G11G17G22G28G30         -0.000140453
  19783068.870 7  -1590534.793 7  -1220002.22749  19783070.35149
  23006049.612 5  -2892384.309 5  -2204370.96548  23006053.05048
  20573785.886 6  -1343383.727 6  -1021800.20349  20573784.90549
  22728347.183 5   -949018.449 5   -729782.21147  22728349.85847
  20811948.355 7   -930545.473 7   -708374.04748  20811945.98048
  23718666.761 4  -2405790.355 4  -1821972.79348  23718667.33148
  22284849.347 6  -2465968.852 6  -1881123.14548  22284846.69448
  23346253.690 6  -2860265.211 6  -2162391.95746  23346249.92546
  21304674.105 6  -2148127.016 6  -1661428.94149  21304674.82749
 20  5 16  5 14 53.9990000  0  9G01G03G07G08G11G17G22G28G30         -0.000143042
  19782406.886 7  -1594010.430 7  -1222710.51649  19782408.94049
  23004755.769 5  -2899182.691 5  -2209668.40248  23004759.42148
  20573224.589 6  -1346331.625 6  -1024097.26649  20573223.36249
  22727926.784 5   -951227.953 5   -731503.89847  22727929.23047
  20811552.683 6   -932625.363 6   -709994.73448  20811550.12848
  23717618.245 4  -2411302.246 4  -1826267.77048  23717618.31948
  22283788.714 6  -2471543.465 6  -1885467.00048  22283786.00748
  23344998.636 5  -2866864.223 5  -2167534.05146  23344993.98746
  21303735.987 6  -2153056.867 6  -1665270.38749  21303736.86649
 20  5 16  5 14 54.9990000  0  9G01G03G07G08G11G17G22G28G30         -0.000145628
  19781745.925 7  -1597485.449 7  -1225418.32449  19781747.41749
  23003462.097 5  -2905981.117 5  -2214965.86748  23003466.18748
  20572664.034 6  -1349278.941 6  -1026393.87949  20572662.78049
  22727506.362 5   -953437.574 5   -733225.68447  22727508.70647
  20811157.347 7   -934705.047 7   -711615.27048  20811154.28448
  23716569.167 4  -2416814.078 4  -1830562.71148  23716569.83548
  22282727.722 6  -2477117.766 6  -1889810.60948  22282725.05848
  23343742.253 6  -2873463.352 6  -2172676.23046  23343738.47646
  21302797.847 6  -2157986.137 6  -1669111.37149  21302798.85849
 20  5 16  5 14 55.9990000  0  9G01G03G07G08G11G17G22G28G30         -0.000148214
  19781084.878 7  -1600959.832 7  -1228125.63349  19781086.29249
  23002168.558 5  -2912779.391 5  -2220263.22348  23002172.08148
  20572103.347 6  -1352225.648 6  -1028690.01649  20572101.87449
  22727085.940 5   -955647.199 5   -734947.46947  22727088.24947
  20810761.300 7   -936784.418 7   -713235.55548  20810758.45648
  23715520.855 4  -2422325.801 4  -1834857.55948  23715521.00348
  22281667.480 6  -2482691.668 6  -1894153.90648  22281664.36648
  23342486.519 6  -2880062.531 6  -2177818.44546  23342482.78446
  21301859.886 6  -2162914.816 6  -1672951.90249  21301860.93349
 20  5 16  5 14 56.9990000  0  9G01G03G07G08G11G17G22G28G30         -0.000150803
  19780423.745 7  -1604433.598 7  -1230832.46949  19780425.49149
  23000875.237 5  -2919577.664 5  -2225560.57448  23000878.46048
  20571542.714 6  -1355171.781 6  -1030985.70349  20571541.51949
  22726665.386 5   -957856.902 5   -736669.32047  22726668.20247
  20810365.269 7   -938863.602 7   -714855.70348  20810362.96848
  23714471.886 4  -2427837.418 4  -1839152.32848  23714472.01148
  22280606.659 6  -2488265.242 6  -1898496.94148  22280604.05448
  23341230.612 6  -2886661.844 6  -2182960.77047  23341226.81247
  21300921.636 6  -2167842.895 6  -1676791.96549  21300923.16349
 20  5 16  5 14 57.9990000  0  9G01G03G07G08G11G17G22G28G30         -0.000153389
  19779762.784 7  -1607906.762 7  -1233538.83249  19779764.32349
  22999581.167 5  -2926375.891 5  -2230857.89148  22999584.85848
  20570981.886 6  -1358117.371 6  -1033280.96949  20570980.67149
  22726244.612 5   -960066.688 5   -738391.23447  22726247.51547
  20809969.886 6   -940942.516 6   -716475.63748  20809967.56548
  23713422.878 4  -2433348.938 4  -1843447.02048  23713423.21448
  22279545.581 6  -2493838.484 6  -1902839.72748  22279543.01148
  23339975.167 6  -2893261.270 6  -2188103.18446  23339971.03846
  21299984.355 6  -2172770.379 6  -1680631.56649  21299985.08549
 20  5 16  5 14 58.9990000  0  9G01G03G07G08G11G17G22G28G30         -0.000155975
  19779101.667 7  -1611379.293 7  -1236244.69549  19779103.69449
  22998287.862 5  -2933174.086 5  -2236155.18048  22998290.94448
  20570421.714 6  -1361062.367 6  -1035575.77349  20570420.48049
  22725824.120 5   -962276.578 5   -740113.23047  22725827.17547
  20809574.394 6   -943021.223 6   -718095.41048  20809571.93348
  23712374.245 4  -2438860.398 4  -1847741.66848  23712374.34348
  22278485.511 6  -2499411.367 6  -1907182.23848  22278482.64748
  23338718.730 6  -2899860.813 6  -2193245.68446  23338714.86246
  21299046.612 6  -2177697.293 6  -1684470.72749  21299047.56249
 20  5 16  5 14 59.9990000  0  9G01G03G07G08G11G17G22G28G30         -0.000158564
  19778441.526 7  -1614851.180 7  -1238950.06349  19778442.99149
  22996993.315 5  -2939972.211 5  -2241452.41848  22996997.51148
  20569861.394 6  -1364006.746 6  -1037870.09849  20569859.98049
  22725404.050 5   -964486.438 5   -741835.19547  22725406.31547
  20809178.870 6   -945099.633 6   -719714.95348  20809176.28848
  23711326.417 4  -2444371.660 4  -1852036.16048  23711326.09748
  22277425.065 6  -2504983.883 6  -1911524.46548  22277422.30448
  23337462.886 6  -2906460.406 6  -2198388.21546  23337459.23346
  21298109.214 6  -2182623.602 6  -1688309.40249  21298110.47249
 20  5 16  5 15  0.9990000  0  9G01G03G07G08G11G17G22G28G30         -0.000161150
  19777780.714 7  -1618322.422 7  -1241654.92249  19777782.44849
  22995700.058 5  -2946770.234 5  -2246749.57448  22995704.09748
  20569301.261 6  -1366950.543 6  -1040163.96149  20569300.11649
  22724983.573 5   -966696.410 5   -743557.25447  22724985.91347
  20808783.284 6   -947177.793 6   -721334.30148  20808781.11248
  23710277.112 4  -2449882.922 4  -1856330.64848  23710277.07748
  22276364.558 6  -2510556.039 6  -1915866.40248  22276362.00348
  23336207.480 5  -2913060.125 5  -2203530.85946  23336203.32346
  21297172.120 6  -2187549.293 6  -1692147.60949  21297173.10849
 20  5 16  5 15  1.9990000  0  9G01G03G07G08G11G17G22G28G30         -0.000163738
  19777120.308 7  -1621793.031 7  -1244359.28949  19777122.14749
  22994406.784 5  -2953568.227 5  -2252046.70748  22994410.51548
  20568741.183 6  -1369893.723 6  -1042457.35249  20568740.05849
  22724562.651 5   -968906.418 5   -745279.34047  22724565.02647
  20808388.058 7   -949255.703 7   -722953.45748  20808385.33148
  23709228.550 4  -2455394.016 4  -1860625.00448  23709228.61248
  22275304.378 6  -2516127.832 6  -1920208.05548  22275301.97248
  23334951.112 5  -2919659.918 5  -2208673.55546  23334947.37446
  21296235.105 6  -2192474.383 6  -1695985.34449  21296235.99949
 20  5 16  5 15  2.9990000  0  9G01G03G07G08G11G17G22G28G30         -0.000166325
  19776460.261 7  -1625262.988 7  -1247063.15649  19776461.59349
  22993112.933 5  -2960366.109 5  -2257343.75848  22993116.48748
  20568181.019 6  -1372836.316 6  -1044750.28149  20568179.98749
  22724141.940 5   -971116.488 5   -747001.46947  22724144.45247
  20807992.698 7   -951333.336 7   -724572.38748  20807989.75748
  23708179.565 4  -2460905.000 4  -1864919.27348  23708179.98748
  22274244.167 6  -2521699.242 6  -1924549.40648  22274241.41748
  23333695.261 6  -2926259.770 6  -2213816.28946  23333691.24946
  21295297.628 6  -2197398.863 6  -1699822.59849  21295298.75349
 20  5 16  5 15  3.9990000  0  9G01G03G07G08G11G17G22G28G30         -0.000168911
  19775799.808 7  -1628732.277 7  -1249766.49649  19775801.06949
  22991819.933 5  -2967163.949 5  -2262640.77048  22991822.92948
  20567621.706 6  -1375778.301 6  -1047042.73849  20567620.11249
  22723721.808 5   -973326.582 5   -748723.61747  22723724.08947
  20807597.206 7   -953410.703 7   -726191.10948  20807594.47248
  23707131.089 4  -2466415.844 4  -1869213.43448  23707131.28448
  22273183.980 6  -2527270.281 6  -1928890.48448  22273181.51948
  23332439.339 5  -2932859.738 5  -2218959.12946  23332435.40546
  21294360.675 6  -2202322.711 6  -1703659.35949  21294361.72249
 20  5 16  5 15  4.9990000  0  9G01G03G07G08G11G17G22G28G30         -0.000171499
  19775139.800 7  -1632200.918 7  -1252469.33649  19775141.56249
  22990526.042 5  -2973961.684 5  -2267937.70348  22990529.13648
  20567061.495 6  -1378719.680 6  -1049334.72749  20567060.49549
  22723301.003 5   -975536.730 5   -750445.81347  22723303.76947
  20807202.065 7   -955487.801 7   -727809.62948  20807199.40148
  23706082.659 4  -2471926.539 4  -1873507.48448  23706083.01948
  22272123.815 6  -2532840.938 6  -1933231.25448  22272121.40948
  23331183.159 5  -2939459.738 5  -2224101.99646  23331179.73346
  21293423.847 6  -2207245.984 6  -1707495.68449  21293425.28849
 20  5 16  5 15  5.9990000  0  9G01G03G07G08G11G17G22G28G30         -0.000174086
  19774479.956 7  -1635668.973 7  -1255171.71549  19774481.57749
  22989232.495 5  -2980759.426 5  -2273234.63748  22989235.61648
  20566502.011 6  -1381660.523 6  -1051626.29349  20566500.68349
  22722880.917 5   -977746.988 5   -752168.09447  22722882.98747
  20806806.894 7   -957564.703 7   -729427.99648  20806804.02248
  23705033.370 4  -2477437.262 4  -1877801.55148  23705034.12848
  22271064.159 6  -2538411.309 6  -1937571.80148  22271061.23348
  23329927.605 5  -2946059.941 5  -2229245.00446  23329923.64446
  21292486.706 6  -2212168.668 6  -1711331.53949  21292488.39749
 20  5 16  5 15  6.9990000  0  9G01G03G07G08G11G17G22G28G30         -0.000176674
  19773819.776 7  -1639136.426 7  -1257873.62549  19773821.53849
  22987938.855 5  -2987557.121 5  -2278531.53948  22987942.21048
  20565942.480 6  -1384600.762 6  -1053917.38749  20565941.38649
  22722459.964 5   -979957.328 5   -753890.43847  22722462.17547
  20806411.776 6   -959641.363 6   -731046.17248  20806409.08948
  23703985.050 4  -2482947.867 4  -1882095.52348  23703985.73048
  22270003.730 6  -2543981.305 6  -1941912.05948  22270001.64048
  23328671.464 5  -2952660.219 5  -2234388.07446  23328667.73346
  21291550.331 6  -2217090.777 6  -1715166.94549  21291551.37049
 20  5 16  5 15  7.9990000  0  9G01G03G07G08G11G17G22G28G30         -0.000179260
  19773160.214 7  -1642603.234 7  -1260575.03549  19773161.84749
  22986644.995 5  -2994354.734 5  -2283828.37548  22986648.81248
  20565382.823 6  -1387540.445 6  -1056208.04749  20565381.75749
  22722039.253 5   -982167.727 5   -755612.82847  22722041.89047
  20806016.659 6   -961717.773 6   -732664.15648  20806014.21048
  23702936.581 4  -2488458.336 4  -1886389.39148  23702936.98348
  22268943.948 6  -2549550.953 6  -1946252.05148  22268941.49948
  23327415.362 5  -2959260.598 5  -2239531.22347  23327411.74547
  21290613.831 6  -2222012.320 6  -1719001.91849  21290615.10549
 20  5 16  5 15  8.9990000  0  9G01G03G07G08G11G17G22G28G30         -0.000181849
  19772500.651 7  -1646069.410 7  -1263275.94549  19772502.48749
  22985351.894 5  -3001152.305 5  -2289125.18048  22985355.13648
  20564823.651 6  -1390479.527 6  -1058498.24649  20564822.31549
  22721618.792 5   -984378.184 5   -757335.26247  22721621.26147
  20805621.175 6   -963793.930 6   -734281.94148  20805618.78448
  23701888.565 5  -2493968.727 5  -1890683.20348  23701888.42148
  22267884.222 6  -2555120.238 6  -1950591.75048  22267881.75348
  23326159.800 5  -2965861.063 5  -2244674.43847  23326155.86247
  21289677.355 6  -2226933.219 6  -1722836.37949  21289678.35549
 20  5 16  5 15  9.9990000  0  9G01G03G07G08G11G17G22G28G30         -0.000184435
  19771840.972 7  -1649535.016 7  -1265976.42249  19771842.97649
  22984057.925 5  -3007949.875 5  -2294421.97748  22984061.80448
  20564264.456 6  -1393418.078 6  -1060788.02749  20564263.50749
  22721197.995 5   -986588.746 5   -759057.77347  22721200.66747
  20805226.378 6   -965869.883 6   -735899.57048  20805223.92948
  23700839.159 4  -2499479.027 4  -1894976.94148  23700840.19048
  22266824.542 6  -2560689.215 6  -1954931.20748  22266822.04248
  23324903.401 5  -2972461.688 5  -2249817.77747  23324899.67147
  21288741.120 6  -2231853.605 6  -1726670.44949  21288742.26549
 20  5 16  5 15 10.9990000  0  9G01G03G07G08G11G17G22G28G30         -0.000187023
  19771181.847 7  -1652999.984 7  -1268676.39549  19771183.34349
  22982764.511 5  -3014747.379 5  -2299718.73048  22982767.81548
  20563705.644 6  -1396356.031 6  -1063077.34049  20563704.05849
  22720777.042 5   -988799.375 5   -760780.34847  22720779.49147
  20804831.612 6   -967945.578 6   -737516.99648  20804828.94448
  23699790.644 4  -2504989.254 4  -1899270.62948  23699791.53448
  22265764.862 6  -2566257.844 6  -1959270.39848  22265762.12848
  23323646.761 6  -2979062.402 6  -2254961.19946  23323643.49146
  21287804.878 6  -2236773.371 6  -1730504.03149  21287806.18749
 20  5 16  5 15 11.9990000  0  9G01G03G07G08G11G17G22G28G30         -0.000189610
  19770522.386 7  -1656464.273 7  -1271375.83649  19770524.31949
  22981470.753 5  -3021544.777 5  -2305015.39848  22981474.20248
  20563146.722 6  -1399293.340 6  -1065366.16049  20563145.35149
  22720356.659 5   -991009.988 5   -762502.89847  22720358.96847
  20804436.339 6   -970020.992 6   -739134.19548  20804434.09348
  23698741.831 4  -2510499.277 4  -1903564.15648  23698742.87448
  22264705.269 6  -2571826.070 6  -1963609.28148  22264702.59348
  23322391.128 5  -2985663.141 5  -2260104.62947  23322387.74547
  21286869.042 6  -2241692.492 6  -1734337.11749  21286870.05449
 20  5 16  5 15 12.9990000  0  9G01G03G07G08G11G17G22G28G30         -0.000192196
  19769863.417 7  -1659927.961 7  -1274074.81649  19769865.22249
  22980177.214 5  -3028342.172 5  -2310312.06648  22980181.27648
  20562587.745 6  -1402230.125 6  -1067654.56349  20562586.08549
  22719936.198 5   -993220.723 5   -764225.55148  22719937.97248
  20804041.308 6   -972096.184 6   -740751.22748  20804038.96448
  23697693.401 4  -2516009.305 4  -1907857.69148  23697694.46448
  22263645.862 6  -2577393.949 6  -1967947.88348  22263643.42148
  23321134.730 6  -2992264.066 6  -2265248.20747  23321131.44047
  21285932.698 6  -2246611.043 6  -1738169.75449  21285934.21049
 20  5 16  5 15 13.9990000  0  9G01G03G07G08G11G17G22G28G30         -0.000194784
  19769204.526 7  -1663390.988 7  -1276773.28549  19769206.07349
  22978884.190 5  -3035139.430 5  -2315608.62948  22978887.30448
  20562029.120 6  -1405166.289 6  -1069942.48849  20562027.64049
  22719515.409 5   -995431.461 5   -765948.20348  22719517.76148
  20803646.534 6   -974171.082 6   -742368.03548  20803643.97648
  23696645.659 4  -2521519.168 4  -1912151.09048  23696646.38248
  22262586.206 6  -2582961.441 6  -1972286.19548  22262583.89048
  23319878.612 5  -2998865.027 5  -2270391.80946  23319875.69846
  21284997.261 6  -2251529.016 6  -1742001.94549  21284997.89049
 20  5 16  5 15 14.9990000  0  9G01G03G07G08G11G17G22G28G30         -0.000197372
  19768545.425 7  -1666853.457 7  -1279471.30549  19768547.31249
  22977590.456 5  -3041936.742 5  -2320905.23048  22977593.96048
  20561470.448 6  -1408101.930 6  -1072229.99649  20561468.92949
  22719095.183 5   -997642.332 5   -767670.96947  22719097.14047
  20803251.737 6   -976245.816 6   -743984.71548  20803249.48048
  23695597.026 4  -2527028.996 4  -1916444.45748  23695597.41748
  22261527.230 6  -2588528.688 6  -1976624.30548  22261524.50748
  23318622.323 5  -3005466.148 5  -2275535.54746  23318619.36646
  21284061.448 6  -2256446.430 6  -1745833.69549  21284062.44049
 20  5 16  5 15 15.9990000  0  9G01G03G07G08G11G17G22G28G30         -0.000199959
  19767886.792 7  -1670315.332 7  -1282168.87149  19767888.58949
  22976296.925 5  -3048734.016 5  -2326201.80548  22976300.71848
  20560911.730 6  -1411037.027 6  -1074517.09049  20560910.49549
  22718674.589 5   -999853.309 5   -769393.81348  22718676.08948
  20802856.956 6   -978320.328 6   -745601.21948  20802854.34748
  23694547.901 4  -2532538.766 4  -1920737.78548  23694548.72648
  22260467.581 6  -2594095.590 6  -1980962.14848  22260465.04248
  23317366.112 5  -3012067.406 5  -2280679.38746  23317363.00346
  21283125.417 6  -2261363.285 6  -1749665.00849  21283126.52249
 20  5 16  5 15 16.9990000  0  9G01G03G07G08G11G17G22G28G30         -0.000202547
  19767228.167 7  -1673776.598 7  -1284865.95749  19767229.83549
  22975003.675 5  -3055531.223 5  -2331498.32848  22975007.14048
  20560353.542 6  -1413971.539 6  -1076803.72749  20560351.79649
  22718253.511 6  -1002064.371 6   -771116.71548  22718255.76948
  20802462.331 6   -980394.625 6   -747217.55148  20802459.75748
  23693499.698 4  -2538048.449 4  -1925031.04348  23693500.61648
  22259408.347 6  -2599662.145 6  -1985299.72348  22259406.12048
  23316109.550 5  -3018668.801 5  -2285823.32846  23316106.88646
  21282189.956 6  -2266279.574 6  -1753495.88349  21282191.06249
 20  5 16  5 15 17.9990000  0  9G01G03G07G08G11G17G22G28G30         -0.000205133
  19766569.136 7  -1677237.250 7  -1287562.57049  19766571.33149
  22973710.347 5  -3062328.434 5  -2336794.84848  22973713.92948
  20559795.065 6  -1416905.500 6  -1079089.92249  20559793.82749
  22717832.597 6  -1004275.508 6   -772839.67648  22717834.66748
  20802067.620 6   -982468.688 6   -748833.69948  20802065.27248
  23692450.847 4  -2543558.023 4  -1929324.21948  23692452.15548
  22258349.214 6  -2605228.352 6  -1989637.02348  22258347.03848
  23314853.487 5  -3025270.301 5  -2290967.34846  23314851.19046
  21281254.933 6  -2271195.266 6  -1757326.29349  21281256.36649
 20  5 16  5 15 18.9990000  0  9G01G03G07G08G11G17G22G28G30         -0.000207722
  19765910.940 7  -1680697.246 7  -1290258.67249  19765912.65949
  22972416.589 5  -3069125.520 5  -2342091.27748  22972420.15148
  20559237.011 6  -1419838.832 6  -1081375.64549  20559235.53049
  22717412.183 6  -1006486.680 6   -774562.66848  22717414.05848
  20801672.839 6   -984542.480 6   -750449.63748  20801670.80048
  23691402.659 4  -2549067.480 4  -1933617.30548  23691403.42148
  22257290.292 6  -2610794.203 6  -1993974.05148  22257287.48348
  23313597.464 5  -3031871.863 5  -2296111.41046  23313594.10546
  21280319.425 6  -2276110.363 6  -1761156.24249  21280320.51149
 20  5 16  5 15 19.9990000  0  9G01G03G07G08G11G17G22G28G30         -0.000210308
  19765252.714 7  -1684156.598 7  -1292954.27349  19765254.31949
  22971123.144 5  -3075922.594 5  -2347387.69548  22971126.42548
  20558679.105 6  -1422771.574 6  -1083660.89549  20558677.29249
  22716991.073 6  -1008697.926 6   -776285.71947  22716993.19847
  20801278.480 6   -986616.008 6   -752065.37948  20801276.01548
  23690354.776 4  -2554576.844 4  -1937910.31648  23690354.97648
  22256231.011 6  -2616359.672 6  -1998310.78148  22256228.27248
  23312341.245 5  -3038473.527 5  -2301255.56647  23312337.89747
  21279384.019 6  -2281024.828 6  -1764985.69549  21279385.04649
 20  5 16  5 15 20.9990000  0  9G01G03G07G08G11G17G22G28G30         -0.000212896
  19764594.870 7  -1687615.344 7  -1295649.39549  19764596.50749
  22969829.862 5  -3082719.563 5  -2352684.02048  22969832.97248
  20558120.956 6  -1425703.746 6  -1085945.70749  20558119.34349
  22716570.370 5  -1010909.211 5   -778008.79748  22716572.31948
  20800883.815 6   -988689.289 6   -753680.92648  20800881.57348
  23689305.636 4  -2560086.137 4  -1942203.27348  23689306.66348
  22255172.206 6  -2621924.789 6  -2002647.24248  22255169.35848
  23311085.019 5  -3045075.266 5  -2306399.77746  23311081.66746
  21278449.253 6  -2285938.699 6  -1768814.68449  21278450.26149
 20  5 16  5 15 21.9990000  0  9G01G03G07G08G11G17G22G28G30         -0.000215485
  19763936.308 7  -1691073.441 7  -1298344.01649  19763938.33149
  22968536.058 5  -3089516.504 5  -2357980.34048  22968539.61648
  20557562.784 6  -1428635.352 6  -1088230.07049  20557561.58549
  22716149.472 5  -1013120.582 5   -779731.94148  22716151.35848
  20800489.620 6   -990762.344 6   -755296.28948  20800486.78848
  23688257.230 4  -2565595.305 4  -1946496.13348  23688258.28048
  22254113.183 6  -2627489.559 6  -2006983.42248  22254111.19448
  23309829.120 5  -3051677.141 5  -2311544.09846  23309825.23346
  21277514.011 6  -2290851.988 6  -1772643.21949  21277515.05449
