     2.10           OBSERVATION DATA    GPS(GPS)            RINEX VERSION / TYPE
cnvtToRINEX 3.07.0  convertToRINEX OPR  19-May-20 12:29 UTC PGM / RUN BY / DATE 
----------------------------------------------------------- COMMENT             
GG07                                                        MARKER NAME         
GG07                                                        MARKER NUMBER       
GNSS Observer       Trimble                                 OBSERVER / AGENCY   
0220247377          5700                2.32                REC # / TYPE / VERS 
                    UNKNOWN EXT                             ANT # / TYPE        
 -3050080.3065  4928158.9884  2654054.2231                  APPROX POSITION XYZ 
        0.0000        0.0000        0.0000                  ANTENNA: DELTA H/E/N
     1     1     0                                          WAVELENGTH FACT L1/2
     4    C1    L1    L2    P2                              # / TYPES OF OBSERV 
  2020     5    16     1    49   26.0000000     GPS         TIME OF FIRST OBS   
  2020     5    16     3     9    7.0000000     GPS         TIME OF LAST OBS    
     0                                                      RCV CLOCK OFFS APPL 
    18                                                      LEAP SECONDS        
    10                                                      # OF SATELLITES     
   G01  2568  2568  2568  2568                              PRN / # OF OBS      
   G04  4782  4782  4782  4782                              PRN / # OF OBS      
   G07  3439  3439  3439  3439                              PRN / # OF OBS      
   G08  4782  4782  4782  4782                              PRN / # OF OBS      
   G09  4782  4782  4782  4782                              PRN / # OF OBS      
   G11  4782  4782  4782  4782                              PRN / # OF OBS      
   G16  4782  4782  4782  4782                              PRN / # OF OBS      
   G26  4017  4017  4016  4016                              PRN / # OF OBS      
   G27  4764  4764  4764  4764                              PRN / # OF OBS      
   G31  1647  1647  1647  1647                              PRN / # OF OBS      
CARRIER PHASE MEASUREMENTS: PHASE SHIFTS REMOVED            COMMENT             
                                                            END OF HEADER       
 20  5 16  1 49 26.0000000  0  7G04G08G09G11G16G26G31               -0.000422661
  21368468.28116    -54992.45716    -25691.22358  21368467.16458
  20425732.92217    -73879.05517    -20433.14159  20425734.47759
  22766746.57816    -90884.32816    -41053.12159  22766746.56359
  22935114.20316   -117808.11716    -65417.43857  22935111.98057
  21496069.60916    -37436.46916     -9911.20358  21496067.05558
  22954800.81315    -26872.34015                
  23647176.03916    -17701.00816     -5622.93857  23647175.24657
 20  5 16  1 49 27.0000000  0  7G04G08G09G11G16G26G31               -0.000425220
  21367862.898 6    -58171.254 6    -28168.20748  21367862.60948
  20424734.461 7    -79126.109 7    -24521.77349  20424734.57049
  22765780.555 6    -95958.625 6    -45007.12949  22765781.15249
  22933710.336 6   -125184.145 6    -71164.98847  22933708.48047
  21495542.570 6    -40205.598 6    -12068.95348  21495540.28548
  22954361.805 5    -29178.258 5     -1086.33657  22954362.84457
  23646901.047 5    -19146.844 5     -6749.56647  23646900.15247
 20  5 16  1 49 28.0000000  0  7G04G08G09G11G16G26G31               -0.000427780
  21367257.641 6    -61351.527 6    -30646.34448  21367256.91448
  20423735.547 7    -84374.629 7    -28611.53549  20423736.12549
  22764814.820 6   -101034.355 6    -48962.25049  22764815.31349
  22932306.250 6   -132562.070 6    -76914.02047  22932304.52347
  21495014.977 6    -42976.715 6    -14228.25848  21495012.42648
  22953922.445 5    -31486.195 5     -2884.74247  22953924.01247
  23646625.289 5    -20594.418 5     -7877.55147  23646624.38747
 20  5 16  1 49 29.0000000  0  7G04G08G09G11G16G26G31               -0.000430342
  21366651.953 6    -64533.180 6    -33125.55548  21366651.71148
  20422736.453 7    -89624.605 7    -32702.43449  20422736.92649
  22763848.289 6   -106111.492 6    -52918.45749  22763849.20349
  22930901.680 6   -139941.863 6    -82664.50447  22930900.15247
  21494487.352 6    -45749.777 6    -16389.09448  21494484.86748
  22953482.695 5    -33796.117 5     -4684.68847  22953484.04747
  23646350.305 5    -22043.754 5     -9006.91847  23646349.35247
 20  5 16  1 49 30.0000000  0  7G04G08G09G11G16G26G31               -0.000432903
  21366046.570 6    -67716.102 6    -35605.75448  21366045.71548
  20421737.117 7    -94875.824 7    -36794.28949  20421737.96549
  22762882.414 6   -111189.883 6    -56875.64149  22762882.58249
  22929497.094 6   -147323.328 6    -88416.30147  22929495.60947
  21493959.305 6    -48524.617 6    -18551.30948  21493957.03948
  22953042.625 5    -36107.855 5     -6486.04347  22953044.74647
  23646073.797 5    -23494.648 5    -10137.48847  23646072.97347
 20  5 16  1 49 31.0000000  0  7G04G08G09G11G16G26G31               -0.000435467
  21365440.781 6    -70900.250 6    -38086.91048  21365439.98448
  20420737.477 7   -100128.301 7    -40887.11749  20420737.79349
  22761915.703 6   -116269.512 6    -60833.78549  22761916.21949
  22928092.016 6   -154706.461 6    -94169.39847  22928090.41847
  21493431.125 6    -51301.191 6    -20714.87548  21493428.76248
  22952602.836 5    -38421.410 5     -8288.80947  22952604.46947
  23645796.992 5    -24947.094 5    -11269.25847  23645796.67247
 20  5 16  1 49 32.0000000  0  7G04G08G09G11G16G26G31               -0.000438032
  21364834.313 6    -74085.512 6    -40568.93448  21364833.95348
  20419738.086 7   -105381.902 7    -44980.83649  20419738.94549
  22760948.555 6   -121350.223 6    -64792.77749  22760949.30949
  22926686.492 6   -162091.152 6    -99923.69547  22926685.19547
  21492902.406 6    -54079.387 6    -22879.70748  21492899.73848
  22952162.164 5    -40736.641 5    -10092.88347  22952163.93447
  23645520.352 5    -26400.941 5    -12402.13747  23645520.03947
 20  5 16  1 49 33.0000000  0  7G04G08G09G11G16G26G31               -0.000440598
  21364228.242 6    -77271.805 6    -43051.76648  21364227.65648
  20418737.844 7   -110636.543 7    -49075.35549  20418738.28549
  22759981.930 6   -126431.957 6    -68752.57049  22759982.30949
  22925280.945 6   -169477.297 6   -105679.12147  22925279.48047
  21492373.641 6    -56859.180 6    -25045.77348  21492370.98848
  22951721.008 5    -43053.461 5    -11898.19147  22951722.95747
  23645243.469 5    -27856.191 5    -13536.10947  23645243.01647
 20  5 16  1 49 34.0000000  0  7G04G08G09G11G16G26G31               -0.000443165
  21363621.609 6    -80459.082 6    -45535.35548  21363621.33648
  20417737.742 7   -115892.180 7    -53170.65249  20417738.18449
  22759014.719 6   -131514.727 6    -72713.17649  22759014.94949
  22923875.453 6   -176864.836 6   -111435.63747  22923873.57847
  21491844.500 6    -59640.473 6    -27213.01248  21491841.27748
  22951279.469 5    -45371.867 5    -13704.75047  22951281.73847
  23644966.547 5    -29312.727 5    -14671.07847  23644965.94947
 20  5 16  1 49 35.0000000  0  7G04G08G09G11G16G26G31               -0.000445732
  21363014.906 6    -83647.383 6    -48019.74648  21363014.24248
  20416738.180 7   -121148.836 7    -57266.75449  20416738.24649
  22758047.250 6   -136598.496 6    -76674.55549  22758047.53149
  22922469.352 6   -184253.906 6   -117193.35547  22922467.39547
  21491315.016 6    -62423.297 6    -29381.45748  21491312.17248
  22950838.586 5    -47691.859 5    -15512.53547  22950840.52747
  23644689.320 5    -30770.617 5    -15807.10547  23644689.12147
 20  5 16  1 49 36.0000000  0  7G04G08G09G11G16G26G31               -0.000448301
  21362407.906 6    -86836.531 6    -50504.79748  21362407.48048
  20415737.320 7   -126406.363 7    -61363.53149  20415737.85549
  22757080.016 6   -141683.117 6    -80636.59049  22757079.89849
  22921062.922 6   -191644.199 6   -122952.02047  22921061.20747
  21490785.344 6    -65207.520 6    -31550.97748  21490782.35248
  22950396.773 5    -50013.277 5    -17321.44147  22950398.66447
  23644411.523 5    -32229.648 5    -16944.01247  23644410.73047
 20  5 16  1 49 37.0000000  0  7G04G08G09G11G16G26G31               -0.000450871
  21361801.000 6    -90026.586 6    -52990.55948  21361800.33648
  20414736.500 7   -131664.805 7    -65461.01649  20414736.77349
  22756111.648 6   -146768.602 6    -84599.30549  22756112.22749
  22919655.883 6   -199035.828 6   -128711.73047  22919654.61747
  21490255.133 6    -67993.156 6    -33721.60548  21490252.13748
  22949954.922 5    -52336.152 5    -19131.48047  22949956.89147
  23644133.969 5    -33689.898 5    -18081.87147  23644132.77047
 20  5 16  1 49 38.0000000  0  7G04G08G09G11G16G26G31               -0.000453442
  21361193.859 6    -93217.422 6    -55476.92648  21361193.12948
  20413735.828 7   -136924.047 7    -69559.12949  20413736.26649
  22755143.852 6   -151854.875 6    -88562.63349  22755144.27749
  22918249.578 6   -206428.684 6   -134472.39547  22918247.61347
  21489724.414 6    -70780.078 6    -35893.23048  21489722.19948
  22949512.313 5    -54660.395 5    -20942.58647  22949514.30147
  23643855.273 5    -35151.277 5    -19220.61347  23643854.93047
 20  5 16  1 49 39.0000000  0  7G04G08G09G11G16G26G31               -0.000456011
  21360586.531 6    -96408.957 6    -57963.83648  21360585.92248
  20412734.711 7   -142184.023 7    -73657.81349  20412735.66849
  22754175.711 6   -156941.863 6    -92526.52049  22754175.77749
  22916842.398 6   -213822.664 6   -140233.94147  22916841.02047
  21489194.234 6    -73568.242 6    -38065.82848  21489191.41048
  22949069.992 5    -56985.906 5    -22754.67647  22949071.99247
  23643577.172 5    -36613.664 5    -20360.14147  23643576.78547
 20  5 16  1 49 40.0000000  0  7G04G08G09G11G16G26G31               -0.000458584
  21359979.172 6    -99601.230 6    -60451.32448  21359978.13348
  20411733.719 7   -147444.742 7    -77757.07449  20411734.21549
  22753207.813 6   -162029.613 6    -96491.00849  22753207.82449
  22915435.672 6   -221217.832 6   -145996.41447  22915433.59847
  21488663.109 6    -76357.680 6    -40239.42248  21488660.59048
  22948626.688 5    -59312.746 5    -24567.79347  22948629.43447
  23643298.492 5    -38077.133 5    -21500.51247  23643298.19547
 20  5 16  1 49 41.0000000  0  7G04G08G09G11G16G26G31               -0.000461157
  21359371.594 6   -102794.094 6    -62939.26648  21359370.45348
  20410732.406 7   -152706.105 7    -81856.84049  20410733.12149
  22752239.672 6   -167117.895 6   -100455.90649  22752239.82049
  22914027.836 6   -228614.020 6   -151759.68447  22914026.33247
  21488132.172 6    -79148.219 6    -42413.87148  21488129.56348
  22948183.961 5    -61640.738 5    -26381.81347  22948186.12947
  23643019.555 5    -39541.473 5    -22641.56347  23643019.42647
 20  5 16  1 49 42.0000000  0  7G04G08G09G11G16G26G31               -0.000463730
  21358763.672 6   -105987.535 6    -65427.66448  21358763.19948
  20409731.172 7   -157968.012 7    -85957.02349  20409731.74649
  22751271.531 6   -172206.777 6   -104421.27049  22751271.35249
  22912620.273 6   -236011.195 6   -157523.71147  22912618.48447
  21487600.992 6    -81939.836 6    -44589.15648  21487598.17648
  22947740.719 5    -63969.859 5    -28196.71547  22947742.81647
  23642741.141 5    -41006.723 5    -23783.31347  23642740.57847
 20  5 16  1 49 43.0000000  0  7G04G08G09G11G16G26G31               -0.000466305
  21358155.883 6   -109181.523 6    -67916.48048  21358155.22348
  20408729.641 7   -163230.516 7    -90057.67649  20408730.41849
  22750303.000 6   -177296.203 6   -108387.05149  22750303.30149
  22911212.711 6   -243409.363 6   -163288.50847  22911210.86347
  21487069.359 6    -84732.539 6    -46765.28548  21487067.30948
  22947297.563 5    -66300.113 5    -30012.50447  22947299.44547
  23642462.180 5    -42472.813 5    -24925.72747  23642462.14147
 20  5 16  1 49 44.0000000  0  8G04G08G09G11G16G26G27G31            -0.000468882
  21357547.656 6   -112375.918 6    -70405.62148  21357547.59848
  20407728.195 7   -168493.422 7    -94158.64149  20407728.77749
  22749334.344 6   -182386.043 6   -112353.16049  22749334.59849
  22909804.445 6   -250808.383 6   -169053.98047  22909802.89547
  21486537.930 6    -87526.191 6    -48942.15648  21486534.86348
  22946853.563 5    -68631.344 5    -31829.05147  22946855.69147
  20054687.21117   -114352.86317    -68157.01659  20054686.73459
  23642182.977 5    -43939.656 5    -26068.72747  23642182.65247
 20  5 16  1 49 45.0000000  0  8G04G08G09G11G16G26G27G31            -0.000471457
  21356939.695 6   -115570.875 6    -72895.20348  21356939.39148
  20406726.859 7   -173756.918 7    -98260.06649  20406727.02749
  22748366.094 6   -187476.434 6   -116319.69949  22748365.51249
  22908396.320 6   -258208.406 6   -174820.23047  22908394.48847
  21486005.695 6    -90320.926 6    -51119.87148  21486003.43048
  22946410.375 5    -70963.734 5    -33646.50447  22946411.86347
  20054093.977 7   -117468.137 7    -70584.50449  20054093.77349
  23641903.539 5    -45407.375 5    -27212.41047  23641903.28547
 20  5 16  1 49 46.0000000  0  8G04G08G09G11G16G26G27G31            -0.000474033
  21356332.133 6   -118766.238 6    -75385.09448  21356331.30948
  20405725.188 7   -179020.828 7   -102361.81649  20405725.67649
  22747397.188 6   -192567.246 6   -120286.56649  22747397.10949
  22906988.281 6   -265609.273 6   -180587.15247  22906986.02747
  21485473.859 6    -93116.602 6    -53298.32048  21485471.35248
  22945965.766 5    -73297.105 5    -35464.71547  22945968.02747
  20053501.281 7   -120583.848 7    -73012.33249  20053501.21949
  23641624.453 5    -46875.844 5    -28356.67647  23641623.84447
 20  5 16  1 49 47.0000000  0  8G04G08G09G11G16G26G27G31            -0.000476610
  21355724.031 6   -121962.023 6    -77875.32048  21355723.66048
  20404723.234 7   -184285.121 7   -106463.85949  20404723.56349
  22746428.391 6   -197658.430 6   -124253.72749  22746428.04749
  22905579.695 6   -273010.945 6   -186354.69147  22905577.95347
  21484941.844 6    -95913.184 6    -55477.47348  21484939.06648
  22945521.789 5    -75631.414 5    -37283.65647  22945523.79347
  20052908.320 7   -123699.949 7    -75440.46149  20052908.39549
  23641344.672 5    -48345.000 5    -29501.47347  23641344.56347
 20  5 16  1 49 48.0000000  0  8G04G08G09G11G16G26G27G31            -0.000479187
  21355115.602 6   -125158.098 6    -80365.77048  21355114.86748
  20403721.500 7   -189549.762 7   -110566.18449  20403722.07449
  22745459.211 6   -202749.918 6   -128221.12549  22745459.14549
  22904170.938 6   -280413.363 6   -192122.80547  22904169.25847
  21484409.648 6    -98710.590 6    -57657.27348  21484406.98048
  22945077.234 5    -77966.645 5    -39103.32047  22945079.68847
  20052315.117 7   -126816.383 7    -77868.84849  20052315.28149
  23641065.570 5    -49814.793 5    -30646.77047  23641064.61347
 20  5 16  1 49 49.0000000  0  8G04G08G09G11G16G26G27G31            -0.000481766
  21354507.547 6   -128354.422 6    -82856.41048  21354506.51648
  20402719.414 7   -194814.703 7   -114668.73449  20402720.14849
  22744490.320 6   -207841.688 6   -132188.73849  22744490.48449
  22902761.680 6   -287816.492 6   -197891.47747  22902760.23847
  21483876.688 6   -101508.785 6    -59837.68448  21483874.14548
  22944633.445 5    -80302.655 5    -40923.58247  22944635.16047
  20051722.172 7   -129933.082 7    -80297.44949  20051722.41049
  23640785.633 5    -51285.188 5    -31792.53947  23640785.23047
 20  5 16  1 49 50.0000000  0  8G04G08G09G11G16G26G27G31            -0.000484343
  21353899.164 6   -131551.059 6    -85347.29748  21353898.11348
  20401717.602 7   -200079.926 7   -118771.50049  20401717.91449
  22743521.695 6   -212933.727 6   -136156.55949  22743521.64849
  22901353.031 6   -295220.309 6   -203660.68047  22901351.18047
  21483344.570 6   -104307.777 6    -62018.72348  21483341.99248
  22944188.711 5    -82639.555 5    -42744.54747  22944190.76247
  20051129.008 7   -133050.070 7    -82726.27049  20051128.88749
  23640504.719 5    -52756.145 5    -32938.73447  23640504.84047
 20  5 16  1 49 51.0000000  0  8G04G08G09G11G16G26G27G31            -0.000486923
  21353290.508 6   -134747.969 6    -87838.39848  21353290.02748
  20400715.648 7   -205345.484 7   -122874.53149  20400715.88749
  22742552.328 6   -218026.043 6   -140124.59849  22742552.34049
  22899944.070 6   -302624.891 6   -209430.48047  22899942.35547
  21482812.117 6   -107107.598 6    -64200.40248  21482808.81348
  22943743.477 5    -84977.320 5    -44566.18447  22943745.71547
  20050535.906 7   -136167.383 7    -85155.34849  20050535.72349
  23640225.367 5    -54227.750 5    -34085.44147  23640225.25847
 20  5 16  1 49 52.0000000  0  8G04G08G09G11G16G26G27G31            -0.000489502
  21352682.180 6   -137945.137 6    -90329.69548  21352681.43448
  20399713.211 7   -210611.297 7   -126977.76249  20399714.03949
  22741582.930 6   -223118.613 6   -144092.83649  22741583.46149
  22898534.930 6   -310030.105 6   -215200.77347  22898533.30947
  21482278.836 6   -109908.188 6    -66382.68448  21482276.09848
  22943298.594 5    -87315.902 5    -46388.45747  22943300.53947
  20049942.492 7   -139284.922 7    -87584.59849  20049942.46149
  23639945.539 5    -55699.898 5    -35232.58247  23639945.06647
 20  5 16  1 49 53.0000000  0  8G04G08G09G11G16G26G27G31            -0.000492083
  21352073.891 6   -141142.516 6    -92821.16448  21352073.12548
  20398711.375 7   -215877.352 7   -131081.18449  20398711.96949
  22740613.922 6   -228211.371 6   -148061.21949  22740614.06349
  22897125.820 6   -317435.992 6   -220971.60247  22897123.92647
  21481745.633 6   -112709.523 6    -68565.54748  21481742.98048
  22942853.695 5    -89655.289 5    -48211.36347  22942855.49647
  20049349.023 7   -142402.719 7    -90014.04749  20049349.43049
  23639665.266 5    -57172.590 5    -36380.13747  23639664.33647
 20  5 16  1 49 54.0000000  0  8G04G08G09G11G16G26G27G31            -0.000494663
  21351465.266 6   -144340.082 6    -95312.77348  21351464.44548
  20397709.352 7   -221143.605 7   -135184.75849  20397710.10949
  22739644.805 6   -233304.375 6   -152029.78949  22739644.92249
  22895715.984 6   -324842.508 6   -226742.91047  22895714.48847
  21481212.492 6   -115511.563 6    -70748.95748  21481209.87948
  22942407.711 5    -91995.430 5    -50034.85247  22942410.34847
  20048755.820 7   -145520.691 7    -92443.63749  20048755.73449
  23639384.594 5    -58645.793 5    -37528.09047  23639383.82047
 20  5 16  1 49 55.0000000  0  8G04G08G09G11G16G26G27G31            -0.000497244
  21350857.328 6   -147537.848 6    -97804.54748  21350856.20348
  20396706.945 7   -226410.055 7   -139288.48849  20396707.70349
  22738675.664 6   -238397.504 6   -155998.46149  22738675.80949
  22894306.656 6   -332249.629 6   -232514.68847  22894305.02747
  21480678.961 6   -118314.316 6    -72932.92248  21480676.79348
  22941962.391 5    -94336.328 5    -51858.93047  22941964.88747
  20048162.492 7   -148638.879 7    -94873.39549  20048162.48449
  23639104.102 5    -60119.469 5    -38676.41847  23639103.82047
 20  5 16  1 49 56.0000000  0  8G04G08G09G11G16G26G27G31            -0.000499825
  21350248.117 6   -150735.766 6   -100296.43048  21350247.66448
  20395704.984 7   -231676.664 7   -143392.33649  20395705.55149
  22737706.289 6   -243490.824 6   -159967.28149  22737706.69949
  22892897.391 6   -339657.355 6   -238286.94147  22892895.52747
  21480146.164 6   -121117.758 6    -75117.41848  21480142.86348
  22941516.750 5    -96677.953 5    -53683.57447  22941518.94147
  20047569.039 7   -151757.219 7    -97303.27049  20047569.36349
  23638823.859 5    -61593.688 5    -39825.15647  23638823.02747
 20  5 16  1 49 57.0000000  0  8G04G08G09G11G16G26G27G31            -0.000502407
  21349639.656 6   -153933.895 6   -102788.47348  21349638.80148
  20394702.672 7   -236943.527 7   -147496.38749  20394703.14149
  22736737.148 6   -248584.348 6   -163936.26649  22736736.87549
  22891487.375 6   -347065.707 6   -244059.68447  22891485.30147
  21479611.945 6   -123921.914 6    -77302.48048  21479609.28548
  22941070.828 5    -99020.355 5    -55508.82447  22941073.09047
  20046975.695 7   -154875.789 7    -99733.32849  20046975.66049
  23638542.813 5    -63068.395 5    -40974.28147  23638542.16447
 20  5 16  1 49 57.9990000  0  8G04G08G09G11G16G26G27G31             0.000495014
  21349032.011 6   -157128.926 6   -105278.10548  21349031.20648
  20393701.347 7   -242205.211 7   -151596.39849  20393701.97649
  22735768.605 6   -253672.871 6   -167901.34449  22735769.19449
  22890079.003 6   -354467.180 6   -249827.06647  22890077.16747
  21479079.003 6   -126723.898 6    -79485.84048  21479076.12848
  22940625.558 5   -101361.117 5    -57332.80147  22940628.15947
  20046382.659 7   -157991.359 7   -102161.04349  20046382.67949
  23638262.901 5    -64542.070 5    -42122.59847  23638261.98047
 20  5 16  1 49 58.9990000  0  8G04G08G09G11G16G26G27G31             0.000492432
  21348422.909 6   -160327.242 6   -107770.30148  21348422.51948
  20392699.190 7   -247472.262 7   -155700.59849  20392699.57349
  22734799.667 6   -258766.535 6   -171870.44149  22734799.35549
  22888668.940 6   -361876.570 6   -255600.62147  22888667.27247
  21478544.878 6   -129529.293 6    -81671.86348  21478541.95248
  22940179.183 5   -103704.840 5    -59159.07447  22940181.83547
  20045789.401 7   -161110.137 7   -104591.26249  20045789.04649
  23637982.081 5    -66017.582 5    -43272.34847  23637981.16347
 20  5 16  1 49 59.9990000  0  8G04G08G09G11G16G26G27G31             0.000489847
  21347814.339 6   -163525.668 6   -110262.58248  21347814.09348
  20391696.972 7   -252739.434 7   -159804.88349  20391697.27649
  22733829.948 6   -263860.336 6   -175839.63749  22733830.42949
  22887258.378 6   -369286.512 6   -261374.60547  22887257.24547
  21478010.995 6   -132335.301 6    -83858.36348  21478008.31548
  22939734.042 5   -106049.254 5    -60985.89147  22939735.50747
  20045195.894 7   -164229.031 7   -107021.57449  20045195.64449
  23637701.237 5    -67493.527 5    -44422.43847  23637699.92547
 20  5 16  1 50  0.9990000  0  8G04G08G09G11G16G26G27G31             0.000487265
  21347205.886 6   -166724.172 6   -112754.93048  21347205.15548
  20390694.628 7   -258006.734 7   -163909.27749  20390695.12849
  22732861.089 6   -268954.219 6   -179808.89149  22732861.17149
  22885848.495 6   -376696.980 6   -267148.99247  22885846.83547
  21477477.120 6   -135141.949 6    -86045.35948  21477474.35848
  22939287.472 5   -108394.344 5    -62813.23847  22939289.61647
  20044602.245 7   -167348.020 7   -109451.94549  20044601.90949
  23637420.362 5    -68969.930 5    -45572.87547  23637419.01947
 20  5 16  1 50  1.9990000  0  8G04G08G09G11G16G26G27G31             0.000484680
  21346597.245 6   -169922.734 6   -115247.31348  21346596.59348
  20389692.245 7   -263274.059 7   -168013.68449  20389692.53049
  22731891.315 6   -274048.137 6   -183778.18049  22731891.78449
  22884438.409 6   -384107.910 6   -272923.74647  22884436.82747
  21476942.511 6   -137949.148 6    -88232.78948  21476940.01948
  22938841.386 5   -110740.023 5    -64641.03947  22938843.23747
  20044008.597 7   -170467.063 7   -111882.37149  20044008.80849
  23637139.362 5    -70446.660 5    -46723.58247  23637138.17547
 20  5 16  1 50  2.9990000  0  8G04G08G09G11G16G26G27G31             0.000482096
  21345988.511 6   -173121.328 6   -117739.72748  21345987.85548
  20388690.042 7   -268541.449 7   -172118.14549  20388690.28849
  22730921.862 6   -279142.094 6   -187747.50049  22730922.41349
  22883027.714 6   -391519.309 6   -278698.85947  22883026.19847
  21476408.253 6   -140756.895 6    -90420.64548  21476405.72248
  22938394.690 5   -113086.332 5    -66469.33647  22938396.81247
  20043415.519 7   -173586.156 7   -114312.83649  20043415.14049
  23636857.855 5    -71923.746 5    -47874.54747  23636856.62847
 20  5 16  1 50  3.9990000  0  8G04G08G09G11G16G26G27G31             0.000479511
  21345379.620 6   -176319.871 6   -120232.09848  21345379.30048
  20387687.948 7   -273808.820 7   -176222.58649  20387688.08149
  22729952.730 6   -284235.984 6   -191716.76649  22729953.05449
  22881617.862 6   -398931.098 6   -284474.28547  22881615.54647
  21475873.815 6   -143565.137 6    -92608.88748  21475871.13648
  22937948.159 5   -115433.160 5    -68298.03547  22937950.03847
  20042821.792 7   -176705.238 7   -116743.28949  20042821.48749
  23636577.144 5    -73401.102 5    -49025.73847  23636575.74547
 20  5 16  1 50  4.9990000  0  8G04G08G09G11G16G26G27G31             0.000476925
  21344771.511 6   -179518.438 6   -122724.48448  21344770.70248
  20386685.097 7   -279076.219 7   -180327.05549  20386685.50749
  22728983.448 6   -289329.906 6   -195686.05149  22728983.76149
  22880207.230 6   -406343.336 6   -290250.05147  22880205.26947
  21475339.222 6   -146373.922 6    -94797.55148  21475336.91348
  22937501.433 5   -117780.578 5    -70127.19547  22937503.36247
  20042228.136 7   -179824.313 7   -119173.73849  20042228.00349
  23636295.401 5    -74878.820 5    -50177.20747  23636294.64447
 20  5 16  1 50  5.9990000  0  8G04G08G09G11G16G26G27G31             0.000474340
  21344162.214 6   -182717.039 6   -125216.90648  21344161.81548
  20385682.698 7   -284343.652 7   -184431.55149  20385683.03049
  22728014.440 6   -294423.848 6   -199655.35549  22728014.08549
  22878796.683 6   -413756.031 6   -296026.18047  22878795.22647
  21474804.480 6   -149183.273 6    -96986.65648  21474802.06548
  22937054.659 5   -120128.605 5    -71956.82447  22937056.56247
  20041634.526 7   -182943.449 7   -121604.23849  20041634.42549
  23636014.308 5    -76356.852 5    -51328.92247  23636013.14047
 20  5 16  1 50  6.9990000  0  8G04G08G09G11G16G26G27G31             0.000471754
  21343553.698 6   -185915.563 6   -127709.26248  21343552.90548
  20384680.448 7   -289611.043 7   -188536.00849  20384680.96049
  22727045.417 6   -299517.738 6   -203624.62549  22727045.64049
  22877385.456 6   -421169.098 6   -301802.59847  22877384.05847
  21474270.222 6   -151993.039 6    -99176.08248  21474267.87448
  22936607.808 5   -122477.125 5    -73786.84047  22936609.75347
  20041041.144 7   -186062.523 7   -124034.68849  20041040.57749
  23635733.058 5    -77835.148 5    -52480.83647  23635732.04247
 20  5 16  1 50  7.9990000  0  8G04G08G09G11G16G26G27G31             0.000469168
  21342945.089 6   -189114.047 6   -130201.58648  21342944.09348
  20383677.917 7   -294878.406 7   -192640.44549  20383678.71449
  22726075.597 6   -304611.539 6   -207593.82049  22726075.62049
  22875975.128 6   -428582.508 6   -307579.27747  22875973.46047
  21473735.409 6   -154803.293 6   -101365.89148  21473732.63248
  22936160.198 5   -124826.172 5    -75617.26247  22936162.44447
  20040447.753 7   -189181.555 7   -126465.09849  20040447.49549
  23635451.565 5    -79313.707 5    -53632.96547  23635450.67547
 20  5 16  1 50  8.9990000  0  8G04G08G09G11G16G26G27G31             0.000466581
  21342336.495 6   -192312.566 6   -132693.94548  21342335.70248
  20382675.683 7   -300145.781 7   -196744.89849  20382676.40949
  22725106.253 6   -309705.398 6   -211563.05949  22725106.38249
  22874564.034 6   -435996.426 6   -313356.35947  22874562.64047
  21473200.378 6   -157614.121 6   -103556.14548  21473198.00748
  22935713.362 5   -127175.824 5    -77448.16047  22935715.64047
  20039854.065 7   -192300.637 7   -128895.55549  20039853.74149
  23635170.026 5    -80792.633 5    -54785.38347  23635168.94847
 20  5 16  1 50  9.9990000  0  8G04G08G09G11G16G26G27G31             0.000463995
  21341728.214 6   -195510.934 6   -135186.17648  21341727.29248
  20381673.487 7   -305413.047 7   -200849.26249  20381673.54649
  22724137.019 6   -314799.055 6   -215532.14849  22724136.86249
  22873153.659 6   -443410.609 6   -319133.64147  22873152.10547
  21472665.222 6   -160425.332 6   -105746.70748  21472662.89748
  22935266.058 5   -129525.910 5    -79279.39847  22935268.37847
  20039260.261 7   -195419.594 7   -131325.91049  20039260.59349
  23634889.034 5    -82271.730 5    -55937.92647  23634887.45247
 20  5 16  1 50 10.9990000  0  8G04G08G09G11G16G26G27G31             0.000461407
  21341119.440 6   -198709.336 6   -137678.44148  21341118.97248
  20380670.933 7   -310680.340 7   -204953.64549  20380671.52649
  22723167.253 6   -319892.789 6   -219501.29349  22723167.88249
  22871742.401 6   -450825.266 6   -324911.29747  22871740.96447
  21472130.394 6   -163237.074 6   -107937.67648  21472127.85848
  22934818.425 5   -131876.578 5    -81111.09447  22934821.12047
  20038666.909 7   -198538.566 7   -133756.27749  20038666.78849
  23634607.151 5    -83751.164 5    -57090.74247  23634606.24547
 20  5 16  1 50 11.9990000  0  8G04G08G09G11G16G26G27G31             0.000458820
  21340510.292 6   -201907.699 6   -140170.67648  21340510.15548
  20379668.636 7   -315947.617 7   -209058.01649  20379668.98749
  22722198.628 6   -324986.469 6   -223470.39549  22722198.55849
  22870331.339 6   -458240.297 6   -330689.24647  22870329.86647
  21471595.339 6   -166049.305 6   -110129.02748  21471592.66748
  22934371.394 5   -134227.789 5    -82943.20747  22934373.64747
  20038073.394 7   -201657.535 7   -136186.64849  20038073.05049
  23634325.480 5    -85230.895 5    -58243.77347  23634324.30847
 20  5 16  1 50 12.9990000  0  8G04G08G09G11G16G26G27G31             0.000456232
  21339902.628 6   -205105.930 6   -142662.80148  21339901.53048
  20378666.448 7   -321214.770 7   -213162.28949  20378667.41749
  22721229.190 6   -330080.004 6   -227439.38349  22721228.86249
  22868920.167 6   -465655.641 6   -336467.43447  22868918.35847
  21471059.745 6   -168861.906 6   -112320.66048  21471057.62448
  22933923.308 5   -136579.410 5    -84775.64147  22933925.96047
  20037479.714 7   -204776.367 7   -138616.90649  20037479.82349
  23634044.464 5    -86710.797 5    -59396.94547  23634042.68747
 20  5 16  1 50 13.9990000  0  8G04G08G09G11G16G26G27G31             0.000453644
  21339292.823 6   -208304.020 6   -145154.82048  21339292.76148
  20377664.511 7   -326481.797 7   -217266.46549  20377664.62849
  22720259.792 6   -335173.363 6   -231408.23849  22720260.15549
  22867509.433 6   -473071.242 6   -342245.81647  22867507.50347
  21470524.987 6   -171674.891 6   -114512.59848  21470522.09348
  22933475.839 5   -138931.484 5    -86608.42647  22933478.60847
  20036886.534 7   -207895.039 7   -141047.03949  20036886.55849
  23633762.355 5    -88190.883 5    -60550.27047  23633761.17147
 20  5 16  1 50 14.9990000  0  8G04G08G09G11G16G26G27G31             0.000451056
  21338684.972 6   -211501.953 6   -147646.71548  21338684.01548
  20376661.987 7   -331748.660 7   -221370.51649  20376662.23049
  22719290.417 6   -340266.633 6   -235377.02049  22719290.72649
  22866097.855 6   -480487.156 6   -348024.44947  22866096.40947
  21469989.558 6   -174488.266 6   -116704.84448  21469986.89748
  22933028.190 5   -141283.961 5    -88441.52747  22933030.48747
  20036293.011 7   -211013.602 7   -143477.09449  20036292.92549
  23633480.558 5    -89671.129 5    -61703.71547  23633479.92147
 20  5 16  1 50 15.9990000  0  8G04G08G09G11G16G26G27G31             0.000448465
  21338076.237 6   -214699.914 6   -150138.63748  21338075.55048
  20375659.417 7   -337015.566 7   -225474.60249  20375660.11249
  22718321.909 6   -345359.883 6   -239345.78149  22718321.42149
  22864686.776 6   -487903.488 6   -353803.41847  22864685.38247
  21469454.401 6   -177302.156 6   -118897.48848  21469451.40148
  22932581.058 5   -143637.086 5    -90275.13347  22932582.98747
  20035699.675 7   -214132.199 7   -145907.16849  20035699.35149
  23633198.534 5    -91151.699 5    -62857.40647  23633197.72647
 20  5 16  1 50 16.9990000  0  8G04G08G09G11G16G26G27G31             0.000445877
  21337467.831 6   -217897.797 6   -152630.49248  21337466.98048
  20374657.183 7   -342282.422 7   -229578.64549  20374657.95249
  22717351.683 6   -350453.051 6   -243314.48449  22717352.19049
  22863275.198 6   -495320.195 6   -359582.66847  22863273.65947
  21468918.917 6   -180116.531 6   -121090.50848  21468915.72648
  22932132.597 5   -145990.637 5    -92109.06647  22932135.00747
  20035106.230 7   -217250.738 7   -148337.19949  20035106.15949
  23632916.495 5    -92632.543 5    -64011.31647  23632916.44047
 20  5 16  1 50 17.9990000  0  8G04G08G09G11G16G26G27G31             0.000443287
  21336859.433 6   -221095.703 6   -155122.37148  21336858.70248
  20373655.050 7   -347549.297 7   -233682.69949  20373655.19049
  22716382.956 6   -355546.230 6   -247283.19549  22716382.88249
  22861863.964 6   -502737.340 6   -365362.26247  22861862.48347
  21468383.019 6   -182931.410 6   -123283.92248  21468380.38648
  22931685.144 5   -148344.777 5    -93943.46547  22931687.15547
  20034512.753 7   -220369.293 7   -150767.23849  20034512.57749
  23632635.300 5    -94113.684 5    -65165.44947  23632634.33147
 20  5 16  1 50 18.9990000  0  8G04G08G09G11G16G26G27G31             0.000440699
  21336251.269 6   -224293.488 6   -157614.15248  21336250.18348
  20372652.808 7   -352816.094 7   -237786.69549  20372653.15149
  22715413.972 6   -360639.270 6   -251251.79749  22715414.06249
  22860452.503 6   -510154.824 6   -371142.11747  22860450.72647
  21467847.659 6   -185746.727 6   -125477.67248  21467844.65548
  22931236.925 5   -150699.418 5    -95778.25047  22931238.99147
  20033919.284 7   -223487.750 7   -153197.19949  20033919.06949
  23632352.925 5    -95595.059 5    -66319.77047  23632352.68347
 20  5 16  1 50 19.9990000  0  8G04G08G09G11G16G26G27G31             0.000438108
  21335642.089 6   -227491.117 6   -160105.81348  21335641.33948
  20371650.339 7   -358082.789 7   -241890.61349  20371650.87449
  22714444.370 6   -365732.203 6   -255220.31649  22714445.05849
  22859040.862 6   -517572.570 6   -376922.17247  22859038.92947
  21467311.847 6   -188562.422 6   -127671.71948  21467308.74548
  22930788.730 5   -153054.488 5    -97613.37147  22930790.61247
  20033325.644 7   -226606.082 7   -155627.07449  20033325.49149
  23632071.089 5    -97076.613 5    -67474.23047  23632070.92947
 20  5 16  1 50 20.9990000  0  8G04G08G09G11G16G26G27G31             0.000435518
  21335033.987 6   -230688.699 6   -162597.43848  21335033.40548
  20370648.331 7   -363349.406 7   -245994.46949  20370648.80849
  22713475.167 6   -370825.000 6   -259188.73049  22713475.32749
  22857629.636 6   -524990.637 6   -382702.48847  22857627.45247
  21466775.808 6   -191378.531 6   -129866.08648  21466772.65548
  22930340.112 5   -155410.004 5    -99448.84047  22930342.44847
  20032732.347 7   -229724.336 7   -158056.88349  20032732.55449
  23631789.651 5    -98558.383 5    -68628.85947  23631789.17547
 20  5 16  1 50 21.9990000  0  8G04G08G09G11G16G26G27G31             0.000432926
  21334425.003 6   -233886.195 6   -165088.99248  21334424.75748
  20369646.339 7   -368615.984 7   -250098.30149  20369647.04649
  22712506.386 6   -375917.785 6   -263157.13349  22712506.39749
  22856217.690 6   -532409.125 6   -388483.13347  22856215.55047
  21466239.315 6   -194195.141 6   -132060.84048  21466236.80848
  22929892.136 5   -157766.086 5   -101284.75047  22929894.43747
  20032138.964 7   -232842.539 7   -160486.66049  20032138.80849
  23631507.409 5   -100040.414 5    -69783.70347  23631507.03847
 20  5 16  1 50 22.9990000  0  8G04G08G09G11G16G26G27G31             0.000430336
  21333816.620 6   -237083.730 6   -167580.57848  21333815.98748
  20368644.183 7   -373882.586 7   -254202.14549  20368644.53049
  22711536.651 6   -381010.543 6   -267125.52349  22711537.53449
  22854805.675 6   -539828.020 6   -394264.09047  22854804.44047
  21465703.300 6   -197012.266 6   -134256.00448  21465700.65148
  22929443.605 5   -160122.727 5   -103121.09847  22929445.51947
  20031545.847 7   -235960.758 7   -162916.43849  20031545.69049
  23631225.933 5   -101522.816 5    -70938.82847  23631224.78447
 20  5 16  1 50 23.9990000  0  8G04G08G09G11G16G26G27G31             0.000427744
  21333208.198 6   -240281.066 6   -170072.00848  21333207.63648
  20367642.081 7   -379149.016 7   -258305.85549  20367642.42149
  22710568.042 6   -386103.144 6   -271093.78349  22710568.26149
  22853394.198 6   -547247.168 6   -400045.24647  22853392.12447
  21465167.190 6   -199829.719 6   -136451.42648  21465164.62848
  22928994.980 5   -162479.750 5   -104957.74247  22928997.24547
  20030952.409 7   -239078.828 7   -165346.10249  20030952.65149
  23630943.620 5   -103005.332 5    -72094.03947  23630942.92147
 20  5 16  1 50 24.9990000  0  8G04G08G09G11G16G26G27G31             0.000425152
  21332600.003 6   -243478.262 6   -172563.33648  21332599.24548
  20366639.776 7   -384415.313 7   -262409.46149  20366640.39449
  22709598.683 6   -391195.570 6   -275061.91449  22709599.23349
  22851982.065 6   -554666.605 6   -405826.62547  22851980.16347
  21464630.823 6   -202647.578 6   -138647.16048  21464628.52648
  22928546.073 5   -164837.207 5   -106794.72747  22928548.70647
  20030359.167 7   -242196.758 7   -167775.65649  20030359.32349
  23630660.995 5   -104488.023 5    -73249.38747  23630661.14747
 20  5 16  1 50 25.9990000  0  8G04G08G09G11G16G26G27G31             0.000422560
  21331991.534 6   -246675.422 6   -175054.62548  21331990.99148
  20365637.573 7   -389681.570 7   -266513.03949  20365637.94449
  22708630.425 6   -396287.945 6   -279029.99649  22708630.75749
  22850570.073 6   -562086.418 6   -411608.29747  22850568.65947
  21464094.683 6   -205465.895 6   -140843.25048  21464092.10848
  22928097.855 5   -167195.168 5   -108632.09847  22928099.78447
  20029765.839 7   -245314.648 7   -170205.18049  20029765.81949
  23630378.956 5   -105970.969 5    -74404.93447  23630378.74147
 20  5 16  1 50 26.9990000  0  8G04G08G09G11G16G26G27G31             0.000419968
  21331382.980 6   -249872.531 6   -177545.88348  21331382.64448
  20364635.433 7   -394947.770 7   -270616.57449  20364636.10149
  22707660.573 6   -401380.273 6   -282998.03949  22707661.00349
  22849157.933 6   -569506.602 6   -417390.26247  22849156.26547
  21463557.855 6   -208284.676 6   -143039.70748  21463555.72648
  22927649.019 5   -169553.676 5   -110469.89847  22927650.73347
  20029172.659 7   -248432.500 7   -172634.68049  20029172.33549
  23630096.097 5   -107454.230 5    -75560.72347  23630096.61647
 20  5 16  1 50 27.9990000  0  8G04G08G09G11G16G26G27G31             0.000417376
  21330775.175 6   -253069.563 6   -180037.07448  21330773.87048
  20363633.480 7   -400213.922 7   -274720.07449  20363634.06949
  22706691.745 6   -406472.527 6   -286966.02749  22706692.42949
  22847746.167 6   -576927.156 6   -423172.50847  22847743.97247
  21463021.433 6   -211103.914 6   -145236.51648  21463018.99948
  22927200.167 5   -171912.672 5   -112308.08647  22927202.22247
  20028579.237 7   -251550.297 7   -175064.12949  20028579.17549
  23629814.394 5   -108937.691 5    -76716.67647  23629813.81247
 20  5 16  1 50 28.9990000  0  8G04G08G09G11G16G26G27G31             0.000414782
  21330166.534 6   -256266.543 6   -182528.22748  21330166.01948
  20362631.190 7   -405480.008 7   -278823.52049  20362631.99149
  22705723.464 6   -411564.719 6   -290933.97349  22705723.42149
  22846334.105 6   -584348.059 6   -428955.02747  22846331.96047
  21462485.050 6   -213923.625 6   -147433.69148  21462482.97648
  22926750.659 5   -174272.172 5   -114146.65247  22926753.09747
  20027985.933 7   -254668.051 7   -177493.55149  20027985.89749
  23629532.144 5   -110421.402 5    -77872.82047  23629531.90947
 20  5 16  1 50 29.9990000  0  8G04G08G09G11G16G26G27G31             0.000412189
  21329558.222 6   -259463.395 6   -185019.27748  21329557.55448
  20361629.198 7   -410746.043 7   -282926.92249  20361629.57349
  22704753.886 6   -416656.762 6   -294901.79749  22704754.20249
  22844921.565 6   -591769.262 6   -434737.77747  22844920.14747
  21461948.612 6   -216743.727 6   -149631.18048  21461946.07348
  22926302.034 5   -176632.125 5   -115985.57847  22926304.45247
  20027392.581 7   -257785.684 7   -179922.87549  20027392.45649
  23629250.183 5   -111905.309 5    -79029.11347  23629249.37447
 20  5 16  1 50 30.9990000  0  8G04G08G09G11G16G26G27G31             0.000409595
  21328949.894 6   -262660.121 6   -187510.23048  21328949.06548
  20360627.198 7   -416011.938 7   -287030.21149  20360627.69449
  22703784.511 6   -421748.688 6   -298869.53149  22703785.07749
  22843509.480 6   -599190.785 6   -440520.78947  22843507.89747
  21461411.690 6   -219564.230 6   -151828.97748  21461409.61248
  22925852.948 5   -178992.539 5   -117824.86347  22925854.64747
  20026799.464 7   -260903.199 7   -182352.10549  20026799.14049
  23628967.862 5   -113389.438 5    -80185.57447  23628966.84747
 20  5 16  1 50 31.9990000  0  8G04G08G09G11G16G26G27G31             0.000407001
  21328341.347 6   -265856.691 6   -190001.07448  21328340.72648
  20359625.042 7   -421277.691 7   -291133.39549  20359625.58949
  22702815.214 6   -426840.445 6   -302837.13349  22702815.89749
  22842097.089 6   -606612.563 6   -446303.98847  22842095.24947
  21460875.167 6   -222385.094 6   -154027.05548  21460872.34748
  22925403.519 5   -181353.344 5   -119664.44947  22925405.53847
  20026206.198 7   -264020.578 7   -184781.23449  20026206.10849
  23628685.323 5   -114873.699 5    -81342.14147  23628684.50747
 20  5 16  1 50 32.9990000  0  8G04G08G09G11G16G26G27G31             0.000404408
  21327733.081 6   -269053.156 6   -192491.82848  21327732.40148
  20358623.089 7   -426543.359 7   -295236.51249  20358623.51149
  22701846.987 6   -431932.098 6   -306804.65249  22701847.61649
  22840684.800 6   -614034.672 6   -452087.44947  22840682.88647
  21460338.042 6   -225206.383 6   -156225.46148  21460335.53848
  22924954.464 5   -183714.621 5   -121504.41047  22924956.31547
  20025613.222 7   -267137.863 7   -187210.28949  20025613.04249
  23628402.839 5   -116358.203 5    -82498.89547  23628401.89747
 20  5 16  1 50 33.9990000  0  8G04G08G09G11G16G26G27G31             0.000401814
  21327125.097 6   -272249.512 6   -194982.49648  21327124.49948
  20357621.050 7   -431808.918 7   -299339.55149  20357621.79249
  22700877.855 6   -437023.625 6   -310772.08249  22700878.60849
  22839272.605 6   -621457.074 6   -457871.14147  22839270.51147
  21459801.042 6   -228028.063 6   -158424.17248  21459798.41748
  22924504.808 5   -186076.348 5   -123344.72347  22924506.54647
  20025019.737 7   -270255.039 7   -189639.25449  20025019.51149
  23628119.987 5   -117842.891 5    -83655.79747  23628119.79247
 20  5 16  1 50 34.9990000  0  8G04G08G09G11G16G26G27G31             0.000399220
  21326516.925 6   -275445.699 6   -197473.03548  21326516.28048
  20356619.120 7   -437074.313 7   -303442.45349  20356619.71849
  22699909.237 6   -442114.977 6   -314739.36749  22699909.58149
  22837860.026 6   -628879.766 6   -463655.05547  22837857.79647
  21459264.253 6   -230850.102 6   -160623.16848  21459261.83548
  22924055.362 5   -188438.492 5   -125185.35547  22924057.44447
  20024426.480 7   -273372.066 7   -192068.10949  20024426.64449
  23627837.730 5   -119327.715 5    -84812.80547  23627837.11247
 20  5 16  1 50 35.9990000  0  8G04G08G09G11G16G26G27G31             0.000396624
  21325908.808 6   -278641.711 6   -199963.43448  21325907.72648
  20355616.909 7   -442339.578 7   -307545.25849  20355617.64749
  22698940.433 6   -447206.156 6   -318706.52749  22698940.83949
  22836447.315 6   -636302.691 6   -469439.16047  22836445.91747
  21458727.019 6   -233672.496 6   -162822.43848  21458724.57748
  22923606.245 5   -190801.016 5   -127026.28547  22923607.78447
  20023833.144 7   -276488.938 7   -194496.84449  20023833.17549
  23627555.253 5   -120812.723 5    -85969.94947  23627554.62847
 20  5 16  1 50 36.9990000  0  8G04G08G09G11G16G26G27G31             0.000394030
  21325300.511 6   -281837.668 6   -202453.78948  21325299.58948
  20354614.980 7   -447604.766 7   -311648.00449  20354615.71049
  22697972.105 6   -452297.277 6   -322673.62949  22697971.87449
  22835034.440 6   -643725.992 6   -475223.54747  22835033.10147
  21458190.151 6   -236495.348 6   -165022.05948  21458187.43748
  22923156.355 5   -193164.039 5   -128867.60547  22923157.96847
  20023240.401 7   -279605.746 7   -196925.52349  20023240.18349
  23627272.339 5   -122297.969 5    -87127.28947  23627271.68747
 20  5 16  1 50 37.9990000  0  8G04G08G09G11G16G26G27G31             0.000391434
  21324692.581 6   -285033.465 6   -204944.02048  21324691.51148
  20353613.339 7   -452869.793 7   -315750.62149  20353613.84749
  22697003.230 6   -457388.195 6   -326640.58249  22697003.34349
  22833621.925 6   -651149.531 6   -481008.12147  22833620.52647
  21457653.003 6   -239318.547 6   -167221.95748  21457650.06548
  22922706.573 5   -195527.504 5   -130709.27047  22922708.34347
  20022647.245 7   -282722.395 7   -199354.08249  20022647.48049
  23626989.730 5   -123783.379 5    -88284.75447  23626989.01947
 20  5 16  1 50 38.9990000  0  8G04G08G09G11G16G26G27G31             0.000388838
  21324084.222 6   -288229.117 6   -207434.13348  21324083.65948
  20352611.589 7   -458134.695 7   -319853.14549  20352612.00749
  22696034.339 6   -462479.004 6   -330607.44549  22696034.83149
  22832209.331 6   -658573.367 6   -486792.92247  22832207.60547
  21457115.440 6   -242142.141 6   -169422.15648  21457112.92548
  22922255.894 5   -197891.371 5   -132551.24247  22922258.23347
  20022054.292 7   -285838.914 7   -201782.53949  20022053.98349
  23626707.128 5   -125268.953 5    -89442.34447  23626706.17147
 20  5 16  1 50 39.9990000  0  8G04G08G09G11G16G26G27G31             0.000386242
  21323476.081 6   -291424.637 6   -209924.14848  21323475.33148
  20351609.597 7   -463399.496 7   -323955.58249  20351610.31249
  22695065.144 6   -467569.672 6   -334574.20349  22695065.08149
  22830796.581 6   -665997.492 6   -492577.95347  22830794.98047
  21456578.159 6   -244966.109 6   -171622.64848  21456575.38248
  22921806.706 5   -200255.703 5   -134393.57847  22921808.66347
  20021461.347 7   -288955.328 7   -204210.91449  20021460.98049
  23626424.089 5   -126754.773 5    -90600.12547  23626423.30047
 20  5 16  1 50 40.9990000  0  8G04G08G09G11G16G26G27G31             0.000383644
  21322867.995 6   -294619.992 6   -212414.03948  21322867.39048
  20350607.831 7   -468664.121 7   -328057.89149  20350608.23349
  22694097.253 6   -472660.133 6   -338540.79749  22694097.08949
  22829383.300 6   -673421.879 6   -498363.19147  22829381.94847
  21456040.456 6   -247790.430 6   -173823.42248  21456038.08948
  22921356.378 5   -202620.395 5   -136236.19147  22921358.35547
  20020868.073 7   -292071.602 7   -206639.18049  20020867.95249
  23626140.831 5   -128240.695 5    -91757.98847  23626140.73347
 20  5 16  1 50 41.9990000  0  8G04G08G09G11G16G26G27G31             0.000381048
  21322259.964 6   -297815.250 6   -214903.85248  21322259.48348
  20349605.972 7   -473928.660 7   -332160.12949  20349606.44849
  22693128.245 6   -477750.496 6   -342507.31349  22693128.25349
  22827970.784 6   -680846.586 6   -504148.67647  22827969.37447
  21455502.761 6   -250615.184 6   -176024.52748  21455500.77648
  22920906.730 5   -204985.582 5   -138079.19947  22920908.43747
  20020275.487 7   -295187.773 7   -209067.36349  20020275.00349
  23625858.511 5   -129726.844 5    -92916.02747  23625857.87447
 20  5 16  1 50 42.9990000  0  8G04G08G09G11G16G26G27G31             0.000378452
  21321651.870 6   -301010.426 6   -217393.60248  21321651.10148
  20348604.003 7   -479193.098 7   -336262.28549  20348604.47249
  22692159.136 6   -482840.781 6   -346473.76649  22692159.69449
  22826557.933 6   -688271.617 6   -509934.42247  22826556.08547
  21454965.308 6   -253440.363 6   -178225.96548  21454963.03848
  22920456.612 5   -207351.242 5   -139922.57447  22920458.45247
  20019682.659 7   -298303.867 7   -211495.49249  20019681.98749
  23625574.917 5   -131213.246 5    -94074.26247  23625574.64447
 20  5 16  1 50 43.9990000  0  8G04G08G09G11G16G26G27G31             0.000375854
  21321044.300 6   -304205.422 6   -219883.21548  21321043.24948
  20347602.487 7   -484457.375 7   -340364.32449  20347602.87449
  22691190.901 6   -487930.859 6   -350440.05949  22691191.05849
  22825144.901 6   -695696.895 6   -515720.34847  22825142.93747
  21454427.464 6   -256265.875 6   -180427.66448  21454425.07348
  22920006.370 5   -209717.320 5   -141766.27047  22920008.01547
  20019089.253 7   -301419.785 7   -213923.47749  20019089.25349
  23625293.073 5   -132699.773 5    -95232.60247  23625291.78847
 20  5 16  1 50 44.9990000  0  8G04G08G09G11G16G26G27G31             0.000373257
  21320436.292 6   -307400.301 6   -222372.73048  21320435.42948
  20346600.964 7   -489721.613 7   -344466.32449  20346601.53449
  22690222.073 6   -493020.871 6   -354406.30549  22690222.50749
  22823732.042 6   -703122.504 6   -521506.54347  22823730.25747
  21453889.792 6   -259091.816 6   -182629.69948  21453887.17948
  22919556.597 5   -212083.824 5   -143610.30947  22919558.07747
  20018496.573 7   -304535.625 7   -216351.40649  20018496.46049
  23625010.058 5   -134186.531 5    -96391.12547  23625008.91747
 20  5 16  1 50 45.9990000  0  8G04G08G09G11G16G26G27G31             0.000370659
  21319827.917 6   -310595.098 6   -224862.18048  21319827.45648
  20345599.128 7   -494985.719 7   -348568.22749  20345599.45249
  22689253.464 6   -498110.711 6   -358372.41849  22689253.91349
  22822318.550 6   -710548.422 6   -527292.97347  22822317.33947
  21453352.003 6   -261918.164 6   -184832.04748  21453349.52648
  22919105.253 5   -214450.809 5   -145454.70747  22919107.51147
  20017903.511 7   -307651.363 7   -218779.25449  20017903.41349
  23624727.214 5   -135673.484 5    -97549.79347  23624726.37447
 20  5 16  1 50 46.9990000  0  8G04G08G09G11G16G26G27G31             0.000368061
  21319220.261 6   -313789.730 6   -227351.50848  21319219.64448
  20344597.495 7   -500249.715 7   -352670.03549  20344597.64449
  22688285.128 6   -503200.457 6   -362338.45349  22688285.28849
  22820905.722 6   -717974.633 6   -533079.62147  22820904.08947
  21452814.214 6   -264744.906 6   -187034.70748  21452811.68748
  22918655.222 5   -216818.223 5   -147299.45347  22918656.98747
  20017310.714 7   -310766.953 7   -221206.98849  20017310.46449
  23624444.175 5   -137160.633 5    -98708.61747  23624443.24147
 20  5 16  1 50 47.9990000  0  8G04G08G09G11G16G26G27G31             0.000365463
  21318612.269 6   -316984.227 6   -229840.72748  21318611.77648
  20343595.597 7   -505513.543 7   -356771.72349  20343596.35149
  22687316.534 6   -508289.980 6   -366304.31649  22687316.55049
  22819492.378 6   -725401.102 6   -538866.48047  22819490.80447
  21452275.714 6   -267572.016 6   -189237.64848  21452273.73748
  22918204.308 5   -219186.043 5   -149144.50447  22918206.49947
  20016717.909 7   -313882.430 7   -223634.63349  20016717.52249
  23624160.901 5   -138647.902 5    -99867.53547  23624160.33147
 20  5 16  1 50 48.9990000  0  8G04G08G09G11G16G26G27G31             0.000362864
  21318004.448 6   -320178.570 6   -232329.82848  21318003.88648
  20342593.831 7   -510777.254 7   -360873.31349  20342594.52649
  22686348.073 6   -513379.402 6   -370270.10249  22686348.45249
  22818078.995 6   -732827.863 6   -544653.56647  22818077.36247
  21451738.026 6   -270399.516 6   -191440.90648  21451735.94848
  22917753.894 5   -221554.293 5   -150989.89147  22917755.83147
  20016124.948 7   -316997.758 7   -226062.16049  20016124.44849
  23623877.972 5   -140135.379 5   -101026.61747  23623877.25747
 20  5 16  1 50 49.9990000  0  8G04G08G09G11G16G26G27G31             0.000360266
  21317396.526 6   -323372.723 6   -234818.77748  21317396.20248
  20341592.151 7   -516040.777 7   -364974.76249  20341592.60549
  22685379.933 6   -518468.617 6   -374235.72349  22685379.73349
  22816665.995 6   -740254.855 6   -550440.83247  22816663.96447
  21451199.870 6   -273227.305 6   -193644.37948  21451197.70248
  22917302.964 5   -223922.895 5   -152835.55947  22917304.92147
  20015531.894 7   -320112.922 7   -228489.56349  20015531.78049
  23623594.894 5   -141622.969 5   -102185.78147  23623594.34347
 20  5 16  1 50 50.9990000  0  8G04G08G09G11G16G26G27G31             0.000357666
  21316788.440 6   -326566.770 6   -237307.64548  21316787.90948
  20340590.784 7   -521304.219 7   -369076.14549  20340591.05449
  22684411.042 6   -523557.691 6   -378201.23049  22684411.49149
  22815252.339 6   -747682.164 6   -556228.34447  22815250.85847
  21450661.683 6   -276055.531 6   -195848.19148  21450659.12848
  22916852.206 5   -226291.996 5   -154681.61747  22916854.42147
  20014939.503 7   -323227.965 7   -230916.87549  20014939.33549
  23623312.120 5   -143110.746 5   -103345.09047  23623311.01547
 20  5 16  1 50 51.9990000  0  8G04G08G09G11G16G26G27G31             0.000355066
  21316181.175 6   -329760.613 6   -239796.35248  21316180.31948
  20339589.362 7   -526567.469 7   -373177.37949  20339589.76149
  22683442.855 6   -528646.559 6   -382166.58649  22683443.03049
  22813839.128 6   -755109.645 6   -562015.99247  22813837.17147
  21450123.620 6   -278884.078 6   -198052.25448  21450121.06948
  22916401.511 5   -228661.465 5   -156527.95347  22916403.59347
  20014346.636 7   -326342.832 7   -233344.03549  20014346.53049
  23623028.683 5   -144598.660 5   -104504.50447  23623028.14047
 20  5 16  1 50 52.9990000  0  8G04G08G09G11G16G26G27G31             0.000352467
  21315573.167 6   -332954.328 6   -242284.96548  21315572.49948
  20338587.667 7   -531830.598 7   -377278.52349  20338588.12449
  22682474.386 6   -533735.277 6   -386131.82449  22682474.95649
  22812425.472 6   -762537.465 6   -567803.90647  22812423.51947
  21449585.042 6   -281713.012 6   -200256.62148  21449582.35548
  22915949.901 5   -231031.348 5   -158374.61347  22915952.22247
  20013754.097 7   -329457.586 7   -235771.11749  20013753.46449
  23622745.706 5   -146086.742 5   -105664.05547  23622744.97247
 20  5 16  1 50 53.9990000  0  8G04G08G09G11G16G26G27G31             0.000349867
  21314965.675 6   -336147.875 6   -244773.43848  21314965.15948
  20337585.870 7   -537093.563 7   -381379.53149  20337586.71449
  22681506.323 6   -538823.863 6   -390096.95749  22681506.78049
  22811011.956 6   -769965.523 6   -573592.00847  22811010.46047
  21449046.636 6   -284542.289 6   -202461.25048  21449044.04248
  22915499.253 5   -233401.621 5   -160221.57847  22915501.48347
  20013161.464 7   -332572.133 7   -238198.03949  20013160.92949
  23622462.190 5   -147574.984 5   -106823.72347  23622461.94047
 20  5 16  1 50 54.9990000  0  8G04G08G09G11G16G26G27G31             0.000347267
  21314357.753 6   -339341.246 6   -247261.78548  21314357.04648
  20336584.862 7   -542356.363 7   -385480.41449  20336585.51149
  22680538.253 6   -543912.211 6   -394061.90249  22680538.16749
  22809598.495 6   -777393.820 6   -579380.29347  22809596.99547
  21448508.292 6   -287371.914 6   -204666.15248  21448505.60148
  22915047.980 5   -235772.273 5   -162068.84447  22915050.13247
  20012568.628 7   -335686.578 7   -240624.88349  20012568.38649
  23622179.073 5   -149063.336 5   -107983.48047  23622178.64047
 20  5 16  1 50 55.9990000  0  8G04G08G09G11G16G26G27G31             0.000344667
  21313749.956 6   -342534.477 6   -249750.02048  21313749.51148
  20335583.276 7   -547619.066 7   -389581.22349  20335583.80049
  22679569.378 6   -549000.457 6   -398026.77049  22679569.29249
  22808185.151 6   -784822.422 6   -585168.81347  22808183.34347
  21447970.128 6   -290201.934 6   -206871.36748  21447967.13248
  22914596.511 5   -238143.406 5   -163916.47347  22914598.80847
  20011975.980 7   -338800.879 7   -243051.60949  20011975.64049
  23621895.800 5   -150551.910 5   -109143.41047  23621895.09747
 20  5 16  1 50 56.9990000  0  8G04G08G09G11G16G26G27G31             0.000342066
  21313142.847 6   -345727.566 6   -252238.14548  21313142.03448
  20334581.862 7   -552881.594 7   -393681.89149  20334582.14049
  22678601.636 6   -554088.512 6   -401991.49249  22678601.73749
  22806771.347 6   -792251.281 6   -590957.53147  22806770.04647
  21447431.276 6   -293032.316 6   -209076.85948  21447429.10548
  22914145.308 5   -240514.953 5   -165764.44147  22914147.61647
  20011383.448 7   -341915.035 7   -245478.22349  20011383.28849
  23621612.472 5   -152040.641 5   -110303.46547  23621611.90547
 20  5 16  1 50 57.9990000  0  8G04G08G09G11G16G26G27G31             0.000339464
  21312535.151 6   -348920.375 6   -254726.04348  21312534.25748
  20333580.503 7   -558143.852 7   -397782.35549  20333581.18349
  22677632.956 6   -559176.316 6   -405956.01649  22677633.31549
  22805357.698 6   -799680.305 6   -596746.38747  22805355.77647
  21446892.644 6   -295862.945 6   -211282.54348  21446889.98348
  22913694.034 5   -242886.750 5   -167612.59847  22913696.37847
  20010790.933 7   -345028.926 7   -247904.63349  20010790.60549
  23621329.331 5   -153529.402 5   -111463.53547  23621328.56947
 20  5 16  1 50 58.9990000  0  8G04G08G09G11G16G26G27G31             0.000336864
  21311927.355 6   -352113.027 6   -257213.82448  21311927.02248
  20332579.097 7   -563405.973 7   -401882.71149  20332579.62449
  22676665.089 6   -564263.922 6   -409920.38349  22676665.12449
  22803943.683 6   -807109.570 6   -602535.42247  22803941.88647
  21446353.940 6   -298693.949 6   -213488.51648  21446351.02248
  22913242.565 5   -245258.977 5   -169461.09447  22913244.86247
  20010198.222 7   -348142.660 7   -250330.91449  20010198.01149
  23621045.558 5   -155018.316 5   -112623.73447  23621045.17147
 20  5 16  1 50 59.9990000  0  8G04G08G09G11G16G26G27G31             0.000334263
  21311319.972 6   -355305.508 6   -259701.47348  21311319.78848
  20331578.151 7   -568667.957 7   -405982.95349  20331578.28849
  22675697.073 6   -569351.391 6   -413884.64549  22675696.82749
  22802529.605 6   -814539.105 6   -608324.66447  22802528.08947
  21445814.987 6   -301525.301 6   -215694.76648  21445812.51148
  22912791.144 5   -247631.605 5   -171309.90247  22912793.39747
  20009605.784 7   -351256.250 7   -252757.09449  20009605.34749
  23620762.198 5   -156507.375 5   -113784.03947  23620762.10847
 20  5 16  1 51  0.9990000  0  8G04G08G09G11G16G26G27G31             0.000331661
  21310712.456 6   -358497.789 6   -262188.96948  21310712.03448
  20330576.394 7   -573929.766 7   -410083.06649  20330576.97649
  22674728.644 6   -574438.625 6   -417848.71949  22674728.92949
  22801116.355 6   -821968.848 6   -614114.07447  22801114.21047
  21445276.097 6   -304356.984 6   -217901.27048  21445273.74948
  22912339.581 5   -250004.609 5   -173158.98847  22912341.76147
  20009013.534 7   -354369.656 7   -255183.12149  20009013.24149
  23620478.675 5   -157996.563 5   -114944.44947  23620478.28847
 20  5 16  1 51  1.9990000  0  8G04G08G09G11G16G26G27G31             0.000329060
  21310105.042 6   -361689.898 6   -264676.32448  21310104.33948
  20329575.151 7   -579191.348 7   -414182.99649  20329575.66749
  22673760.581 6   -579525.645 6   -421812.63349  22673760.93749
  22799702.222 6   -829398.848 6   -619903.68447  22799700.49947
  21444737.456 6   -307188.980 6   -220108.02048  21444734.58948
  22911888.034 5   -252377.988 5   -175008.37947  22911890.47647
  20008420.823 7   -357482.871 7   -257609.00449  20008420.57749
  23620195.292 5   -159485.852 5   -116104.94147  23620195.28047
 20  5 16  1 51  2.9990000  0  8G04G08G09G11G16G26G27G31             0.000326456
  21309497.589 6   -364881.734 6   -267163.47348  21309497.05448
  20328573.753 7   -584452.711 7   -418282.76249  20328574.50349
  22672792.878 6   -584612.410 6   -425776.34849  22672792.93749
  22798288.401 6   -836828.961 6   -625693.38347  22798286.55447
  21444198.558 6   -310021.238 6   -222314.97348  21444196.08148
  22911436.159 5   -254751.633 5   -176857.97747  22911438.40947
  20007828.355 7   -360595.836 7   -260034.69549  20007828.12049
  23619911.800 5   -160975.223 5   -117265.49247  23619911.40547
 20  5 16  1 51  3.9990000  0  8G04G08G09G11G16G26G27G31             0.000323854
  21308890.315 6   -368073.336 6   -269650.43448  21308889.98748
  20327572.581 7   -589713.840 7   -422382.34049  20327573.35149
  22671824.980 6   -589698.953 6   -429739.89149  22671825.28849
  22796874.737 6   -844259.320 6   -631483.27347  22796873.03847
  21443659.190 6   -312853.777 6   -224522.14848  21443656.81948
  22910984.315 5   -257125.672 5   -178707.88347  22910986.71047
  20007236.175 7   -363708.598 7   -262460.22749  20007235.82749
  23619628.722 5   -162464.684 5   -118426.11747  23619627.78047
 20  5 16  1 51  4.9990000  0  8G04G08G09G11G16G26G27G31             0.000321253
  21308282.933 6   -371264.816 6   -272137.30548  21308282.78848
  20326571.480 7   -594974.855 7   -426481.83249  20326572.15949
  22670857.003 6   -594785.352 6   -433703.32049  22670857.15949
  22795460.526 6   -851689.953 6   -637273.36747  22795458.87047
  21443120.206 6   -315686.711 6   -226729.62948  21443117.84348
  22910533.151 5   -259500.125 5   -180558.10547  22910534.54247
  20006643.956 7   -366821.230 7   -264885.65249  20006643.73349
  23619345.308 5   -163954.313 5   -119586.87147  23619344.67547
 20  5 16  1 51  5.9990000  0  8G04G08G09G11G16G26G27G31             0.000318649
  21307675.519 6   -374456.121 6   -274624.03548  21307675.28448
  20325570.386 7   -600235.719 7   -430581.20749  20325571.33549
  22669888.753 6   -599871.570 6   -437666.60549  22669889.21049
  22794046.534 6   -859120.832 6   -643063.66847  22794044.82747
  21442581.097 6   -318519.996 6   -228937.38348  21442578.59748
  22910080.792 5   -261874.961 5   -182408.62947  22910083.08147
  20006051.339 7   -369933.703 7   -267310.95349  20006051.26949
  23619061.925 5   -165444.082 5   -120747.73847  23619061.12447
 20  5 16  1 51  6.9990000  0  8G04G08G09G11G16G26G27G31             0.000316046
  21307068.081 6   -377647.250 6   -277110.62948  21307067.93748
  20324569.394 7   -605496.426 7   -434680.46149  20324569.83549
  22668921.042 6   -604957.566 6   -441629.72349  22668921.41749
  22792632.089 6   -866551.941 6   -648854.14147  22792630.74947
  21442041.917 6   -321353.617 6   -231145.40248  21442039.55048
  22909628.448 5   -264250.207 5   -184259.46947  22909631.02647
  20005459.323 7   -373046.008 7   -269736.12549  20005459.14749
  23618778.675 5   -166934.012 5   -121908.71547  23618777.14047
 20  5 16  1 51  7.9990000  0  8G04G08G09G11G16G26G27G31             0.000313442
  21306460.917 6   -380838.203 6   -279597.08648  21306460.34748
  20323568.378 7   -610756.934 7   -438779.55549  20323568.86249
  22667953.495 6   -610043.422 6   -445592.72749  22667953.81249
  22791217.972 6   -873983.297 6   -654644.80547  22791216.53447
  21441502.628 6   -324187.594 6   -233353.69548  21441499.75748
  22909176.456 5   -266625.848 5   -186110.62547  22909178.78447
  20004867.011 7   -376158.176 7   -272161.19549  20004867.15149
  23618494.776 5   -168424.082 5   -123069.80947  23618493.72647
 20  5 16  1 51  8.9990000  0  8G04G08G09G11G16G26G27G31             0.000310839
  21305853.831 6   -384028.910 6   -282083.35248  21305853.43348
  20322567.550 7   -616017.238 7   -442878.49249  20322567.94849
  22666985.730 6   -615129.004 6   -449555.52049  22666985.84349
  22789804.034 6   -881414.828 6   -660435.60947  22789802.41347
  21440963.253 6   -327021.859 6   -235562.21948  21440960.56248
  22908724.675 5   -269001.809 5   -187962.02347  22908726.45247
  20004274.987 7   -379270.105 7   -274586.07449  20004274.92549
  23618211.105 5   -169914.238 5   -124230.97347  23618210.23347
 20  5 16  1 51  9.9990000  0  8G04G08G09G11G16G26G27G31             0.000308235
  21305246.690 6   -387219.488 6   -284569.52348  21305246.14748
  20321566.597 7   -621277.418 7   -446977.33649  20321566.97249
  22666018.409 6   -620214.426 6   -453518.18849  22666018.70249
  22788389.519 6   -888846.641 6   -666226.63347  22788387.87047
  21440423.995 6   -329856.488 6   -237771.02048  21440421.08548
  22908272.558 5   -271378.195 5   -189813.75447  22908274.82347
  20003682.753 7   -382381.879 7   -277010.83249  20003682.54649
  23617927.550 5   -171404.535 5   -125392.24247  23617926.81547
 20  5 16  1 51 10.9990000  0  8G04G08G09G11G16G26G27G31             0.000305632
  21304639.823 6   -390409.887 6   -287055.55548  21304639.35548
  20320565.355 7   -626537.434 7   -451076.05149  20320565.98349
  22665049.636 6   -625299.707 6   -457480.75449  22665050.71049
  22786975.417 6   -896278.695 6   -672017.84047  22786973.89047
  21439884.425 6   -332691.453 6   -239980.07448  21439881.81248
  22907820.237 5   -273754.965 5   -191665.78547  22907822.34347
  20003090.690 7   -385493.512 7   -279435.48449  20003090.55449
  23617644.355 5   -172894.996 5   -126553.64547  23617642.89047
 20  5 16  1 51 11.9990000  0  8G04G08G09G11G16G26G27G31             0.000303026
  21304033.065 6   -393600.059 6   -289541.39548  21304032.65548
  20319564.651 7   -631797.199 7   -455174.57049  20319565.34749
  22664082.690 6   -630384.672 6   -461443.05949  22664083.09349
  22785561.526 6   -903710.938 6   -677809.20347  22785559.65147
  21439344.581 6   -335526.715 6   -242189.37148  21439342.04248
  22907367.878 5   -276132.070 5   -193518.08247  22907369.85847
  20002498.745 7   -388604.898 7   -281859.94149  20002498.17149
  23617360.292 5   -174385.484 5   -127715.07047  23617359.44047
 20  5 16  1 51 12.9990000  0  8G04G08G09G11G16G26G27G31             0.000300423
  21303425.753 6   -396790.039 6   -292027.09848  21303425.23748
  20318563.706 7   -637056.805 7   -459272.96549  20318564.07349
  22663115.206 6   -635469.516 6   -465405.27349  22663115.48349
  22784147.050 6   -911143.406 6   -683600.73447  22784145.40947
  21438805.105 6   -338362.313 6   -244398.93048  21438802.44848
  22906915.534 5   -278509.555 5   -195370.67247  22906917.59347
  20001906.659 7   -391716.137 7   -284284.28549  20001906.33549
  23617076.690 5   -175876.168 5   -128876.64547  23617075.68347
 20  5 16  1 51 13.9990000  0  8G04G08G09G11G16G26G27G31             0.000297817
  21302818.323 6   -399979.824 6   -294512.64548  21302818.31948
  20317562.745 7   -642316.203 7   -463371.19549  20317563.45649
  22662147.698 6   -640554.145 6   -469367.32049  22662147.82349
  22782732.628 6   -918576.113 6   -689392.44947  22782730.99147
  21438265.690 6   -341198.258 6   -246608.76648  21438263.14048
  22906463.409 5   -280887.426 5   -197223.55547  22906464.86647
  20001314.331 7   -394827.195 7   -286708.48449  20001314.36249
  23616793.237 5   -177366.938 5   -130038.28947  23616792.39747
 20  5 16  1 51 14.9990000  0  8G04G08G09G11G16G26G27G31             0.000295212
  21302211.776 6   -403169.426 6   -296998.04748  21302211.26948
  20316562.261 7   -647575.434 7   -467469.30149  20316562.76149
  22661179.948 6   -645638.547 6   -473329.18849  22661180.12449
  22781318.026 6   -926009.027 6   -695184.33647  22781316.48047
  21437725.901 6   -344034.492 6   -248818.82448  21437723.03048
  22906010.401 5   -283265.652 5   -199076.72347  22906012.43347
  20000722.581 7   -397938.051 7   -289132.53149  20000722.68349
  23616509.597 5   -178857.855 5   -131200.04747  23616508.80047
 20  5 16  1 51 15.9990000  0  8G04G08G09G11G16G26G27G31             0.000292606
  21301604.917 6   -406358.738 6   -299483.22748  21301604.57348
  20315561.167 7   -652834.383 7   -471567.18049  20315561.88249
  22660212.800 6   -650722.660 6   -477290.83249  22660212.28449
  22779903.526 6   -933442.133 6   -700976.36347  22779901.98747
  21437186.198 6   -346870.988 6   -251029.07848  21437183.29248
  22905557.683 5   -285644.211 5   -200930.14547  22905559.92947
  20000130.675 7   -401048.656 7   -291556.37949  20000130.75349
  23616225.495 5   -180348.816 5   -132361.84047  23616224.55447
 20  5 16  1 51 16.9990000  0  8G04G08G09G11G16G26G27G31             0.000290001
  21300998.136 6   -409547.836 6   -301968.24648  21300997.53848
  20314560.862 7   -658093.117 7   -475664.89849  20314561.12849
  22659245.753 6   -655806.551 6   -481252.30949  22659245.57349
  22778488.769 6   -940875.387 6   -706768.51247  22778487.36247
  21436646.315 6   -349707.770 6   -253239.56348  21436643.27248
  22905105.659 5   -288023.066 5   -202783.79747  22905106.79247
  19999538.776 7   -404159.043 7   -293980.05949  19999538.43749
  23615942.136 5   -181839.859 5   -133523.69547  23615940.54247
 20  5 16  1 51 17.9990000  0  8G04G08G09G11G16G26G27G31             0.000287395
  21300391.300 6   -412736.797 6   -304453.14848  21300390.54248
  20313559.722 7   -663351.723 7   -479762.50849  20313560.94049
  22658277.925 6   -660890.285 6   -485213.66449  22658277.83949
  22777074.284 6   -948308.934 6   -712560.88747  22777073.05847
  21436106.230 6   -352544.938 6   -255450.34448  21436103.36648
  22904652.745 5   -290402.352 5   -204637.78947  22904654.49547
  19998947.003 7   -407269.281 7   -296403.62149  19998946.78449
  23615658.073 5   -183331.059 5   -134685.66447  23615657.15547
 20  5 16  1 51 18.9990000  0  8G04G08G09G11G16G26G27G31             0.000284790
  21299784.628 6   -415925.551 6   -306937.89548  21299783.50748
  20312559.136 7   -668610.180 7   -483860.00849  20312559.86249
  22657310.526 6   -665973.824 6   -489174.86349  22657310.43349
  22775659.808 6   -955742.742 6   -718353.46547  22775658.02247
  21435566.558 6   -355382.438 6   -257661.38348  21435563.71848
  22904199.589 5   -292782.000 5   -206492.05547  22904201.21447
  19998355.136 7   -410379.387 7   -298827.08249  19998354.81949
  23615374.394 5   -184822.449 5   -135847.78947  23615373.53447
 20  5 16  1 51 19.9990000  0  8G04G08G09G11G16G26G27G31             0.000282183
  21299177.651 6   -419114.129 6   -309422.49648  21299177.17148
  20311558.386 7   -673868.402 7   -487957.32449  20311559.33149
  22656342.823 6   -671057.137 6   -493135.88749  22656343.42549
  22774245.214 6   -963176.723 6   -724146.17647  22774243.55847
  21435026.839 6   -358220.238 6   -259872.66048  21435023.39048
  22903746.480 5   -295162.043 5   -208346.64147  22903748.39047
  19997763.058 7   -413489.254 7   -301250.35549  19997763.26149
  23615090.675 5   -186313.895 5   -137009.95347  23615089.67547
 20  5 16  1 51 20.9990000  0  8G04G08G09G11G16G26G27G31             0.000279577
  21298570.534 6   -422302.406 6   -311906.87148  21298570.43348
  20310557.995 7   -679126.395 7   -492054.46549  20310558.55449
  22655375.745 6   -676140.176 6   -497096.70349  22655375.86249
  22772830.433 6   -970610.859 6   -729939.00447  22772828.85847
  21434486.409 6   -361058.285 6   -262084.12548  21434483.41348
  22903293.597 5   -297542.387 5   -210201.45747  22903295.82347
  19997171.417 7   -416598.883 7   -303673.44149  19997171.34749
  23614806.714 5   -187805.398 5   -138172.17247  23614805.85547
 20  5 16  1 51 21.9990000  0  8G04G08G09G11G16G26G27G31             0.000276970
  21297964.073 6   -425490.465 6   -314391.07848  21297963.42548
  20309557.714 7   -684384.141 7   -496151.40649  20309558.09349
  22654408.628 6   -681222.945 6   -501057.30549  22654408.81549
  22771415.480 6   -978045.172 6   -735731.97747  22771414.35147
  21433946.440 6   -363896.629 6   -264295.82448  21433944.09348
  22902840.792 5   -299923.023 5   -212056.50447  22902842.65547
  19996579.878 7   -419708.277 7   -306096.34849  19996579.60149
  23614522.980 5   -189296.977 5   -139334.44147  23614521.78447
 20  5 16  1 51 22.9990000  0  8G04G08G09G11G16G26G27G31             0.000274364
  21297357.620 6   -428678.340 6   -316875.13348  21297357.04648
  20308557.073 7   -689641.719 7   -500248.22349  20308557.77249
  22653441.050 6   -686305.563 6   -505017.78149  22653441.67149
  22770000.917 6   -985479.758 6   -741525.16047  22769999.52647
  21433406.417 6   -366735.301 6   -266507.77348  21433403.26948
  22902387.480 5   -302304.059 5   -213911.85947  22902389.59747
  19995988.097 7   -422817.527 7   -308519.13749  19995988.21849
  23614239.440 5   -190788.691 5   -140496.82047  23614238.06247
 20  5 16  1 51 23.9990000  0  8G04G08G09G11G16G26G27G31             0.000271757
  21296750.964 6   -431866.102 6   -319359.10548  21296750.69448
  20307556.940 7   -694899.207 7   -504344.96549  20307557.28049
  22652474.276 6   -691388.023 6   -508978.14149  22652474.55849
  22768586.276 6   -992914.617 6   -747318.55547  22768584.56247
  21432865.831 6   -369574.375 6   -268720.03948  21432863.00748
  22901933.964 5   -304685.551 5   -215767.56347  22901936.11247
  19995396.503 7   -425926.648 7   -310941.82849  19995396.24949
  23613954.870 5   -192280.613 5   -141659.35547  23613954.06947
 20  5 16  1 51 24.9990000  0  8G04G08G09G11G16G26G27G31             0.000269150
  21296144.573 6   -435053.719 6   -321842.96948  21296144.01948
  20306556.065 7   -700156.582 7   -508441.62149  20306556.57749
  22651506.651 6   -696470.375 6   -512938.41449  22651507.35549
  22767171.331 6  -1000349.781 6   -753112.19147  22767169.87847
  21432325.472 6   -372413.820 6   -270932.60248  21432322.57748
  22901481.034 5   -307067.488 5   -217623.61747  22901482.74547
  19994805.097 7   -429035.664 7   -313364.44549  19994804.76149
  23613670.894 5   -193772.707 5   -142822.02747  23613669.76147
 20  5 16  1 51 25.9990000  0  8G04G08G09G11G16G26G27G31             0.000266541
  21295537.909 6   -438241.027 6   -324326.58248  21295537.35548
  20305555.706 7   -705413.633 7   -512538.02749  20305556.53449
  22650539.769 6   -701552.379 6   -516898.41449  22650540.19049
  22765756.589 6  -1007785.020 6   -758905.87947  22765754.71447
  21431784.995 6   -375253.492 6   -273145.32848  21431782.53448
  22901027.776 5   -309449.648 5   -219479.84047  22901029.55047
  19994213.573 7   -432144.363 7   -315786.81349  19994213.15549
  23613386.870 5   -195264.816 5   -143984.71147  23613386.38247
 20  5 16  1 51 26.9990000  0  8G04G08G09G11G16G26G27G31             0.000263933
  21294931.034 6   -441428.164 6   -326810.07448  21294930.68748
  20304555.425 7   -710670.563 7   -516634.33649  20304556.23049
  22649572.800 6   -706634.188 6   -520858.27049  22649573.26949
  22764341.542 6  -1015220.512 6   -764699.77347  22764339.83547
  21431244.870 6   -378093.504 6   -275358.32848  21431241.88248
  22900574.753 5   -311832.203 5   -221336.37547  22900576.63647
  19993621.753 7   -435252.895 7   -318209.03949  19993621.53849
  23613103.503 5   -196757.090 5   -145147.52747  23613102.48047
 20  5 16  1 51 27.9990000  0  8G04G08G09G11G16G26G27G31             0.000261326
  21294324.831 6   -444615.137 6   -329293.42648  21294324.31548
  20303555.339 7   -715927.293 7   -520730.48849  20303556.03449
  22648606.245 6   -711715.813 6   -524817.97749  22648606.19049
  22762926.940 6  -1022656.254 6   -770493.85547  22762924.87847
  21430704.058 6   -380933.867 6   -277571.60248  21430701.55448
  22900121.190 5   -314215.184 5   -223193.24247  22900122.73047
  19993030.128 7   -438361.277 7   -320631.16049  19993030.32349
  23612818.878 5   -198249.449 5   -146310.40247  23612818.42947
 20  5 16  1 51 28.9990000  0  8G04G08G09G11G16G26G27G31             0.000258717
  21293718.659 6   -447801.867 6   -331776.59448  21293718.15948
  20302554.995 7   -721183.828 7   -524826.48849  20302555.86649
  22647639.105 6   -716797.223 6   -528777.51649  22647639.11249
  22761511.464 6  -1030092.156 6   -776288.06647  22761509.82747
  21430163.417 6   -383774.508 6   -279785.08648  21430160.72248
  22899667.730 5   -316598.469 5   -225050.35247  22899668.87847
  19992438.917 7   -441469.453 7   -323053.11349  19992438.79249
  23612535.534 5   -199741.953 5   -147473.39547  23612534.55847
 20  5 16  1 51 29.9990000  0  8G04G08G09G11G16G26G27G31             0.000256109
  21293111.987 6   -450988.387 6   -334259.59448  21293111.80848
  20301554.667 7   -726440.160 7   -528922.33649  20301555.21849
  22646672.198 6   -721878.383 6   -532736.86349  22646672.47249
  22760096.183 6  -1037528.289 6   -782082.45347  22760095.13247
  21429622.917 6   -386615.453 6   -281998.80948  21429620.21848
  22899214.253 5   -318982.113 5   -226907.73047  22899215.64747
  19991847.230 7   -444577.398 7   -325474.88749  19991846.90549
  23612251.058 5   -201234.520 5   -148636.43847  23612250.48347
 20  5 16  1 51 30.9990000  0  8G04G08G09G11G16G26G27G31             0.000253500
  21292505.808 6   -454174.672 6   -336742.41048  21292505.67948
  20300554.237 7   -731696.250 7   -533017.98849  20300554.92149
  22645705.589 6   -726959.313 6   -536696.03149  22645705.50749
  22758680.862 6  -1044964.621 6   -787876.99247  22758679.63647
  21429082.331 6   -389456.699 6   -284212.77348  21429079.69848
  22898759.933 5   -321366.125 5   -228765.40247  22898762.03847
  19991255.862 7   -447685.172 7   -327896.52049  19991255.79249
  23611966.620 5   -202727.199 5   -149799.56647  23611966.33947
 20  5 16  1 51 31.9990000  0  8G04G08G09G11G16G26G27G31             0.000250891
  21291899.409 6   -457360.809 6   -339225.12548  21291899.24948
  20299554.128 7   -736952.160 7   -537113.50049  20299554.87849
  22644738.597 6   -732040.023 6   -540655.03149  22644738.80849
  22757266.472 6  -1052401.184 6   -793671.71947  22757264.56247
  21428541.659 6   -392298.293 6   -286427.00048  21428538.89448
  22898306.628 5   -323750.453 5   -230623.32047  22898308.21047
  19990664.722 7   -450792.734 7   -330318.00049  19990664.33549
  23611683.292 5   -204220.027 5   -150962.82047  23611682.14747
 20  5 16  1 51 32.9990000  0  8G04G08G09G11G16G26G27G31             0.000248281
  21291293.026 6   -460546.773 6   -341707.69148  21291292.54648
  20298553.995 7   -742207.934 7   -541208.90649  20298554.87449
  22643771.855 6   -737120.613 6   -544613.93049  22643771.72249
  22755851.144 6  -1059837.996 6   -799466.63347  22755849.53047
  21428001.065 6   -395140.234 6   -288641.50448  21427998.08948
  22897852.683 5   -326135.238 5   -232481.59847  22897854.46047
  19990073.175 7   -453900.164 7   -332739.37949  19990072.82349
  23611399.456 5   -205712.984 5   -152126.17247  23611398.28447
 20  5 16  1 51 33.9990000  0  8G04G08G09G11G16G26G27G31             0.000245672
  21290686.745 6   -463732.543 6   -344190.11348  21290686.83948
  20297553.839 7   -747463.523 7   -545304.17249  20297554.65949
  22642804.909 6   -742200.996 6   -548572.66849  22642805.25749
  22754435.870 6  -1067275.039 6   -805261.73047  22754434.44447
  21427459.808 6   -397982.520 6   -290856.27048  21427457.21848
  22897398.667 5   -328520.414 5   -234340.18047  22897400.72647
  19989482.230 7   -457007.418 7   -335160.61749  19989482.03049
  23611115.128 5   -207206.059 5   -153289.61347  23611114.16347
 20  5 16  1 51 34.9990000  0  8G04G08G09G11G16G26G27G31             0.000243063
  21290080.878 6   -466918.090 6   -346672.35948  21290080.46448
  20296553.972 7   -752718.898 7   -549399.27349  20296554.44849
  22641837.987 6   -747281.121 6   -552531.21149  22641838.43349
  22753020.472 6  -1074712.262 6   -811056.97347  22753018.72647
  21426919.214 6   -400825.090 6   -293071.25448  21426916.08948
  22896944.472 5   -330905.879 5   -236198.98847  22896946.46047
  19988890.628 7   -460114.465 7   -337581.69149  19988890.74549
  23610830.698 5   -208699.246 5   -154453.13747  23610830.14047
 20  5 16  1 51 35.9990000  0  8G04G08G09G11G16G26G27G31             0.000240452
  21289474.612 6   -470103.508 6   -349154.50848  21289474.43348
  20295553.862 7   -757974.145 7   -553494.27049  20295554.77649
  22640871.144 6   -752361.141 6   -556489.66449  22640871.73049
  22751605.417 6  -1082149.816 6   -816852.46947  22751603.67147
  21426378.394 6   -403668.074 6   -295286.57448  21426375.26548
  22896490.815 5   -333291.824 5   -238058.16447  22896492.55847
  19988299.589 7   -463221.391 7   -340002.67249  19988299.50749
  23610546.636 5   -210192.633 5   -155616.81347  23610545.85547
 20  5 16  1 51 36.9990000  0  8G04G08G09G11G16G26G27G31             0.000237843
  21288868.362 6   -473288.801 6   -351636.54748  21288867.90148
  20294554.097 7   -763229.250 7   -557589.15649  20294554.59749
  22639904.987 6   -757440.984 6   -560447.98449  22639905.44449
  22750189.847 6  -1089587.613 6   -822648.16047  22750188.83147
  21425837.081 6   -406511.426 6   -297502.16848  21425834.43348
  22896035.980 5   -335678.199 5   -239917.67647  22896038.44847
  19987708.269 7   -466328.211 7   -342423.56649  19987707.88649
  23610262.269 5   -211686.184 5   -156780.61747  23610261.87847
 20  5 16  1 51 37.9990000  0  8G04G08G09G11G16G26G27G31             0.000235231
  21288262.808 6   -476473.813 6   -354118.37948  21288261.87848
  20293553.776 7   -768484.113 7   -561683.85549  20293554.39049
  22638938.276 6   -762520.543 6   -564406.07849  22638938.19849
  22748774.940 6  -1097025.574 6   -828443.97347  22748773.29647
  21425295.972 6   -409355.023 6   -299717.95748  21425293.03448
  22895582.425 5   -338064.855 5   -241777.41047  22895584.66747
  19987117.136 7   -469434.766 7   -344844.26249  19987116.82349
  23609977.862 5   -213179.797 5   -157944.47747  23609977.42947
 20  5 16  1 51 38.9990000  0  8G04G08G09G11G16G26G27G31             0.000232620
  21287656.347 6   -479658.656 6   -356600.07448  21287655.75748
  20292553.964 7   -773738.797 7   -565778.41049  20292554.79649
  22637972.159 6   -767599.926 6   -568364.04349  22637971.85149
  22747358.925 6  -1104463.734 6   -834239.93847  22747357.55447
  21424755.144 6   -412198.969 6   -301934.02048  21424752.02648
  22895128.214 5   -340451.898 5   -243637.45347  22895130.18347
  19986525.855 7   -472541.148 7   -347264.82449  19986525.92149
  23609694.284 5   -214673.520 5   -159108.42247  23609693.28047
 20  5 16  1 51 39.9990000  0  8G04G08G09G11G16G26G27G31             0.000230009
  21287050.339 6   -482843.305 6   -359081.62548  21287049.81248
  20291553.792 7   -778993.313 7   -569872.84449  20291554.62049
  22637005.440 6   -772679.121 6   -572321.85549  22637005.21449
  22745943.386 6  -1111902.160 6   -840036.11747  22745942.12047
  21424213.550 6   -415043.230 6   -304150.32448  21424210.68348
  22894673.784 5   -342839.281 5   -245497.75447  22894675.94447
  19985935.011 7   -475647.363 7   -349685.25049  19985934.29249
  23609409.683 5   -216167.383 5   -160272.47747  23609408.99947
 20  5 16  1 51 40.9990000  0  8G04G08G09G11G16G26G27G31             0.000227398
  21286444.448 6   -486027.785 6   -361563.03548  21286444.19448
  20290554.183 7   -784247.641 7   -573967.13349  20290554.70249
  22636038.401 6   -777758.109 6   -576279.50849  22636038.94849
  22744527.581 6  -1119340.832 6   -845832.48447  22744526.49547
  21423672.370 6   -417887.840 6   -306366.90248  21423669.24548
  22894219.003 5   -345227.105 5   -247358.39847  22894221.37447
  19985344.003 7   -478753.406 7   -352105.54349  19985343.89449
  23609125.440 5   -217661.383 5   -161436.63347  23609124.70647
 20  5 16  1 51 41.9990000  0  8G04G08G09G11G16G26G27G31             0.000224787
  21285838.511 6   -489212.043 6   -364044.28148  21285837.95648
  20289554.394 7   -789501.754 7   -578061.24249  20289555.24149
  22635072.644 6   -782836.879 6   -580237.00049  22635072.25349
  22743112.245 6  -1126779.668 6   -851628.97347  22743110.86247
  21423130.769 6   -420732.723 6   -308583.69548  21423128.03048
  22893765.136 5   -347615.242 5   -249219.28547  22893766.99547
  19984752.815 7   -481859.219 7   -354525.65649  19984752.38249
  23608841.190 5   -219155.477 5   -162600.87147  23608840.38647
 20  5 16  1 51 42.9990000  0  8G04G08G09G11G16G26G27G31             0.000222176
  21285232.511 6   -492396.023 6   -366525.30548  21285232.25348
  20288554.722 7   -794755.625 7   -582155.16849  20288555.40549
  22634105.464 6   -787915.336 6   -584194.23049  22634106.02249
  22741696.698 6  -1134218.680 6   -857425.60947  22741695.35847
  21422589.112 6   -423577.871 6   -310800.69148  21422586.80048
  22893310.933 5   -350003.699 5   -251080.42247  22893312.91747
  19984161.878 7   -484964.816 7   -356945.60549  19984162.09749
  23608556.745 5   -220649.602 5   -163765.12147  23608556.02247
 20  5 16  1 51 43.9990000  0  8G04G08G09G11G16G26G27G31             0.000219563
  21284626.940 6   -495579.820 6   -369006.19148  21284625.86648
  20287554.737 7   -800009.305 7   -586248.94149  20287555.50749
  22633139.159 6   -792993.605 6   -588151.32849  22633139.91349
  22740280.964 6  -1141657.898 6   -863222.39847  22740279.98747
  21422048.237 6   -426423.359 6   -313017.95348  21422045.12048
  22892856.284 5   -352392.496 5   -252941.82447  22892858.19047
  19983570.948 7   -488070.223 7   -359365.39849  19983570.70249
  23608272.667 5   -222143.891 5   -164929.50447  23608271.84747
 20  5 16  1 51 44.9990000  0  8G04G08G09G11G16G26G27G31             0.000216951
  21284021.019 6   -498763.574 6   -371487.03548  21284020.53048
  20286555.144 7   -805262.914 7   -590342.66449  20286555.83549
  22632173.050 6   -798071.816 6   -592108.38349  22632173.08549
  22738864.980 6  -1149097.477 6   -869019.47747  22738863.82347
  21421506.472 6   -429269.309 6   -315235.58248  21421503.44448
  22892401.714 5   -354781.848 5   -254803.65247  22892403.69047
  19982980.065 7   -491175.574 7   -361785.15649  19982979.99949
  23607987.862 5   -223638.402 5   -166094.05547  23607987.12847
 20  5 16  1 51 45.9990000  0  8G04G08G09G11G16G26G27G31             0.000214338
  21283415.034 6   -501947.078 6   -373967.68848  21283414.71448
  20285555.761 7   -810516.305 7   -594436.21549  20285556.06249
  22631206.722 6   -803149.781 6   -596065.23449  22631206.76949
  22737449.698 6  -1156537.230 6   -874816.68447  22737448.15147
  21420964.683 6   -432115.523 6   -317453.40648  21420962.02248
  22891946.605 5   -357171.508 5   -256665.72347  22891949.14747
  19982389.105 7   -494280.688 7   -364204.71949  19982389.21049
  23607703.784 5   -225133.020 5   -167258.69947  23607702.60147
 20  5 16  1 51 46.9990000  0  8G04G08G09G11G16G26G27G31             0.000211725
  21282808.855 6   -505130.379 6   -376448.18448  21282808.64748
  20284555.714 7   -815769.508 7   -598529.61749  20284556.39449
  22630240.519 6   -808227.527 6   -600021.92249  22630240.81549
  22736033.909 6  -1163977.184 6   -880614.05147  22736032.39447
  21420423.167 6   -434962.086 6   -319671.50448  21420420.56948
  22891491.956 5   -359561.527 5   -258528.08647  22891494.09747
  19981798.136 7   -497385.648 7   -366624.16849  19981798.04249
  23607419.308 5   -226627.738 5   -168423.42647  23607418.69047
 20  5 16  1 51 47.9990000  0  8G04G08G09G11G16G26G27G31             0.000209112
  21282203.550 6   -508313.434 6   -378928.48048  21282203.14748
  20283556.308 7   -821022.488 7   -602622.85549  20283556.96849
  22629274.605 6   -813305.020 6   -603978.40649  22629274.35549
  22734617.878 6  -1171417.316 6   -886411.55147  22734616.69047
  21419881.175 6   -437808.902 6   -321889.80548  21419878.67548
  22891037.003 5   -361951.863 5   -260390.69147  22891038.90547
  19981207.698 7   -500490.352 7   -369043.41849  19981207.25749
  23607134.644 5   -228122.512 5   -169588.18847  23607133.93347
 20  5 16  1 51 48.9990000  0  8G04G08G09G11G16G26G27G31             0.000206499
  21281598.206 6   -511496.293 6   -381408.64148  21281597.39448
  20282556.558 7   -826275.277 7   -606715.93849  20282556.87849
  22628308.339 6   -818382.297 6   -607934.72349  22628308.27649
  22733202.425 6  -1178857.680 6   -892209.23447  22733200.85547
  21419339.276 6   -440656.043 6   -324108.35548  21419336.94448
  22890582.026 5   -364342.570 5   -262253.58247  22890583.93347
  19980616.722 7   -503594.875 7   -371462.53549  19980616.44849
  23606850.503 5   -229617.441 5   -170753.06647  23606849.51947
 20  5 16  1 51 49.9990000  0  8G04G08G09G11G16G26G27G31             0.000203886
  21280992.612 6   -514678.965 6   -383888.64148  21280992.10548
  20281557.105 7   -831527.871 7   -610808.87149  20281557.84349
  22627342.034 6   -823459.340 6   -611890.85949  22627342.27649
  22731786.800 6  -1186298.227 6   -898007.06647  22731784.71447
  21418797.355 6   -443503.492 6   -326327.14548  21418795.00748
  22890126.761 5   -366733.609 5   -264116.73047  22890129.44047
  19980025.917 7   -506699.199 7   -373881.48449  19980025.80849
  23606565.808 5   -231112.469 5   -171918.03147  23606565.08947
 20  5 16  1 51 50.9990000  0  8G04G08G09G11G16G26G27G31             0.000201273
  21280386.292 6   -517861.391 6   -386368.45348  21280386.62048
  20280557.753 7   -836780.250 7   -614901.63349  20280558.41349
  22626376.456 6   -828536.180 6   -615846.84049  22626375.99549
  22730370.362 6  -1193738.977 6   -903805.05547  22730368.79247
  21418255.495 6   -446351.242 6   -328546.18048  21418253.17148
  22889672.034 5   -369125.020 5   -265980.16047  22889674.38247
  19979434.933 7   -509803.309 7   -376300.27349  19979435.03049
  23606281.292 5   -232607.594 5   -173083.06647  23606280.67547
 20  5 16  1 51 51.9990000  0  8G04G08G09G11G16G26G27G31             0.000198660
  21279781.222 6   -521043.652 6   -388848.14148  21279780.89048
  20279557.987 7   -842032.473 7   -618994.27749  20279558.99949
  22625410.089 6   -833612.793 6   -619802.64549  22625410.25349
  22728954.565 6  -1201179.961 6   -909603.22747  22728952.89747
  21417713.612 6   -449199.336 6   -330765.47348  21417711.12848
  22889216.651 5   -371516.824 5   -267843.90247  22889218.84347
  19978844.503 7   -512907.250 7   -378718.93449  19978844.60849
  23605996.573 5   -234102.801 5   -174248.16847  23605995.73747
 20  5 16  1 51 52.9990000  0  8G04G08G09G11G16G26G27G31             0.000196045
  21279175.167 6   -524225.730 6   -391327.68048  21279174.95648
  20278558.972 7   -847284.500 7   -623086.76249  20278559.17949
  22624443.995 6   -838689.227 6   -623758.31349  22624444.18349
  22727538.831 6  -1208621.156 6   -915401.55947  22727537.26947
  21417171.886 6   -452047.746 6   -332985.01248  21417169.19848
  22888761.933 5   -373908.969 5   -269707.91447  22888763.81547
  19978253.987 7   -516011.051 7   -381137.47749  19978253.66349
  23605712.612 5   -235598.195 5   -175413.41047  23605711.29247
 20  5 16  1 51 53.9990000  0  8G04G08G09G11G16G26G27G31             0.000193430
  21278570.245 6   -527407.586 6   -393807.05148  21278569.84748
  20277559.519 7   -852536.297 7   -627179.07049  20277559.88249
  22623477.901 6   -843765.410 6   -627713.78149  22623478.24549
  22726123.019 6  -1216062.551 6   -921200.04747  22726120.78047
  21416629.980 6   -454896.434 6   -335204.77048  21416626.76548
  22888305.730 5   -376301.473 5   -271572.20347  22888308.68747
  19977663.667 7   -519114.594 7   -383555.81649  19977663.27249
  23605427.675 5   -237093.668 5   -176578.71147  23605426.99147
 20  5 16  1 51 54.9990000  0  8G04G08G09G11G16G26G27G31             0.000190817
  21277964.550 6   -530589.262 6   -396286.28548  21277964.31948
  20276560.019 7   -857787.914 7   -631271.23849  20276560.44049
  22622511.573 6   -848841.418 6   -631669.11749  22622512.08949
  22724706.511 6  -1223504.184 6   -926998.72747  22724704.56247
  21416087.612 6   -457745.500 6   -337424.82048  21416084.81548
  22887850.964 5   -378694.367 5   -273436.79747  22887853.39047
  19977072.964 7   -522217.992 7   -385974.05149  19977072.80049
  23605143.097 5   -238589.277 5   -177744.12947  23605142.07747
 20  5 16  1 51 55.9990000  0  8G04G08G09G11G16G26G27G31             0.000188202
  21277358.925 6   -533770.789 6   -398765.39848  21277358.76148
  20275560.550 7   -863039.418 7   -635363.32049  20275561.37049
  22621545.925 6   -853917.289 6   -635624.33649  22621546.30849
  22723290.440 6  -1230946.102 6   -932797.62547  22723289.14047
  21415545.659 6   -460594.922 6   -339645.15248  21415542.52648
  22887395.456 5   -381087.684 5   -275301.71547  22887397.83147
  19976482.339 7   -525321.281 7   -388392.19949  19976482.25349
  23604858.480 5   -240085.066 5   -178909.68447  23604857.20247
 20  5 16  1 51 56.9990000  0  8G04G08G09G11G16G26G27G31             0.000185587
  21276754.034 6   -536952.145 6   -401244.37548  21276753.31248
  20274561.206 7   -868290.770 7   -639455.28549  20274561.96449
  22620579.995 6   -858992.949 6   -639579.39849  22620580.31249
  22721874.097 6  -1238388.230 6   -938596.69147  22721872.58947
  21415002.800 6   -463444.715 6   -341865.77748  21415000.25748
  22886940.042 5   -383481.391 5   -277166.94947  22886942.54647
  19975891.769 7   -528424.410 7   -390810.21949  19975891.59749
  23604573.745 5   -241580.996 5   -180075.34447  23604572.73747
 20  5 16  1 51 57.9990000  0  8G04G08G09G11G16G26G27G31             0.000182970
  21276148.480 6   -540133.266 6   -403723.17248  21276147.94048
  20273562.026 7   -873541.844 7   -643547.03549  20273562.85549
  22619614.050 6   -864068.340 6   -643534.24649  22619614.68349
  22720457.730 6  -1245830.570 6   -944395.91447  22720456.42147
  21414460.550 6   -466294.781 6   -344086.60948  21414457.95248
  22886484.237 5   -385875.445 5   -279032.46147  22886486.56947
  19975301.190 7   -531527.281 7   -393228.04749  19975301.51149
  23604288.714 5   -243076.996 5   -181241.06347  23604288.36247
 20  5 16  1 51 58.9990000  0  8G04G08G09G11G16G26G27G31             0.000180355
  21275543.417 6   -543314.074 6   -406201.72748  21275542.84748
  20272562.823 7   -878792.633 7   -647638.55949  20272563.78849
  22618648.253 6   -869143.457 6   -647488.88349  22618648.55049
  22719041.315 6  -1253272.969 6   -950195.18447  22719040.09747
  21413918.011 6   -469145.023 6   -346307.57848  21413915.25348
  22886029.417 5   -388269.695 5   -280898.10947  22886031.06247
  19974710.722 7   -534629.855 7   -395645.63349  19974710.66749
  23604003.792 5   -244572.984 5   -182406.76647  23604003.95647
 20  5 16  1 51 59.9990000  0  8G04G08G09G11G16G26G27G31             0.000177740
  21274937.909 6   -546494.691 6   -408680.12548  21274937.56948
  20271563.628 7   -884043.246 7   -651729.94149  20271564.42549
  22617682.870 6   -874218.328 6   -651443.32849  22617683.21049
  22717625.034 6  -1260715.594 6   -955994.62547  22717624.14747
  21413375.800 6   -471995.602 6   -348528.81348  21413372.92148
  22885573.347 5   -390664.348 5   -282764.06347  22885575.16347
  19974120.636 7   -537732.277 7   -398063.10949  19974120.37449
  23603719.628 5   -246069.102 5   -183572.56347  23603718.93347
 20  5 16  1 52  0.9990000  0  8G04G08G09G11G16G26G27G31             0.000175123
  21274332.464 6   -549675.082 6   -411158.35948  21274332.07348
  20270564.815 7   -889293.645 7   -655821.16049  20270565.14449
  22616717.511 6   -879292.961 6   -655397.59049  22616717.58949
  22716208.862 6  -1268158.422 6   -961794.23847  22716207.27647
  21412833.378 6   -474846.484 6   -350750.27748  21412830.64448
  22885117.909 5   -393059.320 5   -284630.27347  22885119.57347
  19973530.214 7   -540834.453 7   -400480.38749  19973529.82349
  23603434.987 5   -247565.285 5   -184738.42647  23603434.05847
 20  5 16  1 52  1.9990000  0  8G04G08G09G11G16G26G27G31             0.000172508
  21273727.558 6   -552855.266 6   -413636.42248  21273726.92948
  20269565.487 7   -894543.836 7   -659912.22349  20269565.88249
  22615751.894 6   -884367.324 6   -659351.63749  22615751.64749
  22714792.745 6  -1275601.434 6   -967593.98447  22714791.03447
  21412290.972 6   -477697.652 6   -352971.96548  21412288.07748
  22884661.917 5   -395454.645 5   -286496.76247  22884663.46847
  19972939.855 7   -543936.430 7   -402897.51249  19972940.09749
  23603150.542 5   -249061.602 5   -185904.39147  23603149.53447
 20  5 16  1 52  2.9990000  0  8G04G08G09G11G16G26G27G31             0.000169891
  21273122.526 6   -556035.227 6   -416114.31648  21273121.65548
  20268566.636 7   -899793.816 7   -664003.11749  20268567.37849
  22614786.628 6   -889441.547 6   -663305.58249  22614786.25349
  22713376.425 6  -1283044.633 6   -973393.87547  22713374.56547
  21411748.245 6   -480549.145 6   -355193.91048  21411745.44048
  22884206.237 5   -397850.340 5   -288363.54747  22884207.71047
  19972349.542 7   -547038.211 7   -405314.48849  19972349.46849
  23602865.347 5   -250558.008 5   -187070.43047  23602864.96847
 20  5 16  1 52  3.9990000  0  8G04G08G09G11G16G26G27G31             0.000167274
  21272516.847 6   -559214.988 6   -418592.05148  21272516.68348
  20267567.730 7   -905043.625 7   -668093.87549  20267568.26149
  22613820.620 6   -894515.508 6   -667259.32049  22613820.69049
  22711959.956 6  -1290488.063 6   -979193.95347  22711958.41347
  21411205.651 6   -483400.945 6   -357416.09848  21411203.05448
  22883750.136 5   -400246.395 5   -290230.60947  22883752.10147
  19971759.417 7   -550139.809 7   -407731.31649  19971759.26149
  23602580.534 5   -252054.539 5   -188236.56347  23602580.48047
 20  5 16  1 52  4.9990000  0  8G04G08G09G11G16G26G27G31             0.000164658
  21271912.315 6   -562394.637 6   -421069.69948  21271911.68348
  20266568.737 7   -910293.328 7   -672184.55149  20266569.02249
  22612855.183 6   -899589.359 6   -671212.97349  22612855.33549
  22710543.401 6  -1297931.773 6   -984994.24647  22710541.87447
  21410662.917 6   -486253.184 6   -359638.61348  21410660.08148
  22883294.167 5   -402642.895 5   -292098.00847  22883295.69047
  19971169.175 7   -553241.301 7   -410148.06349  19971169.18349
  23602296.276 5   -253551.270 5   -189402.85247  23602295.41747
 20  5 16  1 52  5.9990000  0  8G04G08G09G11G16G26G27G31             0.000162041
  21271307.120 6   -565574.102 6   -423547.20748  21271306.84348
  20265569.347 7   -915542.852 7   -676275.09049  20265570.08549
  22611888.940 6   -904662.996 6   -675166.45749  22611889.37049
  22709126.980 6  -1305375.750 6   -990794.75047  22709125.10847
  21410119.925 6   -489105.707 6   -361861.36348  21410117.10148
  22882837.425 5   -405039.766 5   -293965.69547  22882839.84747
  19970578.972 7   -556342.621 7   -412564.67249  19970579.26149
  23602011.511 5   -255048.129 5   -190569.25047  23602010.74147
 20  5 16  1 52  6.9990000  0  8G04G08G09G11G16G26G27G31             0.000159424
  21270702.065 6   -568753.273 6   -426024.48048  21270701.75348
  20264570.870 7   -920792.086 7   -680365.39549  20264571.51149
  22610924.019 6   -909736.332 6   -679119.70749  22610924.01549
  22707710.417 6  -1312819.809 6   -996595.31647  22707708.64047
  21409576.909 6   -491958.477 6   -364084.30148  21409574.31548
  22882381.776 5   -407436.902 5   -295833.59047  22882383.36247
  19969988.862 7   -559443.684 7   -414981.08649  19969988.61649
  23601726.159 5   -256545.020 5   -191735.66047  23601725.95247
 20  5 16  1 52  7.9990000  0  8G04G08G09G11G16G26G27G31             0.000156805
  21270097.698 6   -571932.191 6   -428501.57048  21270096.96048
  20263571.690 7   -926041.059 7   -684455.50449  20263572.48349
  22609958.565 6   -914809.410 6   -683072.75449  22609958.78849
  22706293.862 6  -1320264.012 6  -1002395.99647  22706292.11247
  21409034.128 6   -494811.520 6   -366307.45348  21409030.94048
  22881925.276 5   -409834.355 5   -297701.73847  22881927.41347
  19969398.987 7   -562544.457 7   -417397.27749  19969398.55849
  23601441.651 5   -258041.965 5   -192902.11747  23601440.93347
 20  5 16  1 52  8.9990000  0  8G04G08G09G11G16G26G27G31             0.000154188
  21269492.839 6   -575110.926 6   -430978.50048  21269491.81248
  20262573.128 7   -931289.824 7   -688545.45749  20262573.58949
  22608993.667 6   -919882.242 6   -687025.60949  22608993.44449
  22704876.855 6  -1327708.457 6  -1008196.86747  22704875.51147
  21408490.784 6   -497664.859 6   -368530.83248  21408488.53448
  22881468.737 5   -412232.184 5   -299570.17247  22881471.05847
  19968808.815 7   -565645.070 7   -419813.34049  19968808.55449
  23601156.105 5   -259539.000 5   -194068.64147  23601155.99547
 20  5 16  1 52  9.9990000  0  8G04G08G09G11G16G26G27G31             0.000151569
  21268887.542 6   -578289.441 6   -433455.27348  21268887.07748
  20261574.339 7   -936538.387 7   -692635.24649  20261575.10549
  22608028.308 6   -924954.895 6   -690978.32849  22608028.19449
  22703460.386 6  -1335153.086 6  -1013997.87547  22703458.68347
  21407947.956 6   -500518.508 6   -370754.44948  21407945.14048
  22881012.714 5   -414630.328 5   -301438.85947  22881014.83147
  19968218.815 7   -568745.488 7   -422229.25049  19968218.47249
  23600871.933 5   -261036.176 5   -195235.27347  23600871.18747
 20  5 16  1 52 10.9990000  0  8G04G08G09G11G16G26G27G31             0.000148952
  21268282.605 6   -581467.656 6   -435931.80148  21268282.38248
  20260575.683 7   -941786.688 7   -696724.83249  20260576.24149
  22607062.737 6   -930027.219 6   -694930.79349  22607063.14049
  22702043.355 6  -1342597.824 6  -1019798.96947  22702042.12047
  21407404.675 6   -503372.395 6   -372978.26248  21407402.58548
  22880556.300 5   -417028.781 5   -303307.79347  22880558.07347
  19967629.198 7   -571845.625 7   -424644.94149  19967629.07349
  23600586.065 5   -262533.371 5   -196401.92647  23600586.31947
 20  5 16  1 52 11.9990000  0  8G04G08G09G11G16G26G27G31             0.000146334
  21267677.831 6   -584645.688 6   -438408.19148  21267677.27248
  20259576.667 7   -947034.805 7   -700814.27349  20259577.46849
  22606097.464 6   -935099.340 6   -698883.09449  22606097.92949
  22700626.870 6  -1350042.797 6  -1025600.24647  22700625.52647
  21406861.565 6   -506226.590 6   -375202.31648  21406859.62448
  22880099.792 5   -419427.586 5   -305176.98847  22880101.33547
  19967039.112 7   -574945.574 7   -427060.48849  19967038.87849
  23600301.300 5   -264030.648 5   -197568.63747  23600301.23047
 20  5 16  1 52 12.9990000  0  8G04G08G09G11G16G26G27G31             0.000143715
  21267073.472 6   -587823.527 6   -440884.42248  21267072.82748
  20258578.167 7   -952282.727 7   -704903.56349  20258578.89749
  22605132.769 6   -940171.262 6   -702835.23849  22605132.68749
  22699210.362 6  -1357487.996 6  -1031401.69947  22699208.68347
  21406318.440 6   -509081.121 6   -377426.63348  21406316.12048
  22879643.128 5   -421826.773 5   -307046.48047  22879645.27247
  19966449.558 7   -578045.348 7   -429475.89849  19966449.06949
  23600016.472 5   -265528.094 5   -198735.47747  23600016.63647
 20  5 16  1 52 13.9990000  0  8G04G08G09G11G16G26G27G31             0.000141096
  21266468.972 6   -591001.180 6   -443360.52748  21266468.09748
  20257579.480 7   -957530.469 7   -708992.71149  20257580.29249
  22604167.870 6   -945242.969 6   -706787.22349  22604167.57349
  22697793.448 6  -1364933.406 6  -1037203.31647  22697791.97647
  21405775.331 6   -511935.988 6   -379651.19948  21405772.82348
  22879186.495 5   -424226.316 5   -308916.25847  22879188.38247
  19965859.284 7   -581144.969 7   -431891.18449  19965859.28049
  23599731.355 5   -267025.621 5   -199902.39847  23599731.71847
 20  5 16  1 52 14.9990000  0  8G04G08G09G11G16G26G27G31             0.000138477
  21265864.105 6   -594178.504 6   -445836.36748  21265863.54248
  20256581.011 7   -962777.910 7   -713081.62949  20256582.09349
  22603202.237 6   -950314.359 6   -710738.95349  22603202.80449
  22696376.261 6  -1372378.902 6  -1043005.00047  22696374.98747
  21405231.839 6   -514791.039 6   -381875.91448  21405229.58948
  22878729.980 5   -426626.113 5   -310786.22747  22878731.82347
  19965269.565 7   -584244.254 7   -434306.21149  19965269.20249
  23599446.394 5   -268523.195 5   -201069.34047  23599446.74547
 20  5 16  1 52 15.9990000  0  8G04G08G09G11G16G26G27G31             0.000135859
  21265259.558 6   -597355.648 6   -448312.07048  21265259.07348
  20255582.784 7   -968025.152 7   -717170.38749  20255583.63249
  22602237.190 6   -955385.508 6   -714690.50049  22602237.44449
  22694959.667 6  -1379824.617 6  -1048806.85547  22694958.13247
  21404688.511 6   -517646.414 6   -384100.88348  21404686.07748
  22878273.222 5   -429026.273 5   -312656.48447  22878275.06247
  19964679.831 7   -587343.387 7   -436721.12149  19964679.59749
  23599161.597 5   -270020.828 5   -202236.32847  23599161.73347
 20  5 16  1 52 16.9990000  0  8G04G08G09G11G16G26G27G31             0.000133238
  21264655.019 6   -600532.574 6   -450787.59448  21264654.45248
  20254584.042 7   -973272.172 7   -721258.97749  20254584.62449
  22601272.159 6   -960456.438 6   -718641.87549  22601272.31949
  22693542.737 6  -1387270.520 6  -1054608.85947  22693541.22647
  21404145.097 6   -520502.090 6   -386326.09048  21404142.85148
  22877816.370 5   -431426.789 5   -314527.01647  22877818.13647
  19964090.081 7   -590442.285 7   -439135.85249  19964090.31249
  23598876.558 5   -271518.590 5   -203403.41847  23598876.52247
 20  5 16  1 52 17.9990000  0  8G04G08G09G11G16G26G27G31             0.000130619
  21264050.206 6   -603709.262 6   -453262.93048  21264049.97648
  20253585.362 7   -978518.977 7   -725347.39549  20253585.91349
  22600307.386 6   -965527.148 6   -722593.07849  22600307.70649
  22692125.964 6  -1394716.594 6  -1060410.99247  22692124.58947
  21403601.800 6   -523358.047 6   -388551.51648  21403599.55448
  22877359.542 5   -433827.606 5   -316397.78847  22877361.36647
  19963500.659 7   -593540.988 7   -441550.42249  19963500.44449
  23598591.315 5   -273016.461 5   -204570.60247  23598591.53847
 20  5 16  1 52 18.9990000  0  8G04G08G09G11G16G26G27G31             0.000127998
  21263445.698 6   -606885.746 6   -455738.11348  21263445.44448
  20252587.253 7   -983765.551 7   -729435.63749  20252587.85149
  22599342.737 6   -970597.594 6   -726544.07449  22599342.71049
  22690708.612 6  -1402162.891 6  -1066213.30147  22690707.32747
  21403058.300 6   -526214.324 6   -390777.18448  21403055.82348
  22876902.534 5   -436228.824 5   -318268.86747  22876904.57747
  19962910.698 7   -596639.465 7   -443964.82049  19962910.76949
  23598306.589 5   -274514.410 5   -205737.83247  23598306.24547
 20  5 16  1 52 19.9990000  0  8G04G08G09G11G16G26G27G31             0.000125378
  21262841.667 6   -610062.078 6   -458213.18448  21262841.24548
  20251588.761 7   -989011.984 7   -733523.76249  20251589.46849
  22598377.737 6   -975667.910 6   -730494.96949  22598377.99149
  22689291.706 6  -1409609.410 6  -1072015.78147  22689290.05847
  21402514.714 6   -529070.961 6   -393003.13748  21402512.26148
  22876445.815 5   -438630.430 5   -320140.25047  22876448.02647
  19962320.972 7   -599737.820 7   -446379.12149  19962320.94049
  23598021.519 5   -276012.512 5   -206905.18847  23598021.33947
 20  5 16  1 52 20.9990000  0  8G04G08G09G11G16G26G27G31             0.000122757
  21262236.995 6   -613238.199 6   -460688.07448  21262236.35548
  20250590.440 7   -994258.230 7   -737611.75049  20250591.13649
  22597413.019 6   -980737.973 6   -734445.67249  22597412.74149
  22687874.605 6  -1417056.176 6  -1077818.45747  22687873.44047
  21401970.847 6   -531927.898 6   -395229.32448  21401968.55448
  22875988.745 5   -441032.348 5   -322011.87147  22875990.46847
  19961731.605 7   -602835.973 7   -448793.26649  19961731.13249
  23597736.511 5   -277510.746 5   -208072.64147  23597735.98347
 20  5 16  1 52 21.9990000  0  8G04G08G09G11G16G26G27G31             0.000120138
  21261633.019 6   -616413.938 6   -463162.67648  21261632.39448
  20249592.097 7   -999504.105 7   -741699.44549  20249593.07749
  22596447.901 6   -985807.641 6   -738396.06349  22596448.48049
  22686457.925 6  -1424502.922 6  -1083621.11347  22686455.99547
  21401427.206 6   -534784.969 6   -397455.61348  21401424.39748
  22875531.401 5   -443434.500 5   -323883.66847  22875533.11647
  19961142.128 7   -605933.770 7   -451207.13749  19961142.26949
  23597451.417 5   -279008.891 5   -209240.02347  23597450.63647
 20  5 16  1 52 22.9990000  0  8G04G08G09G11G16G26G27G31             0.000117517
  21261028.323 6   -619589.512 6   -465637.14848  21261028.09748
  20248593.870 7  -1004749.785 7   -745786.98449  20248595.08949
  22595482.972 6   -990877.125 6   -742346.31349  22595483.99949
  22685040.339 6  -1431949.945 6  -1089423.98447  22685039.09747
  21400883.581 6   -537642.387 6   -399682.17248  21400881.09348
  22875074.401 5   -445837.039 5   -325755.77347  22875076.34747
  19960552.730 7   -609031.395 7   -453620.87549  19960552.84749
  23597166.425 5   -280507.199 5   -210407.53947  23597165.73347
 20  5 16  1 52 23.9990000  0  8G04G08G09G11G16G26G27G31             0.000114895
  21260424.136 6   -622764.840 6   -468111.43848  21260423.77248
  20247596.112 7  -1009995.262 7   -749874.37149  20247596.71049
  22594518.839 6   -995946.371 6   -746296.38749  22594518.98749
  22683623.144 6  -1439397.117 6  -1095226.98047  22683621.92547
  21400339.901 6   -540500.094 6   -401908.96148  21400337.26948
  22874616.534 5   -448239.895 5   -327628.12947  22874618.38247
  19959963.487 7   -612128.773 7   -456034.41849  19959963.01149
  23596881.401 5   -282005.578 5   -211575.11347  23596880.43747
 20  5 16  1 52 24.9990000  0  8G04G08G09G11G16G26G27G31             0.000112274
  21259820.386 6   -625940.031 6   -470585.61348  21259819.94448
  20246597.886 7  -1015240.578 7   -753961.63749  20246598.81949
  22593554.612 6  -1001015.430 6   -750246.30949  22593554.51149
  22682206.034 6  -1446844.566 6  -1101030.18847  22682204.83947
  21399796.050 6   -543358.145 6   -404136.00448  21399793.87448
  22874159.214 5   -450643.133 5   -329500.77747  22874161.33947
  19959373.940 7   -615226.043 7   -458447.87549  19959373.87449
  23596595.862 5   -283504.137 5   -212742.82047  23596595.61647
 20  5 16  1 52 25.9990000  0  8G04G08G09G11G16G26G27G31             0.000109653
  21259216.198 6   -629114.930 6   -473059.56648  21259215.50348
  20245599.448 7  -1020485.625 7   -758048.68449  20245600.32749
  22592590.019 6  -1006084.195 6   -754195.98849  22592590.05849
  22680788.565 6  -1454292.082 6  -1106833.44947  22680787.05047
  21399252.386 6   -546216.441 6   -406363.25448  21399249.51548
  22873701.753 5   -453046.695 5   -331373.69147  22873704.19447
  19958784.784 7   -618323.047 7   -460861.12949  19958784.40949
  23596310.542 5   -285002.684 5   -213910.52747  23596310.28847
 20  5 16  1 52 26.9990000  0  8G04G08G09G11G16G26G27G31             0.000107031
  21258611.901 6   -632289.652 6   -475533.37548  21258611.55048
  20244601.440 7  -1025730.516 7   -762135.61349  20244602.23349
  22591624.980 6  -1011152.813 6   -758145.55949  22591625.40549
  22679371.925 6  -1461739.910 6  -1112636.94547  22679370.41747
  21398708.034 6   -549075.105 6   -408590.77748  21398705.51548
  22873244.065 5   -455450.609 5   -333246.87147  22873246.61647
  19958195.308 7   -621419.891 7   -463274.25449  19958195.19449
  23596025.409 5   -286501.418 5   -215078.38347  23596024.82747
 20  5 16  1 52 27.9990000  0  8G04G08G09G11G16G26G27G31             0.000104408
  21258007.628 6   -635464.230 6   -478007.07448  21258007.22648
  20243603.558 7  -1030975.262 7   -766222.42649  20243604.40149
  22590660.526 6  -1016221.219 6   -762094.96949  22590661.17949
  22677954.230 6  -1469187.961 6  -1118440.61747  22677952.69847
  21398163.964 6   -551934.129 6   -410818.59048  21398161.13248
  22872787.425 5   -457854.910 5   -335120.35847  22872789.30047
  19957605.933 7   -624516.594 7   -465687.25849  19957605.55449
  23595740.456 5   -288000.285 5   -216246.34447  23595739.69047
 20  5 16  1 52 28.9990000  0  8G04G08G09G11G16G26G27G31             0.000101788
  21257403.831 6   -638638.617 6   -480480.62548  21257403.21448
  20242605.401 7  -1036219.805 7   -770309.08249  20242606.29649
  22589696.253 6  -1021289.418 6   -766044.20749  22589696.88249
  22676537.058 6  -1476636.203 6  -1124244.43447  22676535.51147
  21397619.948 6   -554793.457 6   -413046.63348  21397617.09348
  22872329.565 5   -460259.621 5   -336994.16447  22872331.74947
  19957016.636 7   -627613.102 7   -468100.12549  19957016.87449
  23595454.831 5   -289499.297 5   -217414.41047  23595454.41347
 20  5 16  1 52 29.9990000  0  8G04G08G09G11G16G26G27G31             0.000099165
  21256799.589 6   -641812.734 6   -482953.96148  21256799.15148
  20241607.714 7  -1041464.105 7   -774395.54749  20241608.02249
  22588731.573 6  -1026357.328 6   -769993.23049  22588732.12849
  22675119.722 6  -1484084.578 6  -1130048.36747  22675118.08147
  21397075.573 6   -557653.027 6   -415274.86748  21397073.08948
  22871871.745 5   -462664.613 5   -338868.19147  22871874.07347
  19956427.644 7   -630709.340 7   -470512.78149  19956427.48349
  23595169.878 5   -290998.301 5   -218582.46947  23595169.81947
 20  5 16  1 52 30.9990000  0  8G04G08G09G11G16G26G27G31             0.000096542
  21256195.612 6   -644986.578 6   -485427.08248  21256195.05848
  20240609.925 7  -1046708.137 7   -778481.80549  20240610.43749
  22587767.480 6  -1031425.004 6   -773942.07049  22587767.73049
  22673702.167 6  -1491533.117 6  -1135852.42647  22673700.53847
  21396531.394 6   -560512.852 6   -417503.30548  21396529.05448
  22871414.190 5   -465069.902 5   -340742.44147  22871416.02247
  19955838.284 7   -633805.355 7   -472925.25849  19955838.30449
  23594884.683 5   -292497.410 5   -219750.60547  23594884.21847
 20  5 16  1 52 31.9990000  0  8G04G08G09G11G16G26G27G31             0.000093920
  21255592.175 6   -648160.133 6   -487899.99248  21255591.36248
  20239611.980 7  -1051951.879 7   -782567.83649  20239612.52649
  22586802.839 6  -1036492.324 6   -777890.63349  22586803.46849
  22672284.589 6  -1498981.766 6  -1141656.57047  22672283.20247
  21395987.480 6   -563372.930 6   -419731.93848  21395985.13248
  22870956.230 5   -467475.465 5   -342616.90647  22870958.18347
  19955249.050 7   -636901.094 7   -475337.52349  19955249.29649
  23594599.386 5   -293996.523 5   -220918.74647  23594599.00747
 20  5 16  1 52 32.9990000  0  8G04G08G09G11G16G26G27G31             0.000091295
  21254988.331 6   -651333.492 6   -490372.73848  21254987.25748
  20238614.355 7  -1057195.430 7   -786653.72349  20238615.03849
  22585839.159 6  -1041559.438 6   -781839.03549  22585839.27649
  22670866.995 6  -1506430.594 6  -1147460.84847  22670865.56547
  21395442.503 6   -566233.297 6   -421960.79748  21395440.39048
  22870498.933 5   -469881.359 5   -344491.63347  22870500.67147
  19954660.253 7   -639996.598 7   -477749.60549  19954659.94449
  23594314.503 5   -295495.703 5   -222086.93447  23594313.53047
 20  5 16  1 52 33.9990000  0  8G04G08G09G11G16G26G27G31             0.000088673
  21254384.269 6   -654506.617 6   -492845.29748  21254383.57348
  20237615.901 7  -1062438.711 7   -790739.39849  20237617.07349
  22584874.706 6  -1046626.262 6   -785787.21149  22584875.24149
  22669449.519 6  -1513879.598 6  -1153265.26647  22669448.26947
  21394898.644 6   -569093.895 6   -424189.83248  21394895.98048
  22870040.589 5   -472287.582 5   -346366.62147  22870042.51547
  19954071.269 7   -643091.910 7   -480161.53949  19954070.84749
  23594029.073 5   -296995.004 5   -223255.22347  23594028.14047
 20  5 16  1 52 34.9990000  0  8G04G08G09G11G16G26G27G31             0.000086050
  21253780.198 6   -657679.523 6   -495317.69548  21253779.92948
  20236618.683 7  -1067681.871 7   -794824.97749  20236619.33949
  22583910.956 6  -1051692.945 6   -789735.27349  22583910.99949
  22668032.417 6  -1521328.844 6  -1159069.87547  22668030.60547
  21394354.058 6   -571954.883 6   -426419.17248  21394351.78848
  22869582.581 5   -474694.188 5   -348241.89847  22869584.71047
  19953482.472 7   -646187.043 7   -482573.32449  19953481.95649
  23593743.394 5   -298494.434 5   -224423.61347  23593743.01547
 20  5 16  1 52 35.9990000  0  8G04G08G09G11G16G26G27G31             0.000083426
  21253176.425 6   -660852.152 6   -497789.87948  21253176.12848
  20235620.855 7  -1072924.691 7   -798910.28949  20235622.01549
  22582946.612 6  -1056759.262 6   -793683.05549  22582946.74149
  22666614.737 6  -1528778.168 6  -1164874.53947  22666613.07747
  21393809.542 6   -574816.063 6   -428648.66448  21393807.39448
  22869125.026 5   -477101.070 5   -350117.39147  22869126.80047
  19952893.355 7   -649281.887 7   -484984.89149  19952893.31249
  23593458.097 5   -299993.859 5   -225591.99647  23593457.53847
 20  5 16  1 52 36.9990000  0  8G04G08G09G11G16G26G27G31             0.000080801
  21252572.487 6   -664024.504 6   -500261.84448  21252572.12448
  20234623.386 7  -1078167.270 7   -802995.42249  20234624.14449
  22581982.605 6  -1061825.297 6   -797630.61749  22581982.71449
  22665197.089 6  -1536227.641 6  -1170679.32847  22665195.95647
  21393265.081 6   -577677.504 6   -430878.35548  21393262.71048
  22868666.245 5   -479508.211 5   -351993.09047  22868668.60547
  19952304.456 7   -652376.488 7   -487396.27349  19952304.21449
  23593172.737 5   -301493.309 5   -226760.38347  23593172.26147
 20  5 16  1 52 37.9990000  0  8G04G08G09G11G16G26G27G31             0.000078178
  21251969.034 6   -667196.656 6   -502733.64148  21251968.79248
  20233625.394 7  -1083409.621 7   -807080.37549  20233626.41749
  22581018.597 6  -1066891.125 6   -801578.02349  22581018.99549
  22663779.347 6  -1543677.273 6  -1176484.23847  22663777.70247
  21392720.339 6   -580539.199 6   -433108.25448  21392718.03048
  22868208.347 5   -481915.703 5   -353869.05947  22868210.43747
  19951715.769 7   -655470.816 7   -489807.43849  19951715.35849
  23592887.862 5   -302992.855 5   -227928.85947  23592886.98047
 20  5 16  1 52 38.9990000  0  8G04G08G09G11G16G26G27G31             0.000075554
  21251365.901 6   -670368.504 6   -505205.21948  21251365.31948
  20232628.190 7  -1088651.691 7   -811165.10549  20232628.71849
  22580054.394 6  -1071956.613 6   -805525.15649  22580054.80449
  22662361.667 6  -1551127.066 6  -1182289.27047  22662360.32747
  21392175.550 6   -583401.160 6   -435338.35548  21392173.22248
  22867749.878 5   -484323.480 5   -355745.24247  22867752.45647
  19951126.573 7   -658564.957 7   -492218.45349  19951126.24549
  23592601.964 5   -304492.457 5   -229097.38347  23592601.31547
 20  5 16  1 52 39.9990000  0  8G04G08G09G11G16G26G27G31             0.000072929
  21250762.581 6   -673540.125 6   -507676.60548  21250761.91748
  20231630.526 7  -1093893.543 7   -815249.66449  20231631.57749
  22579090.401 6  -1077021.859 6   -809472.09849  22579090.69449
  22660944.144 6  -1558577.020 6  -1188094.43447  22660942.65147
  21391631.636 6   -586263.406 6   -437568.68048  21391629.14748
  22867292.730 5   -486731.555 5   -357621.66847  22867294.27647
  19950538.003 7   -661658.848 7   -494629.27749  19950537.99549
  23592316.628 5   -305992.133 5   -230265.96547  23592315.94847
 20  5 16  1 52 40.9990000  0  8G04G08G09G11G16G26G27G31             0.000070305
  21250158.362 6   -676711.457 6   -510147.78148  21250158.45648
  20230633.222 7  -1099135.098 7   -819333.98449  20230634.23349
  22578127.386 6  -1082086.832 6   -813418.82849  22578127.08549
  22659526.401 6  -1566027.098 6  -1193899.68447  22659524.91747
  21391086.386 6   -589125.883 6   -439799.18048  21391084.01948
  22866834.105 5   -489139.926 5   -359498.33247  22866836.24547
  19949949.440 7   -664752.441 7   -497039.87149  19949949.34749
  23592031.026 5   -307491.863 5   -231434.59847  23592030.82747
 20  5 16  1 52 41.9990000  0  8G04G08G09G11G16G26G27G31             0.000067680
  21249555.401 6   -679882.531 6   -512618.75448  21249554.60548
  20229635.815 7  -1104376.418 7   -823418.13349  20229636.41749
  22577163.042 6  -1087151.531 6   -817365.34049  22577163.15549
  22658108.495 6  -1573477.340 6  -1199705.07047  22658107.20247
  21390541.448 6   -591988.625 6   -442029.89548  21390539.58548
  22866375.737 5   -491548.645 5   -361375.26247  22866377.64047
  19949360.761 7   -667845.852 7   -499450.32049  19949360.29249
  23591745.261 5   -308991.617 5   -232603.23447  23591745.13247
 20  5 16  1 52 42.9990000  0  8G04G08G09G11G16G26G27G31             0.000065054
  21248952.144 6   -683053.457 6   -515089.60248  21248951.05048
  20228638.542 7  -1109617.590 7   -827502.16449  20228639.30449
  22576199.651 6  -1092216.055 6   -821311.72749  22576199.64449
  22656690.792 6  -1580927.816 6  -1205510.61747  22656689.65147
  21389997.065 6   -594851.719 6   -444260.87548  21389994.48748
  22865917.136 5   -493957.715 5   -363252.46147  22865919.06247
  19948772.050 7   -670939.074 7   -501860.62149  19948772.21049
  23591460.144 5   -310491.527 5   -233772.00447  23591459.66347
 20  5 16  1 52 43.9990000  0  8G04G08G09G11G16G26G27G31             0.000062429
  21248348.651 6   -686224.156 6   -517560.28148  21248347.55848
  20227641.183 7  -1114858.484 7   -831585.97749  20227642.12449
  22575235.175 6  -1097280.320 6   -825257.90249  22575235.81549
  22655273.308 6  -1588378.449 6  -1211316.30947  22655271.47647
  21389451.972 6   -597715.086 6   -446492.07448  21389449.29648
  22865459.011 5   -496367.086 5   -365129.89547  22865460.52647
  19948183.456 7   -674032.066 7   -504270.74649  19948183.26149
  23591174.597 5   -311991.508 5   -234940.82847  23591174.40947
 20  5 16  1 52 44.9990000  0  8G04G08G09G11G16G26G27G31             0.000059803
  21247745.409 6   -689394.539 6   -520030.70348  21247744.10548
  20226643.714 7  -1120099.105 7   -835669.58249  20226644.71449
  22574271.987 6  -1102344.254 6   -829203.82849  22574272.41749
  22653855.698 6  -1595829.203 6  -1217122.09447  22653853.81547
  21388907.339 6   -600578.668 6   -448723.43448  21388904.24148
  22865000.136 5   -498776.766 5   -367007.56347  22865002.10847
  19947594.714 7   -677124.785 7   -506680.66449  19947594.58949
  23590889.683 5   -313491.516 5   -236109.67247  23590888.96447
 20  5 16  1 52 45.9990000  0  8G04G08G09G11G16G26G27G31             0.000057178
  21247142.120 6   -692564.723 6   -522500.98048  21247141.53448
  20225646.550 7  -1125339.512 7   -839753.01649  20225647.35149
  22573308.597 6  -1107407.969 6   -833149.57849  22573308.79649
  22652437.487 6  -1603280.137 6  -1222928.01247  22652435.84747
  21388362.237 6   -603442.559 6   -450955.03948  21388359.42148
  22864541.433 5   -501186.773 5   -368885.49647  22864543.52247
  19947006.550 7   -680217.301 7   -509090.41449  19947006.00749
  23590604.378 5   -314991.629 5   -237278.59047  23590603.82747
 20  5 16  1 52 46.9990000  0  8G04G08G09G11G16G26G27G31             0.000054552
  21246538.565 6   -695734.570 6   -524970.98448  21246538.41748
  20224649.222 7  -1130579.609 7   -843836.21149  20224650.26949
  22572344.972 6  -1112471.363 6   -837095.08249  22572344.96449
  22651019.573 6  -1610731.156 6  -1228734.00447  22651018.30447
  21387817.175 6   -606306.660 6   -453186.80948  21387814.33148
  22864082.987 5   -503597.023 5   -370763.61347  22864085.08147
  19946418.065 7   -683309.516 7   -511499.93449  19946417.92549
  23590318.933 5   -316491.727 5   -238447.50447  23590317.87447
 20  5 16  1 52 47.9990000  0  8G04G08G09G11G16G26G27G31             0.000051926
  21245935.222 6   -698904.199 6   -527440.82848  21245934.63648
  20223652.214 7  -1135819.492 7   -847919.23449  20223653.09749
  22571381.722 6  -1117534.480 6   -841040.37549  22571381.35549
  22649601.464 6  -1618182.355 6  -1234540.13747  22649599.97647
  21387272.175 6   -609171.016 6   -455418.77348  21387269.35548
  22863623.933 5   -506007.590 5   -372641.97747  22863626.21447
  19945829.495 7   -686401.500 7   -513909.26649  19945829.55049
  23590032.925 5   -317991.922 5   -239616.48847  23590032.46047
 20  5 16  1 52 48.9990000  0  8G04G08G09G11G16G26G27G31             0.000049299
  21245332.425 6   -702073.551 6   -529910.46148  21245332.00348
  20222655.042 7  -1141059.109 7   -852002.05149  20222656.07349
  22570417.917 6  -1122597.332 6   -844985.45349  22570418.06249
  22648183.597 6  -1625633.668 6  -1240346.35547  22648181.81247
  21386727.042 6   -612035.629 6   -457650.93848  21386724.07748
  22863165.589 5   -508418.465 5   -374520.59047  22863167.05447
  19945241.433 7   -689493.203 7   -516318.38349  19945241.06949
  23589747.175 5   -319492.129 5   -240785.47347  23589746.99947
 20  5 16  1 52 49.9990000  0  8G04G08G09G11G16G26G27G31             0.000046673
  21244729.690 6   -705242.652 6   -532379.89148  21244728.90148
  20221658.300 7  -1146298.484 7   -856084.68049  20221658.88649
  22569454.855 6  -1127659.891 6   -848930.30949  22569454.93749
  22646765.847 6  -1633085.156 6  -1246152.70347  22646764.15547
  21386182.058 6   -614900.520 6   -459883.31648  21386179.06948
  22862706.440 5   -510829.664 5   -376399.44547  22862708.54647
  19944653.136 7   -692584.719 7   -518727.35949  19944652.78449
  23589461.839 5   -320992.414 5   -241954.52747  23589461.27647
 20  5 16  1 52 50.9990000  0  8G04G08G09G11G16G26G27G31             0.000044046
  21244126.659 6   -708411.477 6   -534849.10548  21244125.79248
  20220661.245 7  -1151537.555 7   -860167.07849  20220662.12849
  22568491.534 6  -1132722.156 6   -852874.93049  22568491.47649
  22645348.042 6  -1640536.754 6  -1251959.14547  22645346.39047
  21385636.753 6   -617765.625 6   -462115.87148  21385633.67548
  22862247.917 5   -513241.086 5   -378278.48447  22862249.51947
  19944064.925 7   -695675.938 7   -521136.10249  19944064.76149
  23589176.737 5   -322492.730 5   -243123.61347  23589176.19447
 20  5 16  1 52 51.9990000  0  8G04G08G09G11G16G26G27G31             0.000041420
  21243523.331 6   -711580.145 6   -537318.19948  21243523.06548
  20219664.448 7  -1156776.473 7   -864249.34849  20219664.94049
  22567528.073 6  -1137784.250 6   -856819.42249  22567528.10149
  22643930.151 6  -1647988.578 6  -1257765.75847  22643928.44447
  21385091.448 6   -620631.082 6   -464348.69948  21385088.73048
  22861788.683 5   -515652.949 5   -380157.85547  22861790.56947
  19943476.605 7   -698767.004 7   -523544.72749  19943476.32749
  23588891.495 5   -323993.219 5   -244292.82447  23588890.35547
 20  5 16  1 52 52.9990000  0  8G04G08G09G11G16G26G27G31             0.000038792
  21242920.862 6   -714748.555 6   -539787.09448  21242920.15148
  20218667.573 7  -1162015.168 7   -868331.44949  20218668.23749
  22566565.315 6  -1142846.074 6   -860763.69149  22566565.19049
  22642511.737 6  -1655440.590 6  -1263572.52347  22642510.26547
  21384546.073 6   -623496.824 6   -466581.74248  21384543.21848
  22861329.730 5   -518065.113 5   -382037.47347  22861331.81547
  19942888.464 7   -701857.855 7   -525953.18049  19942888.19049
  23588605.956 5   -325493.766 5   -245462.09047  23588604.93747
 20  5 16  1 52 53.9990000  0  8G04G08G09G11G16G26G27G31             0.000036165
  21242317.605 6   -717916.637 6   -542255.72348  21242316.74948
  20217670.534 7  -1167253.504 7   -872413.27349  20217671.54249
  22565602.073 6  -1147907.539 6   -864707.69549  22565602.08949
  22641093.347 6  -1662892.633 6  -1269379.31647  22641092.14047
  21384000.534 6   -626362.727 6   -468814.91848  21383997.70648
  22860870.683 5   -520477.500 5   -383917.25447  22860873.18347
  19942300.550 7   -704948.367 7   -528361.37549  19942300.37049
  23588320.120 5   -326994.277 5   -246631.32047  23588319.17147
 20  5 16  1 52 54.9990000  0  8G04G08G09G11G16G26G27G31             0.000033539
  21241714.386 6   -721084.461 6   -544724.15248  21241714.09348
  20216673.948 7  -1172491.598 7   -876494.90249  20216674.76949
  22564638.636 6  -1152968.730 6   -868651.48049  22564638.85149
  22639675.487 6  -1670344.863 6  -1275186.25047  22639673.69447
  21383455.112 6   -629228.906 6   -471048.30148  21383452.61648
  22860411.245 5   -522890.191 5   -385797.26647  22860413.69047
  19941712.370 7   -708038.633 7   -530769.37549  19941712.17549
  23588034.534 5   -328494.832 5   -247800.58247  23588033.79247
 20  5 16  1 52 55.9990000  0  8G04G08G09G11G16G26G27G31             0.000030910
  21241112.151 6   -724252.063 6   -547192.41848  21241111.61248
  20215677.167 7  -1177729.492 7   -880576.37549  20215678.25349
  22563675.175 6  -1158029.703 6   -872595.10249  22563675.40149
  22638257.440 6  -1677797.285 6  -1280993.33247  22638255.57747
  21382910.003 6   -632095.398 6   -473281.93848  21382906.92148
  22859952.183 5   -525303.227 5   -387677.55147  22859954.19847
  19941124.472 7   -711128.715 7   -533177.23049  19941123.84749
  23587748.808 5   -329995.516 5   -248969.94947  23587748.15547
 20  5 16  1 52 56.9990000  0  8G04G08G09G11G16G26G27G31             0.000028282
  21240509.355 6   -727419.473 6   -549660.53148  21240508.67548
  20214680.628 7  -1182967.164 7   -884657.68049  20214681.50749
  22562712.331 6  -1163090.457 6   -876538.55149  22562712.43349
  22636839.144 6  -1685249.895 6  -1286800.56347  22636837.19847
  21382364.206 6   -634962.176 6   -475515.78948  21382361.78848
  22859493.347 5   -527716.633 5   -389558.12547  22859495.27247
  19940536.128 7   -714218.605 7   -535584.93849  19940536.02249
  23587463.370 5   -331496.309 5   -250139.40647  23587462.77647
 20  5 16  1 52 57.9990000  0  8G04G08G09G11G16G26G27G31             0.000025654
  21239906.448 6   -730586.512 6   -552128.35548  21239906.20248
  20213683.667 7  -1188204.469 7   -888738.69949  20213684.43749
  22561749.714 6  -1168150.813 6   -880481.68449  22561749.47649
  22635421.058 6  -1692702.523 6  -1292607.80147  22635419.13247
  21381818.409 6   -637829.109 6   -477749.76648  21381815.55048
  22859033.722 5   -530130.160 5   -391438.80147  22859035.90947
  19939948.487 7   -717308.148 7   -537992.37949  19939948.21049
  23587177.526 5   -332997.027 5   -251308.80947  23587177.35147
 20  5 16  1 52 58.9990000  0  8G04G08G09G11G16G26G27G31             0.000023027
  21239303.464 6   -733753.328 6   -554596.00848  21239303.21848
  20212687.409 7  -1193441.559 7   -892819.54749  20212687.90949
  22560786.776 6  -1173210.945 6   -884424.64549  22560787.01549
  22634002.972 6  -1700155.355 6  -1298415.19947  22634001.26947
  21381272.956 6   -640696.324 6   -479983.95748  21381269.84748
  22858574.042 5   -532544.074 5   -393319.78147  22858576.22647
  19939360.737 7   -720397.449 7   -540399.62549  19939360.33149
  23586892.362 5   -334497.859 5   -252478.29347  23586891.38247
 20  5 16  1 52 59.9990000  0  8G04G08G09G11G16G26G27G31             0.000020397
  21238701.214 6   -736919.871 6   -557063.44948  21238700.89448
  20211690.800 7  -1198678.387 7   -896900.19549  20211691.27249
  22559823.964 6  -1178270.770 6   -888367.35949  22559823.65949
  22632584.503 6  -1707608.309 6  -1304222.69147  22632582.88647
  21380727.308 6   -643563.809 6   -482218.36348  21380724.56548
  22858114.980 5   -534958.285 5   -395200.98847  22858117.14047
  19938772.730 7   -723486.516 7   -542806.68849  19938772.65949
  23586606.409 5   -335998.715 5   -253647.78947  23586605.78047
 20  5 16  1 53  0.9990000  0  8G04G08G09G11G16G26G27G31             0.000017769
  21238098.706 6   -740086.242 6   -559530.74648  21238098.19448
  20210694.105 7  -1203915.012 7   -900980.67649  20210695.00749
  22558861.128 6  -1183330.387 6   -892309.91849  22558860.90549
  22631166.151 6  -1715061.457 6  -1310030.33247  22631164.30447
  21380181.300 6   -646431.594 6   -484453.00448  21380178.77648
  22857655.581 5   -537372.859 5   -397082.48047  22857657.73347
  19938184.784 7   -726575.406 7   -545213.62149  19938184.81549
  23586320.894 5   -337499.699 5   -254817.39547  23586320.17147
 20  5 16  1 53  1.9990000  0  8G04G08G09G11G16G26G27G31             0.000015141
  21237496.534 6   -743252.324 6   -561997.82448  21237495.79248
  20209697.636 7  -1209151.355 7   -905060.94549  20209698.45649
  22557897.933 6  -1188389.703 6   -896252.24249  22557898.36649
  22629747.448 6  -1722514.742 6  -1315838.08647  22629746.12847
  21379635.401 6   -649299.641 6   -486687.84448  21379632.59748
  22857196.261 5   -539787.738 5   -398964.19947  22857197.98747
  19937597.144 7   -729664.012 7   -547620.32449  19937597.13249
  23586035.401 5   -339000.742 5   -255987.04347  23586034.60847
 20  5 16  1 53  2.9990000  0  8G04G08G09G11G16G26G27G31             0.000012510
  21236893.878 6   -746418.156 6   -564464.70348  21236893.08148
  20208701.464 7  -1214387.457 7   -909141.02749  20208701.95249
  22556935.667 6  -1193448.754 6   -900194.36749  22556935.81949
  22628329.151 6  -1729968.188 6  -1321645.97347  22628328.04647
  21379089.526 6   -652167.941 6   -488922.88348  21379086.75748
  22856736.159 5   -542202.879 5   -400846.12947  22856738.35547
  19937009.612 7   -732752.383 7   -550026.84849  19937009.08949
  23585749.542 5   -340501.813 5   -257156.70747  23585749.08947
 20  5 16  1 53  3.9990000  0  8G04G08G09G11G16G26G27G31             0.000009882
  21236291.526 6   -749583.641 6   -566931.31648  21236290.81948
  20207705.105 7  -1219623.227 7   -913220.84849  20207705.84749
  22555972.956 6  -1198507.469 6   -904136.22749  22555972.65549
  22626910.980 6  -1737421.695 6  -1327453.89847  22626909.40147
  21378544.144 6   -655036.414 6   -491158.05948  21378541.55448
  22856276.784 5   -544618.246 5   -402728.23447  22856278.68347
  19936421.909 7   -735840.461 7   -552433.14849  19936421.48749
  23585464.120 5   -342002.871 5   -258326.37147  23585463.13647
 20  5 16  1 53  4.9990000  0  8G04G08G09G11G16G26G27G31             0.000007254
  21235689.058 6   -752748.875 6   -569397.73048  21235688.45648
  20206708.690 7  -1224858.742 7   -917300.47349  20206709.37849
  22555010.355 6  -1203565.883 6   -908077.84849  22555010.47249
  22625492.980 6  -1744875.313 6  -1333261.91047  22625491.05447
  21377998.167 6   -657905.137 6   -493393.43048  21377994.98748
  22855816.753 5   -547033.930 5   -404610.58647  22855818.95647
  19935834.276 7   -738928.254 7   -554839.21549  19935833.71049
  23585178.542 5   -343503.973 5   -259496.07047  23585177.51947
 20  5 16  1 53  5.9990000  0  8G04G08G09G11G16G26G27G31             0.000004623
  21235086.995 6   -755913.813 6   -571863.92648  21235086.32748
  20205712.456 7  -1230093.992 7   -921379.89149  20205713.54249
  22554048.284 6  -1208624.008 6   -912019.24249  22554047.69449
  22624074.261 6  -1752329.090 6  -1339070.04747  22624072.60147
  21377452.167 6   -660774.094 6   -495628.98048  21377449.71448
  22855357.183 5   -549449.895 5   -406493.15247  22855359.34347
  19935246.620 7   -742015.820 7   -557245.11349  19935246.22649
  23584892.487 5   -345005.105 5   -260665.78147  23584892.15547
 20  5 16  1 53  6.9990000  0  8G04G08G09G11G16G26G27G31             0.000001993
  21234485.097 6   -759078.605 6   -574329.99648  21234484.52248
  20204716.026 7  -1235329.055 7   -925459.16049  20204716.96049
  22553084.995 6  -1213681.934 6   -915960.48449  22553085.10549
  22622655.800 6  -1759783.063 6  -1344878.33647  22622654.11247
  21376906.776 6   -663643.410 6   -497864.82048  21376903.26948
  22854897.550 5   -551866.227 5   -408376.00847  22854899.43747
  19934659.128 7   -745103.184 7   -559650.84849  19934659.14749
  23584607.308 5   -346506.402 5   -261835.62947  23584606.48347
 20  5 16  1 53  7.9990000  0  8G04G08G09G11G16G26G27G31            -0.000000637
  21233882.495 6   -762243.051 6   -576795.80148  21233882.01548
  20203720.151 7  -1240563.789 7   -929538.17649  20203720.96049
  22552123.222 6  -1218739.512 6   -919901.45749  22552122.75749
  22621237.378 6  -1767237.117 6  -1350686.69147  22621235.74547
  21376360.276 6   -666512.898 6   -500100.78548  21376357.32348
  22854437.362 5   -554282.770 5   -410259.03147  22854439.52247
  19934071.839 7   -748190.246 7   -562056.35249  19934071.75349
  23584321.417 5   -348007.676 5   -263005.44947  23584321.00347
 20  5 16  1 53  8.9990000  0  8G04G08G09G11G16G26G27G31            -0.000003267
  21233280.605 6   -765407.359 6   -579261.49648  21233279.89048
  20202723.964 7  -1245798.391 7   -933617.08649  20202724.99549
  22551160.683 6  -1223796.914 6   -923842.28549  22551160.52649
  22619818.472 6  -1774691.434 6  -1356495.24647  22619817.28047
  21375814.417 6   -669382.758 6   -502337.04348  21375811.08548
  22853977.409 5   -556699.734 5   -412142.37947  22853979.80447
  19933484.284 7   -751277.180 7   -564461.75849  19933484.12449
  23584035.761 5   -349509.086 5   -264175.39147  23584035.43347
 20  5 16  1 53  9.9990000  0  8G04G08G09G11G16G26G27G31            -0.000005898
  21232678.440 6   -768571.289 6   -581726.89548  21232677.66348
  20201727.972 7  -1251032.641 7   -937695.71949  20201729.00749
  22550197.620 6  -1228853.977 6   -927782.85549  22550198.26549
  22618400.347 6  -1782145.785 6  -1362303.83247  22618399.08547
  21375268.480 6   -672252.746 6   -504573.39148  21375265.30048
  22853517.362 5   -559116.926 5   -414025.90647  22853519.75747
  19932896.948 7   -754363.754 7   -566866.87949  19932896.67949
  23583750.175 5   -351010.457 5   -265345.28947  23583749.48747
 20  5 16  1 53 10.9990000  0  8G04G08G09G11G16G26G27G31            -0.000008528
  21232076.487 6   -771734.918 6   -584192.06348  21232075.54648
  20200731.800 7  -1256266.570 7   -941774.10249  20200732.96449
  22549235.589 6  -1233910.652 6   -931723.12949  22549235.83949
  22616981.456 6  -1789600.199 6  -1368112.47347  22616979.86247
  21374722.019 6   -675122.941 6   -506809.91048  21374719.00348
  22853057.378 5   -561534.332 5   -415909.59847  22853059.76947
  19932309.753 7   -757450.031 7   -569271.77349  19932309.30449
  23583464.198 5   -352511.820 5   -266515.18447  23583463.99147
 20  5 16  1 53 11.9990000  0  8G04G08G09G11G16G26G27G31            -0.000011158
  21231474.339 6   -774898.363 6   -586657.09048  21231473.52248
  20199736.034 7  -1261500.359 7   -945852.38349  20199736.60149
  22548273.495 6  -1238967.176 6   -935663.27349  22548273.28849
  22615563.237 6  -1797054.871 6  -1373921.30147  22615561.40947
  21374175.995 6   -677993.500 6   -509046.71548  21374172.79648
  22852597.081 5   -563952.137 5   -417793.60547  22852599.53447
  19931722.487 7   -760536.152 7   -571676.54749  19931722.30449
  23583178.581 5   -354013.336 5   -267685.20347  23583178.14447
 20  5 16  1 53 12.9990000  0  8G04G08G09G11G16G26G27G31            -0.000013790
  21230872.573 6   -778061.488 6   -589121.86348  21230872.14448
  20198740.323 7  -1266733.785 7   -949930.37549  20198741.15149
  22547311.472 6  -1244023.320 6   -939603.12949  22547311.47649
  22614144.722 6  -1804509.605 6  -1379730.19147  22614143.02647
  21373629.730 6   -680864.227 6   -511283.64148  21373626.73748
  22852137.472 5   -566370.168 5   -419677.79347  22852139.42147
  19931135.136 7   -763621.941 7   -574081.05149  19931134.89449
  23582893.144 5   -355514.852 5   -268855.21947  23582892.62047
 20  5 16  1 53 13.9990000  0  8G04G08G09G11G16G26G27G31            -0.000016420
  21230270.581 6   -781224.398 6   -591586.46548  21230269.82348
  20197744.081 7  -1271967.012 7   -954008.22349  20197745.26149
  22546349.550 6  -1249079.250 6   -943542.81349  22546349.83149
  22612726.480 6  -1811964.523 6  -1385539.22347  22612724.39447
  21373083.198 6   -683735.270 6   -513520.82048  21373080.01148
  22851677.011 5   -568788.535 5   -421562.23847  22851678.98047
  19930548.128 7   -766707.547 7   -576485.42249  19930547.95649
  23582607.347 5   -357016.418 5   -270025.27047  23582606.84747
 20  5 16  1 53 14.9990000  0  8G04G08G09G11G16G26G27G31            -0.000019053
  21229668.433 6   -784386.969 6   -594050.80948  21229667.94448
  20196748.605 7  -1277199.906 7   -958085.80549  20196749.49549
  22545387.362 6  -1254134.797 6   -947482.19149  22545387.46849
  22611307.120 6  -1819419.516 6  -1391348.29747  22611305.34347
  21372536.776 6   -686606.469 6   -515758.11348  21372533.58548
  22851216.878 5   -571207.109 5   -423446.83647  22851218.90947
  19929960.792 7   -769792.832 7   -578889.54749  19929960.44849
  23582321.987 5   -358517.996 5   -271195.33647  23582320.98747
 20  5 16  1 53 15.9990000  0  8G04G08G09G11G16G26G27G31            -0.000021683
  21229066.644 6   -787549.305 6   -596514.96948  21229066.53048
  20195752.761 7  -1282432.570 7   -962163.20349  20195753.63249
  22544425.761 6  -1259190.137 6   -951421.42249  22544425.59749
  22609888.870 6  -1826874.660 6  -1397157.50047  22609886.67947
  21371990.456 6   -689477.980 6   -517995.65648  21371987.34348
  22850756.284 4   -573626.016 4   -425331.70347  22850758.32347
  19929373.776 7   -772877.898 7   -581293.49249  19929373.54249
  23582035.933 5   -360019.672 5   -272365.46947  23582035.19847
 20  5 16  1 53 16.9990000  0  8G04G08G09G11G16G26G27G31            -0.000024315
  21228465.081 6   -790711.367 6   -598978.91448  21228464.45248
  20194757.034 7  -1287664.914 7   -966240.35549  20194757.29249
  22543463.480 6  -1264245.137 6   -955360.38349  22543463.54249
  22608470.097 6  -1834329.902 6  -1402966.78147  22608468.00747
  21371444.261 6   -692349.688 6   -520233.35248  21371440.91348
  22850296.464 4   -576045.203 4   -427216.78547  22850298.33947
  19928786.558 7   -775962.660 7   -583697.19949  19928786.27649
  23581749.855 5   -361521.324 5   -273535.59447  23581749.50347
 20  5 16  1 53 17.9990000  0  8G04G08G09G11G16G26G27G31            -0.000026947
  21227863.511 6   -793873.176 6   -601442.66048  21227862.62448
  20193761.605 7  -1292897.055 7   -970317.34849  20193762.35549
  22542501.878 6  -1269299.867 6   -959299.13749  22542501.78449
  22607051.315 6  -1841785.316 6  -1408776.19947  22607050.06547
  21370897.480 6   -695221.676 6   -522471.26648  21370894.14448
  22849836.159 4   -578464.730 4   -429102.12947  22849837.78847
  19928199.558 7   -779047.242 7   -586100.76649  19928199.48349
  23581464.042 5   -363023.066 5   -274705.78147  23581463.37847
 20  5 16  1 53 18.9990000  0  8G04G08G09G11G16G26G27G31            -0.000029579
  21227261.956 6   -797034.770 6   -603906.24648  21227261.23348
  20192765.722 7  -1298128.969 7   -974394.16449  20192766.85849
  22541539.870 6  -1274354.391 6   -963237.73049  22541539.80449
  22605632.722 6  -1849240.926 6  -1414585.75847  22605631.11247
  21370350.706 6   -698093.953 6   -524709.39848  21370348.05448
  22849375.472 4   -580884.539 4   -430987.70347  22849377.51547
  19927613.011 7   -782131.551 7   -588504.12149  19927612.54649
  23581178.636 5   -364524.906 5   -275876.05947  23581177.62447
 20  5 16  1 53 19.9990000  0  8G04G08G09G11G16G26G27G31            -0.000032211
  21226660.331 6   -800196.070 6   -606369.59048  21226659.82348
  20191770.339 7  -1303360.594 7   -978470.75049  20191771.15949
  22540578.034 6  -1279408.574 6   -967176.05549  22540578.07749
  22604213.800 6  -1856696.668 6  -1420395.42647  22604211.97647
  21369804.167 6   -700966.465 6   -526947.72748  21369801.14748
  22848914.706 4   -583304.609 4   -432873.47747  22848916.96047
  19927025.948 7   -785215.633 7   -590907.30949  19927025.51949
  23580892.362 5   -366026.793 5   -277046.35947  23580891.54647
 20  5 16  1 53 20.9990000  0  8G04G08G09G11G16G26G27G31            -0.000034843
  21226058.675 6   -803357.109 6   -608832.73848  21226057.99948
  20190775.019 7  -1308591.934 7   -982547.12149  20190775.60849
  22539616.214 6  -1284462.473 6   -971114.15649  22539616.33149
  22602794.808 6  -1864152.523 6  -1426205.19147  22602793.15547
  21369257.737 6   -703839.223 6   -529186.23848  21369254.28048
  22848454.120 5   -585725.023 5   -434759.51647  22848456.54247
  19926439.065 7   -788299.449 7   -593310.28549  19926438.93749
  23580606.792 5   -367528.684 5   -278216.66447  23580606.24547
 20  5 16  1 53 21.9990000  0  8G04G08G09G11G16G26G27G31            -0.000037477
  21225457.769 6   -806517.840 6   -611295.65248  21225456.73048
  20189779.605 7  -1313822.980 7   -986623.26249  20189780.14749
  22538654.253 6  -1289516.047 6   -975052.01249  22538654.60149
  22601376.026 6  -1871608.453 6  -1432015.00047  22601374.14447
  21368710.792 6   -706712.160 6   -531424.89148  21368707.40548
  22847993.730 5   -588145.648 5   -436645.72347  22847995.70247
  19925852.339 7   -791382.965 7   -595713.02349  19925851.93749
  23580321.355 5   -369030.586 5   -279386.98447  23580320.63647
 20  5 16  1 53 22.9990000  0  8G04G08G09G11G16G26G27G31            -0.000040110
  21224855.815 6   -809678.320 6   -613758.35948  21224855.54248
  20188784.261 7  -1319053.766 7   -990699.19949  20188784.58949
  22537692.823 6  -1294569.379 6   -978989.68049  22537692.90549
  22599957.425 6  -1879064.574 6  -1437824.96147  22599955.81947
  21368163.847 6   -709585.434 6   -533663.80948  21368160.72648
  22847533.105 4   -590566.641 4   -438532.20747  22847534.80447
  19925265.823 7   -794466.270 7   -598115.59849  19925265.52249
  23580034.964 5   -370532.594 5   -280557.38347  23580034.56947
 20  5 16  1 53 23.9990000  0  8G04G08G09G11G16G26G27G31            -0.000042744
  21224254.456 6   -812838.516 6   -616220.85248  21224253.94048
  20187788.534 7  -1324284.254 7   -994774.90649  20187789.61249
  22536731.565 6  -1299622.391 6   -982927.08649  22536731.46049
  22598538.597 6  -1886520.781 6  -1443634.99647  22598536.88247
  21367616.972 6   -712458.887 6   -535902.86348  21367614.00748
  22847072.487 4   -592987.859 4   -440418.87547  22847074.26947
  19924679.245 7   -797549.285 7   -600517.94549  19924678.57749
  23579749.167 5   -372034.582 5   -281727.76247  23579748.96047
 20  5 16  1 53 24.9990000  0  8G04G08G09G11G16G26G27G31            -0.000045376
  21223653.472 6   -815998.469 6   -618683.15648  21223652.76948
  20186793.503 7  -1329514.531 7   -998850.44949  20186793.94049
  22535769.808 6  -1304675.113 6   -986864.26649  22535769.75349
  22597119.628 6  -1893977.172 6  -1449445.16847  22597118.20647
  21367070.542 6   -715332.613 6   -538142.12548  21367067.11648
  22846611.464 5   -595409.371 5   -442305.77047  22846613.49947
  19924092.237 7   -800632.051 7   -602920.10949  19924092.00349
  23579463.862 5   -373536.645 5   -282898.20747  23579462.74947
 20  5 16  1 53 25.9990000  0  8G04G08G09G11G16G26G27G31            -0.000048010
  21223052.362 6   -819158.133 6   -621145.23848  21223051.36248
  20185798.378 7  -1334744.500 7  -1002925.74649  20185798.83549
  22534808.159 6  -1309727.574 6   -990801.25449  22534808.16349
  22595700.511 6  -1901433.633 6  -1455255.40247  22595698.89047
  21366523.370 6   -718206.563 6   -540381.56648  21366520.43748
  22846151.315 5   -597831.184 5   -444192.90247  22846152.91747
  19923505.667 7   -803714.574 7   -605322.07449  19923505.44449
  23579177.737 5   -375038.754 5   -284068.68847  23579177.17547
 20  5 16  1 53 26.9990000  0  8G04G08G09G11G16G26G27G31            -0.000050642
  21222450.722 6   -822317.438 6   -623607.03148  21222450.32348
  20184802.956 7  -1339974.109 7  -1007000.77049  20184803.52649
  22533846.878 6  -1314779.629 6   -994737.92249  22533846.96849
  22594281.800 6  -1908890.129 6  -1461065.66047  22594279.89747
  21365976.784 6   -721080.664 6   -542621.12948  21365973.46048
  22845690.347 5   -600253.180 5   -446080.17247  22845691.74147
  19922919.456 7   -806796.727 7   -607723.74649  19922918.99949
  23578891.519 5   -376540.785 5   -285239.10247  23578891.25747
 20  5 16  1 53 27.9990000  0  8G04G08G09G11G16G26G27G31            -0.000053276
  21221849.401 6   -825476.523 6   -626068.66048  21221848.78048
  20183807.589 7  -1345203.516 7  -1011075.63349  20183808.71449
  22532886.003 6  -1319831.438 6   -998674.39149  22532885.76149
  22592863.011 6  -1916346.813 6  -1466876.06647  22592861.15147
  21365429.792 6   -723955.047 6   -544860.91048  21365426.23748
  22845228.698 5   -602675.516 5   -447967.71147  22845230.81247
  19922332.776 7   -809878.684 7   -610125.27049  19922332.62849
  23578606.425 5   -378042.941 5   -286409.61347  23578605.46847
 20  5 16  1 53 28.9990000  0  8G04G08G09G11G16G26G27G31            -0.000055910
  21221248.378 6   -828635.332 6   -628530.07448  21221247.80848
  20182812.886 7  -1350432.633 7  -1015150.27049  20182813.31549
  22531924.495 6  -1324882.934 6  -1002610.62549  22531924.39049
  22591443.831 6  -1923803.641 6  -1472686.57847  22591441.59347
  21364882.714 6   -726829.691 6   -547100.89148  21364879.51948
  22844767.987 5   -605098.098 5   -449855.43847  22844769.74147
  19921746.308 7   -812960.363 7   -612526.57849  19921745.86249
  23578320.315 5   -379545.105 5   -287580.13347  23578319.62847
 20  5 16  1 53 29.9990000  0  8G04G08G09G11G16G26G27G31            -0.000058544
  21220647.472 6   -831793.867 6   -630991.26648  21220646.85548
  20181817.761 7  -1355661.504 7  -1019224.71149  20181818.56549
  22530963.120 6  -1329934.164 6  -1006546.64849  22530963.19049
  22590024.995 6  -1931260.559 6  -1478497.16447  22590023.12447
  21364335.292 6   -729704.559 6   -549341.05148  21364332.42148
  22844306.378 5   -607521.035 5   -451743.44547  22844308.57347
  19921159.987 7   -816041.813 7   -614927.70749  19921159.77249
  23578034.284 5   -381047.332 5   -288750.70347  23578033.47647
 20  5 16  1 53 30.9990000  0  8G04G08G09G11G16G26G27G31            -0.000061178
  21220046.425 6   -834952.152 6   -633452.27348  21220045.69448
  20180822.722 7  -1360890.145 7  -1023298.98049  20180823.62049
  22530001.995 6  -1334985.133 6  -1010482.46949  22530002.24149
  22588605.964 6  -1938717.668 6  -1484307.89547  22588603.99947
  21363788.284 6   -732579.699 6   -551581.42648  21363785.20248
  22843845.745 5   -609944.238 5   -453631.64847  22843847.41747
  19920573.808 7   -819123.000 7   -617328.63749  19920573.54249
  23577748.308 5   -382549.598 5   -289921.30547  23577747.89047
 20  5 16  1 53 31.9990000  0  8G04G08G09G11G16G26G27G31            -0.000063814
  21219445.300 6   -838110.160 6   -635913.05548  21219444.95648
  20179827.980 7  -1366118.473 7  -1027373.00449  20179828.44049
  22529041.315 6  -1340035.789 6  -1014418.05149  22529041.43349
  22587186.722 6  -1946174.871 6  -1490118.70747  22587185.15147
  21363241.503 6   -735455.074 6   -553821.97348  21363238.55048
  22843384.870 5   -612367.703 5   -455520.06647  22843386.41747
  19919987.206 7   -822203.945 7   -619729.37149  19919987.05849
  23577462.612 5   -384051.914 5   -291091.94947  23577462.04247
 20  5 16  1 53 32.9990000  0  8G04G08G09G11G16G26G27G31            -0.000066448
  21218844.589 6   -841267.949 6   -638373.66848  21218843.79248
  20178833.214 7  -1371346.563 7  -1031446.83249  20178833.51149
  22528079.909 6  -1345086.195 6  -1018353.43049  22528079.75349
  22585767.745 6  -1953632.230 6  -1495929.63747  22585765.88247
  21362694.144 6   -738330.715 6   -556062.73448  21362690.98748
  22842923.448 5   -614791.516 5   -457408.76247  22842925.34747
  19919401.276 7   -825284.641 7   -622129.92249  19919400.89449
  23577176.198 5   -385554.309 5   -292262.64147  23577176.15547
 20  5 16  1 53 33.9990000  0  8G04G08G09G11G16G26G27G31            -0.000069084
  21218243.651 6   -844425.488 6   -640834.09048  21218243.30448
  20177838.073 7  -1376574.449 7  -1035520.51249  20177839.06549
  22527119.323 6  -1350136.313 6  -1022288.58249  22527119.35849
  22584348.355 6  -1961089.762 6  -1501740.71147  22584346.96447
  21362146.495 6   -741206.641 6   -558303.72348  21362143.98748
  22842462.433 5   -617215.637 5   -459297.68047  22842464.05847
  19918814.878 7   -828365.121 7   -624530.29749  19918814.43349
  23576890.081 5   -387056.770 5   -293433.39847  23576889.76947
 20  5 16  1 53 34.9990000  0  8G04G08G09G11G16G26G27G31            -0.000071718
  21217643.144 6   -847582.785 6   -643294.32848  21217642.53848
  20176843.175 7  -1381802.066 7  -1039593.98449  20176844.06549
  22526158.214 6  -1355186.199 6  -1026223.55149  22526158.16749
  22582929.253 6  -1968547.430 6  -1507551.88347  22582927.81547
  21361599.487 6   -744082.824 6   -560544.91048  21361596.55848
  22842000.972 5   -619640.039 5   -461186.82847  22842002.77647
  19918228.870 7   -831445.367 7   -626930.48849  19918228.43749
  23576604.339 5   -388559.270 5   -294604.18047  23576603.92147
 20  5 16  1 53 35.9990000  0  8G04G08G09G11G16G26G27G31            -0.000074354
  21217042.456 6   -850739.762 6   -645754.30948  21217041.79648
  20175848.667 7  -1387029.410 7  -1043667.23449  20175849.19449
  22525197.370 6  -1360235.766 6  -1030158.27749  22525197.76149
  22581510.073 6  -1976005.191 6  -1513363.12147  22581508.24947
  21361052.026 6   -746959.223 6   -562786.25448  21361049.05448
  22841539.815 5   -622064.766 5   -463076.21947  22841541.29247
  19917642.714 7   -834525.348 7   -629330.47749  19917641.99949
  23576318.378 5   -390061.828 5   -295775.01247  23576317.94047
 20  5 16  1 53 36.9990000  0  8G04G08G09G11G16G26G27G31            -0.000076988
  21216441.878 6   -853896.539 6   -648214.13748  21216440.89748
  20174854.105 7  -1392256.531 7  -1047740.32049  20174854.50349
  22524236.261 6  -1365285.035 6  -1034092.77749  22524236.95649
  22580091.050 6  -1983463.156 6  -1519174.52047  22580089.30847
  21360504.620 6   -749835.922 6   -565027.84448  21360501.95648
  22841077.745 5   -624489.801 5   -464965.85247  22841079.99947
  19917056.870 7   -837605.105 7   -631730.28949  19917056.34349
  23576032.800 5   -391564.441 5   -296945.87947  23576032.77647
 20  5 16  1 53 37.9990000  0  8G04G08G09G11G16G26G27G31            -0.000079624
  21215841.097 6   -857053.008 6   -650673.72348  21215840.50348
  20173859.456 7  -1397483.332 7  -1051813.14849  20173860.28049
  22523275.659 6  -1370334.043 6  -1038027.07049  22523275.39449
  22578671.753 6  -1990921.176 6  -1524985.96547  22578670.15147
  21359957.190 6   -752712.836 6   -567269.59848  21359954.33148
  22840616.026 5   -626915.047 5   -466855.66047  22840618.35847
  19916470.386 7   -840684.582 7   -634129.87549  19916470.56549
  23575747.315 5   -393067.105 5   -298116.78547  23575746.21847
 20  5 16  1 53 38.9990000  0  8G04G08G09G11G16G26G27G31            -0.000082260
  21215240.315 6   -860209.227 6   -653133.11748  21215239.27248
  20172864.737 7  -1402709.863 7  -1055885.77349  20172865.55849
  22522314.612 6  -1375382.738 6  -1041961.11749  22522314.83549
  22577252.214 6  -1998379.363 6  -1530797.53547  22577250.73747
  21359409.808 6   -755589.992 6   -569511.53148  21359406.93348
  22840154.753 5   -629340.625 5   -468745.72347  22840156.67947
  19915884.292 7   -843763.789 7   -636529.25449  19915884.07749
  23575461.253 5   -394569.789 5   -299287.70747  23575460.20247
 20  5 16  1 53 39.9990000  0  8G04G08G09G11G16G26G27G31            -0.000084896
  21214639.620 6   -863365.207 6   -655592.32448  21214639.24148
  20171870.073 7  -1407936.211 7  -1059958.25449  20171870.99949
  22521354.245 6  -1380431.215 6  -1045895.00449  22521354.26949
  22575833.315 6  -2005837.707 6  -1536609.23047  22575831.36247
  21358862.206 6   -758467.465 6   -571753.71548  21358859.21048
  22839692.597 5   -631766.531 5   -470636.03947  22839694.97647
  19915298.519 7   -846842.801 7   -638928.49249  19915298.41349
  23575175.183 5   -396072.586 5   -300458.72747  23575174.51947
 20  5 16  1 53 40.9990000  0  8G04G08G09G11G16G26G27G31            -0.000087534
  21214039.456 6   -866520.969 6   -658051.36348  21214038.53448
  20170875.714 7  -1413162.277 7  -1064030.51249  20170876.48049
  22520393.347 6  -1385479.387 6  -1049828.64849  22520393.90549
  22574413.901 6  -2013296.199 6  -1542421.03547  22574412.31547
  21358314.019 6   -761345.152 6   -573996.07448  21358311.77248
  22839231.253 5   -634192.758 5   -472526.60947  22839233.30847
  19914712.776 7   -849921.578 7   -641327.53549  19914712.55449
  23574889.159 5   -397575.434 5   -301629.78147  23574888.52247
 20  5 16  1 53 41.9990000  0  8G04G08G09G11G16G26G27G31            -0.000090170
  21213438.940 6   -869676.348 6   -660510.09448  21213438.14748
  20169881.339 7  -1418388.016 7  -1068102.51649  20169882.28049
  22519432.573 6  -1390527.234 6  -1053762.03549  22519433.12449
  22572994.550 6  -2020754.727 6  -1548232.87147  22572993.24547
  21357766.925 6   -764223.035 6   -576238.58648  21357764.28848
  22838769.347 5   -636619.156 5   -474417.31347  22838771.78847
  19914127.183 7   -853000.039 7   -643726.34049  19914126.67949
  23574603.050 5   -399078.230 5   -302800.79747  23574602.83947
 20  5 16  1 53 42.9990000  0  8G04G08G09G11G16G26G27G31            -0.000092806
  21212838.276 6   -872831.547 6   -662968.69148  21212837.83548
  20168886.815 7  -1423613.547 7  -1072174.36349  20168887.62849
  22518471.995 6  -1395574.816 6  -1057695.21949  22518472.48049
  22571575.550 6  -2028213.430 6  -1554044.84847  22571573.37847
  21357218.917 6   -767101.203 6   -578481.31348  21357216.19848
  22838307.597 5   -639045.910 5   -476308.28947  22838309.63647
  19913541.386 7   -856078.254 7   -646124.95349  19913540.98349
  23574316.964 5   -400581.137 5   -303971.89147  23574316.75347
 20  5 16  1 53 43.9990000  0  8G04G08G09G11G16G26G27G31            -0.000095444
  21212238.284 6   -875986.438 6   -665427.04748  21212236.95248
  20167892.550 7  -1428838.758 7  -1076245.95749  20167893.37049
  22517511.862 6  -1400622.078 6  -1061628.14549  22517512.17549
  22570155.815 6  -2035672.246 6  -1559856.91847  22570154.33547
  21356671.487 6   -769979.602 6   -580724.22748  21356668.93348
  22837845.964 5   -641472.953 5   -478199.49647  22837847.83547
  19912955.464 7   -859156.227 7   -648523.37149  19912955.14749
  23574030.558 5   -402084.078 5   -305143.02047  23574030.73347
 20  5 16  1 53 44.9990000  0  8G04G08G09G11G16G26G27G31            -0.000098080
  21211637.511 6   -879140.996 6   -667885.14548  21211637.00748
  20166898.292 7  -1434063.691 7  -1080317.32849  20166898.99949
  22516551.409 6  -1405669.020 6  -1065560.83249  22516551.81249
  22568736.761 6  -2043131.160 6  -1565669.05547  22568734.94847
  21356123.495 6   -772858.203 6   -582967.29348  21356120.82348
  22837383.964 5   -643900.211 5   -480090.86747  22837386.35147
  19912370.019 7   -862233.906 7   -650921.55549  19912369.97249
  23573744.995 5   -403587.012 5   -306314.14147  23573744.60147
 20  5 16  1 53 45.9990000  0  8G04G08G09G11G16G26G27G31            -0.000100718
  21211037.558 6   -882295.441 6   -670343.15648  21211036.73348
  20165904.315 7  -1439288.457 7  -1084388.57449  20165904.95649
  22515591.190 6  -1410715.789 6  -1069493.38349  22515591.26949
  22567317.198 6  -2050590.324 6  -1571481.39147  22567315.57747
  21355576.026 6   -775737.164 6   -585210.64148  21355573.03848
  22836922.339 5   -646327.895 5   -481982.57047  22836924.03447
  19911784.120 7   -865311.422 7   -653319.62149  19911783.80449
  23573459.362 5   -405090.098 5   -307485.38347  23573458.71047
 20  5 16  1 53 46.9990000  0  8G04G08G09G11G16G26G27G31            -0.000103355
  21210436.690 6   -885449.473 6   -672800.84848  21210436.52648
  20164909.894 7  -1444512.828 7  -1088459.52049  20164910.91749
  22514630.722 6  -1415762.164 6  -1073425.62149  22514631.01149
  22565897.808 6  -2058049.465 6  -1577293.70747  22565896.33547
  21355027.714 6   -778616.266 6   -587454.09448  21355025.03848
  22836459.940 5   -648755.730 5   -483874.38747  22836462.24147
  19911198.409 7   -868388.586 7   -655717.41449  19911198.42149
  23573172.714 5   -406593.117 5   -308656.57847  23573172.84747
 20  5 16  1 53 47.9990000  0  8G04G08G09G11G16G26G27G31            -0.000105991
  21209837.175 6   -888603.301 6   -675258.37148  21209836.38248
  20163916.034 7  -1449737.004 7  -1092530.30549  20163916.48049
  22513670.019 6  -1420808.277 6  -1077357.65649  22513670.61249
  22564477.909 6  -2065508.809 6  -1583106.18047  22564476.62447
  21354480.245 6   -781495.641 6   -589697.76248  21354477.50748
  22835997.862 5   -651183.895 5   -485766.46547  22835999.91347
  19910612.925 7   -871465.559 7   -658115.05949  19910612.80449
  23572887.144 5   -408096.230 5   -309827.83247  23572886.99147
 20  5 16  1 53 48.9990000  0  8G04G08G09G11G16G26G27G31            -0.000108629
  21209237.206 6   -891756.918 6   -677715.73848  21209236.24548
  20162921.847 7  -1454960.891 7  -1096600.87149  20162922.58949
  22512710.636 6  -1425854.152 6  -1081289.50449  22512710.12049
  22563058.480 6  -2072968.297 6  -1588918.76647  22563056.53047
  21353932.089 6   -784375.320 6   -591941.66848  21353929.34348
  22835536.245 5   -653612.425 5   -487658.82447  22835537.48747
  19910027.706 7   -874542.285 7   -660512.50849  19910027.37849
  23572601.190 5   -409599.441 5   -310999.17647  23572600.97647
 20  5 16  1 53 49.9990000  0  8G04G08G09G11G16G26G27G31            -0.000111269
  21208637.151 6   -894910.246 6   -680172.87948  21208636.03048
  20161927.980 7  -1460184.516 7  -1100671.22749  20161928.75349
  22511749.940 6  -1430899.734 6  -1085221.12549  22511750.66349
  22561639.097 6  -2080427.914 6  -1594731.45347  22561637.69047
  21353383.597 6   -787255.230 6   -594185.75448  21353381.24948
  22835073.339 5   -656041.207 5   -489551.38347  22835075.60147
  19909442.120 7   -877618.758 7   -662909.76249  19909441.59749
  23572315.151 5   -411102.672 5   -312170.52747  23572314.90147
 20  5 16  1 53 50.9990000  0  8G04G08G09G11G16G26G27G31            -0.000113907
  21208036.964 6   -898063.273 6   -682629.78548  21208035.98048
  20160933.980 7  -1465407.875 7  -1104741.37549  20160934.62449
  22510790.394 6  -1435945.012 6  -1089152.51649  22510790.76149
  22560219.706 6  -2087887.648 6  -1600544.23847  22560218.13647
  21352835.542 6   -790135.367 6   -596430.01248  21352833.30448
  22834611.362 5   -658470.250 5   -491444.14847  22834613.28047
  19908856.839 7   -880694.984 7   -665306.82449  19908856.37449
  23572028.792 5   -412605.922 5   -313341.89147  23572028.66347
 20  5 16  1 53 51.9990000  0  8G04G08G09G11G16G26G27G31            -0.000116545
  21207436.886 6   -901215.930 6   -685086.39848  21207436.51548
  20159939.972 7  -1470630.836 7  -1108811.21149  20159940.47249
  22509830.206 6  -1440989.832 6  -1093083.54349  22509830.60549
  22558799.769 6  -2095347.375 6  -1606357.01247  22558798.48747
  21352287.925 6   -793015.613 6   -598674.35948  21352284.94448
  22834149.503 5   -660899.484 5   -493337.05547  22834151.26547
  19908271.573 7   -883770.793 7   -667703.55949  19908271.14449
  23571743.472 5   -414109.098 5   -314513.19547  23571742.45647
 20  5 16  1 53 52.9990000  0  8G04G08G09G11G16G26G27G31            -0.000119183
  21206837.081 6   -904368.223 6   -687542.73048  21206836.37848
  20158946.050 7  -1475853.473 7  -1112880.80549  20158946.80449
  22508870.355 6  -1446034.328 6  -1097014.32049  22508870.57349
  22557380.495 6  -2102807.137 6  -1612169.81347  22557378.94047
  21351739.534 6   -795896.031 6   -600918.84048  21351737.02648
  22833686.792 5   -663328.875 5   -495230.09447  22833689.12047
  19907686.370 7   -886846.297 7   -670100.05149  19907686.35849
  23571457.394 5   -415612.246 5   -315684.48447  23571456.42947
 20  5 16  1 53 53.9990000  0  8G04G08G09G11G16G26G27G31            -0.000121822
  21206237.495 6   -907520.258 6   -689998.86748  21206236.71048
  20157952.331 7  -1481075.855 7  -1116950.19149  20157953.06549
  22507910.058 6  -1451078.512 6  -1100944.85549  22507910.56249
  22555961.065 6  -2110267.031 6  -1617982.71547  22555959.30447
  21351191.245 6   -798776.719 6   -603163.53148  21351188.73348
  22833224.120 5   -665758.602 5   -497123.38747  22833226.48347
  19907101.323 7   -889921.520 7   -672496.33249  19907100.61249
  23571170.980 5   -417115.418 5   -316855.79347  23571170.82347
 20  5 16  1 53 54.9990000  0  8G04G08G09G11G16G26G27G31            -0.000124460
  21205637.308 6   -910671.988 6   -692454.75848  21205636.81248
  20156958.394 7  -1486297.902 7  -1121019.32049  20156959.05849
  22506950.909 6  -1456122.367 6  -1104875.13349  22506950.51949
  22554541.909 6  -2117727.039 6  -1623795.71147  22554540.01147
  21350643.151 6   -801657.582 6   -605408.36348  21350640.64748
  22832762.206 5   -668188.578 5   -499016.87147  22832764.14447
  19906515.862 7   -892996.480 7   -674892.40249  19906515.69049
  23570884.917 5   -418618.594 5   -318027.10547  23570884.69447
 20  5 16  1 53 55.9990000  0  8G04G08G09G11G16G26G27G31            -0.000127100
  21205037.815 6   -913823.336 6   -694910.35548  21205037.11648
  20155965.058 7  -1491519.617 7  -1125088.18849  20155965.42149
  22505990.605 6  -1461165.824 6  -1108805.10249  22505991.26949
  22553121.659 6  -2125187.051 6  -1629608.70747  22553120.25747
  21350095.308 6   -804538.598 6   -607653.30548  21350092.37048
  22832299.862 5   -670618.684 5   -500910.46547  22832301.78847
  19905930.940 7   -896071.074 7   -677288.18849  19905930.85549
  23570599.073 5   -420121.727 5   -319198.37547  23570598.16347
 20  5 16  1 53 56.9990000  0  8G04G08G09G11G16G26G27G31            -0.000129738
  21204438.323 6   -916974.523 6   -697365.83248  21204437.01148
  20154971.206 7  -1496741.113 7  -1129156.89149  20154971.87449
  22505031.112 6  -1466209.109 6  -1112734.93449  22505031.53449
  22551702.065 6  -2132647.273 6  -1635421.86747  22551700.37047
  21349546.620 6   -807419.945 6   -609898.51648  21349543.89448
  22831836.956 5   -673049.211 5   -502804.37947  22831839.09747
  19905345.784 7   -899145.492 7   -679683.84449  19905345.65549
  23570313.362 5   -421625.004 5   -320369.76647  23570312.27247
 20  5 16  1 53 57.9990000  0  8G04G08G09G11G16G26G27G31            -0.000132378
  21203838.761 6   -920125.422 6   -699821.07448  21203837.91748
  20153977.948 7  -1501962.340 7  -1133225.37949  20153978.49149
  22504071.925 6  -1471252.063 6  -1116664.50849  22504072.10849
  22550282.565 6  -2140107.633 6  -1641235.13347  22550280.73747
  21348998.394 6   -810301.539 6   -612143.91048  21348995.58148
  22831374.167 5   -675480.012 5   -504698.51247  22831376.87847
  19904760.730 7   -902219.676 7   -682079.30949  19904760.58949
  23570026.503 5   -423128.289 5   -321541.16047  23570026.32347
 20  5 16  1 53 58.9990000  0  8G04G08G09G11G16G26G27G31            -0.000135017
  21203239.245 6   -923276.027 6   -702276.09448  21203238.37048
  20152984.644 7  -1507183.262 7  -1137293.62949  20152985.02249
  22503111.776 6  -1476294.730 6  -1120593.85949  22503111.99149
  22548862.737 6  -2147568.055 6  -1647048.44547  22548861.09347
  21348450.144 6   -813183.348 6   -614389.48048  21348447.37048
  22830911.855 5   -677911.074 5   -506592.83647  22830914.30447
  19904175.800 7   -905293.551 7   -684474.53949  19904175.46049
  23569741.159 5   -424631.613 5   -322712.59047  23569740.42947
 20  5 16  1 53 59.9990000  0  8G04G08G09G11G16G26G27G31            -0.000137657
  21202639.636 6   -926426.340 6   -704730.88348  21202639.11648
  20151990.948 7  -1512403.848 7  -1141361.61749  20151991.33149
  22502152.605 6  -1481337.008 6  -1124522.91049  22502152.56549
  22547443.120 6  -2155028.559 6  -1652861.82047  22547441.67947
  21347901.784 6   -816065.340 6   -616635.18448  21347898.96448
  22830449.401 5   -680342.352 5   -508487.34447  22830451.18347
  19903590.987 7   -908367.117 7   -686869.52349  19903590.55849
  23569454.815 5   -426134.910 5   -323883.99647  23569454.18347
 20  5 16  1 54  0.9990000  0  8G04G08G09G11G16G26G27G31            -0.000140297
  21202040.112 6   -929576.313 6   -707185.41048  21202039.51548
  20150997.526 7  -1517624.145 7  -1145429.38349  20150998.16349
  22501192.917 6  -1486379.016 6  -1128451.74249  22501192.99949
  22546023.565 6  -2162489.152 6  -1658675.27047  22546022.15547
  21347353.034 6   -818947.555 6   -618881.06348  21347350.38648
  22829986.378 5   -682773.879 5   -510382.05147  22829988.73747
  19903006.253 7   -911440.406 7   -689264.29749  19903005.56949
  23569168.597 5   -427638.207 5   -325055.39147  23569168.55847
 20  5 16  1 54  1.9990000  0  8G04G08G09G11G16G26G27G31            -0.000142937
  21201440.855 6   -932725.898 6   -709639.63748  21201439.95248
  20150004.034 7  -1522844.039 7  -1149496.82849  20150004.89749
  22500233.409 6  -1491420.594 6  -1132380.24649  22500233.49149
  22544603.948 6  -2169949.781 6  -1664488.74247  22544601.81547
  21346804.940 6   -821829.902 6   -621127.05148  21346801.92148
  22829524.261 5   -685205.602 5   -512276.89847  22829526.00747
  19902421.534 7   -914513.332 7   -691658.78549  19902421.30849
  23568882.292 5   -429141.457 5   -326226.75447  23568882.40547
 20  5 16  1 54  2.9990000  0  8G04G08G09G11G16G26G27G31            -0.000145576
  21200841.347 6   -935875.238 6   -712093.66448  21200840.70248
  20149010.886 7  -1528063.664 7  -1153564.07049  20149011.43749
  22499274.003 6  -1496461.852 6  -1136308.50049  22499274.35849
  22543184.511 6  -2177410.480 6  -1670302.28147  22543182.60847
  21346256.026 6   -824712.480 6   -623373.21548  21346253.61248
  22829060.847 5   -687637.613 5   -514171.97747  22829063.14447
  19901836.714 7   -917585.984 7   -694053.06349  19901836.37449
  23568596.425 5   -430644.719 5   -327398.13347  23568596.05847
 20  5 16  1 54  3.9990000  0  8G04G08G09G11G16G26G27G31            -0.000148216
  21200242.089 6   -939024.320 6   -714547.49648  21200241.38648
  20148017.644 7  -1533283.063 7  -1157631.13749  20148018.18349
  22498314.831 6  -1501502.867 6  -1140236.56649  22498315.30449
  22541764.464 6  -2184871.371 6  -1676115.96547  22541762.58147
  21345707.355 6   -827595.313 6   -625619.58248  21345705.03848
  22828597.823 5   -690069.906 5   -516067.27747  22828599.98347
  19901251.933 7   -920658.418 7   -696447.16449  19901251.96449
  23568310.511 5   -432148.059 5   -328569.56647  23568309.81947
 20  5 16  1 54  4.9990000  0  8G04G08G09G11G16G26G27G31            -0.000150858
  21199643.503 6   -942173.250 6   -717001.20348  21199642.19848
  20147024.347 7  -1538502.281 7  -1161698.05949  20147025.34749
  22497355.558 6  -1506543.672 6  -1144164.46949  22497356.06249
  22540344.425 6  -2192332.473 6  -1681929.80947  22540342.75347
  21345159.089 6   -830478.477 6   -627866.19948  21345156.16348
  22828135.269 5   -692502.555 5   -517962.84847  22828137.18347
  19900667.198 7   -923730.668 7   -698841.12949  19900667.27249
  23568024.245 5   -433651.527 5   -329741.10947  23568024.19047
 20  5 16  1 54  5.9990000  0  8G04G08G09G11G16G26G27G31            -0.000153498
  21199044.159 6   -945321.918 6   -719454.71148  21199043.08948
  20146031.526 7  -1543721.293 7  -1165764.81649  20146032.10149
  22496396.409 6  -1511584.227 6  -1148092.16849  22496396.77249
  22538924.980 6  -2199793.695 6  -1687743.74647  22538922.97247
  21344610.386 6   -833361.938 6   -630113.05148  21344607.19048
  22827671.995 5   -694935.566 5   -519858.69547  22827674.12447
  19900083.011 7   -926802.707 7   -701234.91849  19900082.55849
  23567738.120 5   -435155.094 5   -330912.72347  23567737.56247
 20  5 16  1 54  6.9990000  0  8G04G08G09G11G16G26G27G31            -0.000156139
  21198444.597 6   -948470.324 6   -721908.01248  21198443.95248
  20145038.230 7  -1548940.031 7  -1169831.36749  20145038.92149
  22495437.425 6  -1516624.488 6  -1152019.64849  22495437.39049
  22537504.862 6  -2207255.051 6  -1693557.78547  22537503.12047
  21344061.745 6   -836245.648 6   -632360.09448  21344058.92148
  22827209.284 5   -697368.836 5   -521754.74647  22827211.09347
  19899498.558 7   -929874.500 7   -703628.53149  19899498.17949
  23567451.651 5   -436658.699 5   -332084.36347  23567451.25347
 20  5 16  1 54  7.9990000  0  8G04G08G09G11G16G26G27G31            -0.000158781
  21197845.714 6   -951618.477 6   -724361.12548  21197844.71048
  20144045.089 7  -1554158.480 7  -1173897.69549  20144045.99549
  22494478.058 6  -1521664.441 6  -1155946.89149  22494478.80049
  22536085.159 6  -2214716.527 6  -1699371.92247  22536082.88647
  21343512.776 6   -839129.605 6   -634607.34048  21343509.93748
  22826745.612 5   -699802.402 5   -523651.03147  22826748.08947
  19898913.847 7   -932946.043 7   -706021.94149  19898913.30049
  23567166.026 5   -438162.340 5   -333256.03547  23567165.44447
 20  5 16  1 54  8.9990000  0  8G04G08G09G11G16G26G27G31            -0.000161421
  21197246.456 6   -954766.301 6   -726813.97748  21197245.54648
  20143052.175 7  -1559376.637 7  -1177963.79349  20143052.81249
  22493518.612 6  -1526704.090 6  -1159873.88349  22493519.10549
  22534664.948 6  -2222178.074 6  -1705186.11747  22534663.30447
  21342963.612 6   -842013.742 6   -636854.71948  21342961.36648
  22826283.120 5   -702236.191 5   -525547.48847  22826284.93747
  19898329.292 7   -936017.270 7   -708415.10549  19898329.17549
  23566879.745 5   -439665.953 5   -334427.69147  23566879.10547
 20  5 16  1 54  9.9990000  0  8G04G08G09G11G16G26G27G31            -0.000164062
  21196647.784 6   -957913.805 6   -729266.58248  21196646.78448
  20142059.253 7  -1564594.457 7  -1182029.62949  20142059.68749
  22492559.480 6  -1531743.371 6  -1163800.59849  22492560.32349
  22533245.065 6  -2229639.676 6  -1711000.34847  22533243.65147
  21342414.745 6   -844898.055 6   -639102.24248  21342412.58948
  22825819.487 5   -704670.215 5   -527444.13347  22825821.48047
  19897744.956 7   -939088.191 7   -710808.03149  19897744.46049
  23566593.425 5   -441169.563 5   -335599.33647  23566592.94047
 20  5 16  1 54 10.9990000  0  8G04G08G09G11G16G26G27G31            -0.000166704
  21196048.511 6   -961061.047 6   -731718.98048  21196047.83148
  20141066.394 7  -1569812.059 7  -1186095.28949  20141066.97249
  22491601.261 6  -1536782.363 6  -1167727.08649  22491602.18349
  22531825.261 6  -2237101.418 6  -1716814.69547  22531823.51147
  21341865.855 6   -847782.668 6   -641349.99248  21341863.54648
  22825356.964 5   -707104.523 5   -529341.00047  22825358.49947
  19897160.870 7   -942158.875 7   -713200.77349  19897160.64049
  23566307.472 5   -442673.227 5   -336771.03547  23566307.38247
 20  5 16  1 54 11.9990000  0  8G04G08G09G11G16G26G27G31            -0.000169346
  21195450.245 6   -964208.121 6   -734171.24648  21195449.32348
  20140073.526 7  -1575029.426 7  -1190160.77049  20140074.44049
  22490642.362 6  -1541821.168 6  -1171653.42249  22490642.92549
  22530405.378 6  -2244563.383 6  -1722629.21947  22530403.68347
  21341317.144 6   -850667.563 6   -643597.96548  21341314.23048
  22824893.456 5   -709539.238 5   -531238.19547  22824895.03847
  19896576.065 7   -945229.379 7   -715593.37149  19896576.17949
  23566021.214 5   -444177.039 5   -337942.83247  23566020.53447
 20  5 16  1 54 12.9990000  0  8G04G08G09G11G16G26G27G31            -0.000171988
  21194851.245 6   -967354.824 6   -736623.22748  21194850.06548
  20139080.956 7  -1580246.465 7  -1194226.00049  20139081.75749
  22489683.722 6  -1546859.605 6  -1175579.48449  22489684.43749
  22528985.198 6  -2252025.406 6  -1728443.77747  22528983.80047
  21340768.190 6   -853552.660 6   -645846.09048  21340765.29248
  22824429.753 5   -711974.145 5   -533135.52747  22824431.52247
  19895991.909 7   -948299.570 7   -717985.73049  19895991.76149
  23565735.089 5   -445680.840 5   -339114.62947  23565734.63647
 20  5 16  1 54 13.9990000  0  8G04G08G09G11G16G26G27G31            -0.000174631
  21194252.761 6   -970501.348 6   -739075.05948  21194251.38648
  20138088.167 7  -1585463.281 7  -1198291.05549  20138088.94849
  22488725.198 6  -1551897.793 6  -1179505.34049  22488725.34749
  22527565.253 6  -2259487.582 6  -1734258.46547  22527563.90547
  21340218.940 6   -856438.031 6   -648094.43048  21340216.51148
  22823966.448 5   -714409.402 5   -535033.12547  22823968.03847
  19895408.050 7   -951369.523 7   -720377.90649  19895407.51949
  23565448.956 5   -447184.691 5   -340286.47747  23565448.17947
 20  5 16  1 54 14.9990000  0  8G04G08G09G11G16G26G27G31            -0.000177273
  21193653.987 6   -973647.754 6   -741526.80548  21193652.83548
  20137095.425 7  -1590679.992 7  -1202356.02349  20137096.37849
  22487766.511 6  -1556935.844 6  -1183431.09049  22487766.36649
  22526144.933 6  -2266950.055 6  -1740073.37547  22526143.95647
  21339669.808 6   -859323.824 6   -650343.09848  21339667.31948
  22823503.378 5   -716845.082 5   -536931.05147  22823504.61647
  19894823.472 7   -954439.441 7   -722770.05149  19894823.37449
  23565162.636 5   -448688.777 5   -341458.49647  23565161.97647
 20  5 16  1 54 15.9990000  0  8G04G08G09G11G16G26G27G31            -0.000179916
  21193055.230 6   -976793.852 6   -743978.30948  21193054.00348
  20136102.753 7  -1595896.375 7  -1206420.73449  20136103.42949
  22486807.855 6  -1561973.590 6  -1187356.60949  22486807.98749
  22524724.651 6  -2274412.629 6  -1745888.35547  22524723.22647
  21339120.753 6   -862209.805 6   -652591.92248  21339117.97648
  22823039.511 5   -719281.035 5   -538829.19147  22823041.14447
  19894239.542 7   -957509.027 7   -725161.93449  19894239.30049
  23564876.315 5   -450192.832 5   -342630.48447  23564875.63247
 20  5 16  1 54 16.9990000  0  8G04G08G09G11G16G26G27G31            -0.000182558
  21192456.847 6   -979939.617 6   -746429.55548  21192455.69048
  20135110.276 7  -1601112.449 7  -1210485.20749  20135110.76149
  22485849.323 6  -1567010.969 6  -1191281.84049  22485849.63249
  22523304.558 6  -2281875.246 6  -1751703.38347  22523303.30847
  21338571.089 6   -865095.988 6   -654840.89548  21338569.05848
  22822575.784 5   -721717.188 5   -540727.50047  22822577.36647
  19893655.401 7   -960578.328 7   -727553.59449  19893655.61249
  23564590.620 5   -451696.934 5   -343802.51247  23564589.42147
 20  5 16  1 54 17.9990000  0  8G04G08G09G11G16G26G27G31            -0.000185202
  21191857.581 6   -983085.113 6   -748880.58648  21191857.00748
  20134117.651 7  -1606328.234 7  -1214549.45749  20134118.17549
  22484890.878 6  -1572048.039 6  -1195206.83249  22484890.84349
  22521884.753 6  -2289338.004 6  -1757518.52747  22521883.23047
  21338021.847 6   -867982.406 6   -657090.05148  21338019.89048
  22822112.058 5   -724153.629 5   -542626.03147  22822113.94447
  19893071.550 7   -963647.344 7   -729945.03949  19893071.04649
  23564304.362 5   -453201.023 5   -344974.52747  23564303.13247
 20  5 16  1 54 18.9990000  0  8G04G08G09G11G16G26G27G31            -0.000187845
  21191259.128 6   -986230.238 6   -751331.34048  21191258.24548
  20133125.167 7  -1611543.613 7  -1218613.39149  20133125.87849
  22483931.948 6  -1577084.691 6  -1199131.50449  22483932.31949
  22520464.901 6  -2296800.719 6  -1763333.62547  22520463.22647
  21337472.136 6   -870868.918 6   -659339.27348  21337470.75348
  22821648.456 5   -726590.242 5   -544524.69147  22821649.96447
  19892487.620 7   -966715.969 7   -732336.17649  19892487.35549
  23564018.089 5   -454705.012 5   -346146.47747  23564016.98747
 20  5 16  1 54 19.9990000  0  8G04G08G09G11G16G26G27G31            -0.000190489
  21190660.651 6   -989375.047 6   -753781.83648  21190659.49548
  20132133.034 7  -1616758.723 7  -1222677.11749  20132133.36649
  22482973.878 6  -1582121.070 6  -1203055.95349  22482974.37849
  22519044.198 6  -2304263.574 6  -1769148.84047  22519043.30847
  21336923.026 6   -873755.660 6   -661588.68848  21336920.99148
  22821184.823 5   -729027.117 5   -546423.56647  22821186.69847
  19891903.792 7   -969784.363 7   -734727.13349  19891903.64749
  23563731.683 5   -456209.082 5   -347318.48047  23563731.02647
 20  5 16  1 54 20.9990000  0  8G04G08G09G11G16G26G27G31            -0.000193132
  21190062.456 6   -992519.664 6   -756232.19548  21190061.68748
  20131140.519 7  -1621973.617 7  -1226740.67249  20131141.30849
  22482015.245 6  -1587157.156 6  -1206980.17649  22482015.83949
  22517624.409 6  -2311726.563 6  -1774964.15247  22517622.62847
  21336373.917 6   -876642.703 6   -663838.33248  21336371.47248
  22820720.940 5   -731464.301 5   -548322.66847  22820722.67547
  19891319.987 7   -972852.531 7   -737117.91049  19891319.40549
  23563445.151 5   -457713.215 5   -348490.53947  23563444.54247
 20  5 16  1 54 21.9990000  0  8G04G08G09G11G16G26G27G31            -0.000195776
  21189464.159 6   -995664.070 6   -758682.37548  21189463.21848
  20130148.261 7  -1627188.332 7  -1230804.07849  20130148.49949
  22481057.175 6  -1592193.051 6  -1210904.25049  22481057.42949
  22516204.269 6  -2319189.777 6  -1780779.64547  22516202.51547
  21335824.050 6   -879530.063 6   -666088.23048  21335822.28048
  22820257.206 5   -733901.852 5   -550222.06347  22820259.05447
  19890736.214 7   -975920.504 7   -739508.53149  19890735.75749
  23563159.175 5   -459217.434 5   -349662.66047  23563158.41347
 20  5 16  1 54 22.9990000  0  8G04G08G09G11G16G26G27G31            -0.000198420
  21188865.808 6   -998808.078 6   -761132.25848  21188864.49948
  20129155.792 7  -1632402.645 7  -1234867.18049  20129156.60849
  22480098.730 6  -1597228.571 6  -1214828.02749  22480098.90149
  22514783.581 6  -2326652.992 6  -1786595.13747  22514782.40547
  21335275.050 6   -882417.543 6   -668338.21548  21335272.55048
  22819793.542 5   -736339.605 5   -552121.61747  22819795.15947
  19890152.433 7   -978988.125 7   -741898.89149  19890152.13249
  23562872.800 5   -460721.633 5   -350834.75847  23562872.02647
 20  5 16  1 54 23.9990000  0  8G04G08G09G11G16G26G27G31            -0.000201063
  21188267.847 6  -1001951.980 6   -763582.04748  21188266.68748
  20128163.573 7  -1637616.840 7  -1238930.19149  20128164.25749
  22479140.245 6  -1602263.883 6  -1218751.65249  22479141.33149
  22513363.690 6  -2334116.484 6  -1792410.84447  22513361.95247
  21334725.300 6   -885305.422 6   -670588.50848  21334723.51548
  22819329.292 5   -738777.734 5   -554021.45747  22819331.09347
  19889568.753 7   -982055.641 7   -744289.16449  19889568.56949
  23562586.417 5   -462225.973 5   -352006.97347  23562585.99947
 20  5 16  1 54 24.9990000  0  8G04G08G09G11G16G26G27G31            -0.000203709
  21187669.292 6  -1005095.664 6   -766031.67648  21187668.28048
  20127171.448 7  -1642830.785 7  -1242993.00849  20127172.04649
  22478182.425 6  -1607298.943 6  -1222675.07449  22478183.03449
  22511943.401 6  -2341580.117 6  -1798226.66047  22511941.86247
  21334175.722 6   -888193.559 6   -672839.00048  21334173.60148
  22818865.464 5   -741216.230 5   -555921.59047  22818866.93747
  19888985.089 7   -985122.922 7   -746679.25049  19888984.65549
  23562300.144 5   -463730.402 5   -353179.25447  23562299.31947
 20  5 16  1 54 25.9990000  0  8G04G08G09G11G16G26G27G31            -0.000206352
  21187070.948 6  -1008238.969 6   -768481.00448  21187070.26148
  20126179.167 7  -1648044.375 7  -1247055.54349  20126179.89449
  22477224.065 6  -1612333.613 6  -1226598.19549  22477225.03449
  22510523.847 6  -2349043.777 6  -1804042.50447  22510521.92147
  21333626.440 6   -891081.883 6   -675089.63748  21333623.98048
  22818401.730 5   -743654.922 5   -557821.87147  22818403.18747
  19888400.972 7   -988189.895 7   -749069.10249  19888400.86649
  23562014.300 5   -465234.832 5   -354351.54747  23562013.64747
 20  5 16  1 54 26.9990000  0  8G04G08G09G11G16G26G27G31            -0.000208998
  21186473.284 6  -1011382.039 6   -770930.15248  21186472.05848
  20125187.136 7  -1653257.715 7  -1251117.88749  20125188.24549
  22476266.362 6  -1617368.035 6  -1230521.11349  22476266.72649
  22509103.409 6  -2356507.590 6  -1809858.46147  22509101.26547
  21333076.667 6   -893970.434 6   -677340.46548  21333074.51148
  22817936.753 5   -746093.895 5   -559722.37147  22817938.99947
  19887817.855 7   -991256.590 7   -751458.73449  19887817.62849
  23561728.308 5   -466739.273 5   -355523.84047  23561727.31947
 20  5 16  1 54 27.9990000  0  8G04G08G09G11G16G26G27G31            -0.000211641
  21185875.190 6  -1014524.938 6   -773379.16448  21185874.05048
  20124195.292 7  -1658470.918 7  -1255180.12149  20124195.98349
  22475308.589 6  -1622402.301 6  -1234443.92649  22475308.62449
  22507682.292 6  -2363971.637 6  -1815674.60247  22507680.53047
  21332526.511 6   -896859.383 6   -679591.59448  21332524.79248
  22817472.675 5   -748533.246 5   -561623.16047  22817474.75347
  19887234.042 7   -994323.152 7   -753848.26249  19887234.15149
  23561441.581 5   -468243.898 5   -356696.27347  23561440.73347
 20  5 16  1 54 28.9990000  0  8G04G08G09G11G16G26G27G31            -0.000214287
  21185276.800 6  -1017667.586 6   -775827.98048  21185276.00748
  20123203.425 7  -1663683.844 7  -1259242.14149  20123203.94449
  22474350.581 6  -1627436.250 6  -1238366.48049  22474350.76949
  22506262.151 6  -2371435.816 6  -1821490.85247  22506260.24147
  21331976.839 6   -899748.531 6   -681842.88348  21331974.53048
  22817009.097 5   -750972.902 5   -563524.19547  22817010.81947
  19886650.589 7   -997389.473 7   -756237.60549  19886650.41749
  23561155.237 5   -469748.563 5   -357868.74247  23561154.33547
 20  5 16  1 54 29.9990000  0  8G04G08G09G11G16G26G27G31            -0.000216932
  21184679.190 6  -1020810.051 6   -778276.65648  21184677.98348
  20122211.386 7  -1668896.582 7  -1263304.02049  20122211.94449
  22473392.769 6  -1632469.977 6  -1242288.87149  22473392.81549
  22504841.589 6  -2378900.188 6  -1827307.23447  22504840.17947
  21331426.964 6   -902638.027 6   -684094.44148  21331424.64048
  22816544.159 4   -753412.930 4   -565425.51647  22816546.33147
  19886067.159 7  -1000455.625 7   -758626.81349  19886066.86649
  23560868.683 5   -471253.332 5   -359041.29747  23560868.00747
 20  5 16  1 54 30.9990000  0  8G04G08G09G11G16G26G27G31            -0.000219578
  21184080.894 6  -1023952.293 6   -780725.15648  21184079.89448
  20121219.401 7  -1674109.063 7  -1267365.69149  20121219.87849
  22472435.073 6  -1637503.457 6  -1246211.07049  22472434.81549
  22503421.128 6  -2386364.754 6  -1833123.77347  22503419.45647
  21330877.323 6   -905527.809 6   -686346.22748  21330875.23048
  22816079.355 5   -755853.309 5   -567327.10547  22816081.98347
  19885483.651 7  -1003521.570 7   -761015.86749  19885483.77249
  23560582.550 5   -472758.203 5   -360213.93047  23560581.75347
 20  5 16  1 54 31.9990000  0  8G04G08G09G11G16G26G27G31            -0.000222223
  21183483.128 6  -1027094.320 6   -783173.49248  21183482.21448
  20120227.534 7  -1679321.371 7  -1271427.23449  20120228.04249
  22471476.526 6  -1642536.738 6  -1250133.10249  22471477.44449
  22502000.995 6  -2393829.461 6  -1838940.42247  22501998.84747
  21330327.581 6   -908417.891 6   -688598.23848  21330325.01148
  22815615.495 5   -758294.004 5   -569228.96147  22815617.33147
  19884900.284 7  -1006587.316 7   -763404.75449  19884900.35149
  23560296.323 5   -474263.199 5   -361386.65647  23560295.29247
 20  5 16  1 54 32.9990000  0  8G04G08G09G11G16G26G27G31            -0.000224871
  21182885.245 6  -1030236.074 6   -785621.61348  21182884.32348
  20119235.894 7  -1684533.391 7  -1275488.54749  20119236.32349
  22470518.972 6  -1647569.664 6  -1254054.86349  22470519.73349
  22500580.230 6  -2401294.297 6  -1844757.17647  22500578.48747
  21329777.222 6   -911308.207 6   -690850.43048  21329774.90948
  22815151.050 5   -760734.969 5   -571131.01247  22815152.87447
  19884317.011 7  -1009652.797 7   -765793.44949  19884316.80049
  23560010.214 5   -475768.195 5   -362559.37947  23560009.04647
 20  5 16  1 54 33.9990000  0  8G04G08G09G11G16G26G27G31            -0.000227516
  21182287.315 6  -1033377.563 6   -788069.52748  21182286.78048
  20118243.862 7  -1689745.117 7  -1279549.62949  20118244.59349
  22469561.183 6  -1652602.316 6  -1257976.41049  22469562.03049
  22499159.730 6  -2408759.223 6  -1850574.00447  22499158.10547
  21329227.206 6   -914198.766 6   -693102.81648  21329224.77648
  22814686.769 5   -763176.215 5   -573033.28947  22814688.17147
  19883733.550 7  -1012718.004 7   -768181.91849  19883733.72249
  23559723.644 5   -477273.230 5   -363732.13347  23559722.58947
 20  5 16  1 54 34.9990000  0  8G04G08G09G11G16G26G27G31            -0.000230162
  21181689.753 6  -1036518.656 6   -790517.13348  21181688.79248
  20117252.339 7  -1694956.496 7  -1283610.44949  20117252.71049
  22468604.073 6  -1657634.598 6  -1261897.66449  22468604.46449
  22497739.425 6  -2416224.164 6  -1856390.84447  22497737.62047
  21328677.339 6   -917089.445 6   -695355.29348  21328675.07348
  22814222.175 5   -765617.625 5   -574935.68047  22814223.78847
  19883150.386 7  -1015782.863 7   -770570.11749  19883150.57749
  23559436.855 5   -478778.188 5   -364904.83247  23559436.23747
 20  5 16  1 54 35.9990000  0  8G04G08G09G11G16G26G27G31            -0.000232809
  21181092.245 6  -1039659.516 6   -792964.55548  21181091.12848
  20116260.636 7  -1700167.574 7  -1287671.02749  20116260.88649
  22467645.503 6  -1662666.543 6  -1265818.66049  22467646.92549
  22496318.956 6  -2423689.238 6  -1862207.78547  22496317.30447
  21328127.097 6   -919980.375 6   -697607.96948  21328124.48748
  22813757.011 5   -768059.355 5   -576838.33247  22813759.33947
  19882567.401 7  -1018847.473 7   -772958.12549  19882567.10549
  23559150.870 6   -480283.207 6   -366077.57447  23559149.79647
 20  5 16  1 54 36.9990000  0  8G04G08G09G11G16G26G27G31            -0.000235456
  21180494.964 6  -1042799.969 6   -795411.66448  21180493.51548
  20115268.894 7  -1705378.297 7  -1291731.33249  20115269.58549
  22466688.714 6  -1667698.133 6  -1269739.38349  22466689.65149
  22494898.011 6  -2431154.348 6  -1868024.75847  22494896.42947
  21327576.995 6   -922871.469 6   -699860.77048  21327574.51148
  22813292.300 4   -770501.227 4   -578741.09447  22813294.71047
  19881984.097 7  -1021911.734 7   -775345.86749  19881984.31249
  23558864.120 6   -481788.184 6   -367250.29347  23558863.20247
 20  5 16  1 54 37.9990000  0  8G04G08G09G11G16G26G27G31            -0.000238102
  21179896.909 6  -1045940.207 6   -797858.60548  21179895.99148
  20114277.394 7  -1710588.762 7  -1295791.43449  20114277.79249
  22465731.026 6  -1672729.410 6  -1273659.85949  22465731.68349
  22493477.573 6  -2438619.590 6  -1873841.82447  22493476.10147
  21327026.972 6   -925762.809 6   -702113.76248  21327024.62048
  22812827.745 5   -772943.426 5   -580644.10947  22812829.93347
  19881401.058 7  -1024975.773 7   -777733.42649  19881400.95249
  23558577.714 5   -483293.203 5   -368423.03547  23558576.65547
 20  5 16  1 54 38.9990000  0  8G04G08G09G11G16G26G27G31            -0.000240749
  21179299.034 6  -1049080.148 6   -800305.31348  21179298.06248
  20113285.933 7  -1715798.965 7  -1299851.32849  20113286.55849
  22464774.026 6  -1677760.430 6  -1277580.13749  22464774.35549
  22492057.144 6  -2446084.934 6  -1879658.98047  22492054.89747
  21326476.198 6   -928654.391 6   -704366.93848  21326474.25748
  22812363.151 5   -775385.891 5   -582547.33247  22812365.37447
  19880818.003 7  -1028039.535 7   -780120.77349  19880817.82749
  23558291.370 5   -484798.266 5   -369595.81647  23558290.64747
 20  5 16  1 54 39.9990000  0  8G04G08G09G11G16G26G27G31            -0.000243397
  21178702.058 6  -1052219.902 6   -802751.87548  21178701.13248
  20112294.480 7  -1721008.895 7  -1303911.01649  20112295.42149
  22463816.612 6  -1682791.137 6  -1281500.16849  22463817.47649
  22490636.355 6  -2453550.449 6  -1885476.26247  22490634.62447
  21325926.230 6   -931546.246 6   -706620.33648  21325924.05048
  22811897.933 5   -777828.691 5   -584450.81647  22811900.46847
  19880235.128 7  -1031103.074 7   -782507.94949  19880234.86249
  23558004.784 5   -486303.406 5   -370768.64847  23558004.20647
 20  5 16  1 54 40.9990000  0  8G04G08G09G11G16G26G27G31            -0.000246044
  21178104.698 6  -1055359.395 6   -805198.23448  21178103.34748
  20111303.190 7  -1726218.641 7  -1307970.56349  20111304.03849
  22462859.503 6  -1687821.629 6  -1285420.03549  22462859.96849
  22489215.589 6  -2461016.121 6  -1891293.66847  22489213.89447
  21325375.909 6   -934438.398 6   -708873.95748  21325373.60548
  22811433.550 5   -780271.844 5   -586354.56347  22811435.74147
  19879652.206 7  -1034166.434 7   -784894.98849  19879651.94849
  23557718.386 5   -487808.648 5   -371941.56647  23557718.05047
 20  5 16  1 54 41.9990000  0  8G04G08G09G11G16G26G27G31            -0.000248692
  21177507.245 6  -1058498.688 6   -807644.43848  21177506.46048
  20110311.995 7  -1731428.125 7  -1312029.90249  20110312.73349
  22461902.425 6  -1692851.871 6  -1289339.70349  22461902.76149
  22487795.112 6  -2468481.949 6  -1897111.19147  22487793.07347
  21324825.589 6   -937330.836 6   -711127.81348  21324823.30448
  22810968.362 5   -782715.273 5   -588258.53947  22810970.35847
  19879069.237 7  -1037229.547 7   -787281.82849  19879068.80449
  23557431.698 5   -489313.949 5   -373114.52747  23557431.23347
 20  5 16  1 54 42.9990000  0  8G04G08G09G11G16G26G27G31            -0.000251339
  21176910.105 6  -1061637.621 6   -810090.36348  21176908.92148
  20109320.526 7  -1736637.328 7  -1316089.02049  20109321.45649
  22460945.550 6  -1697881.777 6  -1293259.11749  22460945.60849
  22486374.081 6  -2475947.859 6  -1902928.77747  22486372.41347
  21324274.745 6   -940223.469 6   -713381.80548  21324272.82348
  22810503.519 5   -785158.965 5   -590162.70747  22810505.58947
  19878486.526 7  -1040292.379 7   -789668.44549  19878486.29249
  23557145.667 5   -490819.250 5   -374287.49647  23557144.68747
 20  5 16  1 54 43.9990000  0  8G04G08G09G11G16G26G27G31            -0.000253988
  21176312.190 6  -1064776.406 6   -812536.16448  21176311.63648
  20108329.464 7  -1741846.336 7  -1320147.98449  20108330.26949
  22459988.034 6  -1702911.457 6  -1297178.34849  22459988.57749
  22484953.222 6  -2483413.969 6  -1908746.52747  22484951.66347
  21323723.964 6   -943116.402 6   -715636.03948  21323722.17148
  22810037.605 5   -787602.996 5   -592067.15247  22810040.47647
  19877903.526 7  -1043355.023 7   -792054.92649  19877903.26149
  23556859.362 5   -492324.691 5   -375460.57847  23556858.10547
 20  5 16  1 54 44.9990000  0  8G04G08G09G11G16G26G27G31            -0.000256636
  21175715.394 6  -1067914.840 6   -814981.70348  21175714.46448
  20107338.183 7  -1747055.000 7  -1324206.68849  20107338.68749
  22459030.675 6  -1707940.766 6  -1301097.28949  22459031.24949
  22483533.058 6  -2490880.133 6  -1914564.32447  22483531.30847
  21323174.120 6   -946009.535 6   -717890.43048  21323171.54648
  22809573.120 4   -790047.258 4   -593971.77347  22809575.17147
  19877321.011 7  -1046417.348 7   -794441.15249  19877321.02649
  23556572.425 5   -493830.102 5   -376633.62947  23556571.96047
 20  5 16  1 54 45.9990000  0  8G04G08G09G11G16G26G27G31            -0.000259283
  21175117.995 6  -1071052.918 6   -817426.96148  21175117.28048
  20106347.097 7  -1752263.301 7  -1328265.10249  20106347.85549
  22458074.284 6  -1712969.715 6  -1305015.95749  22458074.73349
  22482112.128 6  -2498346.305 6  -1920382.12147  22482110.38647
  21322623.198 6   -948902.832 6   -720144.95348  21322620.98048
  22809107.894 4   -792491.707 4   -595876.54747  22809109.98347
  19876738.386 7  -1049479.336 7   -796827.11349  19876738.12449
  23556286.495 5   -495335.445 5   -377806.62947  23556285.41347
 20  5 16  1 54 46.9990000  0  8G04G08G09G11G16G26G27G31            -0.000261932
  21174521.222 6  -1074190.750 6   -819872.02048  21174520.12848
  20105356.237 7  -1757471.355 7  -1332323.33249  20105356.92549
  22457117.136 6  -1717998.379 6  -1308934.39549  22457117.90149
  22480691.480 6  -2505812.617 6  -1926200.02347  22480689.59347
  21322072.425 6   -951796.348 6   -722399.64548  21322070.26148
  22808642.386 5   -794936.461 5   -597781.55947  22808644.83947
  19876155.659 7  -1052541.094 7   -799212.90249  19876155.64049
  23555999.636 5   -496840.883 5   -378979.69547  23555998.83547
 20  5 16  1 54 47.9990000  0  8G04G08G09G11G16G26G27G31            -0.000264582
  21173923.855 6  -1077328.320 6   -822316.88748  21173922.99948
  20104364.886 7  -1762679.164 7  -1336381.35949  20104365.64049
  22456159.980 6  -1723026.758 6  -1312852.60949  22456160.31249
  22479270.284 6  -2513279.074 6  -1932018.03947  22479268.68347
  21321521.847 6   -954690.148 6   -724654.54748  21321519.87448
  22808177.308 5   -797381.492 5   -599686.77747  22808179.40947
  19875573.206 7  -1055602.598 7   -801598.49249  19875573.10849
  23555713.456 5   -498346.324 5   -380152.77747  23555712.50347
 20  5 16  1 54 48.9990000  0  8G04G08G09G11G16G26G27G31            -0.000267229
  21173327.042 6  -1080465.555 6   -824761.48448  21173325.91348
  20103374.300 7  -1767886.598 7  -1340439.10249  20103374.81249
  22455203.651 6  -1728054.746 6  -1316770.52349  22455203.69449
  22477849.573 6  -2520745.551 6  -1937836.07447  22477847.67547
  21320971.237 6   -957584.102 6   -726909.57848  21320968.66348
  22807712.284 5   -799826.773 5   -601592.18847  22807714.24547
  19874990.628 7  -1058663.766 7   -803983.81649  19874990.39049
  23555427.058 5   -499851.805 5   -381325.88347  23555426.33147
 20  5 16  1 54 49.9990000  0  8G04G08G09G11G16G26G27G31            -0.000269878
  21172730.190 6  -1083602.547 6   -827205.89548  21172729.30848
  20102383.245 7  -1773093.758 7  -1344496.62949  20102383.79649
  22454246.823 6  -1733082.469 6  -1320688.22749  22454247.10149
  22476428.886 6  -2528212.180 6  -1943654.22347  22476426.94847
  21320420.519 6   -960478.328 6   -729164.81648  21320418.24948
  22807246.909 5   -802272.309 5   -603497.80147  22807248.64747
  19874408.175 7  -1061724.707 7   -806368.96549  19874407.88649
  23555140.081 5   -501357.262 5   -382498.96147  23555139.55447
 20  5 16  1 54 50.9990000  0  8G04G08G09G11G16G26G27G31            -0.000272528
  21172133.409 6  -1086739.172 6   -829650.01648  21172132.40548
  20101392.573 7  -1778300.578 7  -1348553.89149  20101393.29649
  22453290.120 6  -1738109.809 6  -1324605.63749  22453290.72649
  22475007.862 6  -2535678.816 6  -1949472.38347  22475005.97247
  21319869.847 6   -963372.699 6   -731420.17648  21319867.59348
  22806781.737 4   -804718.047 4   -605403.57047  22806783.49547
  19873825.620 7  -1064785.309 7   -808753.85249  19873825.24549
  23554853.972 5   -502862.715 5   -383672.03947  23554853.69847
 20  5 16  1 54 51.9990000  0  8G04G08G09G11G16G26G27G31            -0.000275177
  21171536.300 6  -1089875.504 6   -832093.91048  21171535.50348
  20100401.823 7  -1783507.109 7  -1352610.93449  20100402.37849
  22452333.003 6  -1743136.852 6  -1328522.80949  22452334.35849
  22473586.909 6  -2543145.543 6  -1955290.60947  22473585.35847
  21319318.667 6   -966267.309 6   -733675.71548  21319316.69848
  22806315.964 4   -807164.020 4   -607309.52347  22806317.92547
  19873243.487 7  -1067845.621 7   -811138.50849  19873243.04649
  23554567.190 5   -504368.176 5   -384845.13747  23554566.62447
 20  5 16  1 54 52.9990000  0  8G04G08G09G11G16G26G27G31            -0.000277826
  21170939.581 6  -1093011.582 6   -834537.61748  21170938.63648
  20099411.097 7  -1788713.332 7  -1356667.73049  20099411.59349
  22451376.940 6  -1748163.582 6  -1332439.74649  22451377.49549
  22472165.808 6  -2550612.406 6  -1961108.94947  22472164.38247
  21318768.183 6   -969162.152 6   -735931.43848  21318765.84748
  22805849.987 4   -809610.354 4   -609215.76647  22805852.26147
  19872660.784 7  -1070905.695 7   -813522.98849  19872660.83149
  23554281.073 5   -505873.664 5   -386018.25047  23554280.18747
 20  5 16  1 54 53.9990000  0  8G04G08G09G11G16G26G27G31            -0.000280476
  21170342.987 6  -1096147.387 6   -836981.09448  21170341.62048
  20098420.323 7  -1793919.301 7  -1360724.32849  20098420.65949
  22450420.565 6  -1753190.023 6  -1336356.45349  22450420.98049
  22470745.190 6  -2558079.371 6  -1966927.35947  22470743.59347
  21318217.308 6   -972057.227 6   -738187.34048  21318215.30848
  22805384.690 4   -812056.871 4   -611122.13347  22805386.62447
  19872078.690 7  -1073965.523 7   -815907.26249  19872078.55449
  23553994.526 5   -507379.207 5   -387191.39847  23553993.69447
 20  5 16  1 54 54.9990000  0  8G04G08G09G11G16G26G27G31            -0.000283127
  21169745.909 6  -1099282.844 6   -839424.31348  21169745.25348
  20097429.667 7  -1799124.934 7  -1364780.66449  20097430.18349
  22449464.011 6  -1758216.082 6  -1340272.86749  22449464.69449
  22469324.151 6  -2565546.395 6  -1972745.82447  22469322.50747
  21317666.136 6   -974952.477 6   -740443.37948  21317663.88248
  22804919.339 4   -814503.656 4   -613028.73447  22804921.10847
  19871496.597 7  -1077025.031 7   -818291.30149  19871496.22649
  23553707.870 5   -508884.719 5   -388364.53547  23553707.58947
 20  5 16  1 54 55.9990000  0  8G04G08G09G11G16G26G27G31            -0.000285776
  21169149.737 6  -1102418.043 6   -841867.32848  21169148.64748
  20096438.987 7  -1804330.297 7  -1368836.79749  20096439.41749
  22448507.714 6  -1763241.887 6  -1344189.07049  22448508.11649
  22467903.112 6  -2573013.539 6  -1978564.38347  22467901.45647
  21317115.315 6   -977847.984 6   -742699.61348  21317113.15548
  22804453.792 4   -816950.703 4   -614935.52047  22804455.41347
  19870914.198 7  -1080084.270 7   -820675.12149  19870914.19849
  23553421.347 5   -510390.285 5   -389537.70347  23553420.89447
 20  5 16  1 54 56.9990000  0  8G04G08G09G11G16G26G27G31            -0.000288427
  21168553.065 6  -1105552.945 6   -844310.10948  21168552.13648
  20095448.495 7  -1809535.328 7  -1372892.66449  20095448.93749
  22447550.886 6  -1768267.262 6  -1348104.95349  22447551.69849
  22466482.237 6  -2580480.742 6  -1984382.98047  22466480.76547
  21316564.558 6   -980743.660 6   -744955.98848  21316561.85548
  22803987.839 5   -819398.023 5   -616842.52347  22803989.69447
  19870332.050 7  -1083143.203 7   -823058.69949  19870331.93749
  23553134.636 5   -511895.840 5   -390710.87147  23553134.26547
 20  5 16  1 54 57.9990000  0  8G04G08G09G11G16G26G27G31            -0.000291077
  21167956.362 6  -1108687.348 6   -846752.50448  21167955.74148
  20094457.909 7  -1814739.879 7  -1376948.15649  20094458.62849
  22446594.737 6  -1773292.238 6  -1352020.51649  22446595.55849
  22465060.940 6  -2587947.879 6  -1990201.52747  22465059.30447
  21316013.206 6   -983639.391 6   -747212.40248  21316011.20248
  22803522.534 5   -821845.410 5   -618749.59047  22803523.75347
  19869750.073 7  -1086201.684 7   -825441.93449  19869750.58949
  23552849.050 5   -513401.242 5   -391883.92647  23552848.01947
 20  5 16  1 54 58.9990000  0  8G04G08G09G11G16G26G27G31            -0.000293728
  21167360.011 6  -1111821.578 6   -849194.76248  21167359.38648
  20093467.800 7  -1819944.223 7  -1381003.48849  20093468.37849
  22445638.667 6  -1778316.961 6  -1355935.88749  22445639.29649
  22463640.347 6  -2595415.168 6  -1996020.18447  22463638.65147
  21315462.136 6   -986535.418 6   -749469.05148  21315460.06248
  22803056.386 5   -824293.129 5   -620656.90647  22803058.22247
  19869168.190 7  -1089259.984 7   -827825.02349  19869168.16349
  23552562.159 5   -514906.723 5   -393057.03147  23552561.42947
 20  5 16  1 54 59.9990000  0  8G04G08G09G11G16G26G27G31            -0.000296377
  21166763.722 6  -1114955.543 6   -851636.81348  21166762.92548
  20092477.472 7  -1825148.344 7  -1385058.64549  20092478.25349
  22444682.487 6  -1783341.402 6  -1359851.03949  22444683.17949
  22462219.417 6  -2602882.645 6  -2001838.99247  22462217.59747
  21314911.190 6   -989431.734 6   -751725.92648  21314908.88648
  22802590.370 4   -826741.191 4   -622564.48447  22802592.19447
  19868586.011 7  -1092318.090 7   -830207.96549  19868586.12049
  23552275.636 5   -516412.309 5   -394230.21947  23552274.94047
 20  5 16  1 55  0.9990000  0  8G04G08G09G11G16G26G27G31            -0.000299028
  21166167.448 6  -1118089.219 6   -854078.63748  21166166.73748
  20091487.034 7  -1830352.148 7  -1389113.56649  20091488.09749
  22443726.675 6  -1788365.563 6  -1363765.96949  22443727.34749
  22460798.315 6  -2610350.156 6  -2007657.83247  22460796.89447
  21314359.683 6   -992328.230 6   -753982.93848  21314357.24548
  22802124.761 4   -829189.480 4   -624472.24247  22802126.72647
  19868004.214 7  -1095375.871 7   -832590.65649  19868004.62849
  23551989.081 5   -517917.898 5   -395403.40647  23551988.60547
 20  5 16  1 55  1.9990000  0  8G04G08G09G11G16G26G27G31            -0.000301680
  21165571.269 6  -1121222.684 6   -856520.29748  21165570.00748
  20090497.065 7  -1835555.719 7  -1393168.29349  20090497.92949
  22442771.019 6  -1793389.387 6  -1367680.63749  22442771.08549
  22459376.495 6  -2617817.828 6  -2013476.79747  22459375.54647
  21313808.456 6   -995225.008 6   -756240.17248  21313806.15148
  22801658.690 5   -831638.070 5   -626380.23047  22801660.69047
  19867422.347 7  -1098433.449 7   -834973.18849  19867422.48049
  23551702.792 5   -519423.527 5   -396576.62947  23551702.04247
 20  5 16  1 55  2.9990000  0  8G04G08G09G11G16G26G27G31            -0.000304331
  21164974.847 6  -1124355.855 6   -858961.73448  21164973.96448
  20089507.089 7  -1840759.012 7  -1397222.80949  20089507.98049
  22441814.706 6  -1798412.953 6  -1371595.10249  22441815.20649
  22457956.026 6  -2625285.633 6  -2019295.86747  22457954.58147
  21313257.331 6   -998122.055 6   -758497.60948  21313254.94048
  22801192.456 4   -834086.969 4   -628288.46947  22801194.72647
  19866840.847 7  -1101490.781 7   -837355.52749  19866840.64049
  23551415.987 6   -520929.254 6   -397749.93047  23551415.77647
 20  5 16  1 55  3.9990000  0  8G04G08G09G11G16G26G27G31            -0.000306982
  21164378.776 6  -1127488.672 6   -861402.89148  21164378.03048
  20088516.933 7  -1845961.918 7  -1401277.02349  20088517.42549
  22440858.823 6  -1803436.141 6  -1375509.27749  22440859.33549
  22456534.980 6  -2632753.453 6  -2025114.94947  22456533.47247
  21312706.190 6  -1001019.223 6   -760755.14548  21312703.85848
  22800726.628 4   -836536.027 4   -630196.82447  22800728.32347
  19866259.300 7  -1104547.746 7   -839737.57449  19866259.10849
  23551130.065 6   -522434.871 6   -398923.13747  23551128.92147
 20  5 16  1 55  4.9990000  0  8G04G08G09G11G16G26G27G31            -0.000309633
  21163782.480 6  -1130621.211 6   -863843.82848  21163781.95648
  20087527.222 7  -1851164.563 7  -1405331.03549  20087527.56549
  22439903.120 6  -1808458.973 6  -1379423.17649  22439903.65149
  22455114.105 6  -2640221.355 6  -2030934.09447  22455112.10847
  21312154.862 6  -1003916.621 6   -763012.86748  21312152.15148
  22800260.230 5   -838985.352 5   -632105.39547  22800262.37447
  19865677.300 7  -1107604.445 7   -842119.42249  19865677.30849
  23550843.300 6   -523940.523 6   -400096.37547  23550842.67147
 20  5 16  1 55  5.9990000  0  8G04G08G09G11G16G26G27G31            -0.000312286
  21163186.300 6  -1133753.496 6   -866284.57448  21163185.53448
  20086536.862 7  -1856366.945 7  -1409384.83649  20086537.57349
  22438947.245 6  -1813481.535 6  -1383336.86349  22438947.95249
  22453693.081 6  -2647689.383 6  -2036753.33647  22453691.54647
  21311603.706 6  -1006814.266 6   -765270.76648  21311600.66348
  22799794.612 4   -841434.945 4   -634014.16447  22799796.01547
  19865095.855 7  -1110660.906 7   -844501.07849  19865095.74549
  23550556.761 5   -525446.219 5   -401269.64547  23550556.06247
 20  5 16  1 55  6.9990000  0  8G04G08G09G11G16G26G27G31            -0.000314938
  21162590.667 6  -1136885.469 6   -868725.07448  21162589.90948
  20085546.706 7  -1861569.051 7  -1413438.42649  20085547.74149
  22437991.940 6  -1818503.828 6  -1387250.34449  22437992.42549
  22452271.917 6  -2655157.531 6  -2042572.66847  22452269.98047
  21311051.448 6  -1009712.160 6   -767528.87148  21311049.39448
  22799328.855 5   -843884.863 5   -635923.19547  22799330.23747
  19864514.159 7  -1113717.098 7   -846882.52349  19864514.31249
  23550269.972 5   -526951.977 5   -402442.96547  23550269.38247
 20  5 16  1 55  7.9990000  0  8G04G08G09G11G16G26G27G31            -0.000317589
  21161994.261 6  -1140017.184 6   -871165.37148  21161993.47648
  20084557.120 7  -1866770.883 7  -1417491.80149  20084557.95249
  22437035.839 6  -1823525.770 6  -1391163.53949  22437036.87849
  22450850.331 6  -2662625.754 6  -2048392.06347  22450849.13247
  21310500.511 6  -1012610.281 6   -769787.15248  21310498.07348
  22798861.855 4   -846335.004 4   -637832.40247  22798864.24947
  19863932.315 7  -1116773.023 7   -849263.76649  19863932.46049
  23549983.355 5   -528457.746 5   -403616.29747  23549982.85547
 20  5 16  1 55  8.9990000  0  8G04G08G09G11G16G26G27G31            -0.000320242
  21161398.730 6  -1143148.672 6   -873605.49248  21161397.92548
  20083567.315 7  -1871972.461 7  -1421544.97749  20083568.12449
  22436080.237 6  -1828547.453 6  -1395076.53949  22436081.07749
  22449429.425 6  -2670094.133 6  -2054211.58247  22449427.66747
  21309949.245 6  -1015508.664 6   -772045.62548  21309946.19848
  22798395.276 5   -848785.480 5   -639741.86347  22798397.70647
  19863351.253 7  -1119828.723 7   -851644.83249  19863351.07749
  23549696.878 5   -529963.586 5   -404789.68847  23549696.21047
 20  5 16  1 55  9.9990000  0  8G04G08G09G11G16G26G27G31            -0.000322893
  21160803.183 6  -1146279.949 6   -876045.44548  21160802.34348
  20082577.550 7  -1877173.840 7  -1425598.00849  20082577.80049
  22435124.972 6  -1833568.941 6  -1398989.38749  22435125.22249
  22448007.917 6  -2677562.715 6  -2060031.25047  22448006.33947
  21309397.620 6  -1018407.379 6   -774304.36748  21309394.53048
  22797928.815 5   -851236.328 5   -641651.62147  22797931.11647
  19862769.917 7  -1122884.254 7   -854025.76249  19862769.82749
  23549410.331 5   -531469.539 5   -405963.15647  23549409.68747
 20  5 16  1 55 10.9990000  0  8G04G08G09G11G16G26G27G31            -0.000325546
  21160207.144 6  -1149411.000 6   -878485.22348  21160206.30848
  20081587.784 7  -1882375.012 7  -1429650.86349  20081588.57349
  22434169.073 6  -1838590.109 6  -1402901.98849  22434169.97649
  22446586.855 6  -2685031.426 6  -2065851.02047  22446585.35147
  21308845.378 6  -1021306.340 6   -776563.30148  21308842.73348
  22797462.855 5   -853687.438 5   -643561.57847  22797464.98747
  19862188.472 7  -1125939.551 7   -856406.51649  19862188.50749
  23549123.355 5   -532975.570 5   -407136.69547  23549123.07347
 20  5 16  1 55 11.9990000  0  8G04G08G09G11G16G26G27G31            -0.000328199
  21159611.183 6  -1152541.781 6   -880924.79748  21159610.79248
  20080597.909 7  -1887575.883 7  -1433703.48849  20080598.37049
  22433213.784 6  -1843611.047 6  -1406814.40649  22433214.42549
  22445165.542 6  -2692500.242 6  -2071670.88347  22445163.85547
  21308293.683 6  -1024205.543 6   -778822.41448  21308291.00348
  22796996.573 5   -856138.863 5   -645471.78147  22796997.93347
  19861607.190 7  -1128994.590 7   -858787.06649  19861606.98749
  23548836.784 5   -534481.637 5   -408310.25847  23548836.89747
 20  5 16  1 55 12.9990000  0  8G04G08G09G11G16G26G27G31            -0.000330853
  21159015.659 6  -1155672.316 6   -883364.18048  21159014.87848
  20079608.300 7  -1892776.484 7  -1437755.91049  20079609.37849
  22432258.089 6  -1848631.621 6  -1410726.54349  22432258.89449
  22443744.964 6  -2699969.188 6  -2077490.83647  22443742.74547
  21307741.792 6  -1027104.969 6   -781081.70748  21307739.83548
  22796529.300 5   -858590.566 5   -647382.19947  22796531.77647
  19861025.839 7  -1132049.379 7   -861167.42249  19861025.43749
  23548550.230 5   -535987.742 5   -409483.85247  23548549.86647
 20  5 16  1 55 13.9990000  0  8G04G08G09G11G16G26G27G31            -0.000333506
  21158419.980 6  -1158802.570 6   -885803.33648  21158419.03048
  20078618.620 7  -1897976.844 7  -1441808.13749  20078619.31949
  22431302.722 6  -1853651.996 6  -1414638.52749  22431303.81249
  22442322.964 6  -2707438.242 6  -2083310.88347  22442321.19447
  21307190.050 6  -1030004.699 6   -783341.23848  21307187.70248
  22796063.105 4   -861042.566 4   -649292.84447  22796065.31547
  19860444.472 7  -1135103.973 7   -863547.62549  19860444.46849
  23548263.909 5   -537493.953 5   -410657.52347  23548263.24947
 20  5 16  1 55 14.9990000  0  8G04G08G09G11G16G26G27G31            -0.000336159
  21157824.534 6  -1161932.629 6   -888242.34848  21157823.73048
  20077628.917 7  -1903176.969 7  -1445860.18849  20077629.59349
  22430347.815 6  -1858672.074 6  -1418550.27749  22430348.32749
  22440901.401 6  -2714907.504 6  -2089131.08647  22440899.57347
  21306638.237 6  -1032904.711 6   -785600.98448  21306635.87848
  22795596.886 5   -863494.902 5   -651203.75447  22795598.55847
  19859863.206 7  -1138158.324 7   -865927.63749  19859863.15549
  23547977.815 5   -539000.211 5   -411831.23847  23547976.35847
 20  5 16  1 55 15.9990000  0  8G04G08G09G11G16G26G27G31            -0.000338814
  21157228.815 6  -1165062.395 6   -890681.12548  21157228.33948
  20076640.019 7  -1908376.777 7  -1449911.98449  20076640.67149
  22429392.323 6  -1863691.816 6  -1422461.76649  22429393.42549
  22439480.308 6  -2722376.832 6  -2094951.34047  22439478.22647
  21306086.659 6  -1035804.918 6   -787860.89148  21306083.85848
  22795128.894 5   -865947.504 5   -653114.88747  22795131.88247
  19859282.183 7  -1141212.430 7   -868307.46149  19859281.78449
  23547691.065 5   -540506.500 5   -413004.97747  23547689.60547
 20  5 16  1 55 16.9990000  0  8G04G08G09G11G16G26G27G31            -0.000341467
  21156633.167 6  -1168191.875 6   -893119.68048  21156632.52648
  20075650.230 7  -1913576.320 7  -1453963.57449  20075650.90149
  22428437.440 6  -1868711.277 6  -1426373.03549  22428437.97649
  22438058.980 6  -2729846.270 6  -2100771.67647  22438057.16747
  21305534.565 6  -1038705.359 6   -790120.98048  21305532.09348
  22794662.808 5   -868400.371 5   -655026.20747  22794665.38647
  19858701.089 7  -1144266.250 7   -870687.06349  19858700.48049
  23547404.425 5   -542012.820 5   -414178.73847  23547403.27247
 20  5 16  1 55 17.9990000  0  8G04G08G09G11G16G26G27G31            -0.000344122
  21156037.753 6  -1171321.105 6   -895558.03948  21156037.16748
  20074661.136 7  -1918775.578 7  -1458014.94149  20074661.48749
  22427482.292 6  -1873730.453 6  -1430284.08249  22427483.29249
  22436637.394 6  -2737315.813 6  -2106592.09847  22436635.60847
  21304982.886 6  -1041606.051 6   -792381.25448  21304979.81548
  22794196.690 5   -870853.488 5   -656937.73047  22794198.48047
  19858119.894 7  -1147319.805 7   -873066.45349  19858119.81249
  23547117.714 5   -543519.180 5   -415352.52347  23547116.35547
 20  5 16  1 55 18.9990000  0  8G04G08G09G11G16G26G27G31            -0.000346775
  21155442.034 6  -1174449.965 6   -897996.11348  21155441.98048
  20073671.940 7  -1923974.504 7  -1462066.05549  20073672.21449
  22426526.855 6  -1878749.262 6  -1434194.84849  22426527.81949
  22435216.386 6  -2744785.391 6  -2112412.55147  22435214.19447
  21304430.190 6  -1044506.922 6   -794641.67248  21304427.78048
  22793729.206 5   -873306.871 5   -658849.45347  22793731.48747
  19857538.980 7  -1150373.070 7   -875445.61749  19857538.64749
  23546830.878 5   -545025.543 5   -416526.31347  23546829.75747
 20  5 16  1 55 19.9990000  0  8G04G08G09G11G16G26G27G31            -0.000349430
  21154846.972 6  -1177578.594 6   -900434.01248  21154846.37448
  20072682.417 7  -1929173.125 7  -1466116.93449  20072682.99149
  22425571.831 6  -1883767.766 6  -1438105.36749  22425572.88249
  22433794.823 6  -2752255.078 6  -2118233.09047  22433792.31947
  21303878.456 6  -1047408.000 6   -796902.25448  21303875.62448
  22793262.394 4   -875760.469 4   -660761.34847  22793264.57747
  19856957.878 7  -1153426.035 7   -877824.55949  19856957.94049
  23546544.339 5   -546531.898 5   -417700.09847  23546543.00747
 20  5 16  1 55 20.9990000  0  8G04G08G09G11G16G26G27G31            -0.000352085
  21154251.167 6  -1180706.895 6   -902871.64848  21154251.11648
  20071692.909 7  -1934371.449 7  -1470167.57849  20071693.78049
  22424616.909 6  -1888785.926 6  -1442015.61749  22424618.25349
  22432373.042 6  -2759724.848 6  -2124053.68447  22432371.32347
  21303326.269 6  -1050309.297 6   -799163.00848  21303324.04248
  22792795.206 4   -878214.336 4   -662673.45747  22792797.56247
  19856376.956 7  -1156478.758 7   -880203.30149  19856376.86249
  23546257.784 5   -548038.262 5   -418873.89147  23546256.41347
 20  5 16  1 55 21.9990000  0  8G04G08G09G11G16G26G27G31            -0.000354738
  21153656.456 6  -1183834.934 6   -905309.07848  21153655.95248
  20070703.972 7  -1939569.520 7  -1474218.02049  20070704.58149
  22423661.980 6  -1893803.801 6  -1445925.66049  22423663.55449
  22430951.644 6  -2767194.730 6  -2129874.37147  22430949.61247
  21302774.151 6  -1053210.852 6   -801423.95348  21302771.74548
  22792328.222 4   -880668.496 4   -664585.78947  22792330.57347
  19855795.784 7  -1159531.215 7   -882581.84849  19855795.66749
  23545971.034 5   -549544.695 5   -420047.74247  23545969.97247
 20  5 16  1 55 22.9990000  0  8G04G08G09G11G16G26G27G31            -0.000357393
  21153061.276 6  -1186962.715 6   -907746.31348  21153060.77248
  20069714.831 7  -1944767.293 7  -1478268.23449  20069715.28449
  22422707.698 6  -1898821.379 6  -1449835.45349  22422708.38649
  22429530.401 6  -2774664.719 6  -2135695.14147  22429528.08547
  21302222.198 6  -1056112.621 6   -803685.08248  21302219.25348
  22791861.909 4   -883122.938 4   -666498.33247  22791863.81947
  19855215.058 7  -1162583.398 7   -884960.17249  19855215.02649
  23545683.980 5   -551051.148 5   -421221.59847  23545683.01147
 20  5 16  1 55 23.9990000  0  8G04G08G09G11G16G26G27G31            -0.000360048
  21152465.745 6  -1190090.211 6   -910183.32848  21152465.29648
  20068725.730 7  -1949964.773 7  -1482318.21949  20068726.33949
  22421753.167 6  -1903838.633 6  -1453745.00449  22421753.70649
  22428108.831 6  -2782134.801 6  -2141515.97747  22428107.28847
  21301669.730 6  -1059014.621 6   -805946.38348  21301667.24948
  22791394.120 4   -885577.586 4   -668411.05147  22791396.47647
  19854634.948 7  -1165635.316 7   -887338.28549  19854634.50749
  23545397.245 5   -552557.621 5   -422395.47747  23545396.48347
 20  5 16  1 55 24.9990000  0  8G04G08G09G11G16G26G27G31            -0.000362703
  21151870.980 6  -1193217.359 6   -912620.06348  21151870.20648
  20067736.847 7  -1955161.930 7  -1486367.94949  20067737.14449
  22420798.190 6  -1908855.527 6  -1457654.27749  22420799.03049
  22426686.987 6  -2789604.957 6  -2147336.87547  22426685.53847
  21301117.659 6  -1061916.805 6   -808207.82048  21301115.01948
  22790926.862 4   -888032.484 4   -670323.96547  22790929.27647
  19854053.855 7  -1168686.926 7   -889716.16049  19854053.52249
  23545110.589 5   -554064.074 5   -423569.33247  23545109.64747
 20  5 16  1 55 25.9990000  0  8G04G08G09G11G16G26G27G31            -0.000365358
  21151276.128 6  -1196344.199 6   -915056.56348  21151275.44048
  20066747.776 7  -1960358.785 7  -1490417.45349  20066748.40949
  22419843.597 6  -1913872.066 6  -1461563.26649  22419844.42549
  22425265.362 6  -2797075.148 6  -2153157.80547  22425263.97247
  21300565.050 6  -1064819.180 6   -810469.41048  21300562.42148
  22790459.878 4   -890487.617 4   -672237.05547  22790462.24947
  19853473.370 7  -1171738.230 7   -892093.80549  19853473.33149
  23544824.105 5   -555570.516 5   -424743.18847  23544823.26947
 20  5 16  1 55 26.9990000  0  8G04G08G09G11G16G26G27G31            -0.000368015
  21150680.964 6  -1199470.859 6   -917492.92248  21150680.09748
  20065759.198 7  -1965555.441 7  -1494466.79349  20065759.73349
  22418888.347 6  -1918888.418 6  -1465472.11349  22418889.87449
  22423843.815 6  -2804545.559 6  -2158978.90647  22423842.51147
  21300013.042 6  -1067721.875 6   -812731.25048  21300010.23048
  22789993.050 4   -892943.109 4   -674150.43047  22789995.01547
  19852892.808 7  -1174789.387 7   -894471.32449  19852892.33149
  23544537.495 5   -557077.090 5   -425917.14547  23544536.16747
 20  5 16  1 55 27.9990000  0  8G04G08G09G11G16G26G27G31            -0.000370670
  21150085.886 6  -1202597.258 6   -919929.08248  21150085.20248
  20064769.823 7  -1970751.797 7  -1498515.89849  20064770.65549
  22417934.472 6  -1923904.449 6  -1469380.71149  22417935.33549
  22422422.409 6  -2812016.055 6  -2164800.07447  22422420.76947
  21299460.980 6  -1070624.824 6   -814993.29348  21299457.80848
  22789524.886 4   -895398.918 4   -676064.05547  22789527.79647
  19852311.730 7  -1177840.281 7   -896848.64549  19852312.29249
  23544250.659 5   -558583.738 5   -427091.15247  23544249.74547
 20  5 16  1 55 28.9990000  0  8G04G08G09G11G16G26G27G31            -0.000373327
  21149491.339 6  -1205723.258 6   -922364.92648  21149490.28048
  20063781.409 7  -1975947.789 7  -1502564.72749  20063782.15549
  22416979.503 6  -1928920.086 6  -1473289.00049  22416980.73049
  22421000.972 6  -2819486.559 6  -2170621.24647  22420999.34747
  21298908.440 6  -1073527.883 6   -817255.42248  21298905.56948
  22789058.120 4   -897854.863 4   -677977.78147  22789060.32347
  19851731.519 7  -1180890.797 7   -899225.66849  19851731.45249
  23543964.011 5   -560090.262 5   -428265.07447  23543962.71847
 20  5 16  1 55 29.9990000  0  8G04G08G09G11G16G26G27G31            -0.000375982
  21148896.362 6  -1208849.031 6   -924800.59448  21148895.73748
  20062792.417 7  -1981143.531 7  -1506613.35549  20062793.28449
  22416025.761 6  -1933935.445 6  -1477197.06649  22416026.83149
  22419579.167 6  -2826957.199 6  -2176442.52047  22419577.46447
  21298355.987 6  -1076431.211 6   -819517.75848  21298352.98748
  22788589.761 4   -900311.094 4   -679891.73047  22788592.94047
  19851150.917 7  -1183941.078 7   -901602.51249  19851151.21849
  23543677.511 5   -561596.879 5   -429439.07047  23543675.91347
 20  5 16  1 55 30.9990000  0  8G04G08G09G11G16G26G27G31            -0.000378639
  21148301.300 6  -1211974.590 6   -927236.09848  21148300.62848
  20061804.183 7  -1986339.043 7  -1510661.80549  20061804.73749
  22415071.019 6  -1938950.551 6  -1481104.94549  22415072.31949
  22418157.526 6  -2834427.980 6  -2182263.90247  22418156.11647
  21297803.175 6  -1079334.832 6   -821780.31348  21297800.72248
  22788122.464 5   -902767.656 5   -681805.93847  22788125.58547
  19850570.534 7  -1186991.168 7   -903979.21149  19850570.54249
  23543390.237 5   -563103.547 5   -430613.10247  23543389.06247
 20  5 16  1 55 31.9990000  0  8G04G08G09G11G16G26G27G31            -0.000381296
  21147706.784 6  -1215099.852 6   -929671.36748  21147706.17148
  20060815.073 7  -1991534.266 7  -1514710.03149  20060815.90549
  22414116.605 6  -1943965.336 6  -1485012.57049  22414118.09349
  22416735.925 6  -2841898.891 6  -2188085.39847  22416734.17947
  21297250.308 6  -1082238.672 6   -824043.04748  21297247.74948
  22787655.526 4   -905224.488 4   -683720.35247  22787657.84747
  19849990.370 7  -1190040.992 7   -906355.69949  19849990.36249
  23543104.034 5   -564610.277 5   -431787.17647  23543102.68747
 20  5 16  1 55 32.9990000  0  8G04G08G09G11G16G26G27G31            -0.000383951
  21147111.987 6  -1218224.754 6   -932106.35248  21147111.43348
  20059826.683 7  -1996729.117 7  -1518757.97349  20059827.35849
  22413161.964 6  -1948979.750 6  -1488919.90649  22413163.61649
  22415314.214 6  -2849369.797 6  -2193906.88347  22415312.55047
  21296698.058 6  -1085142.656 6   -826305.89548  21296695.39048
  22787187.964 4   -907681.504 4   -685634.91047  22787190.30447
  19849410.190 7  -1193090.457 7   -908731.90649  19849409.97649
  23542817.417 5   -566116.934 5   -432961.19947  23542815.76947
 20  5 16  1 55 33.9990000  0  8G04G08G09G11G16G26G27G31            -0.000386608
  21146517.690 6  -1221349.289 6   -934541.06348  21146516.95648
  20058838.167 7  -2001923.582 7  -1522805.60549  20058839.05049
  22412208.433 6  -1953993.727 6  -1492826.90649  22412209.67149
  22413892.440 6  -2856840.711 6  -2199728.36347  22413890.82747
  21296145.448 6  -1088046.777 6   -828568.84048  21296142.79248
  22786720.745 4   -910138.707 4   -687549.62147  22786722.64747
  19848829.948 7  -1196139.570 7   -911107.84049  19848829.81949
  23542530.253 5   -567623.535 5   -434135.16847  23542529.17947
 20  5 16  1 55 34.9990000  0  8G04G08G09G11G16G26G27G31            -0.000389265
  21145923.011 6  -1224473.523 6   -936975.53148  21145922.32748
  20057849.847 7  -2007117.777 7  -1526853.03149  20057850.03049
  22411254.386 6  -1959007.438 6  -1496733.69149  22411255.23749
  22412470.690 6  -2864311.715 6  -2205549.93047  22412468.97247
  21295592.651 6  -1090951.156 6   -830831.99248  21295590.30848
  22786253.065 4   -912596.188 4   -689464.53947  22786255.32347
  19848249.480 7  -1199188.422 7   -913483.57049  19848249.64449
  23542243.980 5   -569130.164 5   -435309.16447  23542242.22647
 20  5 16  1 55 35.9990000  0  8G04G08G09G11G16G26G27G31            -0.000391922
  21145328.761 6  -1227597.523 6   -939409.82048  21145327.56548
  20056861.464 7  -2012311.691 7  -1530900.23849  20056861.96449
  22410300.472 6  -1964020.820 6  -1500640.22349  22410301.32749
  22411049.386 6  -2871782.828 6  -2211371.57047  22411047.50347
  21295039.940 6  -1093855.734 6   -833095.29748  21295037.23748
  22785785.276 4   -915053.918 4   -691379.65647  22785787.59747
  19847669.565 7  -1202237.016 7   -915859.09849  19847669.64749
  23541956.480 5   -570636.813 5   -436483.17647  23541955.93747
 20  5 16  1 55 36.9990000  0  8G04G08G09G11G16G26G27G31            -0.000394579
  21144734.503 6  -1230721.184 6   -941843.84448  21144733.70648
  20055873.159 7  -2017505.273 7  -1534947.18849  20055874.01949
  22409346.339 6  -1969033.859 6  -1504546.49249  22409347.52249
  22409627.339 6  -2879254.016 6  -2217193.28147  22409625.55447
  21294486.987 6  -1096760.516 6   -835358.77048  21294484.82348
  22785316.972 4   -917511.883 4   -693294.96147  22785319.66747
  19847089.245 7  -1205285.313 7   -918234.39149  19847089.47249
  23541670.144 5   -572143.508 5   -437657.23847  23541669.02247
 20  5 16  1 55 37.9990000  0  8G04G08G09G11G16G26G27G31            -0.000397238
  21144139.573 6  -1233844.527 6   -944277.62148  21144139.09748
  20054885.034 7  -2022698.516 7  -1538993.86749  20054885.57749
  22408392.503 6  -1974046.547 6  -1508452.48049  22408393.66349
  22408206.026 6  -2886725.242 6  -2223015.02047  22408203.50347
  21293933.995 6  -1099665.492 6   -837622.38748  21293931.95648
  22784849.565 4   -919970.102 4   -695210.45747  22784852.01547
  19846509.237 7  -1208333.293 7   -920609.44149  19846509.28449
  23541383.401 5   -573650.141 5   -438831.24247  23541382.17547
 20  5 16  1 55 38.9990000  0  8G04G08G09G11G16G26G27G31            -0.000399895
  21143545.761 6  -1236967.559 6   -946711.14848  21143544.87848
  20053896.972 7  -2027891.434 7  -1543040.30149  20053897.54249
  22407438.612 6  -1979058.887 6  -1512358.19549  22407439.89049
  22406784.073 6  -2894196.539 6  -2228836.80547  22406782.06547
  21293381.534 6  -1102570.652 6   -839886.14848  21293378.81948
  22784382.425 4   -922428.512 4   -697126.09847  22784384.01547
  19845929.440 7  -1211380.984 7   -922984.26649  19845929.64049
  23541096.370 6   -575156.770 6   -440005.25047  23541095.60547
 20  5 16  1 55 39.9990000  0  8G04G08G09G11G16G26G27G31            -0.000402552
  21142951.448 6  -1240090.371 6   -949144.50848  21142950.87048
  20052908.753 7  -2033084.160 7  -1547086.57849  20052909.49949
  22406485.120 6  -1984071.012 6  -1516263.75449  22406485.83949
  22405362.433 6  -2901667.996 6  -2234658.71947  22405360.21047
  21292828.519 6  -1105476.098 6   -842150.12548  21292826.45248
  22783913.894 4   -924887.242 4   -699041.99247  22783916.03047
  19845349.573 7  -1214428.449 7   -925358.91449  19845349.55049
  23540810.276 6   -576663.500 6   -441179.32847  23540809.03847
 20  5 16  1 55 40.9990000  0  8G04G08G09G11G16G26G27G31            -0.000405210
  21142357.136 6  -1243212.844 6   -951577.60548  21142356.33148
  20051920.542 7  -2038276.539 7  -1551132.58649  20051921.03049
  22405531.097 6  -1989082.695 6  -1520168.96549  22405532.34749
  22403940.378 6  -2909139.480 6  -2240480.65247  22403938.22247
  21292275.573 6  -1108381.738 6   -844414.26248  21292273.03848
  22783446.667 4   -927346.199 4   -700958.06647  22783448.39447
  19844769.526 7  -1217475.605 7   -927733.32049  19844769.70649
  23540523.487 5   -578170.180 5   -442353.36747  23540522.26147
 20  5 16  1 55 41.9990000  0  8G04G08G09G11G16G26G27G31            -0.000407867
  21141762.917 6  -1246334.938 6   -954010.40648  21141762.39748
  20050932.550 7  -2043468.527 7  -1555178.29749  20050933.15549
  22404577.597 6  -1994094.047 6  -1524073.91049  22404578.98749
  22402518.597 6  -2916610.961 6  -2246302.59047  22402516.75347
  21291722.534 6  -1111287.465 6   -846678.46548  21291720.36248
  22782977.862 4   -929805.367 4   -702874.29947  22782980.28447
  19844189.753 7  -1220522.402 7   -930107.44949  19844189.73749
  23540237.019 6   -579676.816 6   -443527.37147  23540235.87847
 20  5 16  1 55 42.9990000  0  8G04G08G09G11G16G26G27G31            -0.000410526
  21141168.980 6  -1249456.695 6   -956442.94948  21141168.17948
  20049944.972 7  -2048660.176 7  -1559223.73449  20049945.58549
  22403624.261 6  -1999104.965 6  -1527978.52049  22403625.17149
  22401097.214 6  -2924082.473 6  -2252124.53947  22401095.24947
  21291169.573 6  -1114193.371 6   -848942.80948  21291167.32748
  22782510.167 4   -932264.645 4   -704790.62147  22782512.19047
  19843610.253 7  -1223568.871 7   -932481.32049  19843609.98349
  23539950.276 5   -581183.395 5   -444701.33247  23539948.85147
 20  5 16  1 55 43.9990000  0  8G04G08G09G11G16G26G27G31            -0.000413185
  21140574.948 6  -1252578.238 6   -958875.32048  21140574.26148
  20048957.097 7  -2053851.602 7  -1563268.99649  20048957.39449
  22402670.308 6  -2004115.648 6  -1531882.94949  22402671.67949
  22399674.925 6  -2931554.172 6  -2257946.64547  22399673.19847
  21290616.690 6  -1117099.566 6   -851207.38348  21290614.48348
  22782042.175 4   -934724.339 4   -706707.27047  22782043.58947
  19843030.378 7  -1226615.141 7   -934855.03949  19843030.20649
  23539663.761 6   -582690.105 6   -445875.40247  23539662.50747
 20  5 16  1 55 44.9990000  0  8G04G08G09G11G16G26G27G31            -0.000415842
  21139981.276 6  -1255699.594 6   -961307.54748  21139980.33148
  20047969.214 7  -2059042.805 7  -1567314.09049  20047969.82349
  22401716.651 6  -2009126.152 6  -1535787.24249  22401718.60849
  22398253.440 6  -2939026.047 6  -2263768.88747  22398251.57347
  21290063.214 6  -1120006.082 6   -853472.20348  21290060.84748
  22781573.667 4   -937184.281 4   -708624.10547  22781575.52647
  19842451.065 7  -1229661.234 7   -937228.61749  19842450.95249
  23539377.081 5   -584196.910 5   -447049.53547  23539375.83147
 20  5 16  1 55 45.9990000  0  8G04G08G09G11G16G26G27G31            -0.000418503
  21139386.808 6  -1258820.621 6   -963739.51648  21139386.49948
  20046981.151 7  -2064233.660 7  -1571358.92249  20046981.77649
  22400763.628 6  -2014136.230 6  -1539691.19949  22400764.81249
  22396831.612 6  -2946497.934 6  -2269591.13347  22396829.76547
  21289510.308 6  -1122912.758 6   -855737.14548  21289507.96048
  22781105.526 5   -939644.539 5   -710541.19147  22781107.83147
  19841871.667 7  -1232706.977 7   -939601.92649  19841871.21049
  23539090.003 5   -585703.680 5   -448223.64147  23539089.02647
 20  5 16  1 55 46.9990000  0  8G04G08G09G11G16G26G27G31            -0.000421162
  21138792.940 6  -1261941.285 6   -966171.20348  21138792.49148
  20045993.425 7  -2069424.207 7  -1575403.50049  20045994.67149
  22399809.823 6  -2019145.965 6  -1543594.89149  22399811.36249
  22395409.573 6  -2953969.887 6  -2275413.44147  22395408.08147
  21288957.136 6  -1125819.633 6   -858002.25048  21288954.82748
  22780637.901 4   -942104.984 4   -712458.42647  22780639.48047
  19841291.737 7  -1235752.461 7   -941975.03549  19841291.82749
  23538803.237 5   -587210.430 5   -449397.72747  23538802.31947
 20  5 16  1 55 47.9990000  0  8G04G08G09G11G16G26G27G31            -0.000423820
  21138199.276 6  -1265061.539 6   -968602.56648  21138198.93748
  20045005.862 7  -2074614.238 7  -1579447.67649  20045006.47249
  22398856.823 6  -2024155.227 6  -1547498.21149  22398858.31249
  22393987.847 6  -2961441.773 6  -2281235.68847  22393985.99947
  21288403.870 6  -1128726.566 6   -860267.39148  21288401.44848
  22780169.261 5   -944565.520 5   -714375.72747  22780171.64047
  19840712.206 7  -1238797.461 7   -944347.76249  19840712.27249
  23538516.995 6   -588717.043 6   -450571.71947  23538515.73047
 20  5 16  1 55 48.9990000  0  8G04G08G09G11G16G26G27G31            -0.000426479
  21137605.722 6  -1268181.430 6   -971033.64848  21137605.08548
  20044017.917 7  -2079803.969 7  -1583491.62949  20044019.05049
  22397904.355 6  -2029164.117 6  -1551401.24249  22397905.21449
  22392565.628 6  -2968913.699 6  -2287057.96947  22392563.72647
  21287850.917 6  -1131633.645 6   -862532.64548  21287848.79648
  22779701.105 4   -947026.246 4   -716293.18047  22779703.25347
  19840132.737 7  -1241842.160 7   -946720.25049  19840132.70649
  23538229.940 6   -590223.645 6   -451745.70347  23538228.80847
 20  5 16  1 55 49.9990000  0  8G04G08G09G11G16G26G27G31            -0.000429138
  21137012.222 6  -1271300.961 6   -973464.45348  21137011.34748
  20043030.909 7  -2084993.285 7  -1587535.24649  20043031.52649
  22396950.792 6  -2034172.613 6  -1555303.96949  22396951.73349
  22391144.300 6  -2976385.609 6  -2292880.23847  22391141.77247
  21287297.065 6  -1134540.863 6   -864798.01648  21287295.03848
  22779233.058 4   -949487.164 4   -718210.77747  22779234.99947
  19839553.730 7  -1244886.504 7   -949092.46549  19839553.81249
  23537943.315 6   -591730.141 6   -452919.59047  23537942.06247
 20  5 16  1 55 50.9990000  0  8G04G08G09G11G16G26G27G31            -0.000431797
  21136418.511 6  -1274420.141 6   -975894.98448  21136417.87448
  20042043.331 7  -2090182.273 7  -1591578.61349  20042044.27649
  22395997.831 6  -2039180.715 6  -1559206.38749  22395998.68349
  22389722.136 6  -2983857.563 6  -2298702.53547  22389720.48747
  21286744.394 6  -1137448.242 6   -867063.50848  21286741.86648
  22778764.026 4   -951948.270 4   -720128.52347  22778767.02647
  19838974.167 7  -1247930.496 7   -951464.41049  19838974.24949
  23537656.675 5   -593236.625 5   -454093.48047  23537655.95247
 20  5 16  1 55 51.9990000  0  8G04G08G09G11G16G26G27G31            -0.000434458
  21135825.433 6  -1277539.066 6   -978325.32048  21135824.62048
  20041055.581 7  -2095370.973 7  -1595621.75849  20041056.48349
  22395045.167 6  -2044188.508 6  -1563108.55949  22395045.88249
  22388300.550 6  -2991329.605 6  -2304524.90647  22388298.11247
  21286191.034 6  -1140355.855 6   -869329.18848  21286188.45648
  22778296.667 4   -954409.637 4   -722046.47747  22778298.19447
  19838395.253 7  -1250974.234 7   -953836.15649  19838395.24949
  23537369.769 5   -594743.137 5   -455267.39147  23537368.94447
 20  5 16  1 55 52.9990000  0  8G04G08G09G11G16G26G27G31            -0.000437117
  21135232.081 6  -1280657.730 6   -980755.44548  21135230.73348
  20040068.636 7  -2100559.430 7  -1599664.71549  20040069.46849
  22394092.331 6  -2049196.035 6  -1567010.53549  22394092.97649
  22386878.042 6  -2998801.793 6  -2310347.38747  22386876.30447
  21285637.972 6  -1143263.746 6   -871595.07448  21285635.50748
  22777827.808 5   -956871.355 5   -723964.69547  22777829.42547
  19837815.948 7  -1254017.777 7   -956207.74249  19837815.65549
  23537083.151 5   -596249.715 5   -456441.34847  23537082.49147
 20  5 16  1 55 53.9990000  0  8G04G08G09G11G16G26G27G31            -0.000439775
  21134637.948 6  -1283776.105 6   -983185.34848  21134637.31948
  20039081.386 7  -2105747.582 7  -1603707.43049  20039082.13649
  22393138.808 6  -2054203.242 6  -1570912.25049  22393140.32749
  22385456.394 6  -3006274.059 6  -2316169.93047  22385454.33947
  21285084.230 6  -1146171.871 6   -873861.14148  21285081.97648
  22777358.964 5   -959333.293 5   -725883.09047  22777361.20647
  19837236.808 7  -1257061.012 7   -958579.09449  19837236.57749
  23536796.284 5   -597756.297 5   -457615.32047  23536795.40147
 20  5 16  1 55 54.9990000  0  8G04G08G09G11G16G26G27G31            -0.000442436
  21134044.433 6  -1286894.152 6   -985615.00048  21134044.23748
  20038094.276 7  -2110935.359 7  -1607749.85549  20038094.69449
  22392186.089 6  -2059210.086 6  -1574813.69149  22392187.36249
  22384034.417 6  -3013746.344 6  -2321992.48847  22384032.35547
  21284531.065 6  -1149080.129 6   -876127.32048  21284528.60548
  22776890.800 5   -961795.398 5   -727801.62547  22776892.76947
  19836657.784 7  -1260103.914 7   -960950.19149  19836657.55849
  23536510.519 6   -599262.855 6   -458789.27047  23536508.88647
 20  5 16  1 55 55.9990000  0  8G04G08G09G11G16G26G27G31            -0.000445097
  21133451.690 6  -1290011.879 6   -988044.39848  21133451.03048
  20037107.026 7  -2116122.855 7  -1611792.05949  20037107.59749
  22391233.847 6  -2064216.617 6  -1578714.88749  22391234.93749
  22382612.386 6  -3021218.727 6  -2327815.12947  22382610.71447
  21283977.315 6  -1151988.605 6   -878393.66448  21283975.18748
  22776422.276 5   -964257.816 5   -729720.38747  22776423.98747
  19836078.714 7  -1263146.574 7   -963321.09849  19836078.73349
  23536223.370 6   -600769.422 6   -459963.21547  23536222.47647
 20  5 16  1 55 56.9990000  0  8G04G08G09G11G16G26G27G31            -0.000447758
  21132858.370 6  -1293129.277 6   -990473.54348  21132857.68748
  20036120.073 7  -2121309.996 7  -1615833.99249  20036120.58949
  22390280.737 6  -2069222.738 6  -1582615.75849  22390282.17149
  22381190.956 6  -3028691.129 6  -2333637.78147  22381188.65147
  21283424.065 6  -1154897.227 6   -880660.12548  21283421.83148
  22775953.628 5   -966720.395 5   -731639.28547  22775955.54647
  19835499.440 7  -1266188.867 7   -965691.71949  19835499.64049
  23535936.565 6   -602275.934 6   -461137.12547  23535935.66747
 20  5 16  1 55 57.9990000  0  8G04G08G09G11G16G26G27G31            -0.000450417
  21132265.487 6  -1296246.328 6   -992902.41048  21132264.13248
  20035132.870 7  -2126496.793 7  -1619875.64849  20035133.58149
  22389328.409 6  -2074228.480 6  -1586516.33649  22389329.71849
  22379768.800 6  -3036163.527 6  -2339460.43047  22379767.02647
  21282870.261 6  -1157806.031 6   -882926.72748  21282868.30048
  22775484.753 5   -969183.172 5   -733558.32447  22775486.96847
  19834920.823 7  -1269230.840 7   -968062.08649  19834920.65949
  23535649.776 6   -603782.445 6   -462311.02747  23535648.60147
 20  5 16  1 55 58.9990000  0  8G04G08G09G11G16G26G27G31            -0.000453077
  21131671.831 6  -1299362.992 6   -995330.98048  21131671.51948
  20034145.651 7  -2131683.211 7  -1623917.01649  20034146.36249
  22388375.925 6  -2079233.840 6  -1590416.60949  22388376.76549
  22378347.034 6  -3043635.965 6  -2345283.10947  22378345.04247
  21282316.847 6  -1160714.973 6   -885193.43448  21282314.65548
  22775016.097 5   -971646.165 5   -735477.54147  22775018.23047
  19834342.097 7  -1272272.465 7   -970432.18449  19834342.37849
  23535362.815 5   -605288.859 5   -463484.86347  23535362.00747
 20  5 16  1 55 59.9990000  0  8G04G08G09G11G16G26G27G31            -0.000455738
  21131079.011 6  -1302479.387 6   -997759.33648  21131078.10848
  20033159.253 7  -2136869.340 7  -1627958.15249  20033159.54249
  22387423.948 6  -2084238.855 6  -1594316.62549  22387424.42949
  22376924.597 6  -3051108.492 6  -2351105.85247  22376922.87047
  21281763.097 6  -1163624.133 6   -887460.30948  21281761.25748
  22774547.573 5   -974109.348 5   -737396.89547  22774549.65947
  19833763.542 7  -1275313.836 7   -972802.08649  19833763.34749
  23535076.269 6   -606795.313 6   -464658.72347  23535075.06547
 20  5 16  1 56  0.9990000  0  8G04G08G09G11G16G26G27G31            -0.000458399
  21130486.214 6  -1305595.527 6  -1000187.50448  21130485.15548
  20032172.034 7  -2142055.203 7  -1631999.09049  20032172.81249
  22386471.542 6  -2089243.594 6  -1598216.43049  22386472.21049
  22375502.909 6  -3058581.105 6  -2356928.67247  22375501.14747
  21281209.456 6  -1166533.527 6   -889727.37548  21281207.40548
  22774078.722 5   -976572.902 5   -739316.55547  22774080.74947
  19833184.644 7  -1278354.918 7   -975171.75849  19833184.59749
  23534789.737 5   -608301.797 5   -465832.61347  23534788.87047
 20  5 16  1 56  1.9990000  0  8G04G08G09G11G16G26G27G31            -0.000461061
  21129893.214 6  -1308711.383 6  -1002615.44948  21129892.56948
  20031185.495 7  -2147240.773 7  -1636039.78549  20031186.43349
  22385519.065 6  -2094248.031 6  -1602115.98849  22385519.65949
  22374080.581 6  -3066053.832 6  -2362751.57447  22374079.02247
  21280655.917 6  -1169443.156 6   -891994.61348  21280653.44448
  22773610.019 5   -979036.652 5   -741236.36347  22773611.74547
  19832605.925 7  -1281395.773 7   -977541.25449  19832605.74549
  23534503.065 5   -609808.305 5   -467006.52047  23534502.54647
 20  5 16  1 56  2.9990000  0  8G04G08G09G11G16G26G27G31            -0.000463722
  21129300.425 6  -1311826.855 6  -1005043.09048  21129299.61648
  20030198.526 7  -2152425.961 7  -1640080.19949  20030199.22249
  22384567.026 6  -2099252.070 6  -1606015.23849  22384567.55049
  22372658.769 6  -3073526.547 6  -2368574.46947  22372656.69447
  21280101.878 6  -1172352.930 6   -894261.96948  21280099.74148
  22773140.980 5   -981500.602 5   -743156.32047  22773143.24547
  19832027.487 7  -1284436.258 7   -979910.46549  19832027.35849
  23534216.222 5   -611314.773 5   -468180.40247  23534215.80447
 20  5 16  1 56  3.9990000  0  8G04G08G09G11G16G26G27G31            -0.000466383
  21128707.698 6  -1314942.094 6  -1007470.55148  21128706.55848
  20029211.815 7  -2157610.883 7  -1644120.39149  20029212.48049
  22383614.534 6  -2104255.805 6  -1609914.25449  22383615.26549
  22371236.659 6  -3080999.391 6  -2374397.46547  22371234.98047
  21279548.276 6  -1175262.953 6   -896529.52348  21279546.10148
  22772672.011 5   -983964.813 5   -745076.49647  22772674.24547
  19831448.964 7  -1287476.500 7   -982279.48049  19831449.30849
  23533929.550 5   -612821.273 5   -469354.30147  23533929.12447
 20  5 16  1 56  4.9990000  0  8G04G08G09G11G16G26G27G31            -0.000469044
  21128114.792 6  -1318057.004 6  -1009897.75848  21128113.87448
  20028225.464 7  -2162795.488 7  -1648160.34849  20028226.07749
  22382661.972 6  -2109259.141 6  -1613812.96149  22382663.56549
  22369814.761 6  -3088472.277 6  -2380220.49247  22369812.94847
  21278994.714 6  -1178173.125 6   -898797.19148  21278992.45648
  22772203.355 4   -986429.242 4   -746996.83647  22772205.41347
  19830870.706 7  -1290516.426 7   -984648.26249  19830870.50749
  23533642.737 5   -614327.762 5   -470528.19547  23533642.60847
 20  5 16  1 56  5.9990000  0  8G04G08G09G11G16G26G27G31            -0.000471706
  21127521.964 6  -1321171.598 6  -1012324.71148  21127520.98348
  20027238.784 7  -2167979.770 7  -1652200.03949  20027239.44049
  22381710.183 6  -2114262.180 6  -1617711.43449  22381711.41749
  22368392.339 6  -3095945.238 6  -2386043.57447  22368390.91347
  21278440.675 6  -1181083.512 6   -901065.02348  21278438.70248
  22771734.159 5   -988893.926 5   -748917.35947  22771736.08147
  19830291.940 7  -1293556.063 7   -987016.80949  19830291.84349
  23533356.151 5   -615834.266 5   -471702.09847  23533355.83147
 20  5 16  1 56  6.9990000  0  8G04G08G09G11G16G26G27G31            -0.000474367
  21126929.308 6  -1324285.805 6  -1014751.36748  21126928.26948
  20026252.401 7  -2173163.652 7  -1656239.43449  20026252.98349
  22380758.308 6  -2119264.816 6  -1621609.59449  22380759.21849
  22366970.190 6  -3103418.172 6  -2391866.63747  22366968.50747
  21277887.136 6  -1183994.027 6   -903332.96148  21277884.70248
  22771265.214 5   -991358.777 5   -750838.02047  22771267.12047
  19829713.776 7  -1296595.355 7   -989385.09049  19829714.00349
  23533069.370 5   -617340.656 5   -472875.91847  23533069.09347
 20  5 16  1 56  7.9990000  0  8G04G08G09G11G16G26G27G31            -0.000477030
  21126337.128 6  -1327399.773 6  -1017177.83248  21126335.66348
  20025266.050 7  -2178347.289 7  -1660278.63349  20025266.55049
  22379806.089 6  -2124267.148 6  -1625507.51249  22379807.49949
  22365548.636 6  -3110891.223 6  -2397689.79347  22365546.68747
  21277333.073 6  -1186904.801 6   -905601.09448  21277330.83148
  22770795.417 4   -993823.941 4   -752758.93047  22770797.75747
  19829135.456 7  -1299634.383 7   -991753.16049  19829135.39449
  23532783.120 5   -618847.117 5   -474049.78147  23532782.20247
 20  5 16  1 56  8.9990000  0  8G04G08G09G11G16G26G27G31            -0.000479692
  21125744.573 6  -1330513.461 6  -1019604.08648  21125743.41748
  20024279.690 7  -2183530.645 7  -1664317.61749  20024280.55049
  22378854.933 6  -2129269.168 6  -1629405.18849  22378855.66749
  22364125.901 6  -3118364.375 6  -2403513.03147  22364124.58147
  21276779.214 6  -1189815.805 6   -907869.41048  21276777.09748
  22770326.605 5   -996289.332 5   -754680.02347  22770328.68347
  19828557.003 7  -1302673.148 7   -994121.03149  19828557.12049
  23532496.659 5   -620353.621 5   -475223.68447  23532495.56547
 20  5 16  1 56  9.9990000  0  8G04G08G09G11G16G26G27G31            -0.000482355
  21125151.956 6  -1333626.785 6  -1022030.05548  21125151.12448
  20023293.190 7  -2188713.629 7  -1668356.30149  20023294.13249
  22377903.198 6  -2134270.793 6  -1633302.56349  22377903.60849
  22362704.151 6  -3125837.559 6  -2409336.28547  22362702.58947
  21276224.901 6  -1192726.926 6   -910137.81648  21276223.03048
  22769857.683 5   -998754.898 5   -756601.23847  22769859.64747
  19827978.933 7  -1305711.570 7   -996488.63349  19827978.97649
  23532209.722 5   -621860.027 5   -476397.51647  23532209.10847
 20  5 16  1 56 10.9990000  0  8G04G08G09G11G16G26G27G31            -0.000485018
  21124559.480 6  -1336739.820 6  -1024455.79748  21124558.76148
  20022307.034 7  -2193896.309 7  -1672394.75449  20022307.91749
  22376950.901 6  -2139272.094 6  -1637199.68049  22376951.88249
  22361281.917 6  -3133310.789 6  -2415159.58247  22361280.46847
  21275671.433 6  -1195638.270 6   -912406.39848  21275669.01948
  22769387.808 5  -1001220.715 5   -758522.66047  22769390.65547
  19827400.987 7  -1308749.719 7   -998856.02049  19827400.32749
  23531923.128 5   -623366.477 5   -477571.37547  23531922.67147
 20  5 16  1 56 11.9990000  0  8G04G08G09G11G16G26G27G31            -0.000487680
  21123967.097 6  -1339852.520 6  -1026881.28148  21123966.62448
  20021320.909 7  -2199078.641 7  -1676432.93449  20021321.41749
  22375999.206 6  -2144273.031 6  -1641096.52349  22376000.37049
  22359859.894 6  -3140784.047 6  -2420982.89847  22359858.16347
  21275117.409 6  -1198549.793 6   -914675.11748  21275115.33148
  22768918.214 4  -1003686.781 4   -760444.27047  22768921.26947
  19826822.831 7  -1311787.551 7  -1001223.16049  19826822.62049
  23531636.565 5   -624872.906 5   -478745.21947  23531636.00347
 20  5 16  1 56 12.9990000  0  8G04G08G09G11G16G26G27G31            -0.000490343
  21123375.206 6  -1342964.840 6  -1029306.46548  21123374.08948
  20020334.776 7  -2204260.617 7  -1680470.83649  20020335.49549
  22375048.042 6  -2149273.566 6  -1644993.04349  22375049.17149
  22358437.917 6  -3148257.344 6  -2426806.24647  22358435.73347
  21274563.409 6  -1201461.445 6   -916943.93448  21274561.10148
  22768449.136 4  -1006152.988 4   -762365.98447  22768451.85147
  19826244.495 7  -1314825.035 7  -1003590.03149  19826244.72649
  23531349.886 5   -626379.293 5   -479919.03147  23531349.33147
 20  5 16  1 56 13.9990000  0  8G04G08G09G11G16G26G27G31            -0.000493006
  21122782.956 6  -1346076.844 6  -1031731.40648  21122781.90548
  20019348.894 7  -2209442.191 7  -1684508.42649  20019349.43749
  22374096.214 6  -2154273.711 6  -1648889.26649  22374096.94849
  22357015.597 6  -3155730.641 6  -2432629.59447  22357013.97247
  21274009.690 6  -1204373.273 6   -919212.89548  21274006.54648
  22767980.073 4  -1008619.398 4   -764287.86347  22767982.42547
  19825666.831 7  -1317862.184 7  -1005956.64149  19825667.25349
  23531063.183 5   -627885.578 5   -481092.77047  23531062.85147
 20  5 16  1 56 14.9990000  0  8G04G08G09G11G16G26G27G31            -0.000495668
  21122190.792 6  -1349188.426 6  -1034156.01248  21122189.94048
  20018363.011 7  -2214623.371 7  -1688545.71149  20018363.68749
  22373143.933 6  -2159273.418 6  -1652785.14149  22373145.93349
  22355593.722 6  -3163203.922 6  -2438452.93047  22355591.74147
  21273455.144 6  -1207285.172 6   -921481.91048  21273452.57748
  22767510.878 4  -1011085.988 4   -766209.89147  22767513.03047
  19825088.628 7  -1320898.930 7  -1008322.93849  19825088.62049
  23530776.464 5   -629391.828 5   -482266.47747  23530775.66747
 20  5 16  1 56 15.9990000  0  8G04G08G09G11G16G26G27G31            -0.000498331
  21121599.019 6  -1352299.605 6  -1036580.30948  21121597.97648
  20017377.167 7  -2219804.148 7  -1692582.68449  20017377.77649
  22372193.495 6  -2164272.703 6  -1656680.68449  22372194.92549
  22354171.269 6  -3170677.188 6  -2444276.25047  22354169.65547
  21272900.769 6  -1210197.219 6   -923751.03948  21272898.75748
  22767041.456 4  -1013552.680 4   -768131.99247  22767043.61247
  19824511.237 7  -1323935.316 7  -1010688.95349  19824511.10149
  23530489.730 5   -630897.961 5   -483440.09447  23530489.52247
 20  5 16  1 56 16.9990000  0  8G04G08G09G11G16G26G27G31            -0.000500994
  21121006.683 6  -1355410.500 6  -1039004.37948  21121006.13648
  20016391.362 7  -2224984.621 7  -1696619.41449  20016391.86249
  22371242.456 6  -2169271.691 6  -1660576.00449  22371243.28849
  22352749.214 6  -3178150.520 6  -2450099.62947  22352747.39447
  21272346.526 6  -1213109.473 6   -926020.33248  21272344.12448
  22766571.948 4  -1016019.609 4   -770054.27347  22766574.37447
  19823933.542 7  -1326971.422 7  -1013054.75449  19823933.48049
  23530203.347 5   -632404.129 5   -484613.73447  23530202.80847
 20  5 16  1 56 17.9980000  0  8G04G08G09G11G16G26G27G31             0.000496346
  21120415.279 6  -1358517.957 6  -1041425.77348  21120414.73248
  20015406.342 7  -2230159.570 7  -1700651.83649  20015407.31149
  22370291.951 6  -2174265.277 6  -1664467.10549  22370292.97949
  22351328.506 6  -3185616.406 6  -2455917.19947  22351326.76047
  21271793.545 6  -1216018.973 6   -928287.47348  21271790.31148
  22766103.373 4  -1018484.301 4   -771974.80547  22766105.59247
  19823356.084 7  -1330004.156 7  -1015417.91849  19823356.27249
  23529917.014 5   -633908.730 5   -485786.14847  23529916.36947
 20  5 16  1 56 18.9980000  0  8G04G08G09G11G16G26G27G31             0.000493681
  21119823.482 6  -1361628.242 6  -1043849.37548  21119822.59648
  20014420.631 7  -2235339.410 7  -1704688.07849  20014421.45949
  22369340.967 6  -2179263.563 6  -1668361.86749  22369341.95549
  22349906.623 6  -3193089.879 6  -2461740.68447  22349904.58047
  21271238.615 6  -1218931.617 6   -930557.06648  21271236.25648
  22765633.443 4  -1020951.723 4   -773897.47347  22765635.72547
  19822778.850 7  -1333039.691 7  -1017783.27049  19822778.54549
  23529630.350 5   -635414.867 5   -486959.76647  23529629.80347
 20  5 16  1 56 19.9980000  0  8G04G08G09G11G16G26G27G31             0.000491018
  21119232.084 6  -1364738.098 6  -1046272.64848  21119230.82648
  20013435.092 7  -2240518.801 7  -1708723.96949  20013435.79549
  22368389.873 6  -2184261.363 6  -1672256.25849  22368390.77949
  22348484.459 6  -3200563.266 6  -2467564.10247  22348482.67847
  21270684.584 6  -1221844.336 6   -932826.71948  21270681.95548
  22765164.295 4  -1023419.270 4   -775820.24247  22765166.34247
  19822200.865 7  -1336074.797 7  -1020148.29349  19822200.98649
  23529343.545 5   -636920.898 5   -488133.30147  23529342.92447
 20  5 16  1 56 20.9980000  0  8G04G08G09G11G16G26G27G31             0.000488354
  21118640.092 6  -1367847.703 6  -1048695.71548  21118639.39348
  20012449.732 7  -2245697.941 7  -1712759.66049  20012450.38149
  22367439.725 6  -2189258.934 6  -1676150.47349  22367439.90049
  22347062.107 6  -3208036.793 6  -2473387.63347  22347060.35047
  21270129.764 6  -1224757.309 6   -935096.56648  21270128.06448
  22764694.318 4  -1025887.102 4   -777743.22747  22764696.34647
  19821623.686 7  -1339109.680 7  -1022513.14149  19821623.66649
  23529056.357 5   -638426.988 5   -489306.87947  23529056.29547
 20  5 16  1 56 21.9980000  0  8G04G08G09G11G16G26G27G31             0.000485691
  21118048.506 6  -1370956.969 6  -1051118.52048  21118047.78748
  20011463.928 7  -2250876.738 7  -1716795.09049  20011464.84249
  22366488.490 6  -2194256.102 6  -1680044.37549  22366489.16649
  22345639.826 6  -3215510.344 6  -2479211.18047  22345638.17847
  21269575.764 6  -1227670.469 6   -937366.56648  21269573.45948
  22764224.701 4  -1028355.125 4   -779666.37547  22764226.26047
  19821045.865 7  -1342144.230 7  -1024877.72349  19821046.21749
  23528770.397 5   -639933.066 5   -490480.44947  23528769.82247
 20  5 16  1 56 22.9980000  0  8G04G08G09G11G16G26G27G31             0.000483027
  21117456.717 6  -1374065.910 6  -1053541.07048  21117456.31848
  20010478.607 7  -2256055.199 7  -1720830.25449  20010479.51849
  22365537.389 6  -2199252.887 6  -1683937.97349  22365538.41249
  22344217.561 6  -3222983.922 6  -2485034.74247  22344215.88547
  21269021.256 6  -1230583.773 6   -939636.67248  21269019.02248
  22763754.490 4  -1030823.398 4   -781589.71147  22763756.93247
  19820468.568 7  -1345178.465 7  -1027242.06349  19820468.35049
  23528483.967 5   -641439.066 5   -491653.95747  23528483.13947
 20  5 16  1 56 23.9980000  0  8G04G08G09G11G16G26G27G31             0.000480362
  21116865.428 6  -1377174.430 6  -1055963.29348  21116864.61148
  20009493.092 7  -2261233.234 7  -1724865.08649  20009494.26049
  22364586.506 6  -2204249.238 6  -1687831.23049  22364586.89749
  22342795.826 6  -3230457.461 6  -2490858.27747  22342793.69747
  21268467.037 6  -1233497.176 6   -941906.85548  21268464.42448
  22763285.131 4  -1033291.758 4   -783513.10547  22763287.15047
  19819891.397 7  -1348212.297 7  -1029606.09049  19819891.31149
  23528197.029 5   -642944.992 5   -492827.40647  23528196.60047
 20  5 16  1 56 24.9980000  0  8G04G08G09G11G16G26G27G31             0.000477697
  21116273.873 6  -1380282.598 6  -1058385.25048  21116273.13548
  20008508.006 7  -2266410.875 7  -1728899.61349  20008508.91649
  22363635.506 6  -2209245.199 6  -1691724.19549  22363636.19749
  22341373.576 6  -3237931.008 6  -2496681.82047  22341371.64747
  21267912.709 6  -1236410.727 6   -944177.15248  21267910.18648
  22762815.475 4  -1035760.316 4   -785436.66047  22762817.44747
  19819314.209 7  -1351245.781 7  -1031969.84049  19819314.21749
  23527910.834 5   -644450.855 5   -494000.80947  23527910.05347
 20  5 16  1 56 25.9980000  0  8G04G08G09G11G16G26G27G31             0.000475033
  21115682.365 6  -1383390.582 6  -1060807.05548  21115681.29148
  20007522.834 7  -2271588.309 7  -1732933.97749  20007523.59649
  22362685.162 6  -2214240.891 6  -1695616.94149  22362685.77949
  22339951.334 6  -3245404.699 6  -2502505.47747  22339949.37347
  21267358.232 6  -1239324.590 6   -946447.70348  21267356.15048
  22762345.803 4  -1038229.219 4   -787360.48047  22762347.74047
  19818737.068 7  -1354279.078 7  -1034333.44549  19818736.98249
  23527624.248 5   -645956.824 5   -495174.29347  23527622.92847
 20  5 16  1 56 26.9980000  0  8G04G08G09G11G16G26G27G31             0.000472368
  21115091.350 6  -1386498.230 6  -1063228.59448  21115090.03348
  20006537.404 7  -2276765.398 7  -1736968.07449  20006538.58849
  22361734.365 6  -2219236.234 6  -1699509.41849  22361735.63549
  22338529.639 6  -3252878.422 6  -2508329.16047  22338527.77547
  21266803.420 6  -1242238.602 6   -948718.36748  21266801.27948
  22761875.943 4  -1040698.305 4   -789284.43847  22761877.56447
  19818159.217 7  -1357312.055 7  -1036696.80949  19818159.45149
  23527337.904 5   -647462.777 5   -496347.76647  23527336.64347
 20  5 16  1 56 27.9980000  0  8G04G08G09G11G16G26G27G31             0.000469704
  21114499.678 6  -1389605.379 6  -1065649.75048  21114498.62348
  20005552.818 7  -2281941.996 7  -1741001.78149  20005553.45949
  22360784.482 6  -2224231.098 6  -1703401.52049  22360784.67449
  22337107.147 6  -3260352.090 6  -2514152.79747  22337105.34247
  21266248.772 6  -1245152.637 6   -950989.04348  21266246.94348
  22761405.459 4  -1043167.500 4   -791208.48847  22761408.23647
  19817582.803 7  -1360344.598 7  -1039059.82849  19817582.81149
  23527050.912 5   -648968.551 5   -497521.10947  23527050.11547
 20  5 16  1 56 28.9980000  0  8G04G08G09G11G16G26G27G31             0.000467039
  21113908.318 6  -1392712.109 6  -1068070.58248  21113907.31148
  20004567.428 7  -2287118.191 7  -1745035.18449  20004568.45549
  22359833.553 6  -2229225.484 6  -1707293.24649  22359834.22549
  22335684.725 6  -3267825.672 6  -2519976.36347  22335683.04947
  21265693.928 6  -1248066.746 6   -953259.77748  21265692.27948
  22760935.818 4  -1045636.816 4   -793132.62947  22760937.98247
  19817005.928 7  -1363376.711 7  -1041422.51649  19817005.87349
  23526764.357 5   -650474.207 5   -498694.34847  23526763.20947
 20  5 16  1 56 29.9980000  0  8G04G08G09G11G16G26G27G31             0.000464375
  21113317.170 6  -1395818.430 6  -1070491.09048  21113316.59248
  20003582.615 7  -2292293.992 7  -1749068.27349  20003583.24049
  22358882.990 6  -2234219.422 6  -1711184.62949  22358884.38949
  22334262.678 6  -3275299.215 6  -2525799.90247  22334260.46347
  21265139.920 6  -1250980.953 6   -955530.59048  21265137.43248
  22760466.295 4  -1048106.247 4   -795056.86247  22760468.16647
  19816428.990 7  -1366408.449 7  -1043784.90249  19816428.71749
  23526478.264 5   -651979.738 5   -499867.49647  23526476.54547
 20  5 16  1 56 30.9980000  0  8G04G08G09G11G16G26G27G31             0.000461710
  21112726.311 6  -1398924.551 6  -1072911.44148  21112725.44348
  20002597.607 7  -2297469.555 7  -1753101.18049  20002598.36949
  22357932.982 6  -2239213.129 6  -1715075.82849  22357934.40449
  22332840.334 6  -3282772.930 6  -2531623.58247  22332838.64747
  21264585.170 6  -1253895.473 6   -957801.64148  21264582.90048
  22759996.357 4  -1050575.977 4   -796981.33247  22759997.95547
  19815851.818 7  -1369439.988 7  -1046147.14549  19815851.88149
  23526191.232 5   -653485.402 5   -501040.74247  23526190.04547
 20  5 16  1 56 31.9980000  0  8G04G08G09G11G16G26G27G31             0.000459044
  21112135.334 6  -1402030.438 6  -1075331.62548  21112134.31448
  20001612.834 7  -2302644.871 7  -1757133.89849  20001613.88149
  22356982.545 6  -2244206.531 6  -1718966.79349  22356983.92049
  22331418.318 6  -3290246.773 6  -2537447.35247  22331416.30747
  21264030.764 6  -1256810.246 6   -960072.89548  21264028.43948
  22759526.647 4  -1053046.047 4   -798906.06347  22759528.22947
  19815274.982 7  -1372471.289 7  -1048509.19549  19815275.16249
  23525904.740 5   -654991.117 5   -502214.03147  23525903.18247
 20  5 16  1 56 32.9980000  0  8G04G08G09G11G16G26G27G31             0.000456379
  21111544.162 6  -1405135.867 6  -1077751.44148  21111543.38548
  20000628.248 7  -2307819.711 7  -1761166.24249  20000628.91649
  22356032.193 6  -2249199.488 6  -1722857.40649  22356033.65449
  22329996.209 6  -3297720.535 6  -2543271.06347  22329994.25647
  21263475.826 6  -1259725.086 6   -962344.20348  21263473.81448
  22759056.475 4  -1055516.207 4   -800830.86747  22759058.45547
  19814698.240 7  -1375502.172 7  -1050870.93049  19814698.36549
  23525618.506 5   -656496.691 5   -503387.20347  23525616.66247
 20  5 16  1 56 33.9980000  0  8G04G08G09G11G16G26G27G31             0.000453712
  21110953.482 6  -1408240.945 6  -1080170.97748  21110952.78348
  19999643.381 7  -2312994.223 7  -1765198.32449  19999644.49049
  22355082.920 6  -2254192.043 6  -1726747.70749  22355083.56149
  22328573.795 6  -3305194.309 6  -2549094.78147  22328571.91647
  21262920.967 6  -1262640.074 6   -964615.61748  21262919.01448
  22758586.420 4  -1057986.566 4   -802755.82047  22758588.07647
  19814121.326 7  -1378532.703 7  -1053232.37549  19814121.55749
  23525331.897 5   -658002.227 5   -504560.34847  23525330.26847
 20  5 16  1 56 34.9980000  0  8G04G08G09G11G16G26G27G31             0.000451048
  21110362.779 6  -1411345.582 6  -1082590.17648  21110361.75248
  19998658.904 7  -2318168.273 7  -1769230.05949  19998659.48649
  22354132.279 6  -2259184.121 6  -1730637.64149  22354133.64349
  22327151.865 6  -3312667.996 6  -2554918.43047  22327149.58447
  21262366.467 6  -1265555.121 6   -966887.09048  21262364.28348
  22758115.803 4  -1060456.996 4   -804680.83647  22758118.09647
  19813544.654 7  -1381562.828 7  -1055593.51249  19813545.09649
  23525045.693 5   -659507.629 5   -505733.38747  23525043.67047
 20  5 16  1 56 35.9980000  0  8G04G08G09G11G16G26G27G31             0.000448381
  21109771.709 6  -1414449.891 6  -1085009.12148  21109771.17448
  19997674.232 7  -2323341.926 7  -1773261.47349  19997675.11149
  22353182.545 6  -2264175.801 6  -1734527.26249  22353183.61149
  22325729.506 6  -3320141.699 6  -2560742.09447  22325727.40047
  21261811.928 6  -1268470.336 6   -969158.68448  21261809.55348
  22757646.068 4  -1062927.594 4   -806605.98447  22757647.74047
  19812968.279 7  -1384592.578 7  -1057954.35549  19812968.72149
  23524759.404 5   -661012.949 5   -506906.36747  23524756.97147
 20  5 16  1 56 36.9980000  0  8G04G08G09G11G16G26G27G31             0.000445715
  21109181.076 6  -1417554.035 6  -1087427.93848  21109180.11148
  19996689.545 7  -2328515.465 7  -1777292.80549  19996690.57649
  22352233.061 6  -2269167.301 6  -1738416.75049  22352234.14749
  22324307.092 6  -3327615.656 6  -2566565.95347  22324305.22547
  21261257.115 6  -1271385.902 6   -971430.55548  21261254.79948
  22757175.842 5  -1065398.645 5   -808531.47347  22757177.57247
  19812392.154 7  -1387622.246 7  -1060315.14149  19812391.79549
  23524473.264 5   -662518.496 5   -508079.52047  23524470.75647
 20  5 16  1 56 37.9980000  0  8G04G08G09G11G16G26G27G31             0.000443050
  21108590.529 6  -1420657.824 6  -1089846.47348  21108589.60448
  19995705.272 7  -2333688.566 7  -1781323.79349  19995706.07249
  22351283.147 6  -2274158.391 6  -1742305.91449  22351284.11149
  22322885.264 6  -3335089.594 6  -2572389.80147  22322882.80747
  21260702.287 6  -1274301.594 6   -973702.52348  21260700.14348
  22756705.303 4  -1067869.883 4   -810457.10547  22756707.76447
  19811815.490 7  -1390651.578 7  -1062675.65649  19811815.58449
  23524187.068 5   -664023.941 5   -509252.60247  23524184.55747
 20  5 16  1 56 38.9980000  0  8G04G08G09G11G16G26G27G31             0.000440384
  21107999.928 6  -1423761.125 6  -1092264.62948  21107999.02248
  19994721.092 7  -2338861.230 7  -1785354.44149  19994722.16649
  22350333.748 6  -2279149.020 6  -1746194.71549  22350334.12349
  22321462.568 6  -3342563.414 6  -2578213.56347  22321460.86147
  21260147.678 6  -1277217.355 6   -975974.54748  21260145.17048
  22756234.897 5  -1070341.125 5   -812382.75847  22756237.24047
  19811239.022 7  -1393680.406 7  -1065035.78549  19811239.12349
  23523899.615 5   -665529.242 5   -510425.57047  23523897.86147
 20  5 16  1 56 39.9980000  0  8G04G08G09G11G16G26G27G31             0.000437717
  21107409.420 6  -1426864.098 6  -1094682.53148  21107408.97148
  19993736.943 7  -2344033.531 7  -1789384.80549  19993737.50649
  22349383.451 6  -2284139.262 6  -1750083.21149  22349384.51049
  22320040.397 6  -3350037.270 6  -2584037.34447  22320038.78347
  21259592.397 6  -1280133.254 6   -978246.67648  21259590.03348
  22755764.959 5  -1072812.629 5   -814308.60247  22755767.00647
  19810662.717 7  -1396708.926 7  -1067395.66849  19810662.64749
  23523613.326 5   -667034.484 5   -511598.48447  23523611.33047
 20  5 16  1 56 40.9980000  0  8G04G08G09G11G16G26G27G31             0.000435051
  21106818.772 6  -1429966.637 6  -1097100.09448  21106818.38148
  19992752.795 7  -2349205.398 7  -1793414.82449  19992753.54949
  22348434.139 6  -2289129.027 6  -1753971.33649  22348435.14749
  22318618.225 6  -3357511.051 6  -2589861.07047  22318615.87747
  21259037.561 6  -1283049.242 6   -980518.87948  21259034.99048
  22755294.647 4  -1075284.234 4   -816234.52747  22755296.65847
  19810086.498 7  -1399737.051 7  -1069755.25449  19810086.36949
  23523326.592 5   -668539.629 5   -512771.32047  23523325.52547
 20  5 16  1 56 41.9980000  0  8G04G08G09G11G16G26G27G31             0.000432384
  21106228.889 6  -1433068.801 6  -1099517.36348  21106227.78348
  19991768.678 7  -2354376.863 7  -1797444.53949  19991769.17449
  22347484.967 6  -2294118.402 6  -1757859.16849  22347485.95149
  22317195.772 6  -3364984.840 6  -2595684.79747  22317194.17847
  21258482.568 6  -1285965.352 6   -982791.17248  21258480.56148
  22754824.022 4  -1077755.973 4   -818160.55547  22754826.10747
  19809510.139 7  -1402764.777 7  -1072114.51249  19809510.34249
  23523040.764 5   -670044.672 5   -513944.07847  23523038.36547
 20  5 16  1 56 42.9980000  0  8G04G08G09G11G16G26G27G31             0.000429718
  21105638.795 6  -1436170.547 6  -1101934.30948  21105637.74048
  19990784.709 7  -2359547.930 7  -1801473.94949  19990785.75649
  22346535.545 6  -2299107.277 6  -1761746.60249  22346536.52249
  22315773.615 6  -3372458.566 6  -2601508.47747  22315771.70947
  21257927.772 6  -1288881.551 6   -985063.53548  21257925.07648
  22754353.279 4  -1080227.848 4   -820086.69547  22754355.88947
  19808934.076 7  -1405792.125 7  -1074473.49249  19808934.36949
  23522754.006 5   -671549.609 5   -515116.75847  23522752.57647
 20  5 16  1 56 43.9980000  0  8G04G08G09G11G16G26G27G31             0.000427052
  21105048.514 6  -1439271.840 6  -1104350.90648  21105047.55348
  19989800.717 7  -2364718.500 7  -1805502.96549  19989801.31449
  22345586.014 6  -2304095.652 6  -1765633.64849  22345586.97149
  22314351.084 6  -3379932.191 6  -2607332.07447  22314349.78347
  21257372.959 6  -1291797.770 6   -987335.91448  21257370.27948
  22753883.553 5  -1082699.762 5   -822012.86347  22753885.45147
  19808357.920 7  -1408819.008 7  -1076832.10249  19808358.81149
  23522467.912 5   -673054.375 5   -516289.30547  23522466.39347
 20  5 16  1 56 44.9980000  0  8G04G08G09G11G16G26G27G31             0.000424385
  21104458.537 6  -1442372.738 6  -1106767.19148  21104457.42448
  19988816.803 7  -2369888.684 7  -1809531.68049  19988817.47149
  22344637.123 6  -2309083.641 6  -1769520.38749  22344638.16249
  22312929.389 6  -3387405.820 6  -2613155.68447  22312927.83447
  21256817.818 6  -1294714.109 6   -989608.38748  21256815.60048
  22753412.756 4  -1085171.875 4   -823939.18847  22753415.33447
  19807782.295 7  -1411845.520 7  -1079190.42249  19807782.56149
  23522181.537 6   -674559.094 6   -517461.81647  23522180.00647
 20  5 16  1 56 45.9980000  0  8G04G08G09G11G16G26G27G31             0.000421719
  21103868.428 6  -1445473.316 6  -1109183.22748  21103867.57648
  19987833.225 7  -2375058.523 7  -1813560.12149  19987833.97549
  22343688.428 6  -2314071.254 6  -1773406.84049  22343688.79149
  22311507.404 6  -3394879.469 6  -2618979.30547  22311505.54147
  21256262.725 6  -1297630.652 6   -991881.02348  21256260.55348
  22752942.014 5  -1087644.176 5   -825865.66047  22752944.87347
  19807206.350 7  -1414871.730 7  -1081548.50849  19807206.78749
  23521895.357 5   -676063.777 5   -518634.30147  23521893.89747
 20  5 16  1 56 46.9980000  0  8G04G08G09G11G16G26G27G31             0.000419052
  21103278.217 6  -1448573.414 6  -1111598.89148  21103277.34648
  19986849.068 7  -2380227.852 7  -1817588.16849  19986849.93649
  22342738.693 6  -2319058.355 6  -1777292.88749  22342739.75649
  22310085.162 6  -3402353.000 6  -2624802.83647  22310083.36147
  21255708.061 6  -1300547.215 6   -994153.67648  21255705.61948
  22752472.084 5  -1090116.555 5   -827792.18447  22752474.14747
  19806630.670 7  -1417897.477 7  -1083906.23849  19806630.68249
  23521609.147 5   -677568.262 5   -519806.62947  23521607.78747
 20  5 16  1 56 47.9980000  0  8G04G08G09G11G16G26G27G31             0.000416384
  21102688.615 6  -1451673.180 6  -1114014.28948  21102687.45148
  19985865.772 7  -2385396.871 7  -1821615.97349  19985866.50649
  22341790.147 6  -2324045.090 6  -1781178.65649  22341791.21349
  22308662.920 6  -3409826.594 6  -2630626.41847  22308660.97147
  21255153.365 6  -1303463.945 6   -996426.44548  21255150.50648
  22752001.420 4  -1092589.176 4   -829718.90647  22752003.39747
  19806055.139 7  -1420922.922 7  -1086263.72349  19806055.14349
  23521322.975 5   -679072.762 5   -520978.96147  23521322.09247
 20  5 16  1 56 48.9980000  0  8G04G08G09G11G16G26G27G31             0.000413717
  21102098.975 6  -1454772.570 6  -1116429.39848  21102097.98648
  19984882.287 7  -2390565.484 7  -1825643.46949  19984883.10049
  22340841.170 6  -2329031.406 6  -1785064.10249  22340842.11149
  22307240.967 6  -3417300.168 6  -2636449.98447  22307238.68947
  21254597.740 6  -1306380.797 6   -998699.32048  21254595.58448
  22751530.756 4  -1095061.910 4   -831645.71147  22751533.27547
  19805479.498 7  -1423948.000 7  -1088620.93049  19805479.45949
  23521036.443 5   -680577.180 5   -522151.24647  23521035.63147
 20  5 16  1 56 49.9980000  0  8G04G08G09G11G16G26G27G31             0.000411049
  21101509.170 6  -1457871.508 6  -1118844.14848  21101508.15448
  19983898.990 7  -2395733.641 7  -1829670.59849  19983899.78749
  22339892.459 6  -2334017.246 6  -1788949.18049  22339893.19349
  22305818.568 6  -3424773.648 6  -2642273.47347  22305816.47947
  21254042.451 6  -1309297.707 6  -1000972.23848  21254040.07248
  22751060.318 4  -1097534.785 4   -833572.62547  22751062.59247
  19804903.857 7  -1426972.648 7  -1090977.79749  19804903.70549
  23520750.100 5   -682081.457 5   -523323.41447  23520749.47947
 20  5 16  1 56 50.9980000  0  8G04G08G09G11G16G26G27G31             0.000408382
  21100919.209 6  -1460970.047 6  -1121258.59448  21100918.40848
  19982915.225 7  -2400901.371 7  -1833697.40649  19982916.03749
  22338943.881 6  -2339002.633 6  -1792833.89849  22338944.65849
  22304396.232 6  -3432247.074 6  -2648096.92647  22304394.72147
  21253487.506 6  -1312214.688 6  -1003245.21548  21253485.22548
  22750589.662 4  -1100007.734 4   -835499.60247  22750591.57647
  19804328.248 7  -1429996.883 7  -1093334.34849  19804328.30749
  23520463.748 5   -683585.613 5   -524495.48447  23520463.38147
 20  5 16  1 56 51.9980000  0  8G04G08G09G11G16G26G27G31             0.000405716
  21100329.818 6  -1464068.145 6  -1123672.69948  21100328.74848
  19981932.084 7  -2406068.684 7  -1837723.88349  19981932.89349
  22337994.959 6  -2343987.570 6  -1796718.26249  22337995.97949
  22302974.256 6  -3439720.449 6  -2653920.32847  22302972.49447
  21252932.350 6  -1315131.793 6  -1005518.28148  21252929.99848
  22750119.295 4  -1102480.852 4   -837426.69947  22750121.18647
  19803752.967 7  -1433020.734 7  -1095690.59849  19803752.84649
  23520177.467 5   -685089.668 5   -525667.48047  23520177.45547
 20  5 16  1 56 52.9980000  0  8G04G08G09G11G16G26G27G31             0.000403048
  21099740.693 6  -1467165.871 6  -1126086.52348  21099739.57248
  19980948.717 7  -2411235.574 7  -1841750.02749  19980949.51049
  22337046.397 6  -2348972.078 6  -1800602.29749  22337047.65049
  22301552.084 6  -3447193.809 6  -2659743.72747  22301550.20947
  21252377.334 6  -1318048.996 6  -1007791.42648  21252374.90048
  22749647.693 4  -1104954.094 4   -839353.90247  22749650.53347
  19803177.545 7  -1436044.172 7  -1098046.52349  19803178.01849
  23519891.381 5   -686593.645 5   -526839.41447  23519890.94747
 20  5 16  1 56 53.9980000  0  8G04G08G09G11G16G26G27G31             0.000400381
  21099151.201 6  -1470263.125 6  -1128499.96948  21099150.24048
  19979965.482 7  -2416401.980 7  -1845775.80149  19979966.18649
  22336098.326 6  -2353956.059 6  -1804485.91449  22336098.82649
  22300130.014 6  -3454667.047 6  -2665567.02347  22300128.42847
  21251822.053 6  -1320966.219 6  -1010064.59448  21251819.79948
  22749177.881 4  -1107427.375 4   -841281.12947  22749179.94747
  19802602.482 7  -1439067.188 7  -1100402.11749  19802602.44349
  23519605.725 5   -688097.449 5   -528011.21147  23519605.17447
 20  5 16  1 56 54.9980000  0  8G04G08G09G11G16G26G27G31             0.000397713
  21098562.037 6  -1473360.055 6  -1130913.15648  21098560.99448
  19978982.537 7  -2421568.082 7  -1849801.32849  19978983.32649
  22335149.889 6  -2358939.703 6  -1808369.27049  22335150.56449
  22298708.459 6  -3462140.363 6  -2671390.38347  22298706.17447
  21251267.006 6  -1323883.645 6  -1012337.90648  21251264.56448
  22748707.451 5  -1109900.922 5   -843208.57447  22748709.72147
  19802026.904 7  -1442089.906 7  -1102757.48449  19802027.07249
  23519319.256 5   -689601.238 5   -529183.00447  23519319.02547
 20  5 16  1 56 55.9980000  0  8G04G08G09G11G16G26G27G31             0.000395044
  21097972.279 6  -1476456.641 6  -1133326.08648  21097971.49848
  19977999.506 7  -2426733.801 7  -1853826.56649  19978000.28749
  22334201.467 6  -2363922.961 6  -1812252.33249  22334202.52549
  22297286.397 6  -3469613.656 6  -2677213.73047  22297283.95947
  21250712.139 6  -1326801.207 6  -1014611.34048  21250709.45548
  22748236.217 4  -1112374.637 4   -845136.14547  22748238.83047
  19801451.920 7  -1445112.281 7  -1105112.57849  19801452.16249
  23519032.693 5   -691104.973 5   -530354.74647  23519033.02247
 20  5 16  1 56 56.9980000  0  8G04G08G09G11G16G26G27G31             0.000392376
  21097383.420 6  -1479552.906 6  -1135738.75448  21097382.58848
  19977016.404 7  -2431899.180 7  -1857851.54349  19977017.40449
  22333253.186 6  -2368905.848 6  -1816135.10549  22333253.90049
  22295864.076 6  -3477087.027 6  -2683037.13347  22295861.96347
  21250156.701 6  -1329718.969 6  -1016884.91848  21250154.33448
  22747765.365 4  -1114848.594 4   -847063.90247  22747767.69347
  19800876.936 7  -1448134.355 7  -1107467.44549  19800876.92449
  23518746.647 5   -692608.688 5   -531526.48047  23518746.44747
 20  5 16  1 56 57.9980000  0  8G04G08G09G11G16G26G27G31             0.000389709
  21096794.436 6  -1482648.746 6  -1138151.09848  21096793.08848
  19976033.959 7  -2437064.102 7  -1861876.15249  19976034.92849
  22332305.201 6  -2373888.285 6  -1820017.52049  22332306.45149
  22294441.740 6  -3484560.313 6  -2688860.46947  22294439.20547
  21249601.256 6  -1332636.789 6  -1019158.54348  21249599.26448
  22747294.873 4  -1117322.621 4   -848991.71947  22747297.06447
  19800301.615 7  -1451156.012 7  -1109821.98049  19800301.73249
  23518460.654 5   -694112.313 5   -532698.14547  23518460.18647
 20  5 16  1 56 58.9980000  0  8G04G08G09G11G16G26G27G31             0.000387041
  21096204.897 6  -1485744.184 6  -1140563.12948  21096204.26448
  19975050.826 7  -2442228.645 7  -1865900.47749  19975051.89749
  22331357.326 6  -2378870.289 6  -1823899.59849  22331357.70549
  22293019.826 6  -3492033.555 6  -2694683.78147  22293017.50247
  21249046.037 6  -1335554.723 6  -1021432.26248  21249043.52548
  22746824.342 4  -1119796.855 4   -850919.69947  22746826.61147
  19799726.904 7  -1454177.301 7  -1112176.23049  19799727.25249
  23518173.764 5   -695615.816 5   -533869.71147  23518174.38547
 20  5 16  1 56 59.9980000  0  8G04G08G09G11G16G26G27G31             0.000384373
  21095616.107 6  -1488839.105 6  -1142974.75848  21095615.13548
  19974068.084 7  -2447392.680 7  -1869924.39549  19974068.79949
  22330409.225 6  -2383851.738 6  -1827781.25449  22330410.06849
  22291597.022 6  -3499506.672 6  -2700506.99247  22291595.58047
  21248490.779 6  -1338472.660 6  -1023705.98048  21248488.33448
  22746353.420 4  -1122271.043 4   -852847.64547  22746355.43247
  19799152.115 7  -1457198.078 7  -1114530.08649  19799152.24049
  23517888.451 5   -697119.141 5   -535041.14147  23517888.32647
 20  5 16  1 57  0.9980000  0  8G04G08G09G11G16G26G27G31             0.000381704
  21095027.240 6  -1491933.730 6  -1145386.15648  21095026.24848
  19973085.756 7  -2452556.336 7  -1873948.02049  19973086.60049
  22329461.834 6  -2388832.813 6  -1831662.60949  22329462.06449
  22290175.318 6  -3506979.813 6  -2706330.21547  22290173.45547
  21247935.748 6  -1341390.766 6  -1025979.82848  21247932.80748
  22745882.482 5  -1124745.496 5   -854775.79347  22745884.75647
  19798577.475 7  -1460218.555 7  -1116883.70349  19798577.30749
  23517602.443 5   -698622.418 5   -536212.52747  23517602.12747
 20  5 16  1 57  1.9980000  0  8G04G08G09G11G16G26G27G31             0.000379036
  21094438.498 6  -1495027.859 6  -1147797.17248  21094437.74048
  19972103.381 7  -2457719.523 7  -1877971.28549  19972104.12349
  22328513.959 6  -2393813.406 6  -1835543.59849  22328514.47549
  22288752.865 6  -3514452.879 6  -2712153.37947  22288751.25647
  21247380.217 6  -1344308.898 6  -1028253.69548  21247378.01048
  22745411.701 5  -1127220.012 5   -856703.99247  22745414.06147
  19798002.889 7  -1463238.574 7  -1119236.96149  19798002.39749
  23517315.850 5   -700125.555 5   -537383.81347  23517316.18647
 20  5 16  1 57  2.9980000  0  8G04G08G09G11G16G26G27G31             0.000376368
  21093849.522 6  -1498121.730 6  -1150207.98048  21093848.91648
  19971120.279 7  -2462882.406 7  -1881994.30949  19971121.39349
  22327565.881 6  -2398793.680 6  -1839424.32849  22327566.65849
  22287330.678 6  -3521925.969 6  -2717976.56647  22287329.19347
  21246825.365 6  -1347227.250 6  -1030527.73448  21246822.55348
  22744940.873 5  -1129694.777 5   -858632.37547  22744943.01047
  19797428.123 7  -1466258.316 7  -1121590.01249  19797428.14749
  23517030.092 5   -701628.703 5   -538555.09447  23517030.21347
 20  5 16  1 57  3.9980000  0  8G04G08G09G11G16G26G27G31             0.000373699
  21093261.061 6  -1501215.164 6  -1152618.44948  21093260.29148
  19970138.248 7  -2468044.879 7  -1886017.02049  19970139.28749
  22326618.240 6  -2403773.500 6  -1843304.70349  22326618.75649
  22285909.350 6  -3529399.055 6  -2723799.74647  22285907.05747
  21246269.514 6  -1350145.746 6  -1032801.89148  21246266.96348
  22744469.662 5  -1132169.664 5   -860560.84847  22744472.03347
  19796853.639 7  -1469277.684 7  -1123942.76649  19796853.33449
  23516743.904 5   -703131.750 5   -539726.30947  23516744.15847
 20  5 16  1 57  4.9980000  0  8G04G08G09G11G16G26G27G31             0.000371031
  21092672.404 6  -1504308.199 6  -1155028.60248  21092671.91248
  19969155.904 7  -2473206.887 7  -1890039.36749  19969156.95149
  22325670.693 6  -2408752.840 6  -1847184.70749  22325671.45549
  22284486.623 6  -3536872.051 6  -2729622.86747  22284485.15847
  21245714.100 6  -1353064.258 6  -1035076.05948  21245711.70148
  22743998.147 5  -1134644.660 5   -862489.41847  22744000.38947
  19796278.928 7  -1472296.613 7  -1126295.17649  19796278.73249
  23516458.162 5   -704634.637 5   -540897.39847  23516458.33447
 20  5 16  1 57  5.9980000  0  8G04G08G09G11G16G26G27G31             0.000368361
  21092084.068 6  -1507400.719 6  -1157438.35948  21092083.33448
  19968173.443 7  -2478368.434 7  -1894061.34849  19968174.47149
  22324723.014 6  -2413731.672 6  -1851064.32449  22324723.64349
  22283064.959 6  -3544344.926 6  -2735445.88347  22283062.66647
  21245158.357 6  -1355982.801 6  -1037350.24648  21245156.51448
  22743527.147 5  -1137119.758 5   -864418.05947  22743529.64347
  19795704.451 7  -1475315.105 7  -1128647.25049  19795704.61549
  23516172.412 5   -706137.402 5   -542068.39147  23516172.62747
 20  5 16  1 57  6.9980000  0  8G04G08G09G11G16G26G27G31             0.000365692
  21091495.537 6  -1510492.832 6  -1159847.80148  21091494.92848
  19967191.592 7  -2483529.527 7  -1898082.97749  19967192.55749
  22323776.076 6  -2418710.047 6  -1854943.57449  22323776.54549
  22281642.670 6  -3551817.750 6  -2741268.86347  22281641.33047
  21244603.607 6  -1358901.441 6  -1039624.51248  21244600.91248
  22743056.162 5  -1139594.922 5   -866346.76247  22743058.65847
  19795130.397 7  -1478333.184 7  -1130999.00049  19795130.53749
  23515885.725 5   -707640.023 5   -543239.27747  23515886.40047
 20  5 16  1 57  7.9980000  0  8G04G08G09G11G16G26G27G31             0.000363024
  21090907.068 6  -1513584.512 6  -1162256.90248  21090906.42848
  19966209.936 7  -2488690.184 7  -1902104.26649  19966210.75649
  22322828.787 6  -2423687.949 6  -1858822.46149  22322828.95549
  22280220.904 6  -3559290.500 6  -2747091.78547  22280219.07647
  21244048.037 6  -1361820.141 6  -1041898.82448  21244045.72948
  22742585.920 4  -1142070.188 4   -868275.55147  22742587.66647
  19794556.342 7  -1481350.832 7  -1133350.41849  19794555.86949
  23515600.342 5   -709142.512 5   -544410.05947  23515600.51447
 20  5 16  1 57  8.9980000  0  8G04G08G09G11G16G26G27G31             0.000360355
  21090319.100 6  -1516675.711 6  -1164665.62548  21090318.44748
  19965227.647 7  -2493850.305 7  -1906125.14549  19965228.15049
  22321881.748 6  -2428665.332 6  -1862700.93849  22321881.94749
  22278798.936 6  -3566763.145 6  -2752914.62547  22278797.23647
  21243492.475 6  -1364738.855 6  -1044173.14548  21243490.30348
  22742114.154 5  -1144545.516 5   -870204.37947  22742116.66647
  19793981.709 7  -1484368.020 7  -1135701.47349  19793981.84649
  23515314.490 5   -710644.848 5   -545580.71147  23515314.17047
 20  5 16  1 57  9.9980000  0  8G04G08G09G11G16G26G27G31             0.000357685
  21089730.756 6  -1519766.488 6  -1167074.02348  21089729.80348
  19964245.850 7  -2499010.051 7  -1910145.72749  19964246.60049
  22320934.600 6  -2433642.262 6  -1866579.06649  22320935.31849
  22277376.529 6  -3574235.723 6  -2758737.41447  22277375.25647
  21242936.951 6  -1367657.652 6  -1046447.53148  21242934.56848
  22741643.576 5  -1147021.008 5   -872133.34047  22741645.79147
  19793408.006 7  -1487384.813 7  -1138052.21949  19793407.97149
  23515028.725 5   -712147.074 5   -546751.27747  23515028.58047
 20  5 16  1 57 10.9980000  0  8G04G08G09G11G16G26G27G31             0.000355017
  21089142.725 6  -1522856.836 6  -1169482.09048  21089141.89748
  19963264.186 7  -2504169.336 7  -1914165.94949  19963264.74849
  22319987.272 6  -2438618.676 6  -1870456.78949  22319988.09249
  22275955.311 6  -3581708.184 6  -2764560.10547  22275952.93947
  21242381.443 6  -1370576.516 6  -1048721.97348  21242379.14748
  22741172.764 5  -1149496.559 5   -874062.34447  22741174.64747
  19792833.529 7  -1490401.152 7  -1140402.61349  19792833.83849
  23514742.686 5   -713649.109 5   -547921.69147  23514742.85047
 20  5 16  1 57 11.9980000  0  8G04G08G09G11G16G26G27G31             0.000352348
  21088554.592 6  -1525946.738 6  -1171889.80548  21088554.13148
  19962282.225 7  -2509328.125 7  -1918185.78549  19962283.24849
  22319040.225 6  -2443594.672 6  -1874334.18849  22319041.48649
  22274533.029 6  -3589180.633 6  -2770382.78947  22274530.77547
  21241825.943 6  -1373495.438 6  -1050996.46548  21241823.54148
  22740701.623 5  -1151972.230 5   -875991.43447  22740703.81147
  19792259.592 7  -1493417.121 7  -1142752.71949  19792259.85049
  23514456.647 5   -715151.055 5   -549092.04347  23514457.01047
 20  5 16  1 57 12.9980000  0  8G04G08G09G11G16G26G27G31             0.000349678
  21087967.076 6  -1529036.180 6  -1174297.17248  21087965.81148
  19961300.920 7  -2514486.453 7  -1922205.26249  19961301.41649
  22318093.553 6  -2448570.125 6  -1878211.17249  22318094.52249
  22273111.186 6  -3596652.949 6  -2776205.37947  22273108.84647
  21241270.670 6  -1376414.410 6  -1053270.99248  21241268.47948
  22740230.303 5  -1154447.961 5   -877920.57447  22740232.58047
  19791686.092 7  -1496432.578 7  -1145102.42649  19791686.27249
  23514171.084 5   -716652.844 5   -550262.28147  23514171.40847
 20  5 16  1 57 13.9980000  0  8G04G08G09G11G16G26G27G31             0.000347010
  21087379.193 6  -1532125.199 6  -1176704.19948  21087378.17848
  19960319.178 7  -2519644.383 7  -1926224.42649  19960319.88549
  22317147.201 6  -2453545.148 6  -1882087.81349  22317147.60449
  22271689.154 6  -3604125.211 6  -2782027.91847  22271687.54947
  21240715.498 6  -1379333.457 6  -1055545.57048  21240712.55748
  22739759.068 5  -1156923.785 5   -879849.78547  22739761.06447
  19791112.506 7  -1499447.703 7  -1147451.87949  19791112.32649
  23513885.600 5   -718154.500 5   -551432.40647  23513885.58847
 20  5 16  1 57 14.9980000  0  8G04G08G09G11G16G26G27G31             0.000344339
  21086791.514 6  -1535213.844 6  -1179110.93048  21086790.35048
  19959337.811 7  -2524801.906 7  -1930243.27049  19959338.71349
  22316200.006 6  -2458519.770 6  -1885964.14549  22316200.82249
  22270267.412 6  -3611597.465 6  -2787850.45747  22270265.38147
  21240159.826 6  -1382252.633 6  -1057820.24648  21240157.18248
  22739288.217 5  -1159399.816 5   -881779.16447  22739290.24047
  19790538.279 7  -1502462.426 7  -1149801.01249  19790538.52549
  23513600.357 5   -719656.109 5   -552602.49647  23513599.75647
 20  5 16  1 57 15.9980000  0  8G04G08G09G11G16G26G27G31             0.000341671
  21086203.725 6  -1538302.047 6  -1181517.32848  21086203.00648
  19958356.537 7  -2529958.977 7  -1934261.76649  19958357.27949
  22315253.904 6  -2463493.891 6  -1889840.08249  22315254.36149
  22268845.584 6  -3619069.617 6  -2793672.91047  22268843.71747
  21239604.217 6  -1385171.852 6  -1060094.96948  21239601.72148
  22738816.264 5  -1161875.938 5   -883708.61747  22738819.27247
  19789965.092 7  -1505476.727 7  -1152149.81649  19789965.15449
  23513314.201 5   -721157.547 5   -553772.45347  23513313.91247
 20  5 16  1 57 16.9980000  0  8G04G08G09G11G16G26G27G31             0.000339001
  21085616.240 6  -1541389.797 6  -1183923.36348  21085614.98248
  19957375.334 7  -2535115.590 7  -1938279.91049  19957376.01049
  22314307.326 6  -2468467.480 6  -1893715.60249  22314307.97949
  22267423.178 6  -3626541.664 6  -2799495.28147  22267421.67047
  21239048.881 6  -1388091.141 6  -1062369.73448  21239046.48248
  22738345.545 5  -1164352.121 5   -885638.11747  22738347.83847
  19789391.412 7  -1508490.574 7  -1154498.27049  19789391.58449
  23513028.318 5   -722658.836 5   -554942.30147  23513028.15047
 20  5 16  1 57 17.9980000  0  8G04G08G09G11G16G26G27G31             0.000336330
  21085028.772 6  -1544477.141 6  -1186329.09448  21085027.76048
  19956394.193 7  -2540271.797 7  -1942297.73449  19956394.85749
  22313360.678 6  -2473440.641 6  -1897590.79749  22313361.49449
  22266001.654 6  -3634013.691 6  -2805317.64147  22265999.57247
  21238493.357 6  -1391010.520 6  -1064644.58248  21238490.71748
  22737874.420 5  -1166828.426 5   -887567.70347  22737876.61947
  19788818.115 7  -1511504.074 7  -1156846.45349  19788817.97949
  23512742.561 5   -724160.027 5   -556112.07047  23512742.60747
 20  5 16  1 57 18.9980000  0  8G04G08G09G11G16G26G27G31             0.000333662
  21084440.990 6  -1547564.074 6  -1188734.49248  21084440.22948
  19955413.123 7  -2545427.531 7  -1946315.19149  19955413.90049
  22312414.701 6  -2478413.414 6  -1901465.68449  22312415.62349
  22264580.014 6  -3641485.680 6  -2811139.96547  22264578.00247
  21237937.561 6  -1393929.984 6  -1066919.48848  21237935.11548
  22737402.850 5  -1169304.895 5   -889497.42247  22737405.44347
  19788244.561 7  -1514517.137 7  -1159194.28949  19788244.72949
  23512456.959 5   -725661.137 5   -557281.77047  23512456.79147
 20  5 16  1 57 19.9980000  0  8G04G08G09G11G16G26G27G31             0.000330992
  21083853.717 6  -1550650.633 6  -1191139.60248  21083852.83448
  19954432.061 7  -2550582.910 7  -1950332.36749  19954432.70149
  22311467.998 6  -2483385.699 6  -1905340.19149  22311469.08449
  22263158.545 6  -3648957.613 6  -2816962.25447  22263156.00247
  21237382.303 6  -1396849.570 6  -1069194.49648  21237379.40848
  22736931.756 5  -1171781.508 5   -891427.25047  22736933.85447
  19787671.045 7  -1517529.855 7  -1161541.86349  19787671.60049
  23512171.600 5   -727162.133 5   -558451.37547  23512171.00647
 20  5 16  1 57 20.9980000  0  8G04G08G09G11G16G26G27G31             0.000328321
  21083266.537 6  -1553736.629 6  -1193544.28148  21083265.45948
  19953450.857 7  -2555737.711 7  -1954349.09849  19953451.85449
  22310522.248 6  -2488357.430 6  -1909214.26649  22310522.84249
  22261736.240 6  -3656429.391 6  -2822784.41847  22261734.16247
  21236827.389 6  -1399769.125 6  -1071469.47748  21236824.14348
  22736460.459 5  -1174258.063 5   -893357.02747  22736462.97947
  19787097.904 7  -1520542.051 7  -1163889.02749  19787098.08049
  23511886.529 5   -728662.922 5   -559620.82047  23511885.43947
 20  5 16  1 57 21.9980000  0  8G04G08G09G11G16G26G27G31             0.000325651
  21082679.670 6  -1556822.281 6  -1195948.68848  21082678.68648
  19952470.193 7  -2560892.125 7  -1958365.52049  19952470.98649
  22309576.459 6  -2493328.758 6  -1913088.02749  22309576.89749
  22260314.287 6  -3663901.145 6  -2828606.56347  22260312.23247
  21236271.272 6  -1402688.805 6  -1073744.55148  21236268.36948
  22735989.522 5  -1176734.848 5   -895287.00047  22735991.36547
  19786525.053 7  -1523553.875 7  -1166235.90249  19786525.13149
  23511600.342 5   -730163.613 5   -560790.19947  23511599.24047
 20  5 16  1 57 22.9980000  0  8G04G08G09G11G16G26G27G31             0.000322981
  21082092.045 6  -1559907.480 6  -1198352.73448  21082091.28748
  19951489.115 7  -2566046.098 7  -1962381.60549  19951489.97149
  22308630.920 6  -2498299.582 6  -1916961.39849  22308630.93949
  22258892.561 6  -3671372.820 6  -2834428.64847  22258890.11947
  21235715.865 6  -1405608.543 6  -1076019.67648  21235712.97548
  22735517.436 5  -1179211.715 5   -897217.02747  22735520.08847
  19785951.740 7  -1526565.266 7  -1168582.44149  19785952.18949
  23511314.678 5   -731664.176 5   -561959.46947  23511314.02247
 20  5 16  1 57 23.9980000  0  8G04G08G09G11G16G26G27G31             0.000320312
  21081505.342 6  -1562992.305 6  -1200756.49248  21081504.61148
  19950508.529 7  -2571199.688 7  -1966397.39149  19950509.52949
  22307684.826 6  -2503269.988 6  -1920834.44549  22307685.47549
  22257470.451 6  -3678844.488 6  -2840250.72347  22257468.56447
  21235159.990 6  -1408528.441 6  -1078294.92248  21235157.25648
  22735046.693 5  -1181688.714 5   -899147.15447  22735048.74447
  19785379.006 7  -1529576.340 7  -1170928.73449  19785379.08849
  23511029.201 5   -733164.730 5   -563128.73047  23511028.86947
 20  5 16  1 57 24.9980000  0  8G04G08G09G11G16G26G27G31             0.000317642
  21080918.115 6  -1566076.664 6  -1203159.89148  21080917.15048
  19949528.154 7  -2576352.801 7  -1970412.80149  19949529.00649
  22306739.045 6  -2508239.926 6  -1924707.12949  22306739.25249
  22256048.772 6  -3686316.027 6  -2846072.69947  22256046.94747
  21234604.342 6  -1411448.352 6  -1080570.17648  21234601.54948
  22734575.545 5  -1184165.854 5   -901077.39247  22734577.68947
  19784805.818 7  -1532586.910 7  -1173274.64149  19784806.02549
  23510743.467 5   -734665.047 5   -564297.81347  23510742.98247
 20  5 16  1 57 25.9980000  0  8G04G08G09G11G16G26G27G31             0.000314972
  21080331.311 6  -1569160.605 6  -1205562.96548  21080330.66648
  19948547.389 7  -2581505.477 7  -1974427.86749  19948548.25649
  22305792.928 6  -2513209.398 6  -1928579.44549  22305793.96349
  22254627.256 6  -3693787.543 6  -2851894.65647  22254624.99847
  21234048.232 6  -1414368.324 6  -1082845.47348  21234045.88548
  22734103.607 5  -1186643.043 5   -903007.67247  22734105.83047
  19784233.279 7  -1535597.133 7  -1175620.26649  19784233.59649
  23510458.295 5   -736165.277 5   -565466.83647  23510457.51047
 20  5 16  1 57 26.9980000  0  8G04G08G09G11G16G26G27G31             0.000312302
  21079745.029 6  -1572244.105 6  -1207965.69548  21079743.60048
  19947567.178 7  -2586657.672 7  -1978442.57049  19947568.04149
  22304847.670 6  -2518178.332 6  -1932451.34049  22304848.62749
  22253205.287 6  -3701258.926 6  -2857716.51247  22253203.61547
  21233493.076 6  -1417288.348 6  -1085120.82048  21233490.29948
  22733632.107 5  -1189120.340 5   -904938.03147  22733634.51847
  19783660.451 7  -1538606.879 7  -1177965.52349  19783660.67849
  23510172.904 5   -737665.344 5   -566635.71947  23510172.36547
 20  5 16  1 57 27.9980000  0  8G04G08G09G11G16G26G27G31             0.000309631
  21079158.100 6  -1575327.113 6  -1210368.04348  21079157.20548
  19946586.897 7  -2591809.422 7  -1982456.92249  19946587.62749
  22303902.248 6  -2523146.781 6  -1936322.85949  22303902.69349
  22251783.232 6  -3708730.199 6  -2863538.27747  22251781.76847
  21232937.201 6  -1420208.426 6  -1087396.20748  21232934.25648
  22733160.756 5  -1191597.707 5   -906868.45347  22733162.96747
  19783087.693 7  -1541616.176 7  -1180310.43049  19783087.82649
  23509887.482 5   -739165.242 5   -567804.47747  23509886.59647
 20  5 16  1 57 28.9980000  0  8G04G08G09G11G16G26G27G31             0.000306961
  21078571.350 6  -1578409.758 6  -1212770.09848  21078570.72148
  19945606.475 7  -2596960.742 7  -1986470.93849  19945607.40049
  22302956.537 6  -2528114.840 6  -1940194.07449  22302957.61149
  22250361.600 6  -3716201.469 6  -2869360.05147  22250360.06447
  21232381.584 6  -1423128.609 6  -1089671.67248  21232378.80748
  22732688.803 5  -1194075.211 5   -908798.97747  22732691.37347
  19782515.123 7  -1544625.102 7  -1182655.04749  19782515.35049
  23509602.014 5   -740665.098 5   -568973.19147  23509601.15047
 20  5 16  1 57 29.9980000  0  8G04G08G09G11G16G26G27G31             0.000304289
  21077985.037 6  -1581491.992 6  -1215171.84048  21077984.06848
  19944626.404 7  -2602111.664 7  -1990484.64149  19944627.15849
  22302011.600 6  -2533082.418 6  -1944064.91449  22302011.74449
  22248940.154 6  -3723672.688 6  -2875181.77747  22248938.21347
  21231825.475 6  -1426048.887 6  -1091947.21548  21231823.24048
  22732217.631 5  -1196552.875 5   -910729.62547  22732219.93247
  19781942.748 7  -1547633.672 7  -1184999.38749  19781943.01849
  23509316.561 5   -742164.801 5   -570141.78547  23509315.39347
 20  5 16  1 57 30.9980000  0  8G04G08G09G11G16G26G27G31             0.000301619
  21077398.592 6  -1584573.719 6  -1217573.19548  21077397.67448
  19943646.334 7  -2607262.043 7  -1994497.92649  19943646.99849
  22301066.193 6  -2538049.465 6  -1947935.34049  22301066.66249
  22247518.256 6  -3731143.773 6  -2881003.40647  22247516.77247
  21231270.029 6  -1428969.176 6  -1094222.77048  21231267.54948
  22731746.053 4  -1199030.535 4   -912660.27347  22731748.56847
  19781370.389 7  -1550641.719 7  -1187343.32049  19781370.58449
  23509031.725 5   -743664.328 5   -571310.25847  23509030.21347
 20  5 16  1 57 31.9980000  0  8G04G08G09G11G16G26G27G31             0.000298948
  21076812.178 6  -1587655.117 6  -1219974.28148  21076811.03748
  19942666.045 7  -2612412.051 7  -1998510.91449  19942666.67049
  22300121.092 6  -2543016.168 6  -1951805.49649  22300121.64349
  22246096.881 6  -3738614.855 6  -2886825.02747  22246094.89747
  21230714.006 6  -1431889.617 6  -1096498.43848  21230711.75248
  22731274.607 4  -1201508.414 4   -914591.09447  22731277.02947
  19780798.068 7  -1553649.445 7  -1189687.00449  19780798.01049
  23508746.256 5   -745163.832 5   -572478.71147  23508745.06847
 20  5 16  1 57 32.9980000  0  8G04G08G09G11G16G26G27G31             0.000296278
  21076225.975 6  -1590736.027 6  -1222374.99648  21076224.73248
  19941686.139 7  -2617561.609 7  -2002523.55949  19941687.08049
  22299176.545 6  -2547982.305 6  -1955675.21149  22299176.92049
  22244674.842 6  -3746085.828 6  -2892646.56647  22244672.77247
  21230158.451 6  -1434810.098 6  -1098774.13748  21230156.18648
  22730802.912 5  -1203986.379 5   -916521.97347  22730805.11547
  19780225.709 7  -1556656.715 7  -1192030.33249  19780225.67449
  23508460.725 5   -746663.156 5   -573647.01647  23508458.97147
 20  5 16  1 57 33.9980000  0  8G04G08G09G11G16G26G27G31             0.000293606
  21075639.529 6  -1593816.523 6  -1224775.37948  21075638.98648
  19940706.186 7  -2622710.680 7  -2006535.82049  19940707.00649
  22298231.600 6  -2552948.004 6  -1959544.58249  22298231.76049
  22243253.553 6  -3753556.734 6  -2898468.04747  22243251.41647
  21229602.326 6  -1437730.613 6  -1101049.86348  21229600.37348
  22730331.553 5  -1206464.418 5   -918452.91447  22730334.11547
  19779653.467 7  -1559663.594 7  -1194373.35549  19779653.85449
  23508175.686 5   -748162.309 5   -574815.18447  23508174.09647
 20  5 16  1 57 34.9980000  0  8G04G08G09G11G16G26G27G31             0.000290936
  21075053.303 6  -1596896.543 6  -1227175.39548  21075052.78348
  19939726.568 7  -2627859.313 7  -2010547.74249  19939727.33849
  22297286.092 6  -2557913.191 6  -1963413.56649  22297286.74849
  22241831.818 6  -3761027.547 6  -2904289.46147  22241829.72147
  21229046.451 6  -1440651.207 6  -1103325.65248  21229044.38148
  22729859.787 5  -1208942.578 5   -920383.94547  22729862.33847
  19779081.873 7  -1562670.023 7  -1196716.02749  19779081.76049
  23507889.998 5   -749661.375 5   -575983.28547  23507888.61947
 20  5 16  1 57 35.9980000  0  8G04G08G09G11G16G26G27G31             0.000288265
  21074467.365 6  -1599976.223 6  -1229575.14848  21074466.62748
  19938746.967 7  -2633007.563 7  -2014559.36749  19938747.79149
  22296341.670 6  -2562877.969 6  -1967282.21949  22296341.82649
  22240409.584 6  -3768498.332 6  -2910110.84447  22240407.81147
  21228491.162 6  -1443571.941 6  -1105601.54748  21228488.56448
  22729389.100 4  -1211420.855 4   -922315.07047  22729390.63547
  19778509.326 7  -1565676.086 7  -1199058.41849  19778509.07649
  23507605.256 5   -751160.379 5   -577151.34447  23507603.34647
 20  5 16  1 57 36.9980000  0  8G04G08G09G11G16G26G27G31             0.000285593
  21073881.397 6  -1603055.305 6  -1231974.43048  21073880.59248
  19937767.326 7  -2638155.199 7  -2018570.51649  19937768.32249
  22295396.850 6  -2567842.156 6  -1971150.41849  22295397.34649
  22238988.412 6  -3775968.910 6  -2915932.07047  22238986.79147
  21227935.334 6  -1446492.570 6  -1107877.36748  21227932.86548
  22728916.451 4  -1213899.128 4   -924246.19447  22728919.01047
  19777937.482 7  -1568681.613 7  -1201400.38749  19777937.39349
  23507319.600 5   -752659.059 5   -578319.14547  23507317.93247
 20  5 16  1 57 37.9980000  0  8G04G08G09G11G16G26G27G31             0.000282923
  21073295.373 6  -1606133.996 6  -1234373.41448  21073295.05748
  19936787.912 7  -2643302.441 7  -2022581.35249  19936788.73249
  22294452.959 6  -2572805.871 6  -1975018.25049  22294452.36549
  22237567.225 6  -3783439.426 6  -2921753.25447  22237564.81147
  21227379.725 6  -1449413.305 6  -1110153.26648  21227376.81148
  22728445.592 4  -1216377.496 4   -926177.39547  22728447.27247
  19777365.514 7  -1571686.727 7  -1203742.03149  19777365.60749
  23507034.647 5   -754157.676 5   -579486.89547  23507032.54947
 20  5 16  1 57 38.9980000  0  8G04G08G09G11G16G26G27G31             0.000280251
  21072709.826 6  -1609212.219 6  -1236772.02748  21072709.20148
  19935808.615 7  -2648449.223 7  -2026591.82849  19935809.18649
  22293508.068 6  -2577769.098 6  -1978885.70349  22293508.29149
  22236145.342 6  -3790909.902 6  -2927574.41047  22236143.28347
  21226823.748 6  -1452334.102 6  -1112429.21148  21226821.15048
  22727973.381 4  -1218855.996 4   -928108.69147  22727975.60047
  19776793.639 7  -1574691.426 7  -1206083.35549  19776793.68949
  23506749.404 5   -755656.156 5   -580654.53947  23506747.88947
 20  5 16  1 57 39.9980000  0  8G04G08G09G11G16G26G27G31             0.000277580
  21072124.092 6  -1612290.035 6  -1239170.32848  21072123.67448
  19934829.334 7  -2653595.566 7  -2030601.96149  19934830.08049
  22292563.654 6  -2582731.863 6  -1982752.79349  22292563.59649
  22234724.014 6  -3798380.246 6  -2933395.45747  22234721.65447
  21226268.326 6  -1455254.957 6  -1114705.20348  21226265.22548
  22727501.787 4  -1221334.566 4   -930040.04747  22727504.21347
  19776221.967 7  -1577695.691 7  -1208424.34449  19776222.29949
  23506463.897 5   -757154.477 5   -581822.07047  23506462.87347
 20  5 16  1 57 40.9980000  0  8G04G08G09G11G16G26G27G31             0.000274908
  21071538.600 6  -1615367.379 6  -1241568.26248  21071537.88148
  19933849.990 7  -2658741.430 7  -2034611.73049  19933851.18249
  22291619.514 6  -2587694.113 6  -1986619.47749  22291619.60049
  22233302.272 6  -3805850.492 6  -2939216.42647  22233300.06847
  21225712.334 6  -1458175.840 6  -1116981.21548  21225709.55748
  22727029.818 4  -1223813.188 4   -931971.43847  22727032.23647
  19775650.787 7  -1580699.520 7  -1210764.99249  19775650.73649
  23506178.701 5   -758652.641 5   -582989.46547  23506177.81847
 20  5 16  1 57 41.9980000  0  8G04G08G09G11G16G26G27G31             0.000272238
  21070953.092 6  -1618444.227 6  -1243965.80548  21070952.24048
  19932870.631 7  -2663886.766 7  -2038621.08249  19932871.19349
  22290675.240 6  -2592655.832 6  -1990485.75049  22290675.80349
  22231880.803 6  -3813320.605 6  -2945037.29747  22231878.89347
  21225155.936 6  -1461096.750 6  -1119257.25448  21225153.74848
  22726558.389 4  -1226291.902 4   -933902.90647  22726560.60047
  19775079.084 7  -1583702.863 7  -1213105.25849  19775079.19749
  23505893.873 5   -760150.625 5   -584156.73847  23505892.64347
