     2.10           OBSERVATION DATA    Mixed(MIXED)        RINEX VERSION / TYPE
cnvtToRINEX 3.07.0  convertToRINEX OPR  19-May-20 12:30 UTC PGM / RUN BY / DATE 
----------------------------------------------------------- COMMENT             
GBA0                                                        MARKER NAME         
GBA0                                                        MARKER NUMBER       
GNSS Observer       Trimble                                 OBSERVER / AGENCY   
0220379195          5700                2.32                REC # / TYPE / VERS 
                    TRM39105.00                             ANT # / TYPE        
 -3050462.2043  4927777.9961  2654272.6903                  APPROX POSITION XYZ 
       -0.0460        0.0000        0.0000                  ANTENNA: DELTA H/E/N
     1     1     0                                          WAVELENGTH FACT L1/2
     4    C1    L1    L2    P2                              # / TYPES OF OBSERV 
  2020     5    16     1    47   56.0000000     GPS         TIME OF FIRST OBS   
  2020     5    16     3     9    4.0000000     GPS         TIME OF LAST OBS    
     0                                                      RCV CLOCK OFFS APPL 
    18                                                      LEAP SECONDS        
    10                                                      # OF SATELLITES     
   G01  2991  2991  2991  2991                              PRN / # OF OBS      
   G04  4869  4869  4869  4869                              PRN / # OF OBS      
   G07  3928  3919  3928  3928                              PRN / # OF OBS      
   G08  4869  4869  4869  4869                              PRN / # OF OBS      
   G09  4869  4869  4869  4869                              PRN / # OF OBS      
   G11  4845  4845  4845  4845                              PRN / # OF OBS      
   G16  4869  4869  4869  4869                              PRN / # OF OBS      
   G26  4866  4838  4862  4862                              PRN / # OF OBS      
   G27  4845  4845  4845  4845                              PRN / # OF OBS      
   G31  1858  1836  1844  1844                              PRN / # OF OBS      
CARRIER PHASE MEASUREMENTS: PHASE SHIFTS REMOVED            COMMENT             
                                                            END OF HEADER       
 20  5 16  1 47 56.0000000  0  5G04G08G09G16G26                     -0.000033484
  21471399.57016    -18373.39116     -4093.57858  21471398.66458
  20563950.61716    -49002.31616    -13970.28159  20563951.55559
  22902070.13315    -37101.29715    -10316.85959  22902069.79359
  21590879.38316     -7219.37116     -2711.24258  21590876.76258
  23041431.71115     -4510.56615     -1048.09857  23041432.59057
 20  5 16  1 47 57.0000000  0  5G04G08G09G16G26                     -0.000034782
  21471161.773 6    -19623.191 6     -5067.47748  21471161.06348
  20563318.883 6    -52319.020 6    -16554.73049  20563320.25449
  22901471.586 5    -40246.336 5    -12767.53949  22901471.76249
  21590728.172 6     -8012.758 6     -3329.48048  21590725.58648
  23041370.242 5     -4835.873 5     -1301.61347  23041370.70747
 20  5 16  1 47 58.0000000  0  5G04G08G09G16G26                     -0.000036081
  21470924.117 6    -20874.664 6     -6042.66848  21470922.91048
  20562687.984 6    -55637.449 6    -19140.52349  20562688.38749
  22900872.773 5    -43393.078 5    -15219.54349  22900873.54349
  21590577.078 6     -8808.344 6     -3949.43848  21590574.41848
  23041307.391 5     -5163.410 5     -1556.85247  23041308.93047
 20  5 16  1 47 59.0000000  0  5G04G08G09G16G26                     -0.000037386
  21470685.258 6    -22127.754 6     -7019.10948  21470684.71148
  20562055.766 6    -58957.516 6    -21727.59049  20562056.58249
  22900274.422 6    -46541.457 6    -17672.82449  22900274.13349
  21590425.344 5     -9606.098 5     -4571.06648  21590422.67248
  23041244.695 6     -5493.176 6     -1813.82847  23041245.71147
 20  5 16  1 48  0.0000000  0  5G04G08G09G16G26                     -0.000038685
  21470446.977 6    -23382.473 6     -7996.82048  21470445.58248
  20561423.844 6    -62279.207 6    -24315.92649  20561425.04349
  22899674.398 5    -49691.395 5    -20127.32449  22899674.48049
  21590272.688 6    -10406.008 6     -5194.37148  21590270.34448
  23041181.367 5     -5825.145 5     -2072.52347  23041182.89847
 20  5 16  1 48  1.0000000  0  5G04G08G09G16G26                     -0.000039993
  21470208.008 6    -24638.660 6     -8975.66848  21470206.81648
  20560791.609 6    -65602.371 6    -26905.39849  20560792.44149
  22899074.563 5    -52842.840 5    -22582.99249  22899074.73049
  21590120.391 6    -11207.883 6     -5819.21148  21590117.69148
  23041118.469 6     -6159.117 6     -2332.75447  23041119.35547
 20  5 16  1 48  2.0000000  0  5G04G08G09G16G26                     -0.000041300
  21469968.852 6    -25896.199 6     -9955.55948  21469967.56648
  20560159.180 6    -68926.988 6    -29496.00449  20560159.73849
  22898474.953 5    -55995.648 5    -25039.72749  22898475.19549
  21589967.555 6    -12011.676 6     -6445.53548  21589964.98048
  23041054.180 5     -6495.063 5     -2594.52347  23041055.41447
 20  5 16  1 48  3.0000000  0  5G04G08G09G16G26                     -0.000042610
  21469728.828 6    -27155.078 6    -10936.49648  21469728.03948
  20559526.086 6    -72252.906 6    -32087.62549  20559526.73849
  22897874.688 5    -59149.801 5    -27497.50849  22897874.51249
  21589814.313 6    -12817.273 6     -7073.27348  21589811.26648
  23040989.867 5     -6832.895 5     -2857.76647  23040991.39547
 20  5 16  1 48  4.0000000  0  5G04G08G09G16G26                     -0.000043919
  21469489.305 6    -28415.043 6    -11918.28548  21469488.20748
  20558892.922 6    -75579.965 6    -34680.13749  20558893.62549
  22897274.234 5    -62305.055 5    -29956.14849  22897274.39149
  21589660.516 6    -13624.535 6     -7702.30948  21589657.90648
  23040925.516 5     -7172.430 5     -3122.33647  23040926.47347
 20  5 16  1 48  5.0000000  0  5G04G08G09G16G26                     -0.000045231
  21469249.297 6    -29676.137 6    -12900.95748  21469248.38748
  20558259.555 6    -78908.133 6    -37273.51649  20558260.39549
  22896673.422 5    -65461.418 5    -32415.64849  22896673.78949
  21589506.883 6    -14433.426 6     -8332.60948  21589504.19148
  23040860.273 5     -7513.652 5     -3388.22747  23040861.82047
 20  5 16  1 48  6.0000000  0  5G04G08G09G16G26                     -0.000046541
  21469008.836 6    -30938.301 6    -13884.46548  21469008.35548
  20557626.016 7    -82237.422 7    -39867.77349  20557626.89149
  22896072.578 5    -68618.859 5    -34876.00049  22896072.67649
  21589352.664 6    -15243.934 6     -8964.17648  21589349.70348
  23040794.398 5     -7856.547 5     -3655.42647  23040795.86347
 20  5 16  1 48  7.0000000  0  5G04G08G09G16G26                     -0.000047855
  21468768.734 6    -32201.395 6    -14868.69948  21468767.63748
  20556992.430 6    -85567.676 6    -42462.77349  20556993.14149
  22895471.086 5    -71777.281 5    -37337.10949  22895471.84449
  21589198.000 6    -16055.875 6     -9596.86348  21589195.14548
  23040729.906 5     -8200.926 5     -3923.77347  23040730.73847
 20  5 16  1 48  8.0000000  0  5G04G08G09G16G26                     -0.000049170
  21468528.016 6    -33465.277 6    -15853.53948  21468527.30148
  20556358.508 6    -88898.727 6    -45058.40249  20556359.18849
  22894870.523 5    -74936.406 5    -39798.76649  22894870.74249
  21589042.930 6    -16869.152 6    -10230.58648  21589040.17648
  23040663.523 5     -8546.680 5     -4193.19147  23040664.78547
 20  5 16  1 48  9.0000000  0  5G04G08G09G16G26                     -0.000050486
  21468287.156 6    -34729.832 6    -16838.91048  21468286.59048
  20555724.383 6    -92230.480 6    -47654.57449  20555724.96549
  22894269.461 5    -78096.270 5    -42260.99249  22894269.23849
  21588888.219 6    -17683.605 6    -10865.22748  21588885.24248
  23040597.836 5     -8893.684 5     -4463.58647  23040599.11747
 20  5 16  1 48 10.0000000  0  5G04G08G09G16G26                     -0.000051800
  21468046.773 6    -35994.973 6    -17824.73448  21468045.76648
  20555090.422 6    -95562.836 6    -50251.21549  20555090.97349
  22893667.914 5    -81256.703 5    -44723.67249  22893667.82449
  21588732.719 6    -18499.184 6    -11500.73848  21588730.51648
  23040531.977 5     -9241.844 5     -4734.87547  23040532.98847
 20  5 16  1 48 11.0000000  0  5G04G08G09G16G26                     -0.000053118
  21467805.617 6    -37260.668 6    -18810.98848  21467805.05148
  20554455.906 7    -98895.766 7    -52848.30149  20554456.70749
  22893066.211 5    -84417.719 5    -47186.80149  22893066.37949
  21588577.664 6    -19315.875 6    -12137.12148  21588574.68848
  23040465.266 5     -9591.160 5     -5007.06647  23040466.40647
 20  5 16  1 48 12.0000000  0  5G04G08G09G16G26                     -0.000054432
  21467564.648 6    -38526.785 6    -19797.57448  21467564.10548
  20553821.539 6   -102229.152 6    -55445.73849  20553822.58249
  22892464.570 5    -87579.156 5    -49650.26249  22892464.72749
  21588422.016 6    -20133.441 6    -12774.19548  21588419.27048
  23040398.672 5     -9941.441 5     -5280.01247  23040399.93047
 20  5 16  1 48 13.0000000  0  5G04G08G09G16G26                     -0.000055752
  21467324.008 6    -39793.266 6    -20784.44148  21467323.28948
  20553187.469 6   -105562.922 6    -58043.48849  20553188.39149
  22891863.031 5    -90740.973 5    -52114.01649  22891863.14149
  21588266.047 6    -20951.973 6    -13412.01248  21588263.49248
  23040331.680 5    -10292.727 5     -5553.74647  23040332.89147
 20  5 16  1 48 14.0000000  0  5G04G08G09G16G26                     -0.000057068
  21467082.758 6    -41060.090 6    -21771.58648  21467082.03148
  20552552.781 6   -108897.051 6    -60641.50849  20552553.62549
  22891261.109 5    -93903.086 5    -54578.00449  22891261.30149
  21588110.617 6    -21771.340 6    -14050.48048  21588107.44148
  23040264.828 5    -10644.867 5     -5828.14547  23040265.55547
 20  5 16  1 48 15.0000000  0  5G04G08G09G16G26                     -0.000058388
  21466841.727 6    -42327.082 6    -22758.85548  21466840.62148
  20551918.406 6   -112231.375 6    -63239.68449  20551919.33649
  22890659.625 6    -97065.414 6    -57042.15249  22890659.37149
  21587954.289 6    -22591.395 6    -14689.48048  21587951.56348
  23040197.180 6    -10997.793 6     -6103.16047  23040198.24647
 20  5 16  1 48 16.0000000  0  5G04G08G09G16G26                     -0.000059706
  21466600.570 6    -43594.207 6    -23746.22348  21466599.64148
  20551283.945 6   -115565.879 6    -65838.00049  20551284.81649
  22890057.656 5   -100227.867 5    -59506.40249  22890057.60249
  21587797.805 6    -23412.148 6    -15329.03148  21587795.30548
  23040130.250 6    -11351.434 6     -6378.72347  23040131.16847
 20  5 16  1 48 17.0000000  0  5G04G08G09G16G26                     -0.000061028
  21466359.672 6    -44861.422 6    -24733.66448  21466358.61748
  20550649.156 6   -118900.484 6    -68436.39849  20550650.43449
  22889455.578 5   -103390.410 5    -61970.71949  22889455.56649
  21587641.875 6    -24233.457 6    -15969.00448  21587638.95348
  23040063.117 5    -11705.719 5     -6654.78947  23040063.80947
 20  5 16  1 48 18.0000000  0  5G04G08G09G16G26                     -0.000062346
  21466117.938 6    -46128.672 6    -25721.13348  21466117.60548
  20550014.578 6   -122235.117 6    -71034.81349  20550015.38349
  22888853.984 5   -106553.016 5    -64435.09049  22888853.80949
  21587485.273 6    -25055.383 6    -16609.47348  21587482.63348
  23039995.258 5    -12060.613 5     -6931.33647  23039996.56347
 20  5 16  1 48 19.0000000  0  5G04G08G09G16G26                     -0.000063667
  21465877.195 6    -47395.891 6    -26708.57448  21465876.67248
  20549380.250 6   -125569.777 6    -73633.25049  20549380.96949
  22888252.516 5   -109715.566 5    -66899.41449  22888252.42649
  21587329.070 6    -25877.777 6    -17250.31348  21587325.94948
  23039927.320 5    -12416.086 5     -7208.32447  23039928.73047
 20  5 16  1 48 20.0000000  0  8G04G08G09G11G16G26G27G31            -0.000064987
  21465635.992 6    -48662.926 6    -27695.87948  21465634.97748
  20548745.461 6   -128904.258 6    -76231.54349  20548746.37949
  22887650.531 5   -112877.934 5    -69363.60249  22887650.64549
  23084728.25815   -178775.57815    -94781.66457  23084725.72757
  21587172.250 6    -26700.512 6    -17891.40248  21587169.87548
  23039859.984 5    -12771.922 5     -7485.59847  23039861.42247
  20161040.62517    -36971.53517    -20480.85259  20161040.36359
  23721780.62515     12933.70715      6886.80957  23721779.09457
 20  5 16  1 48 21.0000000  0  8G04G08G09G11G16G26G27G31            -0.000066307
  21465394.930 6    -49929.773 6    -28683.03148  21465394.52348
  20548111.039 6   -132238.559 6    -78829.69949  20548111.76249
  22887048.750 5   -116040.133 5    -71827.65649  22887048.32849
  23083693.836 5   -184210.906 5    -99016.98847  23083691.43847
  21587015.688 6    -27523.590 6    -18532.76648  21587013.05948
  23039792.445 5    -13128.156 5     -7763.18847  23039793.33647
  20160814.891 7    -38158.414 7    -21405.69149  20160814.56649
  23721873.492 5     13420.980 5      7266.49647  23721872.18447
 20  5 16  1 48 22.0000000  0  8G04G08G09G11G16G26G27G31            -0.000067627
  21465153.781 6    -51196.387 6    -29670.00048  21465153.41048
  20547476.484 6   -135572.648 6    -81427.69549  20547477.25849
  22886447.008 5   -119202.102 5    -74291.52049  22886447.07449
  23082659.914 6   -189646.469 6   -103252.49247  23082657.56347
  21586858.953 6    -28346.973 6    -19174.35248  21586856.43848
  23039724.242 5    -13484.734 5     -8041.04347  23039725.40247
  20160588.820 7    -39345.098 7    -22330.38349  20160588.51649
  23721966.242 5     13908.145 5      7646.10247  23721965.10947
 20  5 16  1 48 23.0000000  0  8G04G08G09G11G16G26G27G31            -0.000068951
  21464912.688 6    -52462.781 6    -30656.79748  21464911.85948
  20546842.297 6   -138906.531 6    -84025.52749  20546842.96949
  22885845.586 5   -122363.855 5    -76755.22749  22885845.87949
  23081625.359 6   -195082.219 6   -107488.14547  23081622.86747
  21586702.688 6    -29170.656 6    -19816.19148  21586699.48848
  23039656.336 5    -13841.691 5     -8319.18847  23039657.67647
  20160363.156 7    -40531.516 7    -23254.86349  20160362.80549
  23722059.031 5     14395.211 5      8025.63347  23722057.55547
 20  5 16  1 48 24.0000000  0  8G04G08G09G11G16G26G27G31            -0.000070271
  21464672.078 6    -53728.859 6    -31643.35948  21464671.32448
  20546207.938 6   -142240.086 6    -86623.09849  20546208.95349
  22885243.555 6   -125525.273 6    -79218.67249  22885243.85949
  23080591.180 5   -200518.113 5   -111723.91447  23080588.71147
  21586545.531 6    -29994.543 6    -20458.17648  21586543.13748
  23039588.438 5    -14198.871 5     -8597.50447  23039589.40247
  20160137.422 7    -41717.656 7    -24179.12949  20160137.14549
  23722151.453 5     14882.281 5      8405.16847  23722150.19147
 20  5 16  1 48 25.0000000  0  8G04G08G09G11G16G26G27G31            -0.000071592
  21464431.406 6    -54994.598 6    -32629.64848  21464430.74248
  20545573.570 7   -145573.352 7    -89220.44549  20545574.34049
  22884642.266 6   -128686.402 6    -81681.88749  22884642.25049
  23079556.555 6   -205954.109 6   -115959.76647  23079553.66847
  21586388.633 6    -30818.621 6    -21100.31648  21586385.88348
  23039520.133 5    -14556.316 5     -8876.04347  23039521.62547
  20159911.820 7    -42903.484 7    -25103.15249  20159911.62949
  23722244.164 5     15369.348 5      8784.69547  23722243.29747
 20  5 16  1 48 26.0000000  0  8G04G08G09G11G16G26G27G31            -0.000072914
  21464190.711 6    -56259.895 6    -33615.60248  21464189.50848
  20544939.188 7   -148906.176 7    -91817.45349  20544940.16049
  22884040.805 6   -131847.031 6    -84144.71549  22884040.84449
  23078522.047 6   -211390.129 6   -120195.62547  23078519.46947
  21586231.500 6    -31642.750 6    -21742.49648  21586228.77048
  23039452.547 5    -14913.910 5     -9154.69147  23039453.68047
  20159685.992 7    -44088.844 7    -26026.80949  20159685.99249
  23722336.602 6     15856.594 6      9164.35547  23722335.69147
 20  5 16  1 48 27.0000000  0  8G04G08G09G11G16G26G27G31            -0.000074236
  21463949.742 6    -57524.762 6    -34601.21148  21463949.15248
  20544305.281 6   -152238.598 6    -94414.15249  20544305.90249
  22883439.813 6   -135007.266 6    -86607.23449  22883439.09449
  23077487.281 6   -216826.129 6   -124431.46947  23077485.23047
  21586074.852 6    -32467.000 6    -22384.77748  21586072.17648
  23039383.961 5    -15271.621 5     -9433.43047  23039385.45347
  20159460.820 7    -45273.801 7    -26950.15249  20159460.57849
  23722429.203 5     16343.879 5      9544.05547  23722428.54347
 20  5 16  1 48 28.0000000  0  8G04G08G09G11G16G26G27G31            -0.000075558
  21463709.102 6    -58789.172 6    -35586.46948  21463708.49648
  20543671.523 6   -155570.613 6    -97010.52349  20543671.94549
  22882838.125 6   -138167.059 6    -89069.40649  22882837.83649
  23076452.891 6   -222262.164 6   -128667.33247  23076450.92247
  21585918.133 6    -33291.336 6    -23027.11348  21585915.42248
  23039316.461 5    -15629.457 5     -9712.26247  23039317.25847
  20159235.305 7    -46458.309 7    -27873.14549  20159235.10249
  23722521.523 5     16831.316 5      9923.87547  23722520.98047
 20  5 16  1 48 29.0000000  0  8G04G08G09G11G16G26G27G31            -0.000076880
  21463468.719 6    -60053.105 6    -36571.35248  21463467.92248
  20543037.281 6   -158902.164 6    -99606.53949  20543038.19949
  22882236.734 6   -141326.340 6    -91531.18849  22882237.05549
  23075418.695 5   -227698.164 5   -132903.17247  23075416.69947
  21585761.688 6    -34115.734 6    -23669.50448  21585758.55548
  23039247.953 5    -15987.445 5     -9991.21547  23039249.02347
  20159010.148 7    -47642.379 7    -28795.79749  20159009.86749
  23722614.797 5     17318.891 5     10303.81347  23722613.65647
 20  5 16  1 48 30.0000000  0  8G04G08G09G11G16G26G27G31            -0.000078201
  21463228.195 6    -61316.520 6    -37555.82448  21463227.39848
  20542403.313 6   -162233.180 6   -102202.13749  20542404.10949
  22881635.563 5   -144485.113 5    -93992.56649  22881635.99649
  23074384.117 5   -233134.043 5   -137138.92247  23074382.00047
  21585604.383 6    -34940.082 6    -24311.85948  21585601.62948
  23039180.211 5    -16345.426 5    -10270.16047  23039181.12547
  20158784.914 7    -48825.875 7    -29718.00849  20158784.66849
  23722707.688 5     17806.707 5     10683.93047  23722706.85547
 20  5 16  1 48 31.0000000  0  8G04G08G09G11G16G26G27G31            -0.000079523
  21462988.023 6    -62579.410 6    -38539.90248  21462987.09448
  20541769.508 7   -165563.699 7   -104797.34849  20541770.39549
  22881034.750 5   -147643.395 5    -96453.57049  22881035.06649
  23073349.539 5   -238569.879 5   -141374.64547  23073347.59447
  21585447.609 6    -35764.477 6    -24954.24248  21585444.61348
  23039111.680 5    -16703.473 5    -10549.15647  23039113.09847
  20158559.773 7    -50008.902 7    -30639.84849  20158559.62549
  23722800.469 5     18294.703 5     11064.19147  23722799.59047
 20  5 16  1 48 32.0000000  0  8G04G08G09G11G16G26G27G31            -0.000080845
  21462747.867 6    -63841.750 6    -39523.53948  21462746.83248
  20541135.977 6   -168893.703 6   -107392.15249  20541136.75449
  22880433.344 6   -150801.117 6    -98914.13749  22880434.26649
  23072315.375 5   -244005.598 5   -145610.25847  23072312.77047
  21585290.836 6    -36588.805 6    -25596.57448  21585287.88748
  23039043.875 5    -17061.543 5    -10828.17247  23039044.78547
  20158334.750 7    -51191.348 7    -31561.23049  20158334.67649
  23722893.570 5     18782.945 5     11444.64147  23722892.48047
 20  5 16  1 48 33.0000000  0  8G04G08G09G11G16G26G27G31            -0.000082169
  21462507.453 6    -65103.406 6    -40506.65248  21462507.02348
  20540502.258 7   -172223.094 7   -109986.48449  20540503.06649
  22879832.797 5   -153958.148 5   -101374.15649  22879833.28149
  23071281.359 5   -249441.063 5   -149845.69147  23071278.96547
  21585134.156 6    -37413.004 6    -26238.80948  21585131.14148
  23038975.695 5    -17419.535 5    -11107.13747  23038976.49647
  20158109.664 7    -52373.164 7    -32482.12949  20158109.53149
  23722986.094 5     19271.535 5     11825.34847  23722985.30147
 20  5 16  1 48 34.0000000  0  8G04G08G09G11G16G26G27G31            -0.000083488
  21462267.219 6    -66364.457 6    -41489.28948  21462266.86348
  20539869.078 7   -175551.879 7   -112580.34849  20539869.84449
  22879232.328 5   -157114.605 5   -103833.73849  22879233.08649
  23070246.242 5   -254876.375 5   -154081.00047  23070244.59447
  21584977.172 6    -38237.109 6    -26880.96548  21584974.15248
  23038907.242 5    -17777.520 5    -11386.08647  23038908.39847
  20157885.000 7    -53554.375 7    -33402.55549  20157885.08249
  23723079.711 5     19760.441 5     12206.30547  23723078.59847
 20  5 16  1 48 35.0000000  0  8G04G08G09G11G16G26G27G31            -0.000084812
  21462027.672 6    -67624.891 6    -42471.44148  21462026.95748
  20539235.898 6   -178880.055 6   -115173.73049  20539236.36749
  22878631.547 6   -160270.414 6   -106292.80549  22878632.15649
  23069212.375 5   -260311.504 5   -158316.16847  23069210.31647
  21584820.453 6    -39061.105 6    -27523.04348  21584817.41848
  23038838.930 5    -18135.418 5    -11664.96947  23038840.39847
  20157660.328 7    -54734.934 7    -34322.46949  20157660.23449
  23723172.633 5     20249.605 5     12587.47347  23723171.51647
 20  5 16  1 48 36.0000000  0  8G04G08G09G11G16G26G27G31            -0.000086132
  21461788.063 6    -68884.668 6    -43453.09048  21461787.17248
  20538602.445 6   -182207.598 6   -117766.61749  20538603.05549
  22878031.328 6   -163425.563 6   -108751.36349  22878031.95749
  23068178.344 5   -265746.453 5   -162551.18447  23068176.07047
  21584663.547 6    -39885.004 6    -28165.03948  21584660.60248
  23038771.078 5    -18493.238 5    -11943.79347  23038772.53947
  20157435.891 7    -55914.898 7    -35241.92649  20157436.03149
  23723266.164 5     20739.117 5     12968.90247  23723264.99247
 20  5 16  1 48 37.0000000  0  8G04G08G09G11G16G26G27G31            -0.000087456
  21461548.461 6    -70143.746 6    -44434.19148  21461547.52348
  20537969.773 6   -185534.441 6   -120358.96549  20537970.21149
  22877431.000 6   -166580.020 6   -111209.38349  22877431.39849
  23067144.328 5   -271181.125 5   -166785.99647  23067141.58647
  21584506.805 6    -40708.703 6    -28806.88748  21584503.73048
  23038702.992 5    -18850.941 5    -12222.52747  23038704.15647
  20157211.406 7    -57094.176 7    -36160.84449  20157211.24649
  23723358.844 5     21229.016 5     13350.62947  23723358.14847
 20  5 16  1 48 38.0000000  0  8G04G08G09G11G16G26G27G31            -0.000088776
  21461309.102 6    -71402.121 6    -45414.74648  21461308.06348
  20537336.320 6   -188860.590 6   -122950.77049  20537337.08249
  22876831.445 5   -169733.793 5   -113666.86349  22876831.30549
  23066109.977 5   -276615.520 5   -171020.58247  23066107.61347
  21584349.859 6    -41532.254 6    -29448.61348  21584347.29348
  23038634.969 5    -19208.527 5    -12501.16447  23038636.45747
  20156987.070 7    -58272.723 7    -37079.19149  20156986.96149
  23723451.859 5     21719.293 5     13732.67247  23723451.30947
 20  5 16  1 48 39.0000000  0  8G04G08G09G11G16G26G27G31            -0.000090097
  21461069.133 6    -72659.813 6    -46394.76648  21461068.87148
  20536703.703 6   -192186.098 6   -125542.07449  20536704.58649
  22876230.789 6   -172886.883 6   -116123.82049  22876231.09449
  23065075.898 5   -282049.688 5   -175255.00047  23065073.43847
  21584193.430 6    -42355.621 6    -30090.19948  21584190.32448
  23038566.750 5    -19566.016 5    -12779.72347  23038568.06347
  20156762.852 7    -59450.609 7    -37997.02349  20156762.94149
  23723545.438 5     22209.914 5     14114.96547  23723544.71147
 20  5 16  1 48 40.0000000  0  8G04G08G09G11G16G26G27G31            -0.000091419
  21460830.414 6    -73916.820 6    -47374.25048  21460829.45748
  20536070.766 6   -195510.930 6   -128132.85249  20536071.62949
  22875631.305 6   -176039.277 6   -118580.23049  22875631.28949
  23064041.180 6   -287483.598 6   -179489.21947  23064039.41447
  21584036.836 6    -43178.828 6    -30731.66848  21584033.53948
  23038498.875 5    -19923.371 5    -13058.18447  23038500.07847
  20156538.977 7    -60627.816 7    -38914.33249  20156539.04349
  23723639.305 5     22700.934 5     14497.57047  23723638.17647
 20  5 16  1 48 41.0000000  0  8G04G08G09G11G16G26G27G31            -0.000092741
  21460591.195 6    -75173.078 6    -48353.15648  21460590.71948
  20535438.484 6   -198835.043 6   -130723.07049  20535439.09049
  22875031.352 6   -179190.918 6   -121036.05949  22875031.44149
  23063007.898 6   -292917.215 6   -183723.20747  23063005.48047
  21583880.477 6    -44001.809 6    -31372.94948  21583877.37148
  23038431.148 5    -20280.559 5    -13336.51247  23038432.19947
  20156314.969 7    -61804.293 7    -39831.06649  20156315.17649
  23723732.516 5     23192.352 5     14880.49647  23723731.59847
 20  5 16  1 48 42.0000000  0  8G04G08G09G11G16G26G27G31            -0.000094061
  21460352.594 6    -76428.566 6    -49331.45748  21460351.61748
  20534805.742 6   -202158.422 6   -133312.72349  20534806.41049
  22874431.891 6   -182341.832 6   -123491.31649  22874431.78549
  23061974.094 6   -298350.516 6   -187956.95747  23061971.46547
  21583723.805 6    -44824.570 6    -32014.06648  21583720.80948
  23038363.078 5    -20637.594 5    -13614.73047  23038364.36347
  20156091.320 7    -62980.023 7    -40747.21949  20156091.28549
  23723826.414 5     23684.238 5     15263.78147  23723825.24247
 20  5 16  1 48 43.0000000  0  8G04G08G09G11G16G26G27G31            -0.000095385
  21460113.453 6    -77683.367 6    -50309.22748  21460112.75448
  20534173.883 6   -205481.105 6   -135901.82049  20534174.20349
  22873832.336 6   -185492.016 6   -125946.00849  22873832.23449
  23060940.031 6   -303783.531 6   -192190.47347  23060937.63347
  21583567.391 6    -45647.133 6    -32655.02748  21583564.05148
  23038295.367 5    -20994.449 5    -13892.79747  23038296.49647
  20155867.625 7    -64155.035 7    -41662.80949  20155868.11349
  23723919.883 5     24176.504 5     15647.34847  23723918.81347
 20  5 16  1 48 44.0000000  0  8G04G08G09G11G16G26G27G31            -0.000096704
  21459874.891 6    -78937.344 6    -51286.34848  21459874.19148
  20533541.367 7   -208803.000 7   -138490.31349  20533541.88349
  22873232.773 5   -188641.395 5   -128400.06649  22873233.24249
  23059906.391 6   -309216.195 6   -196423.71547  23059903.95747
  21583410.695 6    -46469.426 6    -33295.77048  21583407.33248
  23038227.375 5    -21351.117 5    -14170.72747  23038228.52047
  20155644.195 7    -65329.246 7    -42577.77749  20155644.40649
  23724013.500 5     24669.262 5     16031.30947  23724012.87947
 20  5 16  1 48 45.0000000  0  8G04G08G09G11G16G26G27G31            -0.000098026
  21459636.430 6    -80190.488 6    -52262.83248  21459635.78548
  20532909.234 7   -212124.055 7   -141078.14549  20532910.01249
  22872634.094 5   -191789.922 5   -130853.46149  22872633.97349
  23058872.695 6   -314648.438 6   -200656.62947  23058870.46547
  21583254.406 6    -47291.398 6    -33936.27048  21583251.35248
  23038159.875 5    -21707.492 5    -14448.42247  23038160.67647
  20155420.898 7    -66502.633 7    -43492.10549  20155420.98449
  23724107.469 5     25162.520 5     16415.65647  23724107.12547
 20  5 16  1 48 46.0000000  0  8G04G08G09G11G16G26G27G31            -0.000099346
  21459397.930 6    -81442.828 6    -53238.68448  21459397.57848
  20532277.367 6   -215444.367 6   -143665.39849  20532278.27749
  22872035.289 6   -194937.699 6   -133306.27749  22872034.89849
  23057838.844 6   -320080.348 6   -204889.28547  23057836.45747
  21583097.836 6    -48113.098 6    -34576.55148  21583094.78548
  23038091.867 5    -22063.664 5    -14725.96547  23038092.47347
  20155197.758 7    -67675.234 7    -44405.82449  20155197.77749
  23724201.906 5     25656.254 5     16800.39147  23724200.68047
 20  5 16  1 48 47.0000000  0  8G04G08G09G11G16G26G27G31            -0.000100668
  21459160.016 6    -82694.465 6    -54213.98048  21459159.55548
  20531645.977 6   -218763.969 6   -146252.10549  20531646.73049
  22871436.000 5   -198084.695 5   -135758.47849  22871436.21149
  23056805.469 6   -325511.988 6   -209121.73847  23056803.09447
  21582941.477 6    -48934.617 6    -35216.69548  21582938.27748
  23038024.148 5    -22419.707 5    -15003.39547  23038025.23447
  20154974.711 7    -68847.145 7    -45319.00449  20154974.52749
  23724295.414 5     26150.395 5     17185.44547  23724294.62547
 20  5 16  1 48 48.0000000  0  8G04G08G09G11G16G26G27G31            -0.000101986
  21458922.055 6    -83945.344 6    -55188.69948  21458921.31348
  20531014.422 6   -222082.848 6   -148838.24249  20531014.78549
  22870837.813 6   -201231.047 6   -138210.18449  22870837.17249
  23055771.680 6   -330943.344 6   -213353.96547  23055769.77047
  21582785.164 6    -49755.934 6    -35856.68448  21582781.90248
  23037956.547 5    -22775.598 5    -15280.70747  23037957.40247
  20154751.750 7    -70018.316 7    -46231.60249  20154751.45349
  23724389.297 5     26644.980 5     17570.82847  23724388.66047
 20  5 16  1 48 49.0000000  0  8G04G08G09G11G16G26G27G31            -0.000103308
  21458684.172 6    -85195.488 6    -56162.83648  21458683.45348
  20530382.867 6   -225400.957 6   -151423.78949  20530383.28549
  22870239.102 5   -204376.570 5   -140661.24649  22870238.68449
  23054737.922 6   -336374.344 6   -217585.91047  23054735.72747
  21582629.039 6    -50576.977 6    -36496.46148  21582625.89848
  23037888.219 5    -23131.223 5    -15557.81347  23037889.48847
  20154529.023 7    -71188.707 7    -47143.59449  20154529.41449
  23724483.477 5     27139.977 5     17956.54747  23724482.93047
 20  5 16  1 48 50.0000000  0  8G04G08G09G11G16G26G27G31            -0.000104628
  21458446.391 6    -86444.820 6    -57136.34048  21458445.97748
  20529751.531 6   -228718.313 6   -154008.73849  20529752.54749
  22869640.609 5   -207521.305 5   -143111.69149  22869640.30149
  23053704.984 6   -341805.023 6   -221817.60947  23053702.52047
  21582472.938 6    -51397.785 6    -37136.05148  21582469.94148
  23037820.992 5    -23486.727 5    -15834.83647  23037821.80147
  20154306.867 7    -72358.367 7    -48055.01649  20154307.05149
  23724577.609 5     27635.445 5     18342.62147  23724577.03147
 20  5 16  1 48 51.0000000  0  8G04G08G09G11G16G26G27G31            -0.000105949
  21458208.813 6    -87693.320 6    -58109.19548  21458208.01648
  20529120.508 6   -232034.867 6   -156593.06349  20529121.21549
  22869042.203 5   -210665.234 5   -145561.51249  22869042.44149
  23052671.203 6   -347235.273 6   -226048.97347  23052668.99247
  21582316.508 6    -52218.270 6    -37775.39548  21582313.68848
  23037753.023 5    -23841.922 5    -16111.60947  23037754.35547
  20154084.352 7    -73527.168 7    -48965.77349  20154084.52049
  23724672.313 5     28131.418 5     18729.08247  23724671.64147
 20  5 16  1 48 52.0000000  0  8G04G08G09G11G16G26G27G31            -0.000107267
  21457971.844 6    -88940.977 6    -59081.39548  21457970.69148
  20528489.250 6   -235350.570 6   -159176.73049  20528490.56649
  22868444.063 5   -213808.293 5   -148010.64149  22868444.17649
  23051638.242 6   -352665.156 6   -230280.05147  23051635.93847
  21582160.594 6    -53038.410 6    -38414.46548  21582157.33648
  23037685.625 5    -24196.871 5    -16388.20747  23037686.86747
  20153862.250 7    -74695.113 7    -49875.86349  20153862.05149
  23724766.984 5     28627.953 5     19115.98847  23724766.14847
 20  5 16  1 48 53.0000000  0  8G04G08G09G11G16G26G27G31            -0.000108589
  21457733.922 6    -90187.777 6    -60052.92648  21457733.54348
  20527858.945 6   -238665.438 6   -161759.74249  20527859.36749
  22867846.883 5   -216950.453 5   -150459.08249  22867845.89849
  23050605.328 6   -358094.590 6   -234510.78147  23050602.62147
  21582004.578 6    -53858.266 6    -39053.31648  21582001.28548
  23037618.133 5    -24551.516 5    -16664.55147  23037619.50047
  20153640.086 7    -75862.242 7    -50785.31349  20153639.84449
  23724861.148 5     29124.992 5     19503.28147  23724860.48447
 20  5 16  1 48 54.0000000  0  8G04G08G09G11G16G26G27G31            -0.000109907
  21457496.695 6    -91433.770 6    -61023.82848  21457496.30948
  20527228.078 6   -241979.457 6   -164342.09449  20527228.72349
  22867248.266 5   -220091.887 5   -152906.95349  22867248.52349
  23049572.094 6   -363523.664 6   -238741.22747  23049569.66047
  21581848.406 6    -54677.801 6    -39691.91448  21581845.50048
  23037551.211 5    -24905.949 5    -16940.73447  23037551.93447
  20153417.766 7    -77028.570 7    -51694.14149  20153417.85549
  23724955.891 5     29622.563 5     19891.00047  23724955.31647
 20  5 16  1 48 55.0000000  0  8G04G08G09G11G16G26G27G31            -0.000111229
  21457260.414 6    -92678.938 6    -61994.09048  21457259.67648
  20526597.219 6   -245292.742 6   -166923.87949  20526598.36349
  22866651.008 6   -223232.473 6   -155354.16449  22866650.76249
  23048538.797 6   -368952.387 6   -242971.40647  23048536.71947
  21581692.906 6    -55497.059 6    -40330.29748  21581689.71948
  23037483.258 5    -25260.109 5    -17216.69947  23037484.39147
  20153196.008 7    -78194.086 7    -52602.33649  20153196.40649
  23725051.109 5     30120.598 5     20279.07847  23725049.90247
 20  5 16  1 48 56.0000000  0  8G04G08G09G11G16G26G27G31            -0.000112547
  21457023.109 6    -93923.359 6    -62963.77048  21457022.18448
  20525967.188 6   -248605.262 6   -169505.05949  20525967.67649
  22866053.273 6   -226372.313 6   -157800.79349  22866053.73449
  23047505.344 6   -374380.781 6   -247201.31647  23047503.21147
  21581537.227 6    -56316.086 6    -40968.50048  21581533.88748
  23037415.563 5    -25614.113 5    -17492.54747  23037416.84847
  20152974.391 7    -79358.844 7    -53509.93849  20152974.63349
  23725145.586 5     30619.059 5     20667.49647  23725144.55947
 20  5 16  1 48 57.0000000  0  8G04G08G09G11G16G26G27G31            -0.000113867
  21456786.383 6    -95166.902 6    -63932.76648  21456785.93848
  20525336.820 6   -251916.941 6   -172085.59049  20525337.53549
  22865455.906 5   -229511.281 5   -160246.74649  22865456.14849
  23046472.813 6   -379808.730 6   -251430.88747  23046470.29347
  21581380.953 6    -57134.781 6    -41606.44548  21581378.00848
  23037349.117 5    -25967.828 5    -17768.16847  23037349.87147
  20152752.961 7    -80522.766 7    -54416.89149  20152753.25449
  23725241.109 5     31118.086 5     21056.34447  23725239.66847
 20  5 16  1 48 58.0000000  0  8G04G08G09G11G16G26G27G31            -0.000115185
  21456550.094 6    -96409.656 6    -64901.14848  21456549.05948
  20524706.953 6   -255227.832 6   -174665.50449  20524707.37949
  22864859.125 5   -232649.422 5   -162692.04349  22864858.82049
  23045440.234 6   -385236.324 6   -255660.17247  23045437.69547
  21581225.438 6    -57953.180 6    -42244.15648  21581222.26248
  23037281.836 5    -26321.324 5    -18043.62147  23037282.55947
  20152531.750 7    -81685.875 7    -55323.20749  20152531.59049
  23725336.086 5     31617.590 5     21445.57847  23725334.77747
 20  5 16  1 48 59.0000000  0  8G04G08G09G11G16G26G27G31            -0.000116505
  21456313.523 6    -97651.539 6    -65868.85248  21456312.84048
  20524077.148 7   -258537.875 7   -177244.76249  20524077.82449
  22864261.773 6   -235786.742 6   -165136.71149  22864261.85549
  23044407.422 6   -390663.500 6   -259889.14147  23044404.73447
  21581069.555 6    -58771.230 6    -42881.60248  21581066.86348
  23037214.156 5    -26674.496 5    -18318.82847  23037215.33247
  20152310.500 7    -82848.137 7    -56228.87149  20152310.46949
  23725431.375 5     32117.660 5     21835.22747  23725430.09847
 20  5 16  1 49  0.0000000  0  8G04G08G09G11G16G26G27G31            -0.000117823
  21456077.586 6    -98892.547 6    -66835.87148  21456076.48848
  20523447.461 6   -261847.090 6   -179823.37149  20523448.01649
  22863664.938 6   -238923.180 6   -167580.68849  22863664.95349
  23043374.992 6   -396090.238 6   -264117.76247  23043372.33647
  21580913.898 6    -59588.965 6    -43518.80148  21580911.40248
  23037147.102 5    -27027.402 5    -18593.81347  23037148.43047
  20152089.383 7    -84009.551 7    -57133.86349  20152089.55549
  23725526.445 5     32618.230 5     22225.27047  23725524.98047
 20  5 16  1 49  1.0000000  0  8G04G08G09G11G16G26G27G31            -0.000119143
  21455841.258 6   -100132.738 6    -67802.25448  21455840.55548
  20522818.211 7   -265155.484 7   -182401.34049  20522818.41449
  22863068.211 6   -242058.777 6   -170024.00849  22863068.20349
  23042341.484 6   -401516.594 6   -268346.09447  23042339.58247
  21580758.719 6    -60406.363 6    -44155.73048  21580755.24248
  23037080.078 5    -27380.043 5    -18868.60247  23037081.27347
  20151869.008 7    -85170.129 7    -58038.21549  20151868.62549
  23725621.961 5     33119.348 5     22615.74647  23725620.72747
 20  5 16  1 49  2.0000000  0  8G04G08G09G11G16G26G27G31            -0.000120461
  21455605.758 6   -101372.027 6    -68767.93448  21455605.18848
  20522188.273 6   -268463.020 6   -184978.64149  20522189.00449
  22862472.031 6   -245193.461 6   -172466.62549  22862471.73049
  23041309.734 6   -406942.500 6   -272574.07847  23041307.14147
  21580603.000 6    -61223.398 6    -44792.37948  21580600.14848
  23037013.125 5    -27732.375 5    -19143.14547  23037014.20747
  20151647.914 7    -86329.824 7    -58941.87549  20151648.21949
  23725717.102 5     33621.023 5     23006.66447  23725716.48447
 20  5 16  1 49  3.0000000  0  8G04G08G09G11G16G26G27G31            -0.000121778
  21455370.273 6   -102610.523 6    -69732.99648  21455369.42648
  20521559.195 7   -271769.770 7   -187555.32849  20521559.93449
  22861875.445 6   -248327.375 6   -174908.63749  22861875.85249
  23040277.133 6   -412368.047 6   -276801.78147  23040274.94147
  21580447.727 6    -62040.164 6    -45428.82048  21580444.68848
  23036946.102 5    -28084.480 5    -19417.51647  23036947.32447
  20151427.391 7    -87488.734 7    -59844.92249  20151427.54749
  23725812.742 5     34123.168 5     23397.95347  23725811.46147
 20  5 16  1 49  4.0000000  0  8G04G08G09G11G16G26G27G31            -0.000123096
  21455134.336 6   -103848.145 6    -70697.37148  21455133.35548
  20520930.320 7   -275075.680 7   -190131.36749  20520931.32449
  22861279.352 6   -251460.414 6   -177349.96549  22861279.77049
  23039245.102 6   -417793.156 6   -281029.13347  23039242.40647
  21580292.375 6    -62856.602 6    -46065.01248  21580289.51248
  23036878.953 5    -28436.285 5    -19691.65247  23036880.40647
  20151207.023 7    -88646.777 7    -60747.29349  20151207.12949
  23725908.484 5     34625.883 5     23789.68047  23725907.15647
 20  5 16  1 49  5.0000000  0  8G04G08G09G11G16G26G27G31            -0.000124414
  21454899.422 6   -105084.938 6    -71661.10548  21454898.60248
  20520301.281 6   -278380.781 6   -192706.77349  20520302.05949
  22860683.266 6   -254592.637 6   -179790.65649  22860683.36349
  23038212.656 6   -423217.883 6   -285256.19147  23038210.53547
  21580137.250 6    -63672.719 6    -46700.94548  21580134.03148
  23036811.953 5    -28787.859 5    -19965.61347  23036813.32047
  20150987.156 7    -89804.023 7    -61649.04349  20150986.90649
  23726003.836 5     35129.102 5     24181.78947  23726002.80947
 20  5 16  1 49  6.0000000  0  8G04G08G09G11G16G26G27G31            -0.000125732
  21454664.367 6   -106320.844 6    -72624.14848  21454663.14848
  20519672.344 6   -281685.012 6   -195281.49249  20519672.92249
  22860087.445 6   -257723.949 6   -182230.63749  22860087.85549
  23037180.336 6   -428642.164 6   -289482.90647  23037178.04747
  21579981.594 6    -64488.477 6    -47336.60248  21579978.77048
  23036745.063 5    -29139.086 5    -20239.30147  23036746.34047
  20150766.891 7    -90960.371 7    -62550.09449  20150767.00449
  23726099.781 5     35632.879 5     24574.33647  23726098.62947
 20  5 16  1 49  7.0000000  0  8G04G08G09G11G16G26G27G31            -0.000127050
  21454429.070 6   -107555.918 6    -73586.55148  21454427.91048
  20519043.898 6   -284988.430 6   -197855.58649  20519044.34449
  22859491.852 6   -260854.430 6   -184669.98049  22859491.93849
  23036148.484 6   -434066.039 6   -293709.30147  23036145.75047
  21579826.609 6    -65303.914 6    -47972.00848  21579823.51248
  23036678.711 5    -29490.070 5    -20512.79747  23036679.51647
  20150547.117 7    -92115.895 7    -63450.50449  20150546.64549
  23726196.602 5     36137.199 5     24967.30947  23726194.71147
 20  5 16  1 49  8.0000000  0  8G04G08G09G11G16G26G27G31            -0.000128366
  21454194.047 6   -108790.168 6    -74548.30548  21454193.18048
  20518415.398 6   -288291.043 6   -200429.05149  20518416.03549
  22858896.320 6   -263984.109 6   -187108.68849  22858896.33249
  23035116.305 6   -439489.527 6   -297935.39547  23035114.06347
  21579671.242 6    -66119.043 6    -48607.17648  21579668.40248
  23036611.563 5    -29840.781 5    -20786.07847  23036613.35247
  20150327.203 7    -93270.594 7    -64350.27049  20150327.40649
  23726292.047 5     36641.984 5     25360.64147  23726290.70347
 20  5 16  1 49  9.0000000  0  8G04G08G09G11G16G26G27G31            -0.000129684
  21453959.516 6   -110023.609 6    -75509.42648  21453958.84848
  20517787.273 6   -291592.867 6   -203001.89849  20517787.62149
  22858300.648 6   -267112.949 6   -189546.74649  22858301.14149
  23034083.977 6   -444912.648 6   -302161.20347  23034081.93447
  21579516.352 6    -66933.875 6    -49242.10948  21579513.34848
  23036544.984 5    -30191.301 5    -21059.21147  23036546.45747
  20150107.461 7    -94424.504 7    -65249.41849  20150107.38749
  23726388.141 5     37147.277 5     25754.37147  23726387.08247
 20  5 16  1 49 10.0000000  0  8G04G08G09G11G16G26G27G31            -0.000131001
  21453724.898 6   -111256.191 6    -76469.88348  21453724.32048
  20517158.727 6   -294893.801 6   -205574.06649  20517159.64549
  22857705.164 6   -270240.941 6   -191984.14549  22857705.36349
  23033051.844 6   -450335.348 6   -306386.68447  23033049.79347
  21579361.672 6    -67748.363 6    -49876.77348  21579358.31648
  23036478.375 5    -30541.504 5    -21332.09847  23036479.50847
  20149888.234 7    -95577.578 7    -66147.92249  20149888.10549
  23726484.602 5     37653.102 5     26148.52347  23726482.96947
 20  5 16  1 49 11.0000000  0  8G04G08G09G11G16G26G27G31            -0.000132318
  21453490.445 6   -112487.918 6    -77429.67248  21453489.91048
  20516530.836 6   -298193.934 6   -208145.59849  20516531.63749
  22857110.234 6   -273368.102 6   -194420.89149  22857110.60249
  23032020.789 6   -455757.637 6   -310611.84847  23032018.21947
  21579206.523 6    -68562.543 6    -50511.20348  21579203.77048
  23036411.813 5    -30891.453 5    -21604.79747  23036412.89547
  20149668.930 7    -96729.793 7    -67045.75449  20149668.84049
  23726581.250 5     38159.473 5     26543.09847  23726579.81347
 20  5 16  1 49 12.0000000  0  8G04G08G09G11G16G26G27G31            -0.000133635
  21453256.234 6   -113718.824 6    -78388.82448  21453255.35948
  20515902.984 7   -301493.262 7   -210716.49649  20515903.52349
  22856515.313 6   -276494.414 6   -196856.98049  22856515.60549
  23030988.656 6   -461179.543 6   -314836.70747  23030986.25047
  21579051.555 6    -69376.395 6    -51145.37548  21579048.71948
  23036345.602 5    -31241.148 5    -21877.28947  23036346.75447
  20149450.016 7    -97881.215 7    -67942.96149  20149450.07849
  23726677.773 5     38666.324 5     26938.05147  23726676.11347
 20  5 16  1 49 13.0000000  0  8G04G08G09G11G16G26G27G31            -0.000134953
  21453022.180 6   -114948.875 6    -79347.30948  21453021.40648
  20515275.484 7   -304791.762 7   -213286.76249  20515276.18449
  22855920.797 6   -279619.895 6   -199292.42649  22855920.70349
  23029956.789 6   -466601.027 6   -319061.24247  23029954.76247
  21578896.984 6    -70189.965 6    -51779.32448  21578893.66448
  23036278.641 5    -31590.551 5    -22149.55147  23036279.91447
  20149230.727 7    -99031.785 7    -68839.51249  20149230.54749
  23726773.359 5     39173.703 5     27333.41447  23726772.42247
 20  5 16  1 49 14.0000000  0  8G04G08G09G11G16G26G27G31            -0.000136269
  21452788.703 6   -116178.004 6    -80305.07048  21452788.03548
  20514648.070 7   -308089.367 7   -215856.31649  20514648.75849
  22855325.961 6   -282744.449 6   -201727.13749  22855326.54749
  23028925.242 6   -472022.004 6   -323285.37147  23028923.48047
  21578742.375 6    -71003.086 6    -52412.93048  21578739.10548
  23036212.266 5    -31939.637 5    -22421.56347  23036214.17247
  20149011.984 7   -100181.426 7    -69735.33249  20149012.26249
  23726870.500 5     39681.723 5     27729.27047  23726869.05947
 20  5 16  1 49 15.0000000  0  8G04G08G09G11G16G26G27G31            -0.000137585
  21452554.656 6   -117406.285 6    -81262.17248  21452553.94148
  20514020.695 7   -311386.117 7   -218425.21149  20514021.12149
  22854731.578 5   -285868.102 5   -204161.15249  22854731.75449
  23027893.906 6   -477442.590 6   -327509.20347  23027891.71947
  21578587.352 6    -71815.887 6    -53046.27748  21578584.32848
  23036145.703 5    -32288.422 5    -22693.34447  23036147.27047
  20148793.484 7   -101330.238 7    -70630.51249  20148793.77749
  23726967.078 5     40190.238 5     28125.50847  23726965.90247
 20  5 16  1 49 16.0000000  0  8G04G08G09G11G16G26G27G31            -0.000138901
  21452320.969 6   -118633.750 6    -82218.63748  21452320.26248
  20513393.242 7   -314682.090 7   -220993.50449  20513393.89549
  22854137.055 6   -288990.996 6   -206594.57849  22854137.93849
  23026862.430 6   -482862.809 6   -331732.75847  23026860.23847
  21578432.602 6    -72628.406 6    -53679.41448  21578429.64148
  23036079.570 5    -32636.961 5    -22964.92647  23036081.14147
  20148574.977 7   -102478.230 7    -71525.05549  20148575.08249
  23727064.648 5     40699.285 5     28522.15647  23727062.79347
 20  5 16  1 49 17.0000000  0  8G04G08G09G11G16G26G27G31            -0.000140217
  21452087.383 6   -119860.320 6    -83174.41048  21452086.97748
  20512766.141 7   -317977.156 7   -223561.08649  20512766.69549
  22853542.898 5   -292112.961 5   -209027.27749  22853543.91049
  23025831.031 6   -488282.539 6   -335955.91447  23025829.07847
  21578278.172 6    -73440.551 6    -54312.25448  21578275.07448
  23036013.398 5    -32985.176 5    -23236.27347  23036014.61747
  20148356.727 7   -103625.348 7    -72418.91449  20148356.82049
  23727160.711 5     41208.895 5     28919.25447  23727160.25847
 20  5 16  1 49 18.0000000  0  8G04G08G09G11G16G26G27G31            -0.000141531
  21451854.273 6   -121086.082 6    -84129.54748  21451854.07848
  20512139.102 6   -321271.414 6   -226128.04349  20512140.09049
  22852949.266 5   -295234.113 5   -211459.34849  22852949.76649
  23024799.688 6   -493701.902 6   -340178.79747  23024798.11347
  21578123.773 6    -74252.391 6    -54944.85548  21578120.61748
  23035947.008 5    -33333.176 5    -23507.44147  23035948.74247
  20148138.477 7   -104771.664 7    -73312.14849  20148138.86749
  23727257.930 5     41719.000 5     29316.73847  23727257.18847
 20  5 16  1 49 19.0000000  0  8G04G08G09G11G16G26G27G31            -0.000142849
  21451621.102 6   -122310.980 6    -85084.01248  21451620.77748
  20511512.734 7   -324564.848 7   -228694.35249  20511513.28149
  22852355.438 5   -298354.438 5   -213890.77049  22852355.85549
  23023768.523 6   -499120.859 6   -344401.35247  23023766.52047
  21577968.945 6    -75063.934 6    -55577.22748  21577966.02748
  23035880.656 5    -33680.875 5    -23778.37547  23035882.26247
  20147920.820 7   -105917.129 7    -74204.72349  20147920.71549
  23727355.352 5     42229.637 5     29714.63747  23727354.25847
 20  5 16  1 49 20.0000000  0  8G04G08G09G11G16G26G27G31            -0.000144163
  21451388.320 6   -123535.039 6    -86037.83248  21451387.31348
  20510885.906 7   -327857.465 7   -231260.02749  20510886.56349
  22851762.352 6   -301473.902 6   -216321.52349  22851762.23049
  23022737.156 6   -504539.418 6   -348623.59847  23022735.70347
  21577814.484 6    -75875.172 6    -56209.35948  21577811.60248
  23035814.641 5    -34028.328 5    -24049.12547  23035816.65247
  20147702.641 7   -107061.785 7    -75096.66049  20147702.47749
  23727452.250 6     42740.781 6     30112.92647  23727451.34047
 20  5 16  1 49 21.0000000  0  8G04G08G09G11G16G26G27G31            -0.000145479
  21451155.328 6   -124758.211 6    -86990.94948  21451154.94948
  20510259.680 7   -331149.184 7   -233825.00449  20510260.42649
  22851168.688 6   -304592.473 6   -218751.57449  22851169.26249
  23021706.344 6   -509957.473 6   -352845.45747  23021704.63747
  21577660.141 6    -76686.004 6    -56841.18448  21577657.04348
  23035748.313 5    -34375.484 5    -24319.63547  23035750.01247
  20147485.234 7   -108205.508 7    -75987.87149  20147485.10249
  23727550.359 6     43252.516 6     30511.67247  23727548.98847
 20  5 16  1 49 22.0000000  0  8G04G08G09G11G16G26G27G31            -0.000146793
  21450922.961 6   -125980.539 6    -87943.40648  21450922.57848
  20509633.695 7   -334440.074 7   -236389.33649  20509633.87149
  22850575.492 6   -307710.172 6   -221180.95349  22850575.96549
  23020675.563 6   -515375.133 6   -357067.01647  23020673.68447
  21577506.273 6    -77496.512 6    -57472.74648  21577503.24648
  23035682.484 5    -34722.266 5    -24589.85947  23035684.15247
  20147267.906 7   -109348.414 7    -76878.44549  20147267.68849
  23727647.109 5     43764.809 5     30910.85247  23727646.28147
 20  5 16  1 49 23.0000000  0  8G04G08G09G11G16G26G27G31            -0.000148109
  21450690.656 6   -127201.953 6    -88895.15248  21450690.06648
  20509007.547 7   -337730.090 7   -238952.98449  20509007.35549
  22849982.133 6   -310827.016 6   -223609.66049  22849982.72349
  23019645.055 6   -520792.355 6   -361288.23047  23019642.64147
  21577352.148 6    -78306.684 6    -58104.04748  21577349.05548
  23035616.344 5    -35068.805 5    -24859.88347  23035618.22747
  20147050.633 7   -110490.461 7    -77768.35949  20147050.52349
  23727745.047 6     44277.605 6     31310.43847  23727743.78147
 20  5 16  1 49 24.0000000  0  8G04G08G09G11G16G26G27G31            -0.000149422
  21450458.203 6   -128422.461 6    -89846.20348  21450457.58648
  20508381.539 7   -341019.223 7   -241515.94149  20508382.16049
  22849388.625 6   -313942.910 6   -226037.62949  22849389.78149
  23018614.211 6   -526209.082 6   -365509.05947  23018611.95747
  21577197.797 6    -79116.445 6    -58735.03148  21577194.84848
  23035551.398 5    -35415.004 5    -25129.65247  23035552.54747
  20146832.914 7   -111631.578 7    -78657.53949  20146833.21549
  23727842.875 6     44791.031 6     31710.50447  23727841.57847
 20  5 16  1 49 25.0000000  0  8G04G08G09G11G16G26G27G31            -0.000150738
  21450225.969 6   -129642.168 6    -90796.62548  21450225.64548
  20507755.602 7   -344307.590 7   -244078.30949  20507756.13749
  22848796.305 6   -317058.016 6   -228464.98849  22848796.98449
  23017583.047 6   -531625.457 6   -369729.60547  23017580.88347
  21577044.070 6    -79925.930 6    -59365.80148  21577041.07048
  23035485.008 5    -35760.957 5    -25399.23047  23035486.59447
  20146616.188 7   -112771.906 7    -79546.10549  20146616.59849
  23727940.469 6     45304.973 6     32110.97747  23727939.27347
 20  5 16  1 49 26.0000000  0  8G04G08G09G11G16G26G27G31            -0.000152052
  21449994.063 6   -130861.145 6    -91746.48048  21449993.18048
  20507130.078 6   -347595.242 6   -246640.11749  20507130.57849
  22848203.602 6   -320172.387 6   -230891.77049  22848204.14849
  23016552.695 6   -537041.523 6   -373949.91047  23016550.59847
  21576889.867 6    -80735.223 6    -59996.42248  21576887.12148
  23035419.586 5    -36106.781 5    -25668.70747  23035420.76647
  20146399.289 7   -113911.516 7    -80434.11749  20146399.67249
  23728037.953 5     45819.277 5     32511.72747  23728037.05947
 20  5 16  1 49 27.0000000  0  8G04G08G09G11G16G26G27G31            -0.000153366
  21449762.438 6   -132079.289 6    -92695.68848  21449761.71948
  20506504.875 7   -350882.074 7   -249201.28549  20506505.29749
  22847611.086 6   -323285.949 6   -233317.92249  22847611.68449
  23015521.859 6   -542457.172 6   -378169.89547  23015520.03547
  21576735.625 6    -81544.227 6    -60626.81648  21576733.39848
  23035353.344 5    -36452.316 5    -25937.95347  23035355.01647
  20146182.445 7   -115050.320 7    -81321.49649  20146182.39849
  23728136.344 5     46334.125 5     32912.90247  23728134.82447
 20  5 16  1 49 28.0000000  0  8G04G08G09G11G16G26G27G31            -0.000154680
  21449530.875 6   -133296.629 6    -93644.27048  21449530.19948
  20505879.531 6   -354168.074 6   -251761.80549  20505880.09449
  22847018.773 6   -326398.621 6   -235743.38349  22847019.39549
  23014491.508 6   -547872.469 6   -382389.61347  23014489.43847
  21576582.234 6    -82352.891 6    -61256.94548  21576579.18848
  23035287.750 5    -36797.598 5    -26207.00047  23035289.35947
  20145966.117 7   -116188.281 7    -82208.21949  20145966.28949
  23728234.438 5     46849.434 5     33314.43847  23728233.10947
 20  5 16  1 49 29.0000000  0  8G04G08G09G11G16G26G27G31            -0.000155994
  21449299.148 6   -134513.082 6    -94592.14848  21449298.77048
  20505254.094 7   -357453.266 7   -254321.69949  20505254.58649
  22846426.945 6   -329510.492 6   -238168.21949  22846426.94549
  23013461.469 6   -553287.352 6   -386608.99647  23013459.10547
  21576428.336 6    -83161.242 6    -61886.83248  21576425.32448
  23035221.844 5    -37142.598 5    -26475.83247  23035223.80947
  20145749.625 7   -117325.418 7    -83094.29749  20145750.01249
  23728332.719 5     47365.316 5     33716.42247  23728331.26247
 20  5 16  1 49 30.0000000  0  8G04G08G09G11G16G26G27G31            -0.000157307
  21449068.039 6   -135728.688 6    -95539.37948  21449067.44148
  20504629.133 7   -360737.605 7   -256880.92249  20504629.77749
  22845834.477 6   -332621.469 6   -240592.35549  22845835.41449
  23012430.906 6   -558701.789 6   -390828.03947  23012428.76647
  21576274.445 6    -83969.285 6    -62516.47748  21576271.40648
  23035156.805 5    -37487.328 5    -26744.46147  23035158.18447
  20145533.695 7   -118461.699 7    -83979.70749  20145533.55949
  23728430.977 5     47881.746 5     34118.83247  23728429.94147
 20  5 16  1 49 31.0000000  0  8G04G08G09G11G16G26G27G31            -0.000158621
  21448836.930 6   -136943.500 6    -96485.98848  21448836.23848
  20504004.359 7   -364021.164 7   -259439.54349  20504004.78949
  22845242.867 6   -335731.680 6   -243015.89549  22845243.14149
  23011400.813 6   -564115.863 6   -395046.79747  23011398.74647
  21576121.117 6    -84777.004 6    -63145.86748  21576117.95348
  23035091.172 5    -37831.801 5    -27012.88747  23035092.24247
  20145317.398 7   -119597.195 7    -84864.52049  20145317.37549
  23728529.414 5     48398.672 5     34521.63747  23728528.32847
 20  5 16  1 49 32.0000000  0  8G04G08G09G11G16G26G27G31            -0.000159933
  21448605.773 6   -138157.441 6    -97431.91048  21448605.21948
  20503379.734 7   -367303.879 7   -261997.50049  20503379.96149
  22844651.438 6   -338841.016 6   -245438.75849  22844651.73449
  23010370.695 6   -569529.555 6   -399265.25847  23010368.52047
  21575966.914 6    -85584.398 6    -63775.00448  21575964.43448
  23035025.188 5    -38176.023 5    -27281.10947  23035026.91047
  20145101.266 7   -120731.809 7    -85748.62549  20145101.48849
  23728627.617 5     48916.094 5     34924.82447  23728626.28547
 20  5 16  1 49 33.0000000  0  8G04G08G09G11G16G26G27G31            -0.000161249
  21448374.734 6   -139370.555 6    -98377.19548  21448374.48848
  20502755.102 7   -370585.762 7   -264554.80949  20502755.79349
  22844059.484 6   -341949.480 6   -247860.93849  22844060.06349
  23009340.336 6   -574942.805 6   -403483.37147  23009337.97747
  21575813.617 6    -86391.492 6    -64403.91848  21575811.05548
  23034960.148 5    -38519.984 5    -27549.13747  23034961.56647
  20144885.656 7   -121865.660 7    -86632.15249  20144885.94149
  23728726.422 5     49434.035 5     35328.41447  23728724.88347
 20  5 16  1 49 34.0000000  0  8G04G08G09G11G16G26G27G31            -0.000162560
  21448143.961 6   -140582.793 6    -99321.79348  21448143.66448
  20502130.688 6   -373866.777 6   -267111.44549  20502130.82049
  22843468.227 6   -345057.137 6   -250282.48849  22843468.18849
  23008309.656 6   -580355.613 6   -407701.14547  23008308.39847
  21575660.000 6    -87198.258 6    -65032.55948  21575657.35948
  23034894.109 5    -38863.617 5    -27816.89847  23034896.50047
  20144670.039 7   -122998.590 7    -87514.95349  20144670.19549
  23728825.008 5     49952.543 5     35732.44147  23728824.05547
 20  5 16  1 49 35.0000000  0  8G04G08G09G11G16G26G27G31            -0.000163874
  21447914.242 6   -141794.141 6   -100265.70348  21447913.52348
  20501506.391 6   -377146.895 6   -269667.38349  20501507.18449
  22842876.656 6   -348163.848 6   -252703.30549  22842877.43049
  23007280.414 6   -585767.965 6   -411918.56347  23007278.36747
  21575506.688 6    -88004.629 6    -65660.90248  21575503.76248
  23034829.477 5    -39206.934 5    -28084.42647  23034830.83647
  20144454.656 7   -124130.660 7    -88397.08649  20144454.60949
  23728923.992 5     50471.660 5     36136.94147  23728922.71547
 20  5 16  1 49 36.0000000  0  8G04G08G09G11G16G26G27G31            -0.000165186
  21447683.359 6   -143004.523 6   -101208.85248  21447682.85248
  20500882.516 7   -380426.082 7   -272222.59449  20500883.15649
  22842286.109 6   -351269.590 6   -255123.35949  22842286.44149
  23006250.367 6   -591179.797 6   -416135.56347  23006248.43047
  21575353.227 6    -88810.570 6    -66288.91048  21575350.40248
  23034763.734 5    -39549.895 5    -28351.66847  23034765.64547
  20144239.531 7   -125261.785 7    -89278.48049  20144239.55949
  23729022.758 5     50991.387 5     36541.91447  23729021.32047
 20  5 16  1 49 37.0000000  0  8G04G08G09G11G16G26G27G31            -0.000166500
  21447453.344 6   -144214.082 6   -102151.37548  21447452.62948
  20500258.516 7   -383704.473 7   -274777.18049  20500259.74249
  22841695.188 6   -354374.527 6   -257542.79349  22841695.60549
  23005220.336 6   -596591.242 6   -420352.28147  23005218.66447
  21575199.984 6    -89616.203 6    -66916.68048  21575197.08248
  23034698.711 5    -39892.586 5    -28618.71147  23034700.66847
  20144024.359 7   -126392.082 7    -90159.23849  20144024.37949
  23729121.344 6     51511.609 6     36947.28547  23729120.11347
 20  5 16  1 49 38.0000000  0  8G04G08G09G11G16G26G27G31            -0.000167810
  21447223.305 6   -145422.840 6   -103093.26648  21447222.55948
  20499635.094 7   -386982.059 7   -277331.14549  20499635.78149
  22841104.531 6   -357478.641 6   -259961.58249  22841104.74249
  23004191.000 6   -602002.305 6   -424568.69947  23004188.84447
  21575046.750 6    -90421.555 6    -67544.22748  21575043.93848
  23034633.578 5    -40235.023 5    -28885.54747  23034635.66447
  20143809.211 7   -127521.590 7    -91039.37549  20143809.55949
  23729220.797 5     52032.320 5     37353.03947  23729219.74247
 20  5 16  1 49 39.0000000  0  8G04G08G09G11G16G26G27G31            -0.000169125
  21446993.367 6   -146630.840 6   -104034.56648  21446992.66048
  20499011.398 7   -390258.926 7   -279884.55149  20499012.14549
  22840514.008 6   -360582.016 6   -262379.80149  22840514.27049
  23003160.953 6   -607413.039 6   -428784.85947  23003159.44147
  21574893.313 6    -91226.676 6    -68171.59848  21574890.89148
  23034568.672 5    -40577.305 5    -29152.25847  23034570.24247
  20143594.617 7   -128650.348 7    -91918.92249  20143594.41449
  23729320.047 5     52553.465 5     37759.12547  23729318.77047
 20  5 16  1 49 40.0000000  0  8G04G08G09G11G16G26G27G31            -0.000170435
  21446763.602 6   -147838.027 6   -104975.23048  21446763.01648
  20498388.195 7   -393535.004 7   -282437.33649  20498388.48049
  22839923.453 6   -363684.570 6   -264797.37549  22839923.73049
  23002131.484 6   -612823.418 6   -433000.73847  23002130.02047
  21574740.570 6    -92031.531 6    -68798.76248  21574737.30548
  23034503.492 5    -40919.348 5    -29418.78547  23034505.29747
  20143379.641 7   -129778.305 7    -92797.85549  20143379.97749
  23729418.961 5     53075.102 5     38165.59047  23729418.12147
 20  5 16  1 49 41.0000000  0  8G04G08G09G11G16G26G27G31            -0.000171747
  21446534.383 6   -149044.355 6   -105915.23048  21446533.21148
  20497764.969 7   -396810.230 7   -284989.45749  20497765.57049
  22839333.922 6   -366786.250 6   -267214.27049  22839333.41049
  23001102.156 6   -618233.363 6   -437216.27747  23001100.48847
  21574587.063 6    -92836.035 6    -69425.64848  21574584.52748
  23034438.555 5    -41261.082 5    -29685.07847  23034439.93447
  20143165.539 7   -130905.414 7    -93676.12149  20143165.69949
  23729518.500 5     53597.309 5     38572.49247  23729517.19547
 20  5 16  1 49 42.0000000  0  8G04G08G09G11G16G26G27G31            -0.000173058
  21446304.586 6   -150249.840 6   -106854.56648  21446304.14148
  20497141.852 7   -400084.621 7   -287540.92649  20497142.49249
  22838743.453 6   -369887.117 6   -269630.53549  22838743.38749
  23000073.063 6   -623642.875 6   -441431.47747  23000071.44947
  21574433.961 6    -93640.199 6    -70052.27348  21574431.46548
  23034373.734 5    -41602.555 5    -29951.16047  23034374.99247
  20142951.117 7   -132031.684 7    -94553.73449  20142951.41849
  23729618.023 5     54119.984 5     38979.76247  23729616.91847
 20  5 16  1 49 43.0000000  0  8G04G08G09G11G16G26G27G31            -0.000174372
  21446075.359 6   -151454.484 6   -107793.25048  21446074.77048
  20496518.813 7   -403358.195 7   -290091.77349  20496519.10549
  22838153.320 6   -372987.078 6   -272046.08249  22838153.83649
  22999043.477 6   -629052.012 6   -445646.39147  22999042.12547
  21574281.047 6    -94444.063 6    -70678.66048  21574278.14148
  23034308.477 5    -41943.785 5    -30217.05147  23034310.11747
  20142737.203 7   -133157.129 7    -95430.70349  20142737.24649
  23729717.445 5     54643.223 5     39387.48047  23729716.46547
 20  5 16  1 49 44.0000000  0  8G04G08G09G11G16G26G27G31            -0.000175682
  21445846.258 6   -152658.277 6   -108731.27048  21445845.59048
  20495896.180 7   -406630.941 7   -292641.96149  20495896.34849
  22837563.531 6   -376086.223 6   -274461.00049  22837563.77049
  22998014.117 6   -634460.715 6   -449860.96147  22998012.51647
  21574128.375 6    -95247.625 6    -71304.80948  21574125.42648
  23034243.570 5    -42284.707 5    -30482.70747  23034245.44147
  20142523.070 7   -134281.734 7    -96307.02049  20142523.04349
  23729816.797 5     55166.980 5     39795.60547  23729816.48447
 20  5 16  1 49 45.0000000  0  8G04G08G09G11G16G26G27G31            -0.000176994
  21445617.461 6   -153861.230 6   -109668.63348  21445617.16048
  20495273.516 7   -409902.840 7   -295191.49649  20495273.73849
  22836973.852 6   -379184.539 6   -276875.27749  22836974.14149
  22996985.594 6   -639869.000 6   -454075.20747  22996983.16047
  21573975.508 6    -96050.840 6    -71930.69148  21573972.84848
  23034179.078 5    -42625.387 5    -30748.17647  23034180.61747
  20142309.031 7   -135405.531 7    -97182.70349  20142309.35249
  23729917.063 5     55691.254 5     40204.12947  23729915.93447
 20  5 16  1 49 46.0000000  0  8G04G08G09G11G16G26G27G31            -0.000178303
  21445388.977 6   -155063.273 6   -110605.28948  21445387.87948
  20494651.070 7   -413173.855 7   -297740.34449  20494651.80149
  22836384.742 6   -382281.957 6   -279288.85249  22836385.02349
  22995956.250 6   -645276.863 6   -458289.12947  22995953.94547
  21573822.898 6    -96853.707 6    -72556.30148  21573819.80148
  23034114.055 5    -42965.734 5    -31013.37547  23034115.45747
  20142095.414 7   -136528.395 7    -98057.66049  20142095.12949
  23730016.891 5     56216.109 5     40613.11347  23730015.93047
 20  5 16  1 49 47.0000000  0  8G04G08G09G11G16G26G27G31            -0.000179615
  21445160.047 6   -156264.484 6   -111541.30148  21445159.20748
  20494028.516 7   -416444.016 7   -300288.51649  20494028.96949
  22835795.156 6   -385378.473 6   -281701.71949  22835795.60949
  22994927.203 6   -650684.258 6   -462502.68447  22994925.13347
  21573670.063 6    -97656.176 6    -73181.60248  21573667.03548
  23034049.680 5    -43305.758 5    -31278.33647  23034051.10947
  20141882.016 7   -137650.434 7    -98931.98049  20141881.96549
  23730116.828 5     56741.545 5     41022.53547  23730115.77347
 20  5 16  1 49 48.0000000  0  8G04G08G09G11G16G26G27G31            -0.000180925
  21444931.398 6   -157464.699 6   -112476.54348  21444930.89848
  20493406.539 7   -419713.242 7   -302835.96149  20493406.82449
  22835206.203 6   -388474.047 6   -284113.85549  22835206.85549
  22993898.234 6   -656091.109 6   -466715.81647  22993896.30147
  21573517.375 6    -98458.258 6    -73806.60548  21573514.43848
  23033984.555 5    -43645.402 5    -31542.99647  23033986.37947
  20141668.625 7   -138771.516 7    -99805.55149  20141668.81649
  23730216.945 5     57267.555 5     41432.39547  23730215.66447
 20  5 16  1 49 49.0000000  0  8G04G08G09G11G16G26G27G31            -0.000182236
  21444703.578 6   -158664.094 6   -113411.13748  21444702.96148
  20492784.508 7   -422981.633 7   -305382.76249  20492784.98849
  22834617.359 6   -391568.754 6   -286525.31649  22834618.03949
  22992869.391 6   -661497.559 6   -470928.62947  22992867.51247
  21573364.836 6    -99259.980 6    -74431.32448  21573361.78948
  23033919.742 5    -43984.781 5    -31807.44547  23033921.55547
  20141455.656 7   -139891.762 7   -100678.47749  20141455.33249
  23730317.430 5     57794.164 5     41842.73047  23730316.53547
 20  5 16  1 49 50.0000000  0  8G04G08G09G11G16G26G27G31            -0.000183546
  21444475.828 6   -159862.590 6   -114345.03548  21444474.71548
  20492162.641 6   -426249.168 6   -307928.89149  20492162.80549
  22834028.734 6   -394662.598 6   -288936.10549  22834029.18449
  22991840.594 6   -666903.566 6   -475141.10247  22991838.79347
  21573212.227 6   -100061.359 6    -75055.77348  21573209.41448
  23033855.828 5    -44323.855 5    -32071.67247  23033857.37947
  20141242.398 7   -141011.141 7   -101550.71949  20141242.32849
  23730417.859 5     58321.281 5     42253.47347  23730416.58247
 20  5 16  1 49 51.0000000  0  8G04G08G09G11G16G26G27G31            -0.000184856
  21444247.813 6   -161060.258 6   -115278.28548  21444246.98848
  20491541.391 7   -429515.914 7   -310474.41049  20491541.93849
  22833439.961 6   -397755.570 6   -291346.21549  22833440.42249
  22990811.852 6   -672309.188 6   -479353.28547  22990810.06347
  21573060.125 6   -100862.445 6    -75680.00048  21573056.86748
  23033791.156 5    -44662.680 5    -32335.68447  23033792.80147
  20141029.820 7   -142129.688 7   -102422.31649  20141029.85949
  23730518.063 5     58848.930 5     42664.62547  23730516.72347
 20  5 16  1 49 52.0000000  0  8G04G08G09G11G16G26G27G31            -0.000186165
  21444019.930 6   -162257.191 6   -116210.96148  21444019.20348
  20490919.609 7   -432781.930 7   -313019.35249  20490920.06649
  22832851.938 6   -400847.828 6   -293755.76649  22832851.78949
  22989783.188 6   -677714.473 6   -483565.19147  22989781.48447
  21572907.461 6   -101663.281 6    -76304.03148  21572904.44548
  23033726.984 5    -45001.297 5    -32599.54347  23033728.25047
  20140816.875 7   -143247.500 7   -103293.33649  20140816.94149
  23730619.063 5     59377.016 5     43076.12547  23730617.37947
 20  5 16  1 49 53.0000000  0  8G04G08G09G11G16G26G27G31            -0.000187477
  21443792.023 6   -163453.281 6   -117142.97748  21443791.55948
  20490298.094 7   -436047.090 7   -315563.63749  20490298.96149
  22832263.188 6   -403939.234 6   -296164.65649  22832263.55949
  22988754.836 6   -683119.367 6   -487776.78947  22988752.85547
  21572755.266 6   -102463.813 6    -76927.82048  21572752.18848
  23033662.688 5    -45339.703 5    -32863.24247  23033664.38747
  20140604.164 7   -144364.488 7   -104163.71949  20140604.10249
  23730719.008 5     59905.648 5     43488.04346  23730717.54746
 20  5 16  1 49 54.0000000  0  8G04G08G09G11G16G26G27G31            -0.000188786
  21443564.797 6   -164648.539 6   -118074.34048  21443564.02048
  20489677.102 6   -439311.434 6   -318107.28149  20489677.44549
  22831675.234 6   -407029.777 6   -298572.87549  22831675.64549
  22987726.289 6   -688523.824 6   -491988.05547  22987724.60947
  21572603.258 6   -103264.039 6    -77551.37148  21572599.94548
  23033598.578 5    -45677.805 5    -33126.68847  23033599.76247
  20140391.813 7   -145480.641 7   -105033.44149  20140391.89149
  23730819.563 5     60434.778 5     43900.34247  23730818.70747
 20  5 16  1 49 55.0000000  0  8G04G08G09G11G16G26G27G31            -0.000190096
  21443337.297 6   -165842.887 6   -119004.99648  21443336.53948
  20489056.203 6   -442574.910 6   -320650.24649  20489056.44149
  22831087.609 6   -410119.449 6   -300980.41849  22831087.67649
  22986697.828 6   -693927.832 6   -496198.97747  22986696.29347
  21572450.734 6   -104063.883 6    -78174.62948  21572447.70348
  23033534.094 5    -46015.598 5    -33389.89147  23033535.39847
  20140179.695 7   -146595.910 7   -105902.48449  20140179.63749
  23730920.289 5     60964.469 5     44313.07846  23730919.70346
 20  5 16  1 49 56.0000000  0  8G04G08G09G11G16G26G27G31            -0.000191404
  21443110.344 6   -167036.426 6   -119935.03148  21443109.50448
  20488435.242 6   -445837.578 6   -323192.58649  20488435.71149
  22830500.016 6   -413208.273 6   -303387.28949  22830499.82849
  22985669.883 6   -699331.449 6   -500409.59447  22985667.66447
  21572298.367 6   -104863.414 6    -78797.64848  21572295.59048
  23033469.727 5    -46353.109 5    -33652.88747  23033471.22347
  20139967.898 7   -147710.367 7   -106770.90249  20139967.66849
  23731021.406 4     61494.688 4     44726.22746  23731020.43846
 20  5 16  1 49 57.0000000  0  8G04G08G09G11G16G26G27G31            -0.000192715
  21442883.180 6   -168229.109 6   -120864.39848  21442882.35948
  20487814.313 6   -449099.422 6   -325734.27749  20487815.05549
  22829912.164 6   -416296.297 6   -305793.54749  22829912.17649
  22984641.633 6   -704734.668 6   -504619.89847  22984639.90647
  21572146.664 6   -105662.656 6    -79420.43848  21572143.68048
  23033405.266 5    -46690.379 5    -33915.71147  23033406.91447
  20139755.930 7   -148824.020 7   -107638.68449  20139755.66449
  23731121.922 5     62025.359 5     45139.73446  23731121.68046
 20  5 16  1 49 58.0000000  0  8G04G08G09G11G16G26G27G31            -0.000194021
  21442656.680 6   -169421.043 6   -121793.19148  21442655.46548
  20487194.086 6   -452360.504 6   -328275.39149  20487194.09049
  22829324.219 6   -419383.535 6   -308199.17249  22829324.79749
  22983613.555 6   -710137.559 6   -508829.94147  22983611.77747
  21571994.563 6   -106461.637 6    -80043.01648  21571991.69548
  23033341.148 5    -47027.461 5    -34178.39147  23033342.77747
  20139544.211 7   -149936.891 7   -108505.85949  20139543.99649
  23731223.797 5     62556.520 5     45553.63746  23731222.69146
 20  5 16  1 49 59.0000000  0  8G04G08G09G11G16G26G27G31            -0.000195332
  21442429.734 6   -170612.211 6   -122721.37948  21442428.92248
  20486573.414 6   -455620.836 6   -330815.90649  20486573.77349
  22828737.047 6   -422469.965 6   -310604.18449  22828737.36749
  22982585.297 6   -715540.109 6   -513039.72347  22982583.77347
  21571842.320 6   -107260.363 6    -80665.40248  21571839.56648
  23033276.906 5    -47364.371 5    -34440.92247  23033278.99647
  20139332.031 7   -151049.023 7   -109372.45349  20139332.49249
  23731325.367 5     63088.184 5     45967.92646  23731323.69546
 20  5 16  1 50  0.0000000  0  8G04G08G09G11G16G26G27G31            -0.000196640
  21442202.938 6   -171802.531 6   -123648.89148  21442202.30548
  20485953.469 6   -458880.332 6   -333355.77049  20485953.76649
  22828150.063 6   -425555.535 6   -313008.53549  22828150.41449
  22981557.117 6   -720942.227 6   -517249.16047  22981555.27047
  21571690.711 6   -108058.777 6    -81287.55148  21571687.54748
  23033212.727 5    -47700.961 5    -34703.19947  23033214.66447
  20139120.922 7   -152160.309 7   -110238.38749  20139120.75849
  23731426.445 4     63620.344 4     46382.59046  23731424.85246
 20  5 16  1 50  1.0000000  0  8G04G08G09G11G16G26G27G31            -0.000197948
  21441977.016 6   -172992.008 6   -124575.74648  21441976.34448
  20485332.859 7   -462139.023 7   -335895.01249  20485333.59849
  22827562.969 6   -428640.352 6   -315412.30149  22827563.25449
  22980529.641 6   -726343.973 6   -521458.30547  22980527.48847
  21571539.086 6   -108856.910 6    -81909.47748  21571535.35948
  23033149.430 5    -48037.320 5    -34965.29747  23033150.91447
  20138909.352 7   -153270.797 7   -111103.71549  20138909.45749
  23731528.109 4     64153.063 4     46797.66846  23731526.77746
 20  5 16  1 50  2.0000000  0  8G04G08G09G11G16G26G27G31            -0.000199255
  21441750.984 6   -174180.730 6   -125502.03148  21441749.69948
  20484713.469 7   -465396.941 7   -338433.64849  20484713.65249
  22826976.195 6   -431724.332 6   -317815.37949  22826976.09049
  22979501.461 6   -731745.359 6   -525667.17247  22979499.69147
  21571386.984 6   -109654.770 6    -82531.19548  21571383.88748
  23033084.797 5    -48373.457 5    -35227.21147  23033086.55147
  20138698.336 7   -154380.496 7   -111968.41449  20138698.03549
  23731629.617 5     64686.148 5     47213.05146  23731628.57446
 20  5 16  1 50  3.0000000  0  8G04G08G09G11G16G26G27G31            -0.000200565
  21441524.813 6   -175368.578 6   -126427.64148  21441523.84048
  20484093.375 7   -468654.051 7   -340971.66849  20484093.80149
  22826389.344 6   -434807.500 6   -320217.84049  22826389.49649
  22978474.266 6   -737146.320 6   -529875.71147  22978471.96547
  21571234.859 6   -110452.301 6    -83152.64548  21571232.03148
  23033021.508 5    -48709.328 5    -35488.91047  23033022.99647
  20138487.258 7   -155489.352 7   -112832.45749  20138487.28949
  23731730.016 4     65219.805 4     47628.88746  23731729.70346
 20  5 16  1 50  4.0000000  0  8G04G08G09G11G16G26G27G31            -0.000201872
  21441298.727 6   -176555.676 6   -127352.64148  21441297.79348
  20483473.656 6   -471910.367 6   -343509.04749  20483474.21949
  22825802.508 6   -437889.836 6   -322619.67249  22825803.28949
  22977445.664 6   -742546.898 6   -534083.94147  22977444.08647
  21571082.797 6   -111249.551 6    -83773.87148  21571080.02348
  23032956.953 4    -49045.016 4    -35750.43846  23032958.95346
  20138276.648 7   -156597.445 7   -113695.89849  20138276.67649
  23731832.594 5     65754.012 5     48045.14546  23731831.17646
 20  5 16  1 50  5.0000000  0  8G04G08G09G11G16G26G27G31            -0.000203182
  21441073.109 6   -177741.945 6   -128277.00848  21441071.84848
  20482854.070 7   -475165.855 7   -346045.78549  20482854.54749
  22825216.578 6   -440971.309 6   -325020.83649  22825216.60949
  22976418.375 6   -747947.129 6   -538291.92247  22976416.56347
  21570931.867 6   -112046.535 6    -84394.87947  21570928.82447
  23032893.680 3    -49380.363 3    -36011.70346  23032895.28546
  20138065.828 7   -157704.715 7   -114558.68449  20138065.62949
  23731934.320 5     66288.559 5     48461.67646  23731933.14846
 20  5 16  1 50  6.0000000  0  8G04G08G09G11G16G26G27G31            -0.000204489
  21440847.617 6   -178927.234 6   -129200.61348  21440846.68848
  20482234.906 7   -478420.441 7   -348581.82049  20482235.35549
  22824630.086 6   -444051.930 6   -327421.32449  22824630.60549
  22975390.914 6   -753346.836 6   -542499.48847  22975388.91847
  21570780.234 6   -112843.043 6    -85015.53548  21570777.22748
  23032829.367 5    -49715.371 5    -36272.75446  23032831.92646
  20137855.188 7   -158811.063 7   -115420.77349  20137855.08649
  23732035.133 4     66823.633 4     48878.61746  23732035.35546
 20  5 16  1 50  7.0000000  0  8G04G08G09G11G16G26G27G31            -0.000205797
  21440622.219 6   -180111.695 6   -130123.57448  21440621.14148
  20481615.945 7   -481674.184 7   -351117.21149  20481616.39849
  22824043.969 6   -447131.625 6   -329821.08649  22824044.97349
  22974363.641 6   -758746.117 6   -546706.72347  22974361.82047
  21570628.656 6   -113639.273 6    -85635.97748  21570626.01248
  23032766.031 5    -50050.113 5    -36533.65647  23032768.25847
  20137644.883 7   -159916.559 7   -116282.21149  20137644.70749
  23732137.750 5     67359.434 5     49296.14147  23732137.02047
 20  5 16  1 50  8.0000000  0  8G04G08G09G11G16G26G27G31            -0.000207104
  21440396.992 6   -181295.402 6   -131045.94548  21440396.05948
  20480996.922 6   -484927.191 6   -353652.02749  20480997.14149
  22823458.477 6   -450210.559 6   -332220.24649  22823458.63749
  22973336.031 6   -764145.066 6   -550913.70347  22973334.18047
  21570477.180 6   -114435.238 6    -86256.21948  21570474.35248
  23032702.344 5    -50384.676 5    -36794.42247  23032704.14847
  20137434.672 7   -161021.332 7   -117143.08249  20137434.44549
  23732238.492 5     67895.637 5     49713.97347  23732238.80147
 20  5 16  1 50  9.0000000  0  8G04G08G09G11G16G26G27G31            -0.000208412
  21440171.789 6   -182478.266 6   -131967.66448  21440171.18048
  20480377.953 6   -488179.379 6   -356186.19949  20480378.14849
  22822872.398 6   -453288.707 6   -334618.79749  22822872.99249
  22972308.977 6   -769543.645 6   -555120.38347  22972306.91447
  21570326.078 6   -115230.926 6    -86876.23448  21570323.00048
  23032638.703 5    -50719.031 5    -37054.98847  23032640.68847
  20137224.617 7   -162125.277 7   -118003.31349  20137224.77749
  23732341.523 4     68432.324 4     50132.17246  23732341.14846
 20  5 16  1 50 10.0000000  0  8G04G08G09G11G16G26G27G31            -0.000209717
  21439947.047 6   -183660.348 6   -132888.77048  21439945.80948
  20479759.211 7   -491430.738 7   -358719.72749  20479759.34449
  22822286.805 6   -456365.992 6   -337016.67649  22822287.28149
  22971281.398 6   -774941.805 6   -559326.73047  22971279.52747
  21570174.695 6   -116026.313 6    -87496.03948  21570171.50448
  23032575.492 6    -51053.063 6    -37315.28547  23032577.17247
  20137014.406 7   -163228.410 7   -118862.89849  20137014.66849
  23732443.531 2     68969.680 2     50550.91046  23732443.16846
 20  5 16  1 50 11.0000000  0  8G04G08G09G11G16G26G27G31            -0.000211025
  21439722.563 6   -184841.621 6   -133809.23848  21439721.06648
  20479140.516 6   -494681.340 6   -361252.66449  20479141.16849
  22821701.266 6   -459442.520 6   -339413.96549  22821701.87549
  22970254.453 6   -780339.648 6   -563532.85247  22970252.53947
  21570023.453 6   -116821.465 6    -88115.64548  21570019.95748
  23032511.961 5    -51386.949 5    -37575.44947  23032513.50847
  20136805.047 7   -164330.793 7   -119721.89549  20136804.57449
  23732546.672 2     69507.344 2     50969.84046  23732545.67246
 20  5 16  1 50 12.0000000  0  8G04G08G09G11G16G26G27G31            -0.000212332
  21439497.633 6   -186022.082 6   -134729.07848  21439496.53948
  20478522.063 7   -497931.148 7   -363784.97749  20478522.60949
  22821115.844 6   -462518.223 6   -341810.62549  22821116.35949
  22969227.492 6   -785737.094 6   -567738.66447  22969225.23447
  21569871.992 6   -117616.313 6    -88735.00848  21569869.14148
  23032448.078 5    -51720.531 5    -37835.35246  23032450.35246
  20136595.422 7   -165432.340 7   -120580.23849  20136595.32449
  23732649.586 2     70045.609 2     51389.24246  23732647.87946
 20  5 16  1 50 13.0000000  0  8G04G08G09G11G16G26G27G31            -0.000213638
  21439273.344 6   -187201.734 6   -135648.27748  21439271.87548
  20477903.992 7   -501180.172 7   -366316.67649  20477904.31649
  22820530.453 5   -465593.148 5   -344206.67649  22820531.38749
  22968200.047 6   -791134.172 6   -571944.15647  22968198.28547
  21569720.656 6   -118410.852 6    -89354.12948  21569717.93448
  23032384.336 5    -52053.898 5    -38095.10246  23032386.88346
  20136386.023 7   -166533.102 7   -121437.96549  20136385.52749
  23732752.039 3     70584.289 3     51808.93846  23732750.13746
 20  5 16  1 50 14.0000000  0  8G04G08G09G11G16G26G27G31            -0.000214945
  21439048.891 6   -188380.586 6   -136566.86348  21439047.61748
  20477285.727 7   -504428.395 7   -368847.75449  20477286.05549
  22819945.758 6   -468667.164 6   -346602.01649  22819946.52349
  22967173.750 6   -796530.820 6   -576149.32047  22967171.32847
  21569569.602 6   -119205.094 6    -89973.02048  21569566.30948
  23032320.797 4    -52387.020 4    -38354.67246  23032323.18046
  20136176.758 7   -167633.063 7   -122295.06349  20136176.40249
  23732854.703 4     71123.430 4     52229.03946  23732852.91446
 20  5 16  1 50 15.0000000  0  8G04G08G09G11G16G26G27G31            -0.000216251
  21438824.805 6   -189558.590 6   -137484.79348  21438823.70748
  20476667.820 7   -507675.781 7   -371378.18849  20476668.44949
  22819361.211 5   -471740.418 5   -348996.75849  22819361.85249
  22966146.289 6   -801927.113 6   -580354.21547  22966144.50447
  21569418.430 6   -119999.051 6    -90591.68448  21569415.87948
  23032257.758 4    -52719.914 4    -38614.04746  23032260.19946
  20135967.383 7   -168732.203 7   -123151.53949  20135967.19949
  23732957.117 4     71663.055 4     52649.53146  23732955.78946
 20  5 16  1 50 16.0000000  0  8G04G08G09G11G16G26G27G31            -0.000217558
  21438600.570 6   -190735.801 6   -138402.10548  21438599.62948
  20476049.875 7   -510922.344 7   -373907.98049  20476050.14849
  22818776.078 5   -474812.813 5   -351390.82849  22818776.82849
  22965119.195 6   -807322.977 6   -584558.78947  22965117.85547
  21569267.727 6   -120792.711 6    -91210.10547  21569264.35247
  23032194.266 1    -53052.512 1    -38873.16046  23032196.93046
  20135758.297 7   -169830.508 7   -124007.37149  20135757.80549
  23733060.961 1     72203.285 1     53070.50446  23733058.37946
 20  5 16  1 50 17.0000000  0  8G04G08G09G11G16G26G27G31            -0.000218864
  21438376.648 6   -191912.125 6   -139318.72348  21438375.62948
  20475432.750 6   -514168.051 6   -376437.10949  20475432.82849
  22818191.469 5   -477884.305 5   -353784.20349  22818192.26249
  22964093.211 6   -812718.410 6   -588763.03947  22964091.22747
  21569116.820 6   -121585.996 6    -91828.23047  21569113.71147
  23032131.047 1    -53384.824 1    -39132.07446  23032133.53546
  20135549.672 6   -170927.961 6   -124862.54349  20135549.27049
  23733163.508 1     72744.094 1     53491.91446  23733161.63346
 20  5 16  1 50 18.0000000  0  8G04G08G09G11G16G26G27G31            -0.000220169
  21438153.031 6   -193087.645 6   -140234.70748  21438151.65248
  20474815.234 7   -517412.988 7   -378965.63749  20474815.28949
  22817607.703 5   -480955.051 5   -356176.99249  22817608.09449
  22963066.336 6   -818113.469 6   -592966.98847  22963064.02747
  21568965.672 6   -122378.996 6    -92446.15247  21568962.85547
  23032068.594 2    -53716.941 2    -39390.82446  23032070.48446
  20135340.609 6   -172024.660 6   -125717.11749  20135340.77749
  23733267.305 1     73285.250 1     53913.61746  23733264.71546
 20  5 16  1 50 19.0000000  0  8G04G08G09G11G16G26G27G31            -0.000221476
  21437929.648 6   -194262.320 6   -141150.04348  21437928.33648
  20474197.734 7   -520657.090 7   -381493.50849  20474197.92249
  22817023.695 5   -484024.902 5   -358569.08249  22817024.03149
  22962039.664 6   -823508.129 6   -597170.62547  22962037.53547
  21568815.234 6   -123171.676 6    -93063.83247  21568812.10947
  23032005.070 2    -54048.770 2    -39649.41446  23032007.11346
  20135132.383 6   -173120.512 6   -126571.02749  20135132.01249
  23733370.531 1     73827.023 1     54335.76646  23733368.03146
 20  5 16  1 50 20.0000000  0  8G04G08G09G11G16G26G27G31            -0.000222780
  21437706.430 6   -195436.230 6   -142064.77748  21437705.11348
  20473580.602 7   -523900.473 7   -384020.82049  20473580.99249
  22816439.375 5   -487093.972 5   -360960.56549  22816439.80549
  22961013.227 6   -828902.434 6   -601373.96947  22961011.71147
  21568663.914 6   -123964.137 6    -93681.33647  21568660.56647
  23031942.445 2    -54380.352 2    -39907.80546  23031944.38746
  20134923.961 6   -174215.605 6   -127424.35249  20134923.68049
  23733473.773 1     74369.238 1     54758.23846  23733471.12146
 20  5 16  1 50 21.0000000  0  8G04G08G09G11G16G26G27G31            -0.000224087
  21437482.742 6   -196609.336 6   -142978.89148  21437481.77348
  20472963.258 7   -527143.070 7   -386547.51649  20472963.75049
  22815855.227 5   -490162.293 5   -363351.46149  22815855.77349
  22959986.555 6   -834296.371 6   -605577.02347  22959984.90247
  21568513.109 6   -124756.301 6    -94298.61347  21568509.97747
  23031879.453 3    -54711.695 3    -40166.05146  23031881.11746
  20134715.500 6   -175309.891 6   -128277.03149  20134715.49249
  23733576.617 1     74911.914 1     55181.10246  23733574.80146
 20  5 16  1 50 22.0000000  0  8G04G08G09G11G16G26G27G31            -0.000225391
  21437259.883 6   -197781.629 6   -143892.38348  21437258.43048
  20472346.602 7   -530384.848 7   -389073.58249  20472346.68849
  22815271.594 5   -493229.723 5   -365741.67649  22815272.13749
  22958960.508 6   -839689.918 6   -609779.78147  22958958.66047
  21568362.672 6   -125548.188 6    -94915.67247  21568359.25447
  23031816.555 3    -55042.848 3    -40424.11746  23031818.34046
  20134507.391 6   -176403.367 6   -129129.09849  20134507.21949
  23733679.531 1     75455.141 1     55604.41846  23733677.91446
 20  5 16  1 50 23.0000000  0  8G04G08G09G11G16G26G27G31            -0.000226698
  21437036.906 6   -198953.094 6   -144805.21548  21437035.93048
  20471729.914 7   -533625.828 7   -391599.02049  20471730.27749
  22814688.305 5   -496296.371 5   -368131.27749  22814688.42249
  22957934.508 6   -845083.070 6   -613982.23447  22957932.48847
  21568212.156 6   -126339.750 6    -95532.46547  21568208.85947
  23031753.156 3    -55373.746 3    -40681.95745  23031755.40245
  20134299.695 6   -177496.047 6   -129980.53549  20134299.50849
  23733782.406 2     75998.805 2     56028.05146  23733781.06646
 20  5 16  1 50 24.0000000  0  8G04G08G09G11G16G26G27G31            -0.000228001
  21436814.266 6   -200123.777 6   -145717.43848  21436813.16048
  20471113.164 7   -536866.020 7   -394123.84449  20471113.49249
  22814105.461 5   -499362.191 5   -370520.22749  22814105.19149
  22956907.906 6   -850475.824 6   -618184.38347  22956906.52347
  21568061.617 6   -127131.047 6    -96149.05947  21568058.49647
  23031689.844 2    -55704.379 2    -40939.59445  23031692.36745
  20134091.852 6   -178587.938 6   -130831.35549  20134091.58249
  23733886.375 1     76542.906 1     56452.02046  23733884.60946
 20  5 16  1 50 25.0000000  0  8G04G08G09G11G16G26G27G31            -0.000229307
  21436591.852 6   -201293.680 6   -146629.04748  21436590.57448
  20470496.570 7   -540105.438 7   -396648.06349  20470497.18049
  22813521.703 5   -502427.266 5   -372908.58649  22813521.84049
  22955881.711 6   -855868.250 6   -622386.28147  22955880.39847
  21567910.766 6   -127922.086 6    -96765.44947  21567907.48047
  23031628.070 2    -56034.832 2    -41197.08645  23031629.38345
  20133884.266 6   -179679.074 6   -131681.59449  20133884.20749
  23733990.273 2     77087.516 2     56876.38746  23733988.12546
 20  5 16  1 50 26.0000000  0  8G04G08G09G11G16G26G27G31            -0.000230612
  21436368.617 6   -202462.711 6   -147539.97348  21436367.94948
  20469880.484 7   -543343.984 7   -399171.60549  20469880.91449
  22812938.516 5   -505491.449 5   -375296.26249  22812939.00849
  22954855.758 6   -861260.234 6   -626587.82847  22954854.55947
  21567760.500 6   -128712.789 6    -97381.58647  21567757.24647
  23031564.195 2    -56364.949 2    -41454.30546  23031566.18846
  20133676.656 6   -180769.348 6   -132531.16049  20133676.59449
  23734093.477 2     77632.637 2     57301.16446  23734092.20346
 20  5 16  1 50 27.0000000  0  8G04G08G09G11G16G26G27G31            -0.000231916
  21436146.398 6   -203630.957 6   -148450.28948  21436145.93448
  20469264.242 7   -546581.762 7   -401694.54349  20469264.83649
  22812355.555 5   -508554.820 5   -377683.30149  22812355.86349
  22953829.703 6   -866651.844 6   -630789.08247  22953827.98447
  21567609.773 6   -129503.188 6    -97997.48047  21567606.75847
  23031501.484 3    -56694.863 3    -41711.39546  23031503.66846
  20133469.219 6   -181858.824 6   -133380.10249  20133469.12549
  23734197.625 3     78178.313 3     57726.37546  23734195.40646
 20  5 16  1 50 28.0000000  0  8G04G08G09G11G16G26G27G31            -0.000233219
  21435924.484 6   -204798.445 6   -149360.01648  21435923.66048
  20468648.547 7   -549818.785 7   -404216.90249  20468648.43049
  22811773.109 5   -511617.430 5   -380069.75449  22811773.06349
  22952803.773 6   -872043.129 6   -634990.08647  22952802.00447
  21567459.031 6   -130293.395 6    -98613.23047  21567456.47747
  23031438.039 2    -57024.633 2    -41968.37946  23031441.04746
  20133262.109 7   -182947.570 7   -134228.47749  20133262.35949
  23734302.070 2     78724.328 2     58151.84845  23734299.46545
 20  5 16  1 50 29.0000000  0  8G04G08G09G11G16G26G27G31            -0.000234526
  21435702.219 6   -205965.090 6   -150269.09448  21435701.40648
  20468032.438 6   -553054.969 6   -406738.60549  20468033.10549
  22811190.000 5   -514679.172 5   -382455.52749  22811190.67649
  22951777.805 6   -877433.977 6   -639190.75047  22951776.23847
  21567309.203 6   -131083.242 6    -99228.68847  21567306.05947
  23031376.023 1    -57354.102 1    -42225.08646  23031378.07846
  20133055.258 6   -184035.465 6   -135076.18849  20133055.14549
  23734405.938 1     79271.043 1     58577.88745  23734403.81645
 20  5 16  1 50 30.0000000  0  8G04G08G09G11G16G26G27G31            -0.000235828
  21435480.500 6   -207130.844 6   -151177.48048  21435479.94548
  20467416.867 7   -556290.324 7   -409259.66449  20467417.17249
  22810607.195 5   -517740.039 5   -384840.62549  22810608.00449
  22950752.141 6   -882824.418 6   -643391.08647  22950750.42247
  21567158.750 6   -131872.746 6    -99843.87547  21567155.92247
  23031313.391 2    -57683.230 2    -42481.52045  23031315.65245
  20132848.445 6   -185122.508 6   -135923.23049  20132848.33649
  23734510.133 1     79818.188 1     59004.21945  23734507.63345
 20  5 16  1 50 31.0000000  0  8G04G08G09G11G16G26G27G31            -0.000237133
  21435259.195 6   -208295.777 6   -152085.22748  21435258.24248
  20466801.500 7   -559524.898 7   -411780.10949  20466801.85249
  22810024.844 5   -520800.113 5   -387225.10249  22810025.35249
  22949726.484 6   -888214.434 6   -647591.09847  22949724.82847
  21567009.102 6   -132661.988 6   -100458.87947  21567005.45747
  23031251.227 2    -58012.105 2    -42737.77345  23031253.18845
  20132641.563 6   -186208.766 6   -136769.67249  20132641.94949
  23734614.078 1     80365.793 1     59430.88345  23734611.81645
 20  5 16  1 50 32.0000000  0  8G04G08G09G11G16G26G27G31            -0.000238436
  21435037.008 6   -209459.926 6   -152992.35248  21435036.63748
  20466186.063 7   -562758.609 7   -414299.88749  20466186.71949
  22809443.086 5   -523859.340 5   -389608.91049  22809443.52049
  22948700.977 6   -893604.055 6   -651790.80547  22948698.95347
  21566858.539 6   -133450.883 6   -101073.60547  21566855.57847
  23031188.820 2    -58340.762 2    -42993.84845  23031190.69145
  20132435.039 6   -187294.180 6   -137615.45349  20132434.75849
  23734718.188 2     80913.996 2     59858.03945  23734716.64845
 20  5 16  1 50 33.0000000  0  8G04G08G09G11G16G26G27G31            -0.000239740
  21434815.617 6   -210623.203 6   -153898.79348  21434815.27748
  20465570.742 7   -565991.508 7   -416819.02049  20465571.25849
  22808861.656 6   -526917.699 6   -391992.05149  22808862.00449
  22947675.523 6   -898993.215 6   -655990.14847  22947673.49647
  21566708.672 6   -134239.453 6   -101688.08648  21566705.58648
  23031125.813 5    -58669.113 5    -43249.74246  23031128.69546
  20132228.578 7   -188378.777 7   -138460.59449  20132228.81349
  23734821.602 4     81462.480 4     60285.43046  23734820.74246
 20  5 16  1 50 34.0000000  0  8G04G08G09G11G16G26G27G31            -0.000241043
  21434594.750 6   -211785.727 6   -154804.65248  21434594.24648
  20464955.789 7   -569223.668 7   -419337.57849  20464956.35249
  22808279.383 6   -529975.313 6   -394374.60249  22808279.96949
  22946649.789 6   -904382.094 6   -660189.28947  22946648.12147
  21566558.781 6   -135027.809 6   -102302.39548  21566555.85548
  23031063.336 5    -58997.301 5    -43505.57047  23031065.60247
  20132022.695 7   -189462.629 7   -139305.14849  20132022.66049
  23734925.547 5     82011.621 5     60713.35946  23734925.02046
 20  5 16  1 50 35.0000000  0  8G04G08G09G11G16G26G27G31            -0.000242348
  21434373.258 6   -212947.461 6   -155709.90648  21434372.98848
  20464340.688 6   -572455.023 6   -421855.52049  20464341.65249
  22807697.688 6   -533032.105 6   -396756.51649  22807698.18049
  22945624.797 6   -909770.578 6   -664388.11747  22945622.57447
  21566408.836 6   -135815.867 6   -102916.46948  21566405.96948
  23031000.688 5    -59325.230 5    -43761.15647  23031003.29347
  20131816.313 7   -190545.691 7   -140149.09049  20131816.44549
  23735030.266 5     82561.219 5     61141.63346  23735029.47746
 20  5 16  1 50 36.0000000  0  8G04G08G09G11G16G26G27G31            -0.000243650
  21434152.891 6   -214108.363 6   -156614.50848  21434152.46548
  20463725.734 6   -575685.594 6   -424372.84849  20463726.66049
  22807116.234 6   -536088.105 6   -399137.82049  22807116.68449
  22944598.680 6   -915158.684 6   -668586.64147  22944597.37547
  21566258.828 6   -136603.645 6   -103530.31648  21566256.12548
  23030938.500 5    -59652.941 5    -44016.53547  23030940.47747
  20131610.234 7   -191627.938 7   -140992.39849  20131610.68849
  23735134.438 5     83111.367 5     61570.31646  23735133.93846
 20  5 16  1 50 37.0000000  0  8G04G08G09G11G16G26G27G31            -0.000244953
  21433931.867 6   -215268.461 6   -157518.48048  21433931.56648
  20463111.305 7   -578915.355 7   -426889.54349  20463111.93449
  22806535.477 6   -539143.285 6   -401518.47349  22806535.40649
  22943573.875 6   -920546.422 6   -672784.87947  22943572.12547
  21566109.070 6   -137391.121 6   -104143.93448  21566106.18048
  23030876.000 5    -59980.426 5    -44271.70747  23030878.02047
  20131404.688 7   -192709.379 7   -141835.08649  20131404.74249
  23735239.641 5     83661.949 5     61999.31647  23735238.37547
 20  5 16  1 50 38.0000000  0  8G04G08G09G11G16G26G27G31            -0.000246256
  21433711.656 6   -216427.715 6   -158421.80148  21433710.91048
  20462497.078 7   -582144.266 7   -429405.58249  20462497.63749
  22805953.289 6   -542197.574 6   -403898.44149  22805954.22349
  22942548.805 6   -925933.723 6   -676982.76647  22942546.62947
  21565959.188 6   -138178.285 6   -104757.30548  21565956.76648
  23030813.820 5    -60307.594 5    -44526.62547  23030815.96147
  20131199.203 7   -193790.008 7   -142677.13349  20131198.87549
  23735344.633 5     84213.117 5     62428.78147  23735343.44547
 20  5 16  1 50 39.0000000  0  8G04G08G09G11G16G26G27G31            -0.000247561
  21433491.000 6   -217586.188 6   -159324.50048  21433490.62148
  20461882.805 7   -585372.434 7   -431921.03549  20461883.38349
  22805372.500 6   -545251.105 6   -406277.82049  22805373.40649
  22941523.680 6   -931320.664 6   -681180.37547  22941522.12547
  21565809.242 6   -138965.195 6   -105370.48448  21565806.91848
  23030752.094 5    -60634.586 5    -44781.41047  23030753.52047
  20130993.430 7   -194869.852 7   -143518.56649  20130993.92249
  23735449.164 5     84764.688 5     62858.56347  23735447.91047
 20  5 16  1 50 40.0000000  0  8G04G08G09G11G16G26G27G31            -0.000248861
  21433270.492 6   -218743.816 6   -160226.55548  21433270.24648
  20461268.469 6   -588599.758 6   -434435.83649  20461269.35249
  22804791.578 6   -548303.785 6   -408656.53549  22804791.85249
  22940498.164 6   -936707.207 6   -685377.67647  22940496.88347
  21565659.836 6   -139751.770 6   -105983.39848  21565657.49648
  23030689.438 5    -60961.313 5    -45036.00047  23030690.91447
  20130788.164 7   -195948.875 7   -144359.36349  20130788.34849
  23735554.563 4     85316.793 4     63288.77347  23735553.69547
 20  5 16  1 50 41.0000000  0  8G04G08G09G11G16G26G27G31            -0.000250164
  21433050.508 6   -219900.605 6   -161127.94948  21433049.73048
  20460654.648 7   -591826.234 7   -436949.96949  20460655.39149
  22804210.742 6   -551355.578 6   -411034.55949  22804211.27749
  22939473.680 6   -942093.293 6   -689574.62947  22939471.60547
  21565509.891 6   -140538.020 6   -106596.06348  21565507.60248
  23030627.508 5    -61287.734 5    -45290.34847  23030629.08247
  20130583.008 7   -197027.051 7   -145199.50849  20130583.13349
  23735659.547 5     85869.434 5     63719.41047  23735658.48047
 20  5 16  1 50 42.0000000  0  8G04G08G09G11G16G26G27G31            -0.000251465
  21432830.805 6   -221056.539 6   -162028.67648  21432829.87148
  20460040.828 7   -595051.879 7   -439463.46149  20460041.63749
  22803630.281 6   -554406.586 6   -413411.96549  22803631.18849
  22938448.406 6   -947478.992 6   -693771.28147  22938447.25447
  21565360.633 6   -141323.953 6   -107208.48048  21565357.89548
  23030565.766 5    -61613.902 5    -45544.50447  23030567.00447
  20130377.773 7   -198104.395 7   -146038.99249  20130377.98449
  23735764.922 5     86422.609 5     64150.46147  23735763.66447
 20  5 16  1 50 43.0000000  0  8G04G08G09G11G16G26G27G31            -0.000252769
  21432611.008 6   -222211.637 6   -162928.75448  21432610.16448
  20459427.078 6   -598276.695 6   -441976.29749  20459427.79349
  22803050.359 6   -557456.691 6   -415788.66849  22803050.30549
  22937423.977 6   -952864.270 6   -697967.59847  22937422.48047
  21565210.961 6   -142109.566 6   -107820.64548  21565208.23048
  23030503.203 5    -61939.785 5    -45798.44147  23030504.64547
  20130173.219 7   -199180.945 7   -146877.86749  20130173.22349
  23735870.742 5     86976.254 5     64581.87547  23735869.28147
 20  5 16  1 50 44.0000000  0  8G04G08G09G11G16G26G27G31            -0.000254070
  21432391.398 6   -223365.996 6   -163828.25848  21432390.27048
  20458813.383 6   -601500.754 6   -444488.55949  20458814.27049
  22802469.328 6   -560506.055 6   -418164.79749  22802470.84449
  22936399.445 6   -958249.203 6   -702163.65247  22936397.48847
  21565061.484 6   -142894.934 6   -108432.62148  21565058.73048
  23030441.430 5    -62265.492 5    -46052.25047  23030442.65647
  20129968.281 7   -200256.727 7   -147716.13749  20129968.65249
  23735975.930 5     87530.379 5     65013.66447  23735974.44547
 20  5 16  1 50 45.0000000  0  8G04G08G09G11G16G26G27G31            -0.000255373
  21432171.992 6   -224519.535 6   -164727.12148  21432170.70348
  20458200.016 6   -604724.043 6   -447000.21149  20458200.55949
  22801889.070 6   -563554.566 6   -420540.25849  22801890.07049
  22935374.531 6   -963633.715 6   -706359.37147  22935372.75847
  21564912.320 6   -143680.004 6   -109044.36748  21564909.54348
  23030379.570 5    -62590.930 5    -46305.84847  23030381.11747
  20129763.805 7   -201331.688 7   -148553.76649  20129764.05149
  23736080.820 5     88085.020 5     65445.85547  23736080.35547
 20  5 16  1 50 46.0000000  0  8G04G08G09G11G16G26G27G31            -0.000256674
  21431952.555 6   -225672.234 6   -165625.32448  21431951.86348
  20457586.758 6   -607946.500 6   -449511.21149  20457587.63749
  22801309.617 6   -566602.289 6   -422915.10249  22801310.18449
  22934349.750 6   -969017.848 6   -710554.80147  22934348.21547
  21564762.891 6   -144464.777 6   -109655.87948  21564760.04748
  23030317.602 5    -62916.113 5    -46559.24247  23030318.96947
  20129559.750 7   -202405.832 7   -149390.76649  20129559.66849
  23736187.133 5     88640.160 5     65878.42647  23736185.82447
 20  5 16  1 50 47.0000000  0  8G04G08G09G11G16G26G27G31            -0.000257977
  21431733.203 6   -226824.094 6   -166522.88348  21431732.22348
  20456974.023 6   -611168.133 6   -452021.57449  20456974.60949
  22800729.930 6   -569649.152 6   -425289.28549  22800730.03149
  22933325.148 6   -974401.574 6   -714749.91847  22933323.65647
  21564613.516 6   -145249.230 6   -110267.14148  21564610.77748
  23030256.711 5    -63241.023 5    -46812.42247  23030257.06347
  20129355.391 7   -203479.141 7   -150227.10949  20129355.20749
  23736293.148 5     89195.809 5     66311.40247  23736291.49647
 20  5 16  1 50 48.0000000  0  8G04G08G09G11G16G26G27G31            -0.000259277
  21431514.008 6   -227975.156 6   -167419.80948  21431513.40248
  20456361.430 6   -614388.977 6   -454531.32049  20456361.69949
  22800150.250 6   -572695.152 6   -427662.78949  22800151.16849
  22932301.453 6   -979784.914 6   -718944.72747  22932299.30947
  21564463.914 6   -146033.391 6   -110878.17248  21564461.77048
  23030194.352 5    -63565.719 5    -47065.43447  23030195.25047
  20129151.344 7   -204551.691 7   -151062.86349  20129150.93449
  23736398.789 5     89751.941 5     66744.75447  23736397.41047
 20  5 16  1 50 49.0000000  0  8G04G08G09G11G16G26G27G31            -0.000260578
  21431294.992 6   -229125.469 6   -168316.16048  21431294.19948
  20455748.273 7   -617609.082 7   -457040.48849  20455749.02749
  22799570.813 6   -575740.488 6   -430035.78549  22799571.24249
  22931276.445 6   -985167.930 6   -723139.28947  22931274.76647
  21564315.328 6   -146817.355 6   -111489.05948  21564312.32448
  23030132.352 5    -63890.227 5    -47318.29747  23030133.44947
  20128947.266 7   -205623.500 7   -151898.04349  20128947.22349
  23736504.844 5     90308.527 5     67178.46147  23736503.21947
 20  5 16  1 50 50.0000000  0  8G04G08G09G11G16G26G27G31            -0.000261879
  21431076.555 6   -230274.941 6   -169211.85248  21431075.52348
  20455135.352 6   -620828.344 6   -459549.01249  20455135.94149
  22798991.375 6   -578784.891 6   -432408.04749  22798992.03149
  22930252.625 6   -990550.508 6   -727333.49247  22930250.73447
  21564166.148 6   -147600.953 6   -112099.65248  21564162.84048
  23030070.148 5    -64214.449 5    -47570.93447  23030071.94547
  20128743.664 7   -206694.453 7   -152732.55149  20128743.38349
  23736610.547 5     90865.648 5     67612.57847  23736609.18847
 20  5 16  1 50 51.0000000  0  8G04G08G09G11G16G26G27G31            -0.000263180
  21430857.602 6   -231423.543 6   -170106.86348  21430857.19948
  20454523.547 7   -624046.773 7   -462056.87949  20454523.80149
  22798411.961 6   -581828.453 6   -434779.65249  22798412.87149
  22929228.656 6   -995932.660 6   -731527.37547  22929226.24247
  21564016.930 6   -148384.234 6   -112710.00848  21564014.70748
  23030008.813 5    -64538.395 5    -47823.35547  23030010.49247
  20128539.758 7   -207764.566 7   -153566.40649  20128539.75449
  23736716.688 5     91423.273 5     68047.07846  23736715.41046
 20  5 16  1 50 52.0000000  0  8G04G08G09G11G16G26G27G31            -0.000264481
  21430639.344 6   -232571.320 6   -171001.24648  21430638.91448
  20453911.039 6   -627264.395 6   -464564.11349  20453911.31349
  22797832.961 6   -584871.180 6   -437150.60549  22797834.30149
  22928204.086 6  -1001314.402 6   -735720.94147  22928202.44147
  21563867.859 6   -149167.227 6   -113320.12948  21563865.13348
  23029947.422 5    -64862.055 5    -48075.55547  23029948.67247
  20128336.258 7   -208833.867 7   -154399.62949  20128336.47749
  23736822.969 5     91981.426 5     68481.98846  23736821.59446
 20  5 16  1 50 53.0000000  0  8G04G08G09G11G16G26G27G31            -0.000265781
  21430421.383 6   -233718.328 6   -171895.01648  21430420.77748
  20453298.867 7   -630481.215 7   -467070.72749  20453299.53549
  22797254.141 6   -587913.121 6   -439520.94949  22797254.96149
  22927179.719 6  -1006695.785 6   -739914.22347  22927178.36747
  21563719.398 6   -149949.941 6   -113930.03948  21563716.32448
  23029885.867 5    -65185.512 5    -48327.60247  23029886.79347
  20128132.570 7   -209902.395 7   -155232.24649  20128133.21149
  23736929.484 5     92540.055 5     68917.28946  23736928.28546
 20  5 16  1 50 54.0000000  0  8G04G08G09G11G16G26G27G31            -0.000267082
  21430203.367 6   -234864.535 6   -172788.17248  21430202.14848
  20452686.992 7   -633697.273 7   -469576.75449  20452687.45749
  22796675.633 6   -590954.254 6   -441890.66449  22796676.67649
  22926156.117 6  -1012076.785 6   -744107.20747  22926154.45747
  21563570.023 6   -150732.379 6   -114539.73048  21563567.49248
  23029824.516 5    -65508.746 5    -48579.47747  23029825.47747
  20127929.516 7   -210970.152 7   -156064.26249  20127929.64149
  23737035.672 5     93099.148 5     69352.94147  23737034.39147
 20  5 16  1 50 55.0000000  0  8G04G08G09G11G16G26G27G31            -0.000268383
  21429985.063 6   -236009.926 6   -173680.68048  21429984.26648
  20452074.969 6   -636912.551 6   -472082.16049  20452075.66449
  22796096.984 6   -593994.574 6   -444259.74649  22796097.63349
  22925131.875 6  -1017457.441 6   -748299.92847  22925130.10547
  21563421.430 6   -151514.539 6   -115149.21948  21563418.88348
  23029763.016 5    -65831.750 5    -48831.16447  23029763.98847
  20127726.406 7   -212037.098 7   -156895.64849  20127727.00849
  23737142.258 5     93658.770 5     69789.00047  23737140.84447
 20  5 16  1 50 56.0000000  0  8G04G08G09G11G16G26G27G31            -0.000269682
  21429767.188 6   -237154.453 6   -174572.52348  21429766.39848
  20451462.945 6   -640126.949 6   -474586.88349  20451463.84049
  22795518.695 6   -597034.012 6   -446628.13749  22795519.05549
  22924108.086 6  -1022837.625 6   -752492.27747  22924106.51647
  21563272.367 6   -152296.348 6   -115758.41048  21563269.87148
  23029701.883 5    -66154.465 5    -49082.62947  23029702.46147
  20127523.938 7   -213103.191 7   -157726.37149  20127524.00849
  23737248.648 5     94218.895 5     70225.45347  23737247.28147
 20  5 16  1 50 57.0000000  0  8G04G08G09G11G16G26G27G31            -0.000270983
  21429549.844 6   -238298.273 6   -175463.81648  21429548.99648
  20450851.852 6   -643340.617 6   -477091.03949  20450852.32049
  22794940.500 6   -600072.699 6   -448995.94549  22794940.85549
  22923084.656 6  -1028217.480 6   -756684.37147  22923083.01247
  21563123.586 6   -153077.938 6   -116367.44548  21563121.30948
  23029640.641 5    -66476.957 5    -49333.92647  23029641.52747
  20127321.047 7   -214168.551 7   -158556.52349  20127321.02349
  23737355.898 5     94779.469 5     70662.26247  23737353.95747
 20  5 16  1 50 58.0000000  0  8G04G08G09G11G16G26G27G31            -0.000272282
  21429332.320 6   -239441.258 6   -176354.44948  21429331.43048
  20450240.484 6   -646553.488 6   -479594.57449  20450241.23849
  22794361.914 6   -603110.566 6   -451363.11349  22794363.06649
  22922060.742 6  -1033596.961 6   -760876.17247  22922059.16847
  21562975.047 6   -153859.246 6   -116976.24648  21562972.49648
  23029579.070 5    -66799.254 5    -49585.06347  23029580.14847
  20127118.461 7   -215233.129 7   -159386.06349  20127118.55949
  23737462.078 5     95340.523 5     71099.44147  23737460.60547
 20  5 16  1 50 59.0000000  0  8G04G08G09G11G16G26G27G31            -0.000273582
  21429114.805 6   -240583.391 6   -177244.41848  21429114.10948
  20449629.008 6   -649765.516 6   -482097.44949  20449629.58649
  22793784.414 6   -606147.625 6   -453729.65649  22793784.82849
  22921037.180 6  -1038976.027 6   -765067.65647  22921035.43447
  21562826.594 6   -154640.203 6   -117584.79348  21562823.77748
  23029517.133 5    -67121.246 5    -49835.96947  23029518.43047
  20126915.898 7   -216296.848 7   -160214.93449  20126916.03949
  23737569.211 5     95902.137 5     71537.06647  23737567.66047
 20  5 16  1 51  0.0000000  0  8G04G08G09G11G16G26G27G31            -0.000274881
  21428897.875 6   -241724.727 6   -178133.76648  21428896.85548
  20449018.039 6   -652976.785 6   -484599.73849  20449018.58249
  22793206.672 6   -609183.836 6   -456095.53149  22793207.52749
  22920013.914 6  -1044354.668 6   -769258.80147  22920011.96147
  21562677.750 6   -155420.906 6   -118193.13348  21562675.10248
  23029456.445 5    -67443.031 5    -50086.71547  23029457.25047
  20126713.875 7   -217359.785 7   -161043.19949  20126714.04349
  23737675.922 5     96464.227 5     71975.05946  23737674.73046
 20  5 16  1 51  1.0000000  0  8G04G08G09G11G16G26G27G31            -0.000276182
  21428680.813 6   -242865.211 6   -179022.45748  21428679.64548
  20448407.055 7   -656187.203 7   -487101.36749  20448407.52349
  22792628.883 6   -612219.164 6   -458460.72349  22792629.94549
  22918990.328 6  -1049732.918 6   -773449.64547  22918988.65247
  21562529.484 6   -156201.262 6   -118801.20748  21562526.50448
  23029395.359 5    -67764.508 5    -50337.21147  23029396.14147
  20126511.641 7   -218421.879 7   -161870.80549  20126511.53549
  23737783.133 5     97026.848 5     72413.46547  23737781.71147
 20  5 16  1 51  2.0000000  0  8G04G08G09G11G16G26G27G31            -0.000277479
  21428464.008 6   -244004.836 6   -179910.48048  21428463.14148
  20447796.414 6   -659396.766 6   -489602.32049  20447797.25449
  22792051.430 6   -615253.645 6   -460825.25449  22792052.09849
  22917967.078 6  -1055110.730 6   -777640.14847  22917965.19947
  21562380.820 6   -156981.289 6   -119409.01648  21562378.11348
  23029334.219 5    -68085.691 5    -50587.48847  23029334.91047
  20126309.672 7   -219483.125 7   -162697.75449  20126309.55549
  23737891.102 5     97590.020 5     72852.29347  23737888.89547
 20  5 16  1 51  3.0000000  0  8G04G08G09G11G16G26G27G31            -0.000278780
  21428247.289 6   -245143.719 6   -180797.93048  21428245.96948
  20447185.844 6   -662605.598 6   -492102.70349  20447186.39149
  22791474.016 6   -618287.383 6   -463189.20749  22791475.14149
  22916943.961 6  -1060488.230 6   -781830.40647  22916941.84847
  21562232.516 6   -157761.090 6   -120016.65248  21562230.05148
  23029272.703 5    -68406.703 5    -50837.62547  23029274.08647
  20126108.063 7   -220543.656 7   -163524.13349  20126107.68849
  23737997.492 5     98153.582 5     73291.42646  23737995.81346
 20  5 16  1 51  4.0000000  0  8G04G08G09G11G16G26G27G31            -0.000280077
  21428030.508 6   -246281.859 6   -181684.78948  21428029.19148
  20446574.984 7   -665813.684 7   -494602.51649  20446575.95349
  22790897.234 5   -621320.387 5   -465552.58649  22790898.31349
  22915920.664 6  -1065865.387 6   -786020.39847  22915918.74247
  21562084.242 6   -158540.660 6   -120624.10948  21562081.39148
  23029211.883 5    -68727.563 5    -51087.64547  23029213.23447
  20125906.078 7   -221603.438 7   -164349.93449  20125906.20349
  23738105.422 5     98717.621 5     73730.93046  23738103.35946
 20  5 16  1 51  5.0000000  0  8G04G08G09G11G16G26G27G31            -0.000281378
  21427814.070 6   -247419.172 6   -182571.00848  21427813.02348
  20445964.641 6   -669020.961 6   -497101.68849  20445965.57849
  22790319.539 6   -624352.496 6   -467915.26649  22790321.31349
  22914897.680 6  -1071242.141 6   -790210.07047  22914895.81347
  21561935.961 6   -159319.906 6   -121231.31348  21561932.95748
  23029150.773 5    -69048.141 5    -51337.45747  23029151.93447
  20125704.898 7   -222662.410 7   -165175.11749  20125704.80149
  23738212.297 4     99282.148 4     74170.82446  23738210.82046
 20  5 16  1 51  6.0000000  0  8G04G08G09G11G16G26G27G31            -0.000282675
  21427597.969 6   -248555.695 6   -183456.61348  21427596.94148
  20445354.609 6   -672227.480 6   -499600.28149  20445355.46149
  22789743.609 6   -627383.848 6   -470277.35949  22789744.06349
  22913874.133 6  -1076618.520 6   -794399.45747  22913872.58647
  21561787.680 6   -160098.898 6   -121838.32048  21561784.99248
  23029089.953 5    -69368.480 5    -51587.06647  23029091.13747
  20125503.352 7   -223720.586 7   -165999.66449  20125503.36749
  23738320.227 4     99847.168 4     74611.10247  23738318.34447
 20  5 16  1 51  7.0000000  0  8G04G08G09G11G16G26G27G31            -0.000283976
  21427381.836 6   -249691.367 6   -184341.55948  21427381.03148
  20444744.617 6   -675433.148 6   -502098.19949  20444745.07449
  22789166.539 6   -630414.301 6   -472638.75049  22789167.81349
  22912851.086 6  -1081994.461 6   -798588.51247  22912849.50047
  21561639.133 6   -160877.566 6   -122445.07448  21561636.88748
  23029029.500 5    -69688.563 5    -51836.48847  23029030.16447
  20125302.055 7   -224777.945 7   -166823.58249  20125302.08249
  23738427.734 5    100412.691 5     75051.77047  23738425.97747
 20  5 16  1 51  8.0000000  0  8G04G08G09G11G16G26G27G31            -0.000285273
  21427166.047 6   -250826.230 6   -185225.86348  21427164.75048
  20444134.922 6   -678638.008 6   -504595.49249  20444135.26249
  22788590.148 5   -633443.992 5   -474999.55549  22788590.87549
  22911828.281 6  -1087370.023 6   -802777.26247  22911826.73447
  21561491.125 6   -161655.945 6   -123051.60548  21561488.80948
  23028968.305 5    -70008.375 5    -52085.68847  23028969.74647
  20125100.930 7   -225834.516 7   -167646.88349  20125100.89149
  23738535.344 5    100978.738 5     75492.84447  23738533.35547
 20  5 16  1 51  9.0000000  0  8G04G08G09G11G16G26G27G31            -0.000286572
  21426950.117 6   -251960.344 6   -186109.59448  21426948.67248
  20443525.055 7   -681842.125 7   -507092.21549  20443525.62549
  22788013.820 6   -636472.832 6   -477359.69549  22788014.36749
  22910805.047 6  -1092745.246 6   -806965.74647  22910803.67647
  21561343.195 6   -162434.094 6   -123657.96148  21561340.53548
  23028907.570 5    -70328.020 5    -52334.77047  23028908.71547
  20124900.148 7   -226890.324 7   -168469.59449  20124900.09849
  23738642.938 5    101545.207 5     75934.24647  23738641.48047
 20  5 16  1 51 10.0000000  0  8G04G08G09G11G16G26G27G31            -0.000287868
  21426734.242 6   -253093.625 6   -186992.67248  21426733.14848
  20442915.609 7   -685045.449 7   -509588.30949  20442916.57849
  22787437.766 6   -639500.914 6   -479719.23849  22787437.94949
  22909782.555 6  -1098120.063 6   -811153.91047  22909780.89147
  21561195.109 6   -163211.926 6   -124264.05948  21561192.66048
  23028846.789 5    -70647.406 5    -52583.64547  23028847.64847
  20124699.266 7   -227945.297 7   -169291.65249  20124699.08649
  23738751.313 5    102112.164 5     76376.03147  23738749.21147
 20  5 16  1 51 11.0000000  0  8G04G08G09G11G16G26G27G31            -0.000289167
  21426518.758 6   -254226.066 6   -187875.09848  21426517.84448
  20442305.953 6   -688247.902 6   -512083.72349  20442306.82049
  22786861.766 5   -642528.109 5   -482078.09449  22786862.30549
  22908759.938 6  -1103494.449 6   -815341.74647  22908757.91447
  21561047.133 6   -163989.441 6   -124869.92248  21561044.60948
  23028785.953 5    -70966.512 5    -52832.29747  23028786.83647
  20124498.688 7   -228999.473 7   -170113.08649  20124498.61349
  23738858.984 5    102679.688 5     76818.24647  23738856.93047
 20  5 16  1 51 12.0000000  0  8G04G08G09G11G16G26G27G31            -0.000290464
  21426303.227 6   -255357.688 6   -188756.87548  21426302.45748
  20441696.727 6   -691449.570 6   -514578.53149  20441697.49649
  22786285.570 5   -645554.508 5   -484436.32849  22786286.49649
  22907737.172 6  -1108868.434 6   -819529.26247  22907735.53547
  21560899.797 6   -164766.637 6   -125475.52348  21560896.91448
  23028725.578 5    -71285.355 5    -53080.75047  23028726.28147
  20124298.469 7   -230052.832 7   -170933.89149  20124298.08249
  23738966.828 5    103247.730 5     77260.87547  23738965.14847
 20  5 16  1 51 13.0000000  0  8G04G08G09G11G16G26G27G31            -0.000291763
  21426088.313 6   -256488.496 6   -189638.02748  21426086.97748
  20441087.688 6   -694650.438 6   -517072.71149  20441088.55949
  22785709.867 6   -648580.047 6   -486793.89149  22785710.31349
  22906714.563 6  -1114242.047 6   -823716.49647  22906712.46547
  21560751.719 6   -165543.574 6   -126080.93448  21560748.70348
  23028664.914 5    -71603.969 5    -53329.02747  23028665.33647
  20124097.867 7   -231105.410 7   -171754.07849  20124097.97749
  23739075.227 4    103816.191 4     77703.83646  23739073.84446
 20  5 16  1 51 14.0000000  0  8G04G08G09G11G16G26G27G31            -0.000293058
  21425873.008 6   -257618.531 6   -190518.57448  21425871.90648
  20440478.797 6   -697850.516 6   -519566.27749  20440479.34049
  22785134.469 6   -651604.828 6   -489150.86749  22785134.73849
  22905691.984 6  -1119615.277 6   -827903.42647  22905690.00847
  21560603.672 6   -166320.242 6   -126686.13348  21560600.77348
  23028604.617 6    -71922.363 6    -53577.12547  23028604.85247
  20123897.820 7   -232157.188 7   -172573.64549  20123897.72749
  23739183.102 4    104385.199 4     78147.21546  23739181.96146
 20  5 16  1 51 15.0000000  0  8G04G08G09G11G16G26G27G31            -0.000294357
  21425658.398 6   -258747.793 6   -191398.52748  21425657.35548
  20439869.711 6   -701049.832 6   -522059.25049  20439870.57849
  22784558.117 6   -654628.813 6   -491507.21549  22784558.99249
  22904669.273 6  -1124988.168 6   -832090.09447  22904667.56647
  21560455.984 6   -167096.648 6   -127291.12148  21560453.08248
  23028543.953 6    -72240.551 6    -53825.06347  23028544.59047
  20123697.984 7   -233208.227 7   -173392.63349  20123698.09449
  23739291.500 4    104954.613 4     78590.90246  23739290.15246
 20  5 16  1 51 16.0000000  0  8G04G08G09G11G16G26G27G31            -0.000295654
  21425443.492 6   -259876.195 6   -192277.80148  21425442.35948
  20439261.422 6   -704248.309 6   -524551.57449  20439261.76249
  22783983.258 6   -657651.918 6   -493862.88749  22783983.77349
  22903647.414 5  -1130360.617 5   -836276.41847  22903645.66447
  21560308.039 6   -167872.711 6   -127895.84448  21560305.40648
  23028483.195 6    -72558.445 6    -54072.77347  23028483.53947
  20123497.836 7   -234258.398 7   -174210.95349  20123497.78149
  23739400.727 5    105524.566 5     79035.01246  23739398.87546
 20  5 16  1 51 17.0000000  0  8G04G08G09G11G16G26G27G31            -0.000296951
  21425229.320 6   -261003.859 6   -193156.50448  21425227.96548
  20438652.633 6   -707446.016 6   -527043.28949  20438653.35949
  22783408.445 5   -660674.289 5   -496217.98049  22783408.81649
  22902625.297 6  -1135732.742 6   -840462.48847  22902623.28947
  21560160.672 6   -168648.555 6   -128500.39848  21560157.85248
  23028422.914 6    -72876.164 6    -54320.35247  23028423.32447
  20123298.086 7   -235307.836 7   -175028.69149  20123298.09049
  23739509.008 4    106094.980 4     79479.48847  23739507.27747
 20  5 16  1 51 18.0000000  0  8G04G08G09G11G16G26G27G31            -0.000298248
  21425014.703 6   -262130.727 6   -194034.58248  21425013.37548
  20438044.445 7   -710642.973 7   -529534.43049  20438045.15649
  22782833.078 6   -663695.855 6   -498572.44949  22782833.53149
  22901602.852 6  -1141104.488 6   -844648.26247  22901601.66447
  21560012.875 6   -169424.121 6   -129104.73448  21560010.44148
  23028362.516 6    -73193.648 6    -54567.74247  23028363.21947
  20123099.016 7   -236356.492 7   -175845.82849  20123099.03549
  23739617.695 5    106665.867 5     79924.33647  23739616.21547
 20  5 16  1 51 19.0000000  0  8G04G08G09G11G16G26G27G31            -0.000299545
  21424800.328 6   -263256.773 6   -194912.01648  21424799.18048
  20437436.070 6   -713839.109 6   -532024.92249  20437436.81649
  22782258.508 6   -666716.582 6   -500926.26649  22782259.11749
  22900580.617 6  -1146475.824 6   -848833.71947  22900579.17647
  21559865.523 6   -170199.398 6   -129708.85248  21559862.82448
  23028301.836 6    -73510.867 6    -54814.93047  23028302.73447
  20122899.281 7   -237404.363 7   -176662.35249  20122899.16449
  23739726.461 5    107237.230 5     80369.54747  23739724.71947
 20  5 16  1 51 20.0000000  0  8G04G08G09G11G16G26G27G31            -0.000300840
  21424586.289 6   -264382.008 6   -195788.82448  21424585.31348
  20436828.328 6   -717034.445 6   -534514.79349  20436828.81649
  22781683.867 6   -669736.484 6   -503279.43049  22781684.44549
  22899558.492 6  -1151846.781 6   -853018.87947  22899557.27747
  21559718.211 6   -170974.352 6   -130312.70748  21559715.43848
  23028241.531 6    -73827.852 6    -55061.93447  23028242.43447
  20122700.063 7   -238451.395 7   -177478.22349  20122699.91849
  23739834.445 4    107809.105 4     80815.16447  23739833.95347
 20  5 16  1 51 21.0000000  0  8G04G08G09G11G16G26G27G31            -0.000302139
  21424372.273 6   -265506.402 6   -196664.97348  21424371.36748
  20436220.297 6   -720228.945 6   -537004.02049  20436220.89849
  22781109.297 6   -672755.563 6   -505631.96549  22781109.50449
  22898536.563 5  -1157217.324 5   -857203.72347  22898535.34047
  21559570.703 6   -171748.992 6   -130916.32448  21559567.62148
  23028181.367 6    -74144.563 6    -55308.71947  23028182.25847
  20122500.867 7   -239497.641 7   -178293.48049  20122500.63349
  23739943.969 4    108381.504 4     81261.19547  23739942.44947
 20  5 16  1 51 22.0000000  0  8G04G08G09G11G16G26G27G31            -0.000303434
  21424158.328 6   -266629.984 6   -197540.48448  21424157.29748
  20435612.391 6   -723422.660 6   -539492.62549  20435613.02749
  22780535.398 6   -675773.754 6   -507983.79749  22780535.76249
  22897514.766 5  -1162587.449 5   -861388.23447  22897512.90247
  21559423.414 6   -172523.363 6   -131519.73048  21559420.62948
  23028120.898 6    -74461.043 6    -55555.32847  23028121.97347
  20122302.102 7   -240543.086 7   -179108.10949  20122301.66449
  23740052.789 4    108954.375 4     81707.59046  23740051.69146
 20  5 16  1 51 23.0000000  0  8G04G08G09G11G16G26G27G31            -0.000304731
  21423945.031 6   -267752.770 6   -198415.38348  21423943.73848
  20435004.914 6   -726615.590 6   -541980.62149  20435005.60949
  22779961.078 6   -678791.184 6   -510335.03549  22779960.68449
  22896492.406 5  -1167957.211 5   -865572.46147  22896491.18847
  21559276.000 6   -173297.430 6   -132122.89848  21559273.14548
  23028060.703 6    -74777.262 6    -55801.73447  23028061.59847
  20122103.219 7   -241587.719 7   -179922.10949  20122103.25449
  23740162.195 4    109527.777 4     82154.39847  23740161.09047
 20  5 16  1 51 24.0000000  0  8G04G08G09G11G16G26G27G31            -0.000306026
  21423730.914 6   -268874.742 6   -199289.64848  21423730.25048
  20434397.570 6   -729807.711 6   -544467.99249  20434398.12549
  22779386.789 6   -681807.770 6   -512685.62549  22779387.05149
  22895470.781 5  -1173326.590 5   -869756.39147  22895469.90247
  21559128.609 6   -174071.211 6   -132725.84848  21559125.61348
  23028001.156 5    -75093.258 5    -56047.96147  23028001.85247
  20121904.477 7   -242631.566 7   -180735.49649  20121904.24249
  23740271.414 4    110101.645 4     82601.55546  23740269.94946
 20  5 16  1 51 25.0000000  0  8G04G08G09G11G16G26G27G31            -0.000307323
  21423517.977 6   -269995.816 6   -200163.21948  21423516.65648
  20433790.398 6   -732998.969 6   -546954.68449  20433790.97749
  22778813.711 6   -684823.508 6   -515035.55549  22778813.30549
  22894449.438 5  -1178695.492 5   -873939.95347  22894448.08647
  21558981.625 6   -174844.621 6   -133328.50448  21558978.54748
  23027940.328 5    -75408.941 5    -56293.94547  23027941.96547
  20121706.281 7   -243674.527 7   -181548.19949  20121705.72349
  23740380.609 4    110676.086 4     83049.16047  23740379.04747
 20  5 16  1 51 26.0000000  0  8G04G08G09G11G16G26G27G31            -0.000308617
  21423304.797 6   -271116.098 6   -201036.16848  21423303.64148
  20433183.102 7   -736189.426 7   -549440.75849  20433183.64149
  22778239.367 6   -687838.367 6   -517384.80149  22778239.46949
  22893427.563 5  -1184064.000 5   -878123.20747  22893426.40647
  21558834.781 6   -175617.734 6   -133930.93048  21558831.47348
  23027880.828 5    -75724.352 5    -56539.71947  23027881.67647
  20121507.898 7   -244716.680 7   -182360.26249  20121507.71149
  23740489.961 4    111251.020 4     83497.16447  23740488.77747
 20  5 16  1 51 27.0000000  0  8G04G08G09G11G16G26G27G31            -0.000309914
  21423091.969 6   -272235.547 6   -201908.46548  21423090.62948
  20432576.117 6   -739379.074 6   -551926.19549  20432576.88349
  22777665.406 6   -690852.402 6   -519733.39849  22777666.26649
  22892406.414 5  -1189432.086 5   -882306.12947  22892404.78147
  21558687.500 6   -176390.563 6   -134533.13348  21558684.58648
  23027820.609 6    -76039.500 6    -56785.28947  23027821.65247
  20121309.625 7   -245758.039 7   -183171.71149  20121309.65249
  23740599.969 4    111826.445 4     83945.55947  23740598.48047
 20  5 16  1 51 28.0000000  0  8G04G08G09G11G16G26G27G31            -0.000311209
  21422878.805 6   -273354.113 6   -202780.07848  21422877.49648
  20431969.539 6   -742567.848 6   -554410.95349  20431969.71149
  22777092.625 6   -693865.570 6   -522081.32049  22777092.55949
  22891385.172 5  -1194799.723 5   -886488.70747  22891383.16847
  21558540.828 6   -177163.004 6   -135135.03948  21558537.63748
  23027760.813 6    -76354.348 6    -57030.63347  23027761.73447
  20121111.773 7   -246798.504 7   -183982.46949  20121111.37549
  23740708.797 4    112402.473 4     84394.41046  23740708.15246
 20  5 16  1 51 29.0000000  0  8G04G08G09G11G16G26G27G31            -0.000312504
  21422666.094 6   -274471.887 6   -203651.07048  21422665.55548
  20431362.828 6   -745755.828 6   -556895.08649  20431363.59449
  22776519.695 6   -696877.914 6   -524428.60249  22776519.32449
  22890363.414 5  -1200166.984 5   -890670.98847  22890362.07447
  21558393.875 6   -177935.191 6   -135736.74248  21558390.51648
  23027700.711 6    -76668.949 6    -57275.77347  23027701.87547
  20120913.938 7   -247838.195 7   -184792.61349  20120913.73049
  23740818.313 4    112978.984 4     84843.63346  23740817.32846
 20  5 16  1 51 30.0000000  0  8G04G08G09G11G16G26G27G31            -0.000313799
  21422453.852 6   -275588.883 6   -204521.45748  21422452.37548
  20430756.266 6   -748943.066 6   -559378.65649  20430756.87149
  22775946.367 6   -699889.457 6   -526775.25449  22775946.40649
  22889342.078 5  -1205533.875 5   -894852.97347  22889340.52047
  21558246.484 6   -178707.113 6   -136338.24648  21558243.52348
  23027640.742 6    -76983.387 6    -57520.79347  23027642.01647
  20120716.250 7   -248877.148 7   -185602.18849  20120715.86349
  23740928.070 5    113555.910 5     85293.18446  23740927.68046
 20  5 16  1 51 31.0000000  0  8G04G08G09G11G16G26G27G31            -0.000315094
  21422241.422 6   -276705.141 6   -205391.26648  21422240.18448
  20430150.023 7   -752129.531 7   -561861.61749  20430150.22349
  22775373.156 6   -702900.250 6   -529121.32849  22775373.11749
  22888321.313 5  -1210900.449 5   -899034.71547  22888319.61747
  21558099.570 6   -179478.773 6   -136939.53948  21558096.87148
  23027581.281 6    -77297.590 6    -57765.63347  23027582.39847
  20120518.570 7   -249915.336 7   -186411.16449  20120518.73449
  23741038.563 5    114133.305 5     85743.10247  23741037.14847
 20  5 16  1 51 32.0000000  0  8G04G08G09G11G16G26G27G31            -0.000316389
  21422028.703 6   -277820.488 6   -206260.37148  21422027.96148
  20429543.383 6   -755315.113 6   -564343.89149  20429544.10549
  22774800.297 6   -705910.121 6   -531466.68049  22774800.48449
  22887299.695 5  -1216266.539 5   -903216.08647  22887298.02747
  21557952.984 6   -180250.113 6   -137540.57848  21557949.80948
  23027521.789 6    -77611.469 6    -58010.21947  23027522.76247
  20120321.180 7   -250952.652 7   -187219.46549  20120320.98049
  23741148.188 5    114711.250 5     86193.43846  23741147.16446
 20  5 16  1 51 33.0000000  0  8G04G08G09G11G16G26G27G31            -0.000317684
  21421816.719 6   -278935.031 6   -207128.84848  21421815.65648
  20428937.711 6   -758499.879 6   -566825.52349  20428938.25449
  22774228.047 6   -708919.191 6   -533811.41449  22774228.10549
  22886278.961 5  -1221632.207 5   -907397.11747  22886277.26647
  21557806.117 6   -181021.113 6   -138141.36748  21557803.39548
  23027462.336 6    -77925.109 6    -58254.61347  23027462.72747
  20120124.141 7   -251989.160 7   -188027.13749  20120123.82049
  23741258.164 5    115289.707 5     86644.17647  23741257.46147
 20  5 16  1 51 34.0000000  0  8G04G08G09G11G16G26G27G31            -0.000318977
  21421605.031 6   -280048.770 6   -207996.69548  21421603.62148
  20428331.727 6   -761683.863 6   -569306.55549  20428332.35249
  22773655.016 6   -711927.457 6   -536155.51249  22773655.51649
  22885257.906 5  -1226997.523 5   -911577.88347  22885256.43447
  21557659.734 6   -181791.852 6   -138741.93848  21557656.58648
  23027402.141 6    -78238.512 6    -58498.82847  23027403.60547
  20119926.844 7   -253024.883 7   -188834.19149  20119926.73849
  23741368.633 5    115868.664 5     87095.30546  23741367.54346
 20  5 16  1 51 35.0000000  0  8G04G08G09G11G16G26G27G31            -0.000320272
  21421393.016 6   -281161.699 6   -208863.91848  21421391.80948
  20427725.992 6   -764867.043 6   -571786.94949  20427726.45749
  22773082.844 6   -714934.891 6   -538498.97349  22773083.14849
  22884236.797 5  -1232362.438 5   -915758.32847  22884235.24647
  21557512.969 6   -182562.309 6   -139342.29348  21557510.15248
  23027342.602 6    -78551.672 6    -58742.84847  23027343.67247
  20119730.273 7   -254059.805 7   -189640.62949  20119729.62149
  23741478.844 4    116448.098 4     87546.80947  23741477.85247
 20  5 16  1 51 36.0000000  0  8G04G08G09G11G16G26G27G31            -0.000321566
  21421181.406 6   -282273.813 6   -209730.49648  21421180.29748
  20427119.758 6   -768049.395 6   -574266.71149  20427120.68049
  22772510.695 6   -717941.496 6   -540841.77749  22772511.27049
  22883215.875 6  -1237726.961 6   -919938.47747  22883214.51247
  21557366.594 6   -183332.457 6   -139942.41048  21557363.15648
  23027283.242 6    -78864.570 6    -58986.66847  23027284.42247
  20119533.133 7   -255093.910 7   -190446.42249  20119533.21549
  23741589.539 5    117027.980 5     87998.66047  23741588.41447
 20  5 16  1 51 37.0000000  0  8G04G08G09G11G16G26G27G31            -0.000322861
  21420970.031 6   -283385.020 6   -210596.37948  21420969.10248
  20426514.977 6   -771230.883 6   -576745.78949  20426515.85549
  22771938.875 6   -720947.176 6   -543183.86349  22771938.65249
  22882195.563 6  -1243090.973 6   -924118.21947  22882193.40647
  21557219.883 6   -184102.227 6   -140542.23048  21557216.93048
  23027223.742 6    -79177.117 6    -59230.20747  23027224.79747
  20119336.695 7   -256127.148 7   -191251.53949  20119336.64549
  23741699.586 4    117608.527 4     88451.03546  23741698.66046
 20  5 16  1 51 38.0000000  0  8G04G08G09G11G16G26G27G31            -0.000324152
  21420758.867 6   -284495.391 6   -211461.60248  21420758.10248
  20425909.703 6   -774411.492 6   -579224.18849  20425909.96949
  22771366.969 6   -723951.984 6   -545525.27049  22771367.13749
  22881174.586 6  -1248454.531 6   -928297.62147  22881173.18047
  21557073.547 6   -184871.656 6   -141141.78948  21557070.60548
  23027164.313 6    -79489.406 6    -59473.54747  23027165.40247
  20119140.055 7   -257159.523 7   -192055.98849  20119139.86749
  23741810.039 4    118189.578 4     88903.81347  23741809.25847
 20  5 16  1 51 39.0000000  0  8G04G08G09G11G16G26G27G31            -0.000325447
  21420547.508 6   -285604.918 6   -212326.17248  21420546.97748
  20425304.492 6   -777591.320 6   -581701.97749  20425305.21949
  22770795.461 6   -726956.012 6   -547866.07049  22770795.30549
  22880153.938 6  -1253817.727 6   -932476.74247  22880152.71147
  21556927.133 6   -185640.789 6   -141741.11348  21556924.00848
  23027104.977 6    -79801.465 6    -59716.70747  23027106.05947
  20118943.797 7   -258191.117 7   -192859.83249  20118943.84849
  23741921.125 4    118771.148 4     89356.97747  23741919.79747
 20  5 16  1 51 40.0000000  0  8G04G08G09G11G16G26G27G31            -0.000326740
  21420336.547 6   -286713.656 6   -213190.12148  21420335.48448
  20424699.352 6   -780770.320 6   -584179.11749  20424700.21549
  22770223.898 6   -729959.176 6   -550206.20349  22770224.04749
  22879133.672 6  -1259180.523 6   -936655.53947  22879131.87547
  21556781.086 6   -186409.609 6   -142340.19548  21556777.75448
  23027045.727 6    -80113.227 6    -59959.63347  23027046.84447
  20118747.609 7   -259221.875 7   -193663.02049  20118747.69149
  23742032.156 4    119353.223 4     89810.53146  23742030.44946
 20  5 16  1 51 41.0000000  0  8G04G08G09G11G16G26G27G31            -0.000328033
  21420125.820 6   -287821.527 6   -214053.39848  21420125.30148
  20424094.883 6   -783948.492 6   -586655.61749  20424095.32849
  22769652.875 6   -732961.461 6   -552545.64849  22769652.54349
  22878113.422 6  -1264542.859 6   -940833.98047  22878111.40247
  21556634.680 6   -187178.109 6   -142939.02348  21556631.64548
  23026985.977 6    -80424.738 6    -60202.37147  23026987.16447
  20118551.914 7   -260251.828 7   -194465.57849  20118551.33249
  23742142.938 4    119935.832 4     90264.50047  23742142.00047
 20  5 16  1 51 42.0000000  0  8G04G08G09G11G16G26G27G31            -0.000329327
  21419915.070 6   -288928.570 6   -214916.03148  21419914.47348
  20423489.766 6   -787125.852 6   -589131.48049  20423490.38349
  22769081.719 6   -735962.934 6   -554884.45749  22769081.45749
  22877092.891 6  -1269904.801 6   -945012.11747  22877091.29347
  21556488.484 6   -187946.289 6   -143537.60248  21556485.37548
  23026927.133 5    -80735.949 5    -60444.87947  23026928.28147
  20118355.953 7   -261280.957 7   -195267.49649  20118355.82449
  23742253.547 4    120518.934 4     90718.86347  23742252.84447
 20  5 16  1 51 43.0000000  0  8G04G08G09G11G16G26G27G31            -0.000330620
  21419704.602 6   -290034.797 6   -215778.02348  21419703.72348
  20422885.625 6   -790302.355 6   -591606.68049  20422886.20749
  22768510.711 6   -738963.551 6   -557222.59849  22768510.60949
  22876072.984 6  -1275266.305 6   -949189.91447  22876071.10247
  21556342.195 6   -188714.152 6   -144135.94148  21556339.43448
  23026867.547 5    -81046.891 5    -60687.17247  23026869.31647
  20118160.344 7   -262309.262 7   -196068.77349  20118160.30549
  23742364.672 5    121102.570 5     91173.65247  23742363.56647
 20  5 16  1 51 44.0000000  0  8G04G08G09G11G16G26G27G31            -0.000331911
  21419494.547 6   -291140.043 6   -216639.25448  21419493.46548
  20422280.977 6   -793477.922 6   -594081.14849  20422282.08649
  22767939.359 6   -741963.195 6   -559559.98849  22767939.79749
  22875052.578 6  -1280627.281 6   -953367.29747  22875051.00047
  21556196.391 6   -189481.586 6   -144733.94148  21556193.32048
  23026808.422 6    -81357.465 6    -60929.18847  23026809.98447
  20117964.680 7   -263336.613 7   -196869.30949  20117964.33649
  23742475.227 4    121686.828 4     91628.92247  23742474.74247
 20  5 16  1 51 45.0000000  0  8G04G08G09G11G16G26G27G31            -0.000333206
  21419284.180 6   -292244.469 6   -217499.84448  21419283.00048
  20421677.141 6   -796652.629 6   -596554.94549  20421677.90649
  22767368.820 6   -744961.961 6   -561896.69549  22767368.96549
  22874032.563 6  -1285987.797 6   -957544.32447  22874030.71947
  21556050.188 6   -190248.691 6   -145331.68848  21556047.40648
  23026749.531 5    -81667.746 5    -61170.95747  23026751.32047
  20117769.141 7   -264363.133 7   -197669.19549  20117769.01649
  23742586.320 4    122271.637 4     92084.61747  23742585.88747
 20  5 16  1 51 46.0000000  0  8G04G08G09G11G16G26G27G31            -0.000334497
  21419073.961 6   -293348.023 6   -218359.75448  21419073.35548
  20421073.672 6   -799826.520 6   -599028.10249  20421074.18049
  22766798.688 6   -747959.938 6   -564232.77749  22766798.49249
  22873012.563 6  -1291347.910 6   -961721.03947  22873010.69947
  21555904.375 6   -191015.484 6   -145929.19148  21555901.43048
  23026690.266 5    -81977.750 5    -61412.52347  23026692.10547
  20117574.359 7   -265388.840 7   -198468.44549  20117574.41449
  23742698.789 5    122856.996 5     92540.72746  23742697.50846
 20  5 16  1 51 47.0000000  0  8G04G08G09G11G16G26G27G31            -0.000335791
  21418864.203 6   -294450.750 6   -219219.02348  21418863.35948
  20420469.781 6   -802999.566 6   -601500.60549  20420470.18449
  22766228.031 6   -750956.988 6   -566568.14549  22766228.24649
  22871992.352 6  -1296707.605 6   -965897.42647  22871990.86747
  21555758.477 6   -191781.938 6   -146526.43048  21555755.55948
  23026632.070 5    -82287.465 5    -61653.86747  23026633.29747
  20117379.133 7   -266413.691 7   -199267.03549  20117378.88349
  23742810.391 5    123442.859 5     92997.24246  23742808.62946
 20  5 16  1 51 48.0000000  0  8G04G08G09G11G16G26G27G31            -0.000337080
  21418654.320 6   -295552.598 6   -220077.60548  21418653.59048
  20419865.773 7   -806171.754 7   -603972.44149  20419866.41849
  22765658.031 6   -753953.141 6   -568902.81349  22765658.07449
  22870972.656 6  -1302066.793 6   -970073.41447  22870970.86347
  21555613.078 6   -192548.008 6   -147123.36748  21555609.75048
  23026572.875 5    -82596.848 5    -61894.94147  23026574.52047
  20117184.320 7   -267437.652 7   -200064.92649  20117184.41049
  23742921.773 5    124029.309 5     93454.20747  23742920.61747
 20  5 16  1 51 49.0000000  0  8G04G08G09G11G16G26G27G31            -0.000338373
  21418444.859 6   -296653.578 6   -220935.52048  21418443.81348
  20419262.352 6   -809343.082 6   -606443.60549  20419263.09049
  22765088.281 6   -756948.465 6   -571236.83649  22765087.99249
  22869952.641 6  -1307425.527 6   -974249.05147  22869951.64847
  21555467.172 6   -193313.762 6   -147720.06348  21555463.90648
  23026514.195 5    -82905.973 5    -62135.82047  23026515.51247
  20116989.570 7   -268460.781 7   -200862.17249  20116989.34049
  23743033.086 4    124616.289 4     93911.58646  23743032.40646
 20  5 16  1 51 50.0000000  0  8G04G08G09G11G16G26G27G31            -0.000339664
  21418235.484 6   -297753.680 6   -221792.73448  21418234.92648
  20418659.180 7   -812513.543 7   -608914.09849  20418660.18849
  22764518.055 6   -759942.883 6   -573570.14549  22764518.11349
  22868933.203 6  -1312783.844 6   -978424.35947  22868931.42647
  21555321.641 6   -194079.141 6   -148316.46148  21555318.46948
  23026455.406 5    -83214.746 5    -62376.41847  23026456.98047
  20116795.141 7   -269483.055 7   -201658.74649  20116795.05549
  23743144.781 5    125203.793 5     94369.38346  23743144.07046
 20  5 16  1 51 51.0000000  0  8G04G08G09G11G16G26G27G31            -0.000340958
  21418026.453 6   -298852.891 6   -222649.27348  21418025.52048
  20418056.078 6   -815683.133 6   -611383.91049  20418056.76249
  22763949.016 6   -762936.375 6   -575902.73849  22763949.05949
  22867913.789 6  -1318141.656 6   -982599.28147  22867912.01247
  21555176.039 6   -194844.168 6   -148912.58648  21555173.14848
  23026396.398 5    -83523.203 5    -62616.77347  23026398.43047
  20116600.867 7   -270504.438 7   -202454.63349  20116600.21549
  23743256.734 4    125791.922 4     94827.65246  23743255.71146
 20  5 16  1 51 52.0000000  0  8G04G08G09G11G16G26G27G31            -0.000342247
  21417817.102 6   -299951.250 6   -223505.13748  21417816.70748
  20417452.852 6   -818851.871 6   -613853.06349  20417453.53149
  22763379.203 6   -765929.008 6   -578234.66049  22763379.12149
  22866894.594 6  -1323499.035 6   -986773.86347  22866892.49647
  21555030.805 6   -195608.824 6   -149508.42648  21555027.46948
  23026338.008 5    -83831.379 5    -62856.91047  23026339.55147
  20116406.344 7   -271524.977 7   -203249.85549  20116406.68049
  23743369.188 4    126380.609 4     95286.36747  23743368.14147
 20  5 16  1 51 53.0000000  0  8G04G08G09G11G16G26G27G31            -0.000343538
  21417608.766 6   -301048.699 6   -224360.29348  21417607.75048
  20416850.109 6   -822019.695 6   -616321.49249  20416850.88749
  22762810.109 6   -768920.734 6   -580565.87549  22762809.74249
  22865874.672 6  -1328855.902 6   -990948.04747  22865873.02747
  21554885.023 6   -196373.105 6   -150103.96548  21554882.20748
  23026279.234 5    -84139.215 5    -63096.79747  23026280.68047
  20116212.703 7   -272544.625 7   -204044.38749  20116212.41849
  23743480.617 4    126969.844 4     95745.50847  23743480.07847
 20  5 16  1 51 54.0000000  0  8G04G08G09G11G16G26G27G31            -0.000344828
  21417399.828 6   -302145.234 6   -225214.73048  21417398.83248
  20416247.313 6   -825186.605 6   -618789.21549  20416248.16849
  22762240.430 6   -771911.520 6   -582896.35949  22762240.73449
  22864855.750 6  -1334212.234 6   -995121.80947  22864853.84447
  21554739.609 6   -197136.980 6   -150699.19548  21554736.66448
  23026221.047 5    -84446.680 5    -63336.38347  23026222.23047
  20116018.891 7   -273563.352 7   -204838.19949  20116018.37949
  23743592.852 4    127559.688 4     96205.11747  23743592.28547
 20  5 16  1 51 55.0000000  0  8G04G08G09G11G16G26G27G31            -0.000346121
  21417191.445 6   -303240.828 6   -226068.43848  21417190.54748
  20415645.164 6   -828352.582 6   -621256.20749  20415645.86349
  22761671.891 6   -774901.371 6   -585226.11749  22761671.55949
  22863836.773 6  -1339568.105 6   -999295.21147  22863834.51247
  21554594.578 6   -197900.465 6   -151294.12148  21554591.61748
  23026162.695 5    -84753.770 5    -63575.66847  23026164.18447
  20115824.883 7   -274581.188 7   -205631.32049  20115824.84049
  23743705.852 5    128150.168 5     96665.24246  23743705.12946
 20  5 16  1 51 56.0000000  0  8G04G08G09G11G16G26G27G31            -0.000347410
  21416982.930 6   -304335.605 6   -226921.50848  21416982.21548
  20415042.633 6   -831517.766 6   -623722.59049  20415043.32849
  22761103.125 6   -777890.371 6   -587555.21149  22761103.25049
  22862817.266 6  -1344923.531 6  -1003468.27347  22862815.20347
  21554449.281 6   -198663.625 6   -151888.78948  21554446.13748
  23026104.023 5    -85060.602 5    -63814.75447  23026105.91847
  20115631.336 7   -275598.215 7   -206423.80949  20115631.50449
  23743818.023 5    128741.137 5     97125.73046  23743817.11746
 20  5 16  1 51 57.0000000  0  8G04G08G09G11G16G26G27G31            -0.000348701
  21416775.180 6   -305429.488 6   -227773.88748  21416774.14848
  20414440.555 6   -834682.016 6   -626188.23849  20414441.42649
  22760534.469 6   -780878.441 6   -589883.58249  22760534.68449
  22861798.695 6  -1350278.484 6  -1007640.95747  22861796.64147
  21554304.156 6   -199426.398 6   -152483.16448  21554300.84848
  23026045.984 5    -85367.109 5    -64053.59847  23026047.45347
  20115438.227 7   -276614.332 7   -207215.59049  20115437.75449
  23743930.328 5    129332.746 5     97586.70747  23743929.30947
 20  5 16  1 51 58.0000000  0  8G04G08G09G11G16G26G27G31            -0.000349989
  21416566.961 6   -306522.434 6   -228625.53948  21416566.10548
  20413838.680 6   -837845.383 6   -628653.19949  20413839.67649
  22759965.773 6   -783865.621 6   -592211.25849  22759966.05549
  22860779.625 6  -1355632.926 6  -1011813.25447  22860777.37547
  21554159.336 6   -200188.781 6   -153077.23048  21554155.72348
  23025987.547 5    -85673.281 5    -64292.17647  23025989.41847
  20115244.719 7   -277629.543 7   -208006.66449  20115244.62549
  23744042.961 5    129924.895 5     98048.12947  23744042.42647
 20  5 16  1 51 59.0000000  0  8G04G08G09G11G16G26G27G31            -0.000351280
  21416359.297 6   -307614.430 6   -229476.44948  21416358.37148
  20413236.852 7   -841007.781 7   -631117.40249  20413237.72349
  22759397.344 6   -786851.809 6   -594538.16049  22759397.82449
  22859760.844 6  -1360986.793 6  -1015985.10247  22859758.75847
  21554014.227 6   -200950.699 6   -153670.93448  21554011.08648
  23025929.383 5    -85979.004 5    -64530.39847  23025931.09847
  20115051.766 7   -278643.805 7   -208797.00049  20115051.71549
  23744156.195 5    130517.727 5     98510.06347  23744155.35247
 20  5 16  1 52  0.0000000  0  8G04G08G09G11G16G26G27G31            -0.000352570
  21416151.328 6   -308705.492 6   -230326.63348  21416150.83248
  20412635.188 7   -844169.281 7   -633580.91049  20412636.06649
  22758829.672 6   -789837.055 6   -596864.32449  22758829.30949
  22858742.633 6  -1366340.168 6  -1020156.55947  22858739.99647
  21553869.102 6   -201712.242 6   -154264.34448  21553866.41048
  23025870.922 5    -86284.375 5    -64768.35547  23025872.87947
  20114858.984 7   -279657.164 7   -209586.63349  20114858.62549
  23744269.008 5    131111.145 5     98972.45747  23744268.24647
 20  5 16  1 52  1.0000000  0  8G04G08G09G11G16G26G27G31            -0.000353859
  21415944.219 6   -309795.664 6   -231176.11748  21415943.35948
  20412033.883 6   -847329.895 6   -636043.73049  20412034.50449
  22758261.930 6   -792821.375 6   -599189.77349  22758261.66049
  22857723.750 6  -1371693.074 6  -1024327.65647  22857721.72347
  21553724.328 6   -202473.402 6   -154857.45748  21553721.35548
  23025813.523 5    -86589.441 5    -65006.07047  23025814.61347
  20114666.047 7   -280669.633 7   -210375.57049  20114665.80149
  23744381.781 4    131705.137 4     99435.31647  23744381.12947
 20  5 16  1 52  2.0000000  0  8G04G08G09G11G16G26G27G31            -0.000355146
  21415736.891 6   -310884.934 6   -232024.89548  21415736.21548
  20411432.406 7   -850489.598 7   -638505.83649  20411433.29349
  22757694.148 6   -795804.750 6   -601514.47749  22757693.87149
  22856704.828 6  -1377045.445 6  -1028498.33647  22856703.16447
  21553579.461 6   -203234.164 6   -155450.25848  21553576.85948
  23025755.227 5    -86894.141 5    -65243.50047  23025756.85247
  20114473.945 7   -281681.184 7   -211163.78949  20114473.51649
  23744495.594 4    132299.758 4     99898.64847  23744494.32047
 20  5 16  1 52  3.0000000  0  8G04G08G09G11G16G26G27G31            -0.000356438
  21415529.555 6   -311973.266 6   -232872.94148  21415528.83648
  20410831.266 7   -853648.367 7   -640967.21549  20410832.27349
  22757126.625 6   -798787.227 6   -603838.48849  22757126.43449
  22855686.563 6  -1382397.313 6  -1032668.62547  22855684.28147
  21553434.523 6   -203994.500 6   -156042.72348  21553431.70748
  23025697.461 5    -87198.461 5    -65480.62947  23025698.84447
  20114281.453 7   -282691.840 7   -211951.31349  20114281.52349
  23744608.609 4    132894.996 4    100362.46947  23744607.55547
 20  5 16  1 52  4.0000000  0  8G04G08G09G11G16G26G27G31            -0.000357723
  21415322.617 6   -313060.594 6   -233720.21148  21415321.75048
  20410230.672 7   -856806.164 7   -643427.83249  20410231.16449
  22756558.898 6   -801768.676 6   -606161.69549  22756559.16849
  22854668.602 6  -1387748.594 6  -1036838.45347  22854666.50847
  21553290.297 6   -204754.355 6   -156634.82048  21553287.52348
  23025639.711 5    -87502.367 5    -65717.43847  23025641.27747
  20114089.359 7   -283701.496 7   -212738.05949  20114089.38749
  23744721.148 4    133490.898 4    100826.80146  23744721.05946
 20  5 16  1 52  5.0000000  0  8G04G08G09G11G16G26G27G31            -0.000359013
  21415115.836 6   -314147.027 6   -234566.78548  21415115.06348
  20409629.484 7   -859963.070 7   -645887.76649  20409630.60949
  22755991.766 6   -804749.207 6   -608484.18449  22755991.55549
  22853650.289 6  -1393099.367 6  -1041007.88747  22853648.16047
  21553145.586 6   -205513.820 6   -157226.61748  21553142.56348
  23025582.016 5    -87805.887 5    -65953.95347  23025583.50847
  20113897.367 7   -284710.246 7   -213524.09449  20113897.23849
  23744835.430 4    134087.398 4    101291.60546  23744834.34846
 20  5 16  1 52  6.0000000  0  8G04G08G09G11G16G26G27G31            -0.000360300
  21414909.258 6   -315232.422 6   -235412.55148  21414908.50448
  20409029.023 7   -863118.945 7   -648346.88349  20409030.06349
  22755424.664 6   -807728.711 6   -610805.87949  22755425.31349
  22852632.203 6  -1398449.543 6  -1045176.85547  22852629.73847
  21553001.313 6   -206272.801 6   -157818.03148  21552998.46148
  23025524.086 5    -88108.988 5    -66190.14547  23025525.66047
  20113705.750 7   -285717.988 7   -214309.34849  20113705.36349
  23744948.766 4    134684.629 4    101756.97346  23744948.58246
 20  5 16  1 52  7.0000000  0  8G04G08G09G11G16G26G27G31            -0.000361589
  21414702.992 6   -316316.863 6   -236257.57048  21414702.32848
  20408428.930 7   -866273.855 7   -650805.25849  20408429.56349
  22754858.172 6   -810707.199 6   -613126.78149  22754857.81649
  22851613.711 6  -1403799.180 6  -1049345.40247  22851611.75847
  21552857.070 6   -207031.309 6   -158409.07448  21552853.92648
  23025466.469 5    -88411.676 5    -66426.00847  23025468.18847
  20113513.789 7   -286724.809 7   -215093.88749  20113513.92249
  23745062.891 4    135282.480 4    102222.82447  23745062.05947
 20  5 16  1 52  8.0000000  0  8G04G08G09G11G16G26G27G31            -0.000362875
  21414497.227 6   -317400.305 6   -237101.81348  21414495.77048
  20407829.273 7   -869427.801 7   -653262.87549  20407829.60949
  22754291.352 6   -813684.715 6   -615446.92649  22754291.13349
  22850596.016 6  -1409148.195 6  -1053513.46947  22850593.81347
  21552712.758 6   -207789.355 6   -158999.76648  21552709.61348
  23025408.984 5    -88713.949 5    -66661.53947  23025410.77747
  20113322.805 7   -287730.613 7   -215877.62949  20113322.35949
  23745176.461 4    135881.039 4    102689.22746  23745175.73846
 20  5 16  1 52  9.0000000  0  8G04G08G09G11G16G26G27G31            -0.000364164
  21414291.234 6   -318482.695 6   -237945.23048  21414290.04348
  20407228.492 7   -872580.664 7   -655719.65249  20407229.60249
  22753725.359 6   -816661.137 6   -617766.21949  22753724.85549
  22849577.984 6  -1414496.594 6  -1057681.04747  22849576.14547
  21552568.602 6   -208546.875 6   -159590.03948  21552565.53948
  23025352.016 5    -89015.691 5    -66896.66447  23025353.21547
  20113131.430 7   -288735.414 7   -216660.59449  20113131.44549
  23745290.734 4    136480.352 4    103156.21947  23745289.87147
 20  5 16  1 52 10.0000000  0  8G04G08G09G11G16G26G27G31            -0.000365450
  21414085.680 6   -319564.109 6   -238787.89848  21414084.62548
  20406628.719 7   -875732.551 7   -658175.67249  20406629.92249
  22753159.047 6   -819636.582 6   -620084.74649  22753158.35549
  22848560.859 6  -1419844.402 6  -1061848.17647  22848558.50047
  21552424.492 6   -209303.910 6   -160179.93448  21552421.60248
  23025294.375 5    -89317.039 5    -67131.48047  23025296.09447
  20112940.242 7   -289739.215 7   -217442.78149  20112939.86749
  23745405.047 4    137080.281 4    103623.69547  23745404.11347
 20  5 16  1 52 11.0000000  0  8G04G08G09G11G16G26G27G31            -0.000366737
  21413879.992 6   -320644.594 6   -239629.83648  21413878.99248
  20406029.039 7   -878883.535 7   -660630.98049  20406030.18849
  22752593.383 6   -822611.094 6   -622402.54749  22752592.37949
  22847543.055 6  -1425191.707 6  -1066014.90247  22847541.11747
  21552280.547 6   -210060.539 6   -160769.52348  21552277.42648
  23025236.813 5    -89618.023 5    -67366.02047  23025238.53547
  20112749.531 7   -290742.117 7   -218224.25849  20112749.19949
  23745519.172 5    137680.867 5    104091.69147  23745518.20747
 20  5 16  1 52 12.0000000  0  8G04G08G09G11G16G26G27G31            -0.000368023
  21413674.453 6   -321724.059 6   -240470.97748  21413673.60248
  20405429.727 7   -882033.523 7   -663085.52349  20405430.64149
  22752027.070 6   -825584.555 6   -624719.53549  22752026.90649
  22846525.305 6  -1430538.402 6  -1070181.15647  22846523.81347
  21552136.570 6   -210816.660 6   -161358.70348  21552133.54748
  23025179.836 5    -89918.543 5    -67600.19547  23025181.08647
  20112559.305 7   -291744.020 7   -219004.96549  20112558.86349
  23745633.734 5    138282.141 5    104560.21546  23745632.63346
 20  5 16  1 52 13.0000000  0  8G04G08G09G11G16G26G27G31            -0.000369310
  21413468.938 6   -322802.484 6   -241311.31348  21413468.60248
  20404830.758 7   -885182.453 7   -665539.23049  20404831.62149
  22751461.453 6   -828556.953 6   -627035.68449  22751461.19149
  22845508.680 6  -1435884.465 6  -1074346.93047  22845506.52747
  21551993.055 6   -211572.270 6   -161947.49648  21551989.88748
  23025122.531 5    -90218.574 5    -67833.98047  23025124.34447
  20112368.734 7   -292744.855 7   -219784.83249  20112368.25049
  23745748.508 4    138884.105 4    105029.29347  23745746.93847
 20  5 16  1 52 14.0000000  0  8G04G08G09G11G16G26G27G31            -0.000370596
  21413264.133 6   -323879.863 6   -242150.83248  21413263.22348
  20404231.664 7   -888330.340 7   -667992.13349  20404232.62549
  22750896.313 6   -831528.313 6   -629351.02749  22750895.50449
  22844491.305 6  -1441229.883 6  -1078512.18047  22844489.15647
  21551849.188 6   -212327.332 6   -162535.85248  21551845.68448
  23025065.438 5    -90518.152 5    -68067.42247  23025067.28947
  20112178.234 7   -293744.684 7   -220563.92649  20112177.85949
  23745862.867 5    139486.836 5    105498.93847  23745861.98847
 20  5 16  1 52 15.0000000  0  8G04G08G09G11G16G26G27G31            -0.000371881
  21413059.063 6   -324956.148 6   -242989.49648  21413058.68848
  20403632.906 7   -891477.180 7   -670444.21949  20403633.72349
  22750330.750 6   -834498.563 6   -631665.51249  22750330.44149
  22843474.227 6  -1446574.637 6  -1082676.92247  22843472.20347
  21551705.547 6   -213081.855 6   -163123.79348  21551702.09848
  23025008.586 5    -90817.191 5    -68300.44147  23025010.27747
  20111988.305 7   -294743.441 7   -221342.17649  20111988.08249
  23745977.969 5    140090.328 5    105969.18447  23745976.74247
 20  5 16  1 52 16.0000000  0  8G04G08G09G11G16G26G27G31            -0.000373165
  21412854.797 6   -326031.383 6   -243827.34448  21412854.03948
  20403034.188 6   -894622.938 6   -672895.45349  20403035.08649
  22749766.148 6   -837467.730 6   -633979.14849  22749765.29349
  22842456.922 6  -1451918.734 6  -1086841.15647  22842455.42647
  21551562.055 6   -213835.797 6   -163711.28148  21551558.74648
  23024951.945 5    -91115.711 5    -68533.05547  23024953.34447
  20111798.336 7   -295741.133 7   -222119.59849  20111797.98849
  23746093.180 5    140694.578 5    106440.02046  23746091.77046
 20  5 16  1 52 17.0000000  0  8G04G08G09G11G16G26G27G31            -0.000374453
  21412650.422 6   -327105.516 6   -244664.33248  21412649.55148
  20402435.680 6   -897767.609 6   -675345.84449  20402436.85249
  22749201.000 6   -840435.793 6   -636291.92249  22749200.47349
  22841439.930 6  -1457262.160 6  -1091004.86347  22841438.51247
  21551418.375 6   -214589.211 6   -164298.35948  21551415.80948
  23024895.430 5    -91413.734 5    -68765.28147  23024896.62547
  20111608.820 7   -296737.785 7   -222896.21149  20111608.52349
  23746208.070 5    141299.570 5    106911.44547  23746207.00047
 20  5 16  1 52 18.0000000  0  8G04G08G09G11G16G26G27G31            -0.000375734
  21412445.641 6   -328178.625 6   -245500.52348  21412445.29748
  20401837.805 7   -900911.234 7   -677795.42649  20401838.46149
  22748636.141 6   -843402.816 6   -638603.89149  22748635.96149
  22840423.438 6  -1462604.938 6  -1095168.06347  22840421.79747
  21551275.234 6   -215342.043 6   -164884.97748  21551272.32448
  23024838.102 5    -91711.258 5    -68997.12147  23024840.64547
  20111418.938 7   -297733.352 7   -223671.98049  20111418.92249
  23746322.680 4    141905.316 4    107383.44947  23746322.25847
 20  5 16  1 52 19.0000000  0  8G04G08G09G11G16G26G27G31            -0.000377020
  21412241.922 6   -329250.629 6   -246335.84848  21412241.36348
  20401239.250 7   -904053.766 7   -680244.14849  20401240.22349
  22748072.125 6   -846368.707 6   -640914.97349  22748071.39849
  22839406.836 6  -1467947.004 6  -1099330.71147  22839405.14147
  21551131.797 6   -216094.324 6   -165471.16848  21551129.10248
  23024782.211 5    -92008.254 5    -69228.55147  23024783.74647
  20111230.000 7   -298727.871 7   -224446.93049  20111229.72749
  23746438.156 5    142511.852 5    107856.07447  23746437.62547
 20  5 16  1 52 20.0000000  0  8G04G08G09G11G16G26G27G31            -0.000378304
  21412038.484 6   -330321.473 6   -247170.27048  21412037.54348
  20400641.547 7   -907195.152 7   -682691.98449  20400642.62149
  22747508.070 6   -849333.402 6   -643225.12949  22747507.45349
  22838390.734 6  -1473288.367 6  -1103492.81647  22838389.34847
  21550989.297 6   -216845.941 6   -166056.84848  21550986.12548
  23024725.906 5    -92304.605 5    -69459.48847  23024727.55947
  20111040.914 7   -299721.234 7   -225220.97749  20111040.41449
  23746554.109 5    143119.254 5    108329.37547  23746553.16047
 20  5 16  1 52 21.0000000  0  8G04G08G09G11G16G26G27G31            -0.000379587
  21411834.789 6   -331391.168 6   -248003.80148  21411833.71948
  20400044.367 6   -910335.395 6   -685138.92249  20400044.84849
  22746944.391 6   -852296.973 6   -645534.39849  22746943.94549
  22837374.617 6  -1478628.957 6  -1107654.30947  22837372.61747
  21550846.516 6   -217596.965 6   -166642.06348  21550843.24248
  23024669.984 5    -92600.430 5    -69690.00447  23024671.06647
  20110852.250 7   -300713.473 7   -225994.14549  20110851.94149
  23746670.148 5    143727.441 5    108803.28946  23746669.26246
 20  5 16  1 52 22.0000000  0  8G04G08G09G11G16G26G27G31            -0.000380869
  21411631.477 6   -332459.727 6   -248836.45348  21411630.70348
  20399446.961 6   -913474.512 6   -687584.99249  20399447.60249
  22746380.547 6   -855259.395 6   -647842.78549  22746379.56349
  22836357.992 6  -1483968.848 6  -1111815.26647  22836356.39147
  21550703.273 6   -218347.340 6   -167226.76648  21550700.38748
  23024613.516 6    -92895.684 6    -69920.06647  23024615.06347
  20110664.008 7   -301704.570 7   -226766.43849  20110663.35949
  23746785.641 5    144336.441 5    109277.82447  23746785.10947
 20  5 16  1 52 23.0000000  0  8G04G08G09G11G16G26G27G31            -0.000382154
  21411428.594 6   -333527.168 6   -249668.22348  21411427.03548
  20398849.555 6   -916612.512 6   -690030.18449  20398850.28149
  22745816.484 6   -858220.664 6   -650150.27049  22745815.93849
  22835342.164 6  -1489308.027 6  -1115975.66047  22835340.41847
  21550560.820 6   -219097.117 6   -167811.01248  21550558.25448
  23024557.320 5    -93190.352 5    -70149.67247  23024559.20747
  20110475.305 7   -302694.582 7   -227537.87549  20110474.95749
  23746901.891 5    144946.285 5    109753.02047  23746901.19947
 20  5 16  1 52 24.0000000  0  8G04G08G09G11G16G26G27G31            -0.000383434
  21411225.414 6   -334593.484 6   -250499.12548  21411224.43048
  20398252.602 6   -919749.391 6   -692474.50449  20398253.41049
  22745253.438 6   -861180.813 6   -652456.87549  22745252.75849
  22834326.148 6  -1494646.469 6  -1120135.48847  22834324.13747
  21550418.313 6   -219846.289 6   -168394.78548  21550414.97348
  23024501.719 6    -93484.473 6    -70378.85247  23024502.66447
  20110287.273 7   -303683.457 7   -228308.43049  20110286.98049
  23747018.320 5    145556.945 5    110228.85247  23747017.26647
 20  5 16  1 52 25.0000000  0  8G04G08G09G11G16G26G27G31            -0.000384718
  21411022.578 6   -335658.617 6   -251329.09848  21411021.88748
  20397656.016 6   -922885.082 6   -694917.89849  20397656.95749
  22744690.055 6   -864139.711 6   -654762.51249  22744689.89849
  22833310.594 6  -1499984.145 6  -1124294.71147  22833308.75847
  21550276.211 6   -220594.785 6   -168978.03148  21550273.04748
  23024445.555 6    -93777.941 6    -70607.52747  23024446.98847
  20110099.234 7   -304671.145 7   -229078.05149  20110098.28949
  23747134.820 5    146168.441 5    110705.34847  23747134.08247
 20  5 16  1 52 26.0000000  0  8G04G08G09G11G16G26G27G31            -0.000386000
  21410820.164 6   -336722.504 6   -252158.10548  21410819.35248
  20397059.625 7   -926019.555 7   -697360.34849  20397059.98849
  22744127.320 6   -867097.391 6   -657067.19949  22744126.86349
  22832295.211 6  -1505320.961 6  -1128453.27047  22832292.47747
  21550133.914 6   -221342.563 6   -169560.71548  21550130.52348
  23024390.023 5    -94070.770 5    -70835.71147  23024390.99247
  20109911.383 7   -305657.645 7   -229846.75049  20109910.87549
  23747251.258 5    146780.891 5    111182.57447  23747250.19547
 20  5 16  1 52 27.0000000  0  8G04G08G09G11G16G26G27G31            -0.000387281
  21410618.328 6   -337785.215 6   -252986.19148  21410617.11748
  20396463.391 6   -929152.824 6   -699801.85249  20396464.04749
  22743564.594 6   -870053.859 6   -659370.93849  22743564.66849
  22831279.250 6  -1510657.027 6  -1132611.24247  22831277.40647
  21549991.727 6   -222089.664 6   -170142.87148  21549988.54348
  23024334.180 5    -94362.898 5    -71063.34847  23024335.93047
  20109723.992 7   -306642.949 7   -230614.52049  20109723.62549
  23747367.695 5    147394.207 5    111660.48447  23747366.98447
 20  5 16  1 52 28.0000000  0  8G04G08G09G11G16G26G27G31            -0.000388561
  21410416.375 6   -338846.637 6   -253813.27048  21410414.99248
  20395867.594 7   -932284.832 7   -702242.38349  20395868.13749
  22743002.523 6   -873009.004 6   -661673.64849  22743002.23049
  22830264.453 6  -1515992.203 6  -1136768.52347  22830262.16047
  21549849.125 6   -222836.016 6   -170724.44548  21549846.18848
  23024278.617 6    -94654.363 6    -71290.47347  23024279.63747
  20109536.484 7   -307626.980 7   -231381.30149  20109536.31649
  23747484.906 5    148008.551 5    112139.18047  23747483.91447
 20  5 16  1 52 29.0000000  0  8G04G08G09G11G16G26G27G31            -0.000389843
  21410214.453 6   -339906.793 6   -254639.36348  21410213.28948
  20395271.547 7   -935415.617 7   -704681.95349  20395272.40649
  22742440.648 6   -875962.938 6   -663975.41449  22742439.73449
  22829249.258 6  -1521326.523 6  -1140925.14147  22829246.93847
  21549707.422 6   -223581.613 6   -171305.42648  21549704.41048
  23024223.258 5    -94945.152 5    -71517.05947  23024224.55547
  20109349.484 7   -308609.785 7   -232147.12549  20109349.22349
  23747601.273 5    148623.750 5    112618.55547  23747600.95347
 20  5 16  1 52 30.0000000  0  8G04G08G09G11G16G26G27G31            -0.000391121
  21410013.188 6   -340965.734 6   -255464.51248  21410011.92648
  20394676.125 6   -938545.160 6   -707120.56349  20394676.83249
  22741878.648 6   -878915.617 6   -666276.19949  22741878.30549
  22828234.391 6  -1526660.035 6  -1145081.12547  22828232.16047
  21549565.438 6   -224326.520 6   -171885.87548  21549562.50048
  23024167.938 6    -95235.254 6    -71743.11347  23024169.16047
  20109163.047 7   -309591.395 7   -232912.01649  20109162.16849
  23747718.383 5    149239.863 5    113098.64147  23747718.11347
 20  5 16  1 52 31.0000000  0  8G04G08G09G11G16G26G27G31            -0.000392403
  21409811.359 6   -342023.379 6   -256288.65248  21409810.35948
  20394081.000 6   -941673.414 6   -709558.16849  20394081.78549
  22741317.336 6   -881866.953 6   -668575.94549  22741316.34849
  22827219.922 6  -1531992.645 6  -1149236.39847  22827217.46147
  21549423.945 6   -225070.621 6   -172465.69948  21549421.23048
  23024113.063 5    -95524.605 5    -71968.58247  23024114.52347
  20108976.195 7   -310571.652 7   -233675.84849  20108976.07449
  23747836.516 5    149857.020 5    113579.54347  23747835.80547
 20  5 16  1 52 32.0000000  0  8G04G08G09G11G16G26G27G31            -0.000393681
  21409610.641 6   -343079.734 6   -257111.78548  21409609.48048
  20393485.703 6   -944800.387 6   -711994.77049  20393486.36749
  22740755.469 6   -884816.996 6   -670874.67649  22740754.86349
  22826204.625 6  -1537324.398 6  -1153391.01647  22826202.45347
  21549282.531 6   -225813.969 6   -173044.93448  21549279.48448
  23024058.234 5    -95813.246 5    -72193.50047  23024059.52047
  20108789.836 7   -311550.688 7   -234438.73449  20108789.44549
  23747953.891 5    150475.109 5    114061.16847  23747953.35947
 20  5 16  1 52 33.0000000  0  8G04G08G09G11G16G26G27G31            -0.000394960
  21409409.586 6   -344134.785 6   -257933.90648  21409408.48048
  20392890.922 7   -947926.063 7   -714430.36349  20392891.27349
  22740194.469 6   -887765.719 6   -673172.38749  22740193.56349
  22825190.664 6  -1542655.207 6  -1157544.89147  22825188.21547
  21549141.508 6   -226556.504 6   -173623.53148  21549138.27348
  23024003.203 5    -96101.152 5    -72417.84047  23024004.85247
  20108604.336 7   -312528.395 7   -235200.58649  20108603.24249
  23748071.547 5    151094.195 5    114543.56646  23748071.39846
 20  5 16  1 52 34.0000000  0  8G04G08G09G11G16G26G27G31            -0.000396236
  21409209.242 6   -345188.504 6   -258754.98848  21409208.53148
  20392296.438 7   -951050.406 7   -716864.91449  20392297.20749
  22739633.820 6   -890713.086 6   -675469.03549  22739633.29749
  22824175.875 6  -1547985.121 6  -1161698.07447  22824174.22347
  21549000.008 6   -227298.242 6   -174201.50848  21548997.25448
  23023948.313 5    -96388.262 5    -72641.56347  23023950.21947
  20108418.297 7   -313504.832 7   -235961.44549  20108417.66449
  23748189.867 5    151714.316 5    115026.77347  23748189.16847
 20  5 16  1 52 35.0000000  0  8G04G08G09G11G16G26G27G31            -0.000397514
  21409008.938 6   -346240.926 6   -259575.06348  21409007.87548
  20391702.188 6   -954173.465 6   -719298.46949  20391702.60549
  22739072.695 6   -893659.160 6   -677764.68049  22739072.52349
  22823161.867 6  -1553314.129 6  -1165850.54347  22823159.89547
  21548859.625 6   -228039.199 6   -174778.87948  21548856.17648
  23023894.813 5    -96674.648 5    -72864.72747  23023895.67647
  20108232.695 7   -314479.938 7   -236721.27049  20108232.47749
  23748307.445 5    152335.398 5    115510.73047  23748307.69147
 20  5 16  1 52 36.0000000  0  8G04G08G09G11G16G26G27G31            -0.000398790
  21408809.102 6   -347291.941 6   -260394.03148  21408807.94148
  20391108.063 7   -957295.094 7   -721730.90649  20391108.58249
  22738512.750 6   -896603.801 6   -680059.20349  22738512.67249
  22822148.289 6  -1558642.121 6  -1170002.22347  22822145.99647
  21548717.977 6   -228779.227 6   -175355.52048  21548715.18448
  23023840.227 5    -96960.152 5    -73087.19947  23023841.50847
  20108047.445 7   -315453.656 7   -237480.00849  20108046.88349
  23748425.719 5    152957.617 5    115995.57447  23748426.01647
 20  5 16  1 52 37.0000000  0  8G04G08G09G11G16G26G27G31            -0.000400068
  21408609.328 6   -348341.605 6   -261211.95348  21408608.16848
  20390514.258 7   -960415.375 7   -724162.29349  20390515.06649
  22737952.227 6   -899547.000 6   -682352.60249  22737951.98449
  22821134.859 6  -1563969.184 6  -1174153.18047  22821132.65247
  21548577.523 6   -229518.441 6   -175931.52748  21548574.59848
  23023785.680 5    -97244.855 5    -73309.04347  23023787.17247
  20107862.250 7   -316426.020 7   -238237.69549  20107861.84849
  23748544.922 5    153580.867 5    116481.21547  23748544.30147
 20  5 16  1 52 38.0000000  0  8G04G08G09G11G16G26G27G31            -0.000401344
  21408409.695 6   -349389.801 6   -262028.73048  21408408.97748
  20389921.031 7   -963534.250 7   -726592.58249  20389921.15649
  22737392.414 6   -902488.805 6   -684644.91849  22737392.71949
  22820121.258 6  -1569295.203 6  -1178303.32847  22820118.85547
  21548437.336 6   -230256.738 6   -176506.82848  21548434.10948
  23023731.422 5    -97528.723 5    -73530.24247  23023733.19547
  20107677.320 7   -317396.980 7   -238994.28549  20107676.93049
  23748663.508 5    154205.250 5    116967.74647  23748663.43847
 20  5 16  1 52 39.0000000  0  8G04G08G09G11G16G26G27G31            -0.000402620
  21408210.461 6   -350436.555 6   -262844.38748  21408209.48448
  20389327.578 7   -966651.668 7   -729021.74649  20389328.00849
  22736833.164 6   -905429.148 6   -686936.09449  22736832.85549
  22819107.516 6  -1574620.184 6  -1182452.66847  22819105.63347
  21548296.695 6   -230994.090 6   -177081.38348  21548294.00448
  23023678.039 5    -97811.664 5    -73750.71547  23023679.14547
  20107493.164 7   -318366.500 7   -239749.75849  20107493.03149
  23748782.367 5    154830.742 5    117455.12547  23748782.34847
 20  5 16  1 52 40.0000000  0  8G04G08G09G11G16G26G27G31            -0.000403894
  21408011.578 6   -351481.863 6   -263658.90248  21408010.57848
  20388734.625 6   -969767.613 6   -731449.75049  20388735.11349
  22736273.453 6   -908368.000 6   -689226.11349  22736273.78149
  22818095.023 6  -1579944.098 6  -1186601.17647  22818092.66847
  21548156.766 6   -231730.508 6   -177655.21548  21548153.45348
  23023623.953 5    -98093.703 5    -73970.48847  23023625.55147
  20107308.961 7   -319334.555 7   -240504.08649  20107308.55549
  23748901.930 4    155457.430 4    117943.44546  23748901.72346
 20  5 16  1 52 41.0000000  0  8G04G08G09G11G16G26G27G31            -0.000405169
  21407813.109 6   -352525.637 6   -264472.23448  21407812.11348
  20388141.828 7   -972882.031 7   -733876.57449  20388142.66449
  22735714.852 6   -911305.285 6   -691514.90649  22735714.65649
  22817081.805 6  -1585266.898 6  -1190748.80947  22817079.32847
  21548016.492 6   -232465.887 6   -178228.23848  21548013.50848
  23023570.203 5    -98374.836 5    -74189.55947  23023571.89547
  20107124.570 7   -320301.102 7   -241257.23849  20107124.64149
  23749020.727 4    156085.309 4    118432.69946  23749021.26246
 20  5 16  1 52 42.0000000  0  8G04G08G09G11G16G26G27G31            -0.000406441
  21407614.898 6   -353567.918 6   -265284.41048  21407613.31648
  20387549.492 7   -975994.980 7   -736302.24649  20387549.85949
  22735156.398 6   -914241.078 6   -693802.53949  22735156.03149
  22816069.188 6  -1590588.605 6  -1194895.59447  22816067.03147
  21547877.211 6   -233200.309 6   -178800.52048  21547873.83648
  23023517.281 5    -98654.988 5    -74407.85547  23023518.60247
  20106941.344 7   -321266.172 7   -242009.24649  20106940.85249
  23749140.961 4    156714.320 4    118922.82346  23749140.99646
 20  5 16  1 52 43.0000000  0  8G04G08G09G11G16G26G27G31            -0.000407717
  21407416.820 6   -354608.672 6   -266095.38348  21407415.63348
  20386957.813 7   -979106.402 7   -738726.73449  20386957.86749
  22734598.031 6   -917175.348 6   -696088.98049  22734597.98849
  22815056.375 6  -1595909.223 6  -1199041.53147  22815054.27347
  21547737.352 6   -233933.734 6   -179372.02048  21547734.15648
  23023463.906 5    -98934.172 5    -74625.39847  23023465.18847
  20106757.875 7   -322229.734 7   -242760.07449  20106757.55949
  23749260.797 4    157344.582 4    119413.94146  23749260.94946
 20  5 16  1 52 44.0000000  0  8G04G08G09G11G16G26G27G31            -0.000408987
  21407218.977 6   -355647.891 6   -266905.16848  21407217.66448
  20386365.906 7   -982216.277 7   -741150.01249  20386366.50849
  22734039.563 6   -920108.066 6   -698374.21949  22734039.53949
  22814044.164 6  -1601228.672 6  -1203186.56347  22814042.09047
  21547598.234 6   -234666.129 6   -179942.72348  21547594.96148
  23023411.211 5    -99212.379 5    -74842.18847  23023412.45347
  20106574.656 7   -323191.754 7   -243509.69949  20106574.43049
  23749380.836 4    157976.059 4    119906.00046  23749380.84446
 20  5 16  1 52 45.0000000  0  8G04G08G09G11G16G26G27G31            -0.000410261
  21407021.328 6   -356685.539 6   -267713.72348  21407020.12548
  20385774.078 7   -985324.582 7   -743572.07049  20385774.84049
  22733481.875 6   -923039.160 6   -700658.18849  22733482.16849
  22813032.078 6  -1606546.977 6  -1207330.68847  22813029.95747
  21547459.180 6   -235397.469 6   -180512.59848  21547455.99248
  23023358.422 5    -99489.605 5    -75058.20747  23023359.70347
  20106392.008 7   -324152.234 7   -244258.12949  20106391.99649
  23749500.766 3    158608.789 3    120399.05546  23749501.34446
 20  5 16  1 52 46.0000000  0  8G04G08G09G11G16G26G27G31            -0.000411530
  21406824.102 6   -357721.586 6   -268521.02748  21406823.03948
  20385183.242 6   -988431.281 6   -745992.87549  20385183.60549
  22732924.352 6   -925968.652 6   -702940.91049  22732924.71549
  22812020.398 6  -1611864.063 6  -1211473.86747  22812018.34847
  21547320.000 6   -236127.699 6   -181081.60548  21547316.88348
  23023305.969 5    -99765.758 5    -75273.39147  23023307.14547
  20106209.578 7   -325111.117 7   -245005.30949  20106209.23049
  23749621.391 4    159242.820 4    120893.09846  23749622.20346
 20  5 16  1 52 47.0000000  0  8G04G08G09G11G16G26G27G31            -0.000412802
  21406627.477 6   -358755.992 6   -269327.05948  21406626.45348
  20384592.172 7   -991536.355 7   -748412.41449  20384592.49249
  22732367.516 6   -928896.492 6   -705222.34849  22732367.57449
  22811008.938 6  -1617179.910 6  -1215616.09047  22811006.52047
  21547181.586 6   -236856.813 6   -181649.74248  21547178.16848
  23023253.398 5   -100040.805 5    -75487.71147  23023254.91447
  20106027.352 7   -326068.348 7   -245751.20349  20106027.21949
  23749742.406 4    159878.227 4    121388.22746  23749743.03146
 20  5 16  1 52 48.0000000  0  8G04G08G09G11G16G26G27G31            -0.000414070
  21406431.023 6   -359788.680 6   -270131.75848  21406429.98048
  20384001.695 7   -994639.730 7   -750830.62549  20384001.96949
  22731810.188 6   -931822.594 6   -707502.43049  22731810.43849
  22809997.328 6  -1622494.469 6  -1219757.30547  22809994.77047
  21547042.695 6   -237584.762 6   -182216.97748  21547039.93848
  23023201.266 5   -100314.746 5    -75701.17647  23023202.57847
  20105845.477 7   -327023.906 7   -246495.79749  20105845.41849
  23749863.531 4    160514.965 4    121884.37146  23749863.97746
 20  5 16  1 52 49.0000000  0  8G04G08G09G11G16G26G27G31            -0.000415340
  21406234.547 6   -360819.676 6   -270935.12948  21406233.80148
  20383411.664 7   -997741.402 7   -753247.51249  20383411.73849
  22731254.117 6   -934746.977 6   -709781.17249  22731254.05549
  22808986.828 6  -1627807.719 6  -1223897.49647  22808984.28147
  21546904.375 6   -238311.488 6   -182783.25448  21546901.46948
  23023149.578 5   -100587.523 5    -75913.73447  23023150.65247
  20105664.273 7   -327977.758 7   -247239.05949  20105664.05549
  23749985.719 4    161153.074 4    122381.58646  23749985.28546
 20  5 16  1 52 50.0000000  0  8G04G08G09G11G16G26G27G31            -0.000416609
  21406038.883 6   -361848.961 6   -271737.17248  21406038.16048
  20382821.180 7  -1000841.355 7   -755663.05949  20382821.89549
  22730697.688 6   -937669.613 6   -712058.55149  22730698.27049
  22807975.445 6  -1633119.652 6  -1228036.66447  22807973.33647
  21546765.922 6   -239037.016 6   -183348.60248  21546763.24648
  23023098.328 5   -100859.137 5    -76125.38347  23023099.16847
  20105482.781 7   -328929.906 7   -247980.98449  20105482.80149
  23750107.039 4    161792.645 4    122879.94546  23750107.52046
 20  5 16  1 52 51.0000000  0  8G04G08G09G11G16G26G27G31            -0.000417877
  21405843.297 6   -362876.484 6   -272537.83648  21405841.99648
  20382232.117 7  -1003939.590 7   -758077.27049  20382232.26249
  22730142.141 6   -940590.512 6   -714334.57449  22730142.48849
  22806965.117 6  -1638430.234 6  -1232174.77347  22806962.66847
  21546628.625 6   -239761.297 6   -183912.98048  21546625.35248
  23023046.125 5   -101129.578 5    -76336.12947  23023047.54747
  20105302.227 7   -329880.344 7   -248721.59449  20105301.64549
  23750229.352 4    162433.625 4    123379.40246  23750229.12546
 20  5 16  1 52 52.0000000  0  8G04G08G09G11G16G26G27G31            -0.000419142
  21405647.883 6   -363902.258 6   -273337.14848  21405647.08648
  20381642.805 7  -1007036.059 7   -760490.10549  20381643.11749
  22729586.555 6   -943509.641 6   -716609.23049  22729586.36749
  22805954.633 6  -1643739.488 6  -1236311.85947  22805952.66847
  21546490.766 6   -240484.391 6   -184476.42648  21546487.80148
  23022995.125 5   -101398.832 5    -76545.94147  23022995.92647
  20105121.367 7   -330829.039 7   -249460.83249  20105121.21149
  23750351.820 4    163076.035 4    123879.97346  23750351.53546
 20  5 16  1 52 53.0000000  0  8G04G08G09G11G16G26G27G31            -0.000420410
  21405453.227 6   -364926.270 6   -274135.08248  21405451.82848
  20381053.859 7  -1010130.770 7   -762901.56649  20381054.19949
  22729031.398 6   -946426.938 6   -718882.44549  22729031.53949
  22804944.680 6  -1649047.359 6  -1240447.86347  22804942.53947
  21546353.445 6   -241206.195 6   -185038.87548  21546350.39848
  23022944.305 6   -101666.855 6    -76754.78947  23022945.17647
  20104941.039 7   -331775.961 7   -250198.69949  20104940.60549
  23750475.078 4    163719.914 4    124381.69147  23750474.03547
 20  5 16  1 52 54.0000000  0  8G04G08G09G11G16G26G27G31            -0.000421673
  21405258.711 6   -365948.387 6   -274931.53948  21405257.74248
  20380465.547 7  -1013223.590 7   -765311.55549  20380466.01249
  22728476.344 6   -949342.379 6   -721154.22349  22728476.97349
  22803935.297 6  -1654353.766 6  -1244582.72747  22803932.93447
  21546216.555 6   -241926.641 6   -185600.26648  21546213.19948
  23022893.102 5   -101933.574 5    -76962.62147  23022894.15647
  20104761.031 7   -332721.027 7   -250935.11349  20104761.24249
  23750598.109 4    164365.355 4    124884.63346  23750596.78146
 20  5 16  1 52 55.0000000  0  8G04G08G09G11G16G26G27G31            -0.000422939
  21405064.141 6   -366968.777 6   -275726.64548  21405063.75848
  20379877.188 7  -1016314.648 7   -767720.17249  20379877.43849
  22727922.516 6   -952256.039 6   -723424.60949  22727922.50449
  22802925.430 6  -1659658.832 6  -1248716.53947  22802923.32047
  21546079.977 6   -242645.844 6   -186160.68848  21546076.46148
  23022842.813 5   -102199.043 5    -77169.47347  23022843.94947
  20104581.703 7   -333664.344 7   -251670.16449  20104581.76249
  23750720.984 4    165012.254 4    125388.71147  23750719.94947
 20  5 16  1 52 56.0000000  0  8G04G08G09G11G16G26G27G31            -0.000424202
  21404870.820 6   -367987.277 6   -276520.28548  21404869.78548
  20379289.180 7  -1019403.891 7   -770127.37949  20379289.49249
  22727368.125 6   -955167.828 6   -725693.53949  22727368.53149
  22801916.305 6  -1664962.414 6  -1252849.19947  22801913.94547
  21545942.945 6   -243363.711 6   -186720.06648  21545939.64548
  23022792.531 5   -102463.273 5    -77375.37147  23022793.46147
  20104402.570 7   -334605.828 7   -252403.78549  20104402.52049
  23750843.875 5    165660.652 5    125893.96147  23750843.44547
 20  5 16  1 52 57.0000000  0  8G04G08G09G11G16G26G27G31            -0.000425467
  21404677.570 6   -369003.887 6   -277312.45348  21404676.65648
  20378701.727 7  -1022491.148 7   -772533.03549  20378702.00449
  22726813.977 6   -958077.652 6   -727960.93049  22726815.00049
  22800907.453 6  -1670264.488 6  -1256980.68447  22800905.38747
  21545806.258 6   -244080.160 6   -187278.33648  21545803.63348
  23022742.664 5   -102726.137 5    -77580.19947  23022743.53147
  20104223.711 7   -335545.391 7   -253135.91449  20104223.39149
  23750967.313 5    166310.699 5    126400.50047  23750966.93447
 20  5 16  1 52 58.0000000  0  8G04G08G09G11G16G26G27G31            -0.000426725
  21404484.008 6   -370018.535 6   -278103.08648  21404483.05148
  20378114.922 7  -1025576.508 7   -774937.21149  20378115.07049
  22726260.648 6   -960985.539 6   -730226.81649  22726261.20349
  22799898.641 6  -1675565.039 6  -1261110.98847  22799896.49247
  21545670.219 6   -244795.195 6   -187835.50448  21545667.55548
  23022692.844 5   -102987.586 5    -77783.93047  23022694.17647
  20104045.477 7   -336483.027 7   -253866.53949  20104045.31349
  23751091.906 5    166962.348 5    126908.28147  23751091.10247
 20  5 16  1 52 59.0000000  0  8G04G08G09G11G16G26G27G31            -0.000427988
  21404291.727 6   -371031.152 6   -278892.13748  21404290.52048
  20377527.766 7  -1028659.828 7   -777339.79349  20377528.50049
  22725707.977 6   -963891.367 6   -732491.09449  22725708.65249
  22798890.438 6  -1680863.938 6  -1265240.00047  22798888.22747
  21545534.570 6   -245508.707 6   -188391.48448  21545531.87148
  23022643.234 6   -103247.570 6    -77986.51247  23022644.41047
  20103867.227 7   -337418.641 7   -254595.59049  20103867.22349
  23751215.563 5    167615.727 5    127417.40247  23751215.48047
 20  5 16  1 53  0.0000000  0  8G04G08G09G11G16G26G27G31            -0.000429247
  21404099.375 6   -372041.793 6   -279679.64548  21404097.98448
  20376941.406 7  -1031741.164 7   -779740.83249  20376942.32449
  22725155.602 6   -966795.191 6   -734753.81649  22725155.51249
  22797882.289 6  -1686161.254 6  -1269367.78147  22797880.16847
  21545399.219 6   -246220.758 6   -188946.33648  21545396.03548
  23022593.836 5   -103506.121 5    -78187.98047  23022594.99647
  20103689.625 7   -338352.270 7   -255323.09449  20103689.78549
  23751340.297 5    168270.797 5    127927.84047  23751340.05947
 20  5 16  1 53  1.0000000  0  8G04G08G09G11G16G26G27G31            -0.000430508
  21403907.133 6   -373050.355 6   -280465.53948  21403906.23848
  20376355.148 7  -1034820.438 7   -782140.27049  20376355.93849
  22724603.148 6   -969696.930 6   -737014.91049  22724603.72749
  22796874.773 6  -1691456.957 6  -1273494.29747  22796872.59447
  21545264.000 6   -246931.250 6   -189499.96948  21545260.99648
  23022545.180 5   -103763.211 5    -78388.31347  23022546.48047
  20103512.477 7   -339283.875 7   -256049.02049  20103512.44149
  23751465.164 5    168927.570 5    128439.60547  23751464.96147
 20  5 16  1 53  2.0000000  0  8G04G08G09G11G16G26G27G31            -0.000431765
  21403715.242 6   -374056.941 6   -281249.89548  21403714.80948
  20375769.930 7  -1037897.680 7   -784538.12549  20375770.58249
  22724051.383 6   -972596.656 6   -739274.44149  22724051.89849
  22795867.305 6  -1696751.000 6  -1277619.52747  22795865.41447
  21545128.898 6   -247640.246 6   -190052.43448  21545126.36348
  23022496.336 5   -104018.836 5    -78587.50847  23022497.80947
  20103335.586 7   -340213.465 7   -256773.37949  20103335.53149
  23751590.406 4    169586.027 4    128952.69147  23751590.21947
 20  5 16  1 53  3.0000000  0  8G04G08G09G11G16G26G27G31            -0.000433023
  21403524.672 6   -375061.367 6   -282032.57048  21403523.64548
  20375185.055 7  -1040972.832 7   -786934.35249  20375185.40649
  22723499.867 6   -975494.234 6   -741532.29749  22723500.28149
  22794860.086 6  -1702043.344 6  -1281743.42647  22794858.16447
  21544994.555 6   -248347.652 6   -190603.65648  21544991.78548
  23022448.680 5   -104272.895 5    -78785.47347  23022449.16047
  20103159.039 7   -341140.973 7   -257496.11349  20103158.90249
  23751716.320 5    170246.383 5    129467.25047  23751715.64147
 20  5 16  1 53  4.0000000  0  8G04G08G09G11G16G26G27G31            -0.000434278
  21403333.906 6   -376063.680 6   -282813.59048  21403333.05148
  20374599.961 7  -1044045.840 7   -789328.90249  20374600.63349
  22722949.289 6   -978389.668 6   -743788.48049  22722949.44549
  22793852.914 6  -1707333.938 6  -1285865.96547  22793851.37947
  21544860.422 6   -249053.426 6   -191153.61348  21544857.16048
  23022400.633 5   -104525.359 5    -78982.19547  23022401.53147
  20102983.078 7   -342066.340 7   -258217.17649  20102982.89149
  23751842.273 5    170908.504 5    129983.19547  23751841.96147
 20  5 16  1 53  5.0000000  0  8G04G08G09G11G16G26G27G31            -0.000435535
  21403143.008 6   -377063.832 6   -283592.92648  21403142.60948
  20374015.711 7  -1047116.707 7   -791721.78149  20374016.14149
  22722398.617 6   -981282.922 6   -746042.96949  22722399.02349
  22792846.836 6  -1712622.793 6  -1289987.14847  22792844.55147
  21544726.008 6   -249757.559 6   -191702.28548  21544723.51648
  23022352.141 5   -104776.219 5    -79177.67247  23022353.63747
  20102807.227 7   -342989.574 7   -258936.57849  20102807.00049
  23751968.781 5    171572.516 5    130500.59047  23751968.23047
 20  5 16  1 53  6.0000000  0  8G04G08G09G11G16G26G27G31            -0.000436789
  21402953.609 6   -378061.863 6   -284370.62148  21402952.60548
  20373431.953 7  -1050185.445 7   -794113.00849  20373432.58649
  22721848.359 6   -984173.996 6   -748295.75049  22721848.42649
  22791840.445 6  -1717909.902 6  -1294106.97347  22791838.86747
  21544592.297 6   -250460.086 6   -192249.71548  21544589.30948
  23022304.617 5   -105025.500 5    -79371.92247  23022306.16447
  20102632.117 7   -343910.664 7   -259654.30949  20102632.10249
  23752095.203 5    172238.309 5    131019.39147  23752095.02047
 20  5 16  1 53  7.0000000  0  8G04G08G09G11G16G26G27G31            -0.000438042
  21402764.094 6   -379057.652 6   -285146.56348  21402763.40648
  20372847.820 7  -1053251.941 7   -796502.48449  20372848.96549
  22721298.500 6   -987062.852 6   -750546.80949  22721299.00449
  22790834.617 6  -1723195.188 6  -1298225.37547  22790832.57847
  21544459.258 6   -251160.871 6   -192795.78148  21544456.30548
  23022257.328 5   -105273.133 5    -79564.87947  23022258.40647
  20102457.383 7   -344829.543 7   -260370.32449  20102457.13749
  23752222.828 5    172906.023 5    131539.68047  23752222.42247
 20  5 16  1 53  8.0000000  0  8G04G08G09G11G16G26G27G31            -0.000439293
  21402575.414 6   -380051.223 6   -285920.76648  21402574.02748
  20372264.891 7  -1056316.230 7   -798890.24649  20372265.84049
  22720749.109 6   -989949.461 6   -752796.11349  22720749.82849
  22789829.773 6  -1728478.660 6  -1302342.36747  22789827.55547
  21544326.078 6   -251859.973 6   -193340.53548  21544323.09848
  23022210.992 5   -105519.086 5    -79756.53547  23022212.15647
  20102282.727 7   -345746.238 7   -261084.62949  20102282.50049
  23752349.703 5    173575.637 5    132061.45747  23752349.62947
 20  5 16  1 53  9.0000000  0  8G04G08G09G11G16G26G27G31            -0.000440546
  21402386.102 6   -381042.516 6   -286693.21148  21402385.28948
  20371682.180 7  -1059378.270 7   -801276.25049  20371683.03149
  22720200.742 6   -992833.797 6   -755043.64549  22720200.59049
  22788824.352 6  -1733760.262 6  -1306457.90647  22788822.03547
  21544193.203 6   -252557.328 6   -193883.93448  21544190.48448
  23022164.359 5   -105763.352 5    -79946.86747  23022165.09847
  20102108.531 7   -346660.676 7   -261797.18049  20102108.49249
  23752477.664 5    174247.203 5    132584.74647  23752477.81647
 20  5 16  1 53 10.0000000  0  8G04G08G09G11G16G26G27G31            -0.000441793
  21402198.258 6   -382031.578 6   -287463.91048  21402197.38748
  20371099.867 7  -1062438.066 7   -803660.50849  20371100.69149
  22719652.133 6   -995715.840 6   -757289.39849  22719652.10549
  22787819.523 6  -1739040.023 6  -1310572.00447  22787817.29747
  21544061.031 6   -253252.934 6   -194425.96948  21544057.98848
  23022118.344 5   -106005.918 5    -80135.89147  23022119.20747
  20101935.188 7   -347572.855 7   -262507.96949  20101935.06649
  23752605.945 5    174920.715 5    133109.56647  23752606.04747
 20  5 16  1 53 11.0000000  0  8G04G08G09G11G16G26G27G31            -0.000443045
  21402010.227 6   -383018.355 6   -288232.83248  21402008.93448
  20370518.242 6  -1065495.582 6   -806042.98849  20370518.93449
  22719103.977 6   -998595.617 6   -759533.37949  22719104.60549
  22786815.555 6  -1744317.879 6  -1314684.61747  22786813.31347
  21543928.641 6   -253946.770 6   -194966.61748  21543926.00848
  23022072.750 5   -106246.766 5    -80323.56647  23022073.33247
  20101761.977 7   -348482.785 7   -263217.00449  20101762.05149
  23752734.523 5    175596.211 5    133635.92647  23752734.64147
 20  5 16  1 53 12.0000000  0  8G04G08G09G11G16G26G27G31            -0.000444290
  21401823.328 6   -384002.770 6   -288999.90248  21401822.04748
  20369937.078 7  -1068550.734 7   -808423.62549  20369937.69949
  22718556.609 6  -1001472.984 6   -761775.48849  22718556.78149
  22785811.344 6  -1749593.789 6  -1318795.71947  22785809.09847
  21543796.828 6   -254638.770 6   -195505.83648  21543794.46948
  23022026.914 5   -106485.809 5    -80509.83647  23022027.98447
  20101589.359 7   -349390.352 7   -263924.20349  20101589.11749
  23752863.438 5    176273.773 5    134163.89547  23752863.29747
 20  5 16  1 53 13.0000000  0  8G04G08G09G11G16G26G27G31            -0.000445539
  21401636.219 6   -384984.848 6   -289765.16048  21401635.14548
  20369355.813 6  -1071603.559 6   -810802.44949  20369356.54749
  22718009.688 6  -1004348.016 6   -764015.77749  22718009.87949
  22784807.641 6  -1754867.762 6  -1322905.30547  22784805.85547
  21543665.883 6   -255328.926 6   -196043.61748  21543663.25048
  23021981.938 5   -106723.047 5    -80694.69547  23021983.29747
  20101416.969 7   -350295.602 7   -264629.59049  20101416.82049
  23752993.117 5    176953.316 5    134693.39847  23752992.75447
 20  5 16  1 53 14.0000000  0  8G04G08G09G11G16G26G27G31            -0.000446783
  21401449.648 6   -385964.578 6   -290528.59048  21401448.59848
  20368775.586 7  -1074654.051 7   -813179.45749  20368776.04749
  22717462.625 6  -1007220.648 6   -766254.19149  22717462.60949
  22783804.375 6  -1760139.813 6  -1327013.39847  22783802.58247
  21543534.883 6   -256017.301 6   -196580.02048  21543532.12148
  23021936.984 5   -106958.508 5    -80878.18847  23021938.41847
  20101245.344 7   -351198.527 7   -265333.16849  20101245.16849
  23753122.984 5    177634.891 5    135224.48847  23753122.52347
 20  5 16  1 53 15.0000000  0  8G04G08G09G11G16G26G27G31            -0.000448029
  21401263.727 6   -386941.930 6   -291290.16448  21401262.58248
  20368195.469 6  -1077702.141 6   -815554.59049  20368196.09049
  22716916.883 6  -1010090.902 6   -768490.75449  22716917.24649
  22782801.555 6  -1765409.844 6  -1331119.91847  22782799.72347
  21543404.188 6   -256703.730 6   -197114.89548  21543401.53548
  23021892.664 5   -107192.145 5    -81060.23847  23021893.57447
  20101073.734 7   -352099.082 7   -266034.89849  20101073.51249
  23753252.594 5    178318.566 5    135757.21547  23753252.43847
 20  5 16  1 53 16.0000000  0  8G04G08G09G11G16G26G27G31            -0.000449270
  21401078.586 6   -387916.852 6   -292049.84448  21401077.69948
  20367615.805 6  -1080747.781 6   -817927.81649  20367616.65649
  22716370.773 6  -1012958.707 6   -770725.40649  22716371.19949
  22781799.055 6  -1770677.855 6  -1335224.85947  22781797.36747
  21543273.898 6   -257388.289 6   -197648.31648  21543271.24648
  23021848.484 5   -107423.898 5    -81240.82047  23021849.69547
  20100903.016 7   -352997.203 7   -266734.73849  20100902.53149
  23753382.555 5    179004.367 5    136291.60947  23753383.00847
 20  5 16  1 53 17.0000000  0  8G04G08G09G11G16G26G27G31            -0.000450514
  21400893.102 6   -388889.270 6   -292807.57448  21400891.64548
  20367036.703 6  -1083790.934 6   -820299.10549  20367037.46549
  22715825.469 6  -1015823.992 6   -772958.09449  22715826.16849
  22780797.016 6  -1775943.762 6  -1339328.15647  22780794.68047
  21543143.922 6   -258070.848 6   -198180.19148  21543141.39148
  23021804.930 5   -107653.719 5    -81419.89847  23021805.87947
  20100732.500 7   -353892.836 7   -267432.63349  20100732.24649
  23753513.789 5    179692.328 5    136827.68047  23753513.41847
 20  5 16  1 53 18.0000000  0  8G04G08G09G11G16G26G27G31            -0.000451754
  21400708.445 6   -389859.254 6   -293563.40648  21400707.57448
  20366458.266 6  -1086831.691 6   -822668.53149  20366458.94549
  22715281.141 6  -1018686.840 6   -775188.88349  22715281.39849
  22779795.094 6  -1781207.625 6  -1343429.87147  22779793.44147
  21543014.773 6   -258751.492 6   -198710.56648  21543012.00048
  23021761.227 5   -107881.676 5    -81597.52747  23021762.57047
  20100562.438 7   -354786.074 7   -268128.66449  20100562.13349
  23753645.141 5    180382.418 5    137365.41047  23753645.34847
 20  5 16  1 53 19.0000000  0  8G04G08G09G11G16G26G27G31            -0.000452993
  21400524.617 6   -390826.773 6   -294317.32048  21400523.47348
  20365879.922 6  -1089869.941 6   -825035.99649  20365880.90649
  22714736.680 6  -1021547.172 6   -777417.71549  22714737.27749
  22778794.117 6  -1786469.496 6  -1347530.03547  22778792.22747
  21542885.883 6   -259430.203 6   -199239.43048  21542883.04348
  23021718.406 5   -108107.711 5    -81773.66847  23021719.22747
  20100392.719 7   -355676.824 7   -268822.75849  20100393.00449
  23753776.977 5    181074.645 5    137904.80147  23753776.80547
 20  5 16  1 53 20.0000000  0  8G04G08G09G11G16G26G27G31            -0.000454231
  21400341.391 6   -391791.766 6   -295069.25448  21400339.94548
  20365302.070 6  -1092905.715 6   -827401.53949  20365303.07449
  22714192.898 6  -1024404.969 6   -779644.57049  22714193.32449
  22777793.594 6  -1791729.203 6  -1351628.51247  22777791.20747
  21542756.602 6   -260106.898 6   -199766.72748  21542753.91448
  23021675.602 5   -108331.789 5    -81948.27347  23021676.57847
  20100223.914 7   -356565.086 7   -269514.90649  20100223.75449
  23753909.477 5    181769.102 5    138445.93047  23753908.84047
 20  5 16  1 53 21.0000000  0  8G04G08G09G11G16G26G27G31            -0.000455469
  21400157.680 6   -392754.277 6   -295819.26648  21400156.55948
  20364724.844 6  -1095938.945 6   -829765.09449  20364726.09049
  22713649.922 6  -1027260.242 6   -781869.46149  22713649.84849
  22776792.781 6  -1796986.793 6  -1355725.33647  22776790.60947
  21542628.367 6   -260781.582 6   -200292.44948  21542625.49248
  23021633.359 5   -108553.922 5    -82121.36347  23021634.93447
  20100055.461 7   -357450.867 7   -270205.12549  20100055.23449
  23754041.648 5    182465.727 5    138988.75447  23754041.40647
 20  5 16  1 53 22.0000000  0  8G04G08G09G11G16G26G27G31            -0.000456703
  21399975.211 6   -393714.195 6   -296567.25048  21399974.10248
  20364148.180 6  -1098969.609 6   -832126.65249  20364149.19549
  22713106.461 6  -1030112.941 6   -784092.34449  22713107.05149
  22775792.703 6  -1802242.242 6  -1359820.49647  22775790.28547
  21542500.367 6   -261454.234 6   -200816.59448  21542497.62148
  23021591.789 5   -108774.055 5    -82292.89547  23021592.71547
  20099887.219 7   -358334.086 7   -270893.34849  20099887.21149
  23754174.867 5    183164.629 5    139533.34847  23754174.58247
 20  5 16  1 53 23.0000000  0  8G04G08G09G11G16G26G27G31            -0.000457939
  21399792.859 6   -394671.586 6   -297313.27048  21399791.94948
  20363572.023 6  -1101997.723 6   -834486.22349  20363573.18849
  22712564.484 6  -1032963.055 6   -786313.20749  22712564.51649
  22774792.891 6  -1807495.523 6  -1363913.95747  22774791.04747
  21542372.500 6   -262124.844 6   -201339.14548  21542370.11748
  23021549.820 5   -108992.160 5    -82462.85247  23021551.20347
  20099719.547 7   -359214.773 7   -271579.59849  20099719.46149
  23754308.203 5    183865.734 5    140079.65647  23754308.12547
 20  5 16  1 53 24.0000000  0  8G04G08G09G11G16G26G27G31            -0.000459171
  21399611.563 6   -395626.434 6   -298057.30548  21399609.94948
  20362996.391 6  -1105023.293 6   -836843.80949  20362997.32849
  22712023.055 6  -1035810.613 6   -788532.08649  22712022.75449
  22773794.055 6  -1812746.684 6  -1368005.76647  22773791.43447
  21542245.359 6   -262793.434 6   -201860.12948  21542242.49248
  23021508.758 5   -109208.305 5    -82631.28147  23021509.94947
  20099552.594 7   -360092.938 7   -272263.87949  20099552.12549
  23754442.141 5    184569.117 5    140627.73847  23754441.62547
 20  5 16  1 53 25.0000000  0  8G04G08G09G11G16G26G27G31            -0.000460405
  21399430.273 6   -396578.715 6   -298799.35248  21399428.98448
  20362420.875 6  -1108046.305 6   -839199.39849  20362422.03149
  22711480.898 6  -1038655.602 6   -790748.96149  22711481.44949
  22772795.266 6  -1817995.656 6  -1372095.87147  22772792.91447
  21542118.938 6   -263459.961 6   -202379.50048  21542115.94548
  23021468.211 5   -109422.418 5    -82798.12547  23021469.62147
  20099386.094 7   -360968.516 7   -272946.14849  20099386.32049
  23754576.352 5    185274.734 5    141177.57447  23754576.19147
 20  5 16  1 53 26.0000000  0  8G04G08G09G11G16G26G27G31            -0.000461634
  21399249.328 6   -397528.418 6   -299539.37948  21399248.33248
  20361846.219 6  -1111066.727 6   -841552.97749  20361847.01649
  22710939.836 6  -1041497.980 6   -792963.80949  22710940.71149
  22771796.328 6  -1823242.449 6  -1376184.28147  22771794.38347
  21541992.125 6   -264124.441 6   -202897.28148  21541989.27048
  23021427.891 5   -109634.547 5    -82963.42647  23021429.15647
  20099219.484 7   -361841.570 7   -273626.44949  20099219.47349
  23754711.195 5    185982.578 5    141729.14547  23754710.64847
 20  5 16  1 53 27.0000000  0  8G04G08G09G11G16G26G27G31            -0.000462866
  21399068.883 6   -398475.535 6   -300277.39548  21399068.01248
  20361272.250 6  -1114084.609 6   -843904.57049  20361272.99649
  22710399.898 6  -1044337.742 6   -795176.60549  22710400.26649
  22770798.398 6  -1828487.066 6  -1380271.00047  22770796.46147
  21541866.258 6   -264786.836 6   -203413.43448  21541863.38348
  23021387.766 5   -109844.629 5    -83127.12547  23021389.20747
  20099054.047 7   -362712.027 7   -274304.72749  20099053.96149
  23754845.820 5    186692.750 5    142282.53147  23754845.68447
 20  5 16  1 53 28.0000000  0  8G04G08G09G11G16G26G27G31            -0.000464092
  21398889.094 6   -399420.105 6   -301013.42248  21398888.16848
  20360698.250 6  -1117099.902 6   -846254.15649  20360698.91049
  22709860.078 6  -1047174.930 6   -797387.39849  22709859.96549
  22769800.992 6  -1833729.504 6  -1384356.01247  22769798.96947
  21541740.742 6   -265447.172 6   -203927.98848  21541738.12548
  23021347.898 5   -110052.707 5    -83289.26647  23021349.52347
  20098888.758 7   -363579.934 7   -274981.02049  20098888.87549
  23754981.891 5    187405.141 5    142837.63747  23754981.19547
 20  5 16  1 53 29.0000000  0  8G04G08G09G11G16G26G27G31            -0.000465321
  21398709.930 6   -400362.055 6   -301747.40648  21398708.88348
  20360124.867 6  -1120112.613 6   -848601.72349  20360125.85949
  22709320.023 6  -1050009.543 6   -799596.18849  22709320.83249
  22768803.977 6  -1838969.766 6  -1388439.33247  22768801.66447
  21541615.477 6   -266105.469 6   -204440.94148  21541612.65248
  23021309.164 5   -110258.781 5    -83449.84447  23021310.28547
  20098724.234 7   -364445.301 7   -275655.33249  20098724.27049
  23755117.617 5    188119.820 5    143394.52747  23755117.23847
 20  5 16  1 53 30.0000000  0  8G04G08G09G11G16G26G27G31            -0.000466545
  21398531.125 6   -401301.445 6   -302479.40248  21398530.09048
  20359552.539 6  -1123122.719 6   -850947.25449  20359552.81349
  22708781.188 6  -1052841.488 6   -801802.89849  22708782.07049
  22767807.148 6  -1844207.813 6  -1392520.92647  22767805.09047
  21541490.609 6   -266761.648 6   -204952.25048  21541487.87148
  23021269.820 5   -110462.754 5    -83608.78547  23021271.70747
  20098559.805 7   -365308.035 7   -276327.59849  20098559.70349
  23755254.156 5    188836.758 5    143953.18447  23755253.48847
 20  5 16  1 53 31.0000000  0  8G04G08G09G11G16G26G27G31            -0.000467770
  21398353.047 6   -402238.199 6   -303209.34448  21398351.95348
  20358979.625 6  -1126130.266 6   -853290.79749  20358980.84049
  22708243.375 6  -1055670.816 6   -804007.57449  22708243.42249
  22766810.359 6  -1849443.656 6  -1396600.80547  22766808.73847
  21541365.719 6   -267415.730 6   -205461.92648  21541363.08248
  23021231.234 5   -110664.711 5    -83766.15647  23021233.13747
  20098396.375 7   -366168.203 7   -276997.85549  20098396.39149
  23755391.352 5    189556.023 5    144513.64847  23755390.28547
 20  5 16  1 53 32.0000000  0  8G04G08G09G11G16G26G27G31            -0.000468992
  21398175.484 6   -403172.324 6   -303937.23448  21398173.99248
  20358407.961 6  -1129135.145 6   -855632.25849  20358408.59049
  22707705.109 6  -1058497.492 6   -806210.18449  22707706.06349
  22765814.961 6  -1854677.270 6  -1400678.94547  22765812.43447
  21541241.859 6   -268067.723 6   -205969.96948  21541239.02748
  23021193.156 5   -110864.590 5    -83921.89847  23021194.85947
  20098233.148 7   -367025.762 7   -277666.08249  20098233.08249
  23755528.070 5    190277.605 5    145075.91447  23755528.12547
 20  5 16  1 53 33.0000000  0  8G04G08G09G11G16G26G27G31            -0.000470215
  21397997.945 6   -404103.910 6   -304663.13748  21397997.24248
  20357836.594 6  -1132137.488 6   -857971.75449  20357837.58249
  22707167.680 6  -1061321.629 6   -808410.80949  22707168.35949
  22764819.344 6  -1859908.711 6  -1404755.39547  22764817.03947
  21541118.063 6   -268717.645 6   -206476.40648  21541115.45748
  23021155.766 5   -111062.492 5    -84076.11747  23021157.38347
  20098070.336 7   -367880.770 7   -278332.32449  20098070.54349
  23755665.867 5    191001.410 5    145639.91847  23755665.71547
 20  5 16  1 53 34.0000000  0  8G04G08G09G11G16G26G27G31            -0.000471434
  21397820.930 6   -405032.871 6   -305387.01248  21397820.23448
  20357265.859 6  -1135137.188 6   -860309.18049  20357267.07449
  22706631.102 6  -1064143.078 6   -810609.34049  22706631.57049
  22763824.180 6  -1865137.941 6  -1408830.11747  22763821.81347
  21540994.609 6   -269365.465 6   -206981.20348  21540992.18048
  23021118.500 5   -111258.313 5    -84228.70347  23021120.27047
  20097908.594 7   -368733.168 7   -278996.52749  20097908.19149
  23755804.125 5    191727.535 5    146205.73047  23755803.82047
 20  5 16  1 53 35.0000000  0  8G04G08G09G11G16G26G27G31            -0.000472654
  21397644.773 6   -405959.281 6   -306108.89148  21397643.16448
  20356695.547 6  -1138134.375 6   -862644.65249  20356696.42649
  22706094.055 6  -1066961.973 6   -812805.88349  22706094.95349
  22762829.344 6  -1870365.020 6  -1412903.16447  22762827.30547
  21540872.289 6   -270011.273 6   -207484.43048  21540869.48048
  23021081.891 5   -111452.129 5    -84379.72747  23021083.28147
  20097746.469 7   -369583.020 7   -279658.75449  20097746.57049
  23755942.859 5    192455.895 5    146773.27747  23755942.50047
 20  5 16  1 53 36.0000000  0  8G04G08G09G11G16G26G27G31            -0.000473871
  21397469.164 6   -406883.102 6   -306828.75048  21397468.09448
  20356125.586 6  -1141128.988 6   -864978.11749  20356126.97749
  22705558.086 6  -1069778.258 6   -815000.39149  22705558.69949
  22761835.172 6  -1875589.918 6  -1416974.50447  22761833.21147
  21540749.484 6   -270654.980 6   -207986.02348  21540746.83648
  23021045.352 5   -111643.895 5    -84529.15647  23021046.84447
  20097585.531 7   -370430.305 7   -280318.97749  20097585.32049
  23756082.000 5    193186.543 5    147342.61747  23756081.91447
 20  5 16  1 53 37.0000000  0  8G04G08G09G11G16G26G27G31            -0.000475088
  21397294.594 6   -407804.383 6   -307546.63348  21397293.00848
  20355556.211 6  -1144121.020 6   -867309.57449  20355557.24249
  22705023.102 6  -1072592.008 6   -817192.91849  22705023.73449
  22760841.234 6  -1880812.648 6  -1421044.16847  22760839.19147
  21540627.180 6   -271296.664 6   -208486.03548  21540624.78148
  23021009.063 5   -111833.719 5    -84677.07447  23021010.30147
  20097424.781 7   -371275.066 7   -280977.23449  20097424.87549
  23756221.523 5    193919.445 5    147913.71147  23756221.05947
 20  5 16  1 53 38.0000000  0  8G04G08G09G11G16G26G27G31            -0.000476303
  21397119.195 6   -408723.078 6   -308262.50048  21397117.98848
  20354987.570 6  -1147110.461 6   -869639.00449  20354988.21549
  22704488.258 6  -1075403.113 6   -819383.38749  22704488.54749
  22759847.555 6  -1886033.211 6  -1425112.14547  22759845.91047
  21540505.813 6   -271936.258 6   -208984.42648  21540503.22748
  23020973.828 5   -112021.488 5    -84823.38747  23020974.71147
  20097264.227 7   -372117.258 7   -281633.48449  20097264.32849
  23756361.617 5    194654.555 5    148486.51647  23756360.92247
 20  5 16  1 53 39.0000000  0  8G04G08G09G11G16G26G27G31            -0.000477518
  21396944.211 6   -409639.277 6   -308976.43048  21396943.71948
  20354418.914 6  -1150097.426 6   -871966.51249  20354419.83249
  22703953.688 6  -1078211.688 6   -821571.89549  22703954.43449
  22758854.617 6  -1891251.641 6  -1429178.44947  22758852.84047
  21540384.266 6   -272573.887 6   -209481.28148  21540381.43448
  23020938.227 5   -112207.313 5    -84968.18447  23020939.50447
  20097104.430 7   -372956.969 7   -282287.80149  20097104.69549
  23756501.805 5    195391.910 5    149061.07847  23756501.37147
 20  5 16  1 53 40.0000000  0  8G04G08G09G11G16G26G27G31            -0.000478731
  21396770.930 6   -410552.910 6   -309688.34448  21396769.98848
  20353851.250 6  -1153081.836 6   -874292.03149  20353851.96949
  22703419.195 6  -1081017.730 6   -823758.41849  22703420.17249
  22757862.352 6  -1896467.941 6  -1433243.10547  22757860.26647
  21540263.406 6   -273209.480 6   -209976.55148  21540260.80948
  23020902.977 5   -112391.148 5    -85111.43847  23020904.50447
  20096944.820 7   -373794.133 7   -282940.14149  20096945.11749
  23756642.617 5    196131.465 5    149637.35547  23756642.37147
 20  5 16  1 53 41.0000000  0  8G04G08G09G11G16G26G27G31            -0.000479942
  21396597.383 6   -411464.004 6   -310398.28548  21396596.28148
  20353283.516 6  -1156063.684 6   -876615.54749  20353284.46549
  22702885.852 6  -1083821.148 6   -825942.90249  22702886.60549
  22756869.805 6  -1901682.039 6  -1437306.03147  22756867.89847
  21540142.969 6   -273843.020 6   -210470.21948  21540140.24648
  23020868.609 5   -112572.953 5    -85253.10547  23020870.16047
  20096786.344 7   -374628.750 7   -283590.49249  20096786.57049
  23756784.289 5    196873.223 5    150215.35247  23756783.39147
 20  5 16  1 53 42.0000000  0  8G04G08G09G11G16G26G27G31            -0.000481152
  21396424.648 6   -412372.551 6   -311106.24648  21396423.93048
  20352716.711 7  -1159042.992 7   -878937.08649  20352717.40649
  22702353.344 6  -1086622.074 6   -828125.44549  22702353.30949
  22755877.750 6  -1906894.023 6  -1441367.31647  22755876.09847
  21540022.969 6   -274474.516 6   -210962.29348  21540019.92648
  23020834.094 5   -112752.828 5    -85393.26647  23020835.83647
  20096628.234 7   -375460.836 7   -284238.87149  20096628.23449
  23756925.664 5    197617.305 5    150795.14147  23756925.05147
 20  5 16  1 53 43.0000000  0  8G04G08G09G11G16G26G27G31            -0.000482363
  21396252.305 6   -413278.625 6   -311812.27748  21396251.13748
  20352150.500 6  -1162019.848 6   -881256.71149  20352151.07049
  22701820.547 6  -1089420.449 6   -830305.99249  22701821.27349
  22754886.320 6  -1912103.922 6  -1445426.97347  22754884.25047
  21539902.844 6   -275104.082 6   -211452.86348  21539900.18448
  23020800.508 5   -112930.754 5    -85531.90647  23020801.76247
  20096470.109 7   -376290.465 7   -284885.33249  20096470.06349
  23757067.398 5    198363.492 5    151376.58247  23757067.32847
 20  5 16  1 53 44.0000000  0  8G04G08G09G11G16G26G27G31            -0.000483570
  21396080.453 6   -414182.230 6   -312516.39148  21396079.23848
  20351584.133 7  -1164994.223 7   -883574.41049  20351585.05149
  22701288.805 6  -1092216.336 6   -832484.61349  22701288.92249
  22753895.516 6  -1917311.723 6  -1449484.99647  22753893.65247
  21539783.609 6   -275731.672 6   -211941.89548  21539781.05948
  23020766.891 5   -113106.750 5    -85669.05147  23020768.50847
  20096312.930 7   -377117.637 7   -285529.88749  20096312.82449
  23757210.273 5    199111.852 5    151959.71947  23757209.66047
 20  5 16  1 53 45.0000000  0  8G04G08G09G11G16G26G27G31            -0.000484777
  21395908.742 6   -415083.344 6   -313218.55548  21395907.83248
  20351018.773 7  -1167966.109 7   -885890.16049  20351019.79749
  22700756.844 6  -1095009.719 6   -834661.27049  22700757.17249
  22752904.570 6  -1922517.465 6  -1453541.42247  22752902.93447
  21539664.344 6   -276357.293 6   -212429.39548  21539661.85948
  23020734.203 5   -113280.844 5    -85804.71947  23020735.36747
  20096155.938 7   -377942.355 7   -286172.52749  20096156.07849
  23757352.883 5    199862.379 5    152544.53147  23757352.26647
 20  5 16  1 53 46.0000000  0  8G04G08G09G11G16G26G27G31            -0.000485981
  21395737.688 6   -415982.121 6   -313918.90248  21395736.43448
  20350453.531 7  -1170935.621 7   -888204.06349  20350454.94949
  22700225.883 6  -1097800.723 6   -836836.07849  22700226.22749
  22751914.883 6  -1927721.219 6  -1457596.30147  22751912.62947
  21539545.648 6   -276981.055 6   -212915.44548  21539543.42248
  23020701.094 5   -113453.068 5    -85938.93047  23020702.52747
  20095999.234 7   -378764.695 7   -286813.31349  20095999.55549
  23757495.211 5    200614.980 5    153130.97347  23757495.66847
 20  5 16  1 53 47.0000000  0  8G04G08G09G11G16G26G27G31            -0.000487186
  21395567.289 6   -416878.477 6   -314617.36348  21395565.59048
  20349888.813 7  -1173902.777 7   -890516.13749  20349890.34849
  22699695.195 6  -1100589.344 6   -839009.02749  22699695.80549
  22750925.148 6  -1932923.012 6  -1461649.65247  22750923.11347
  21539427.508 6   -277602.996 6   -213400.08248  21539424.52348
  23020668.602 5   -113623.566 5    -86071.78147  23020670.23847
  20095843.594 7   -379584.688 7   -287452.26649  20095843.37949
  23757639.031 5    201369.594 5    153718.97347  23757639.14847
 20  5 16  1 53 48.0000000  0  8G04G08G09G11G16G26G27G31            -0.000488390
  21395397.250 6   -417772.516 6   -315314.01648  21395395.51648
  20349324.883 6  -1176867.543 6   -892826.34449  20349325.71149
  22699165.063 6  -1103375.551 6   -841180.09849  22699165.43049
  22749935.336 6  -1938122.813 6  -1465701.43847  22749933.34447
  21539309.820 6   -278223.020 6   -213883.21548  21539306.90648
  23020636.547 5   -113792.188 5    -86203.17247  23020638.47747
  20095687.578 7   -380402.328 7   -288089.38349  20095687.54749
  23757783.734 5    202126.352 5    154308.64847  23757783.12147
 20  5 16  1 53 49.0000000  0  8G04G08G09G11G16G26G27G31            -0.000489592
  21395227.516 6   -418664.148 6   -316008.80148  21395226.34048
  20348761.117 6  -1179829.898 6   -895134.67649  20348762.34049
  22698635.664 6  -1106159.355 6   -843349.29749  22698635.70749
  22748946.422 6  -1943320.645 6  -1469751.69547  22748944.37147
  21539191.484 6   -278841.203 6   -214364.91448  21539189.50048
  23020604.758 5   -113959.020 5    -86333.16847  23020606.05147
  20095532.438 7   -381217.590 7   -288724.65649  20095532.73449
  23757928.188 5    202885.121 5    154899.89547  23757927.80947
 20  5 16  1 53 50.0000000  0  8G04G08G09G11G16G26G27G31            -0.000490793
  21395058.031 6   -419553.414 6   -316701.73048  21395057.09848
  20348197.789 7  -1182789.902 7   -897441.16449  20348199.00849
  22698106.250 6  -1108940.785 6   -845516.64549  22698106.21949
  22747957.766 6  -1948516.504 6  -1473800.42247  22747955.84447
  21539074.414 6   -279457.535 6   -214845.17648  21539072.15248
  23020573.586 5   -114123.973 5    -86461.70347  23020574.75047
  20095377.922 7   -382030.512 7   -289358.10249  20095378.04749
  23758072.398 5    203645.938 5    155492.73847  23758072.50047
 20  5 16  1 53 51.0000000  0  8G04G08G09G11G16G26G27G31            -0.000491993
  21394889.320 6   -420440.367 6   -317392.86748  21394888.39848
  20347635.164 7  -1185747.578 7   -899745.85249  20347635.78149
  22697577.195 6  -1111719.859 6   -847682.15649  22697577.50449
  22746969.250 6  -1953710.418 6  -1477847.62147  22746967.42247
  21538957.734 6   -280072.051 6   -215324.01648  21538954.76648
  23020542.719 5   -114287.242 5    -86588.92647  23020543.65647
  20095223.641 7   -382841.117 7   -289989.74649  20095223.60249
  23758217.500 5    204408.789 5    156087.16847  23758217.44947
 20  5 16  1 53 52.0000000  0  8G04G08G09G11G16G26G27G31            -0.000493191
  21394721.211 6   -421325.012 6   -318082.19148  21394719.97748
  20347072.539 7  -1188702.984 7   -902048.76649  20347073.73849
  22697049.031 6  -1114496.609 6   -849845.85949  22697049.10249
  22745981.047 6  -1958902.426 6  -1481893.33647  22745979.51647
  21538841.016 6   -280684.801 6   -215801.48448  21538838.31348
  23020511.320 5   -114448.723 5    -86714.76247  23020513.02347
  20095069.828 7   -383649.434 7   -290619.60249  20095069.91449
  23758362.984 5    205173.621 5    156683.14147  23758363.37147
 20  5 16  1 53 53.0000000  0  8G04G08G09G11G16G26G27G31            -0.000494390
  21394553.430 6   -422207.449 6   -318769.80548  21394551.95348
  20346510.750 7  -1191656.172 7   -904349.94549  20346511.72349
  22696520.977 6  -1117271.141 6   -852007.83649  22696521.22349
  22744993.375 6  -1964092.633 6  -1485937.64847  22744991.82047
  21538724.727 6   -281295.828 6   -216277.61748  21538722.03148
  23020481.656 5   -114608.527 5    -86839.28947  23020482.92647
  20094916.633 7   -384455.551 7   -291247.74249  20094916.55549
  23758508.781 5    205940.355 5    157280.59047  23758509.57847
 20  5 16  1 53 54.0000000  0  8G04G08G09G11G16G26G27G31            -0.000495586
  21394385.609 6   -423087.672 6   -319455.69948  21394384.40648
  20345949.297 7  -1194607.168 7   -906649.42649  20345950.37149
  22695993.531 6  -1120043.434 6   -854168.06349  22695993.74249
  22744005.922 6  -1969281.004 6  -1489980.53547  22744004.38347
  21538608.570 6   -281905.168 6   -216752.42648  21538605.93048
  23020451.055 5   -114766.727 5    -86962.56347  23020452.52047
  20094763.578 7   -385259.480 7   -291874.17649  20094763.85949
  23758654.984 5    206709.004 5    157879.53947  23758655.18847
 20  5 16  1 53 55.0000000  0  8G04G08G09G11G16G26G27G31            -0.000496782
  21394218.945 6   -423965.719 6   -320139.89548  21394217.50848
  20345387.852 7  -1197555.965 7   -908947.19149  20345388.87549
  22695466.000 6  -1122813.516 6   -856326.57049  22695466.24649
  22743019.039 6  -1974467.602 6  -1494022.04347  22743017.54347
  21538492.789 6   -282512.844 6   -217225.93848  21538490.41048
  23020421.500 5   -114923.270 5    -87084.54347  23020422.71547
  20094611.000 7   -386061.242 7   -292498.93049  20094610.79349
  23758802.039 5    207479.496 5    158479.91847  23758802.13347
 20  5 16  1 53 56.0000000  0  8G04G08G09G11G16G26G27G31            -0.000497976
  21394051.602 6   -424841.598 6   -320822.39848  21394050.68048
  20344827.453 7  -1200502.637 7   -911243.30549  20344828.27749
  22694939.391 6  -1125581.438 6   -858483.39149  22694939.39849
  22742032.188 6  -1979652.418 6  -1498062.15647  22742031.01247
  21538377.922 6   -283118.855 6   -217698.15248  21538375.10548
  23020391.672 5   -115078.215 5    -87205.27747  23020392.84447
  20094459.016 7   -386860.852 7   -293122.00449  20094459.12149
  23758948.891 5    208251.828 5    159081.73047  23758948.66047
 20  5 16  1 53 57.0000000  0  8G04G08G09G11G16G26G27G31            -0.000499170
  21393885.445 6   -425715.355 6   -321503.25448  21393884.43848
  20344266.813 7  -1203447.145 7   -913537.72349  20344268.05949
  22694413.141 6  -1128347.164 6   -860638.50449  22694413.58249
  22741046.352 6  -1984835.500 6  -1502100.93447  22741044.66847
  21538262.578 6   -283723.250 6   -218169.11348  21538260.23848
  23020362.891 5   -115231.594 5    -87324.79747  23020364.23847
  20094307.273 7   -387658.344 7   -293743.42649  20094307.01649
  23759095.984 5    209026.023 5    159685.00047  23759096.32447
 20  5 16  1 53 58.0000000  0  8G04G08G09G11G16G26G27G31            -0.000500362
  21393720.063 6   -426586.953 6   -322182.41448  21393717.98448
  20343707.023 7  -1206389.504 7   -915830.46949  20343708.03149
  22693886.891 6  -1131110.754 6   -862791.95349  22693887.52049
  22740059.938 6  -1990016.844 6  -1506138.34847  22740058.98047
  21538147.906 6   -284326.035 6   -218638.81648  21538145.33648
  23020333.805 5   -115383.324 5    -87443.03147  23020335.30547
  20094155.430 7   -388453.703 7   -294363.19149  20094155.37949
  23759243.992 5    209802.035 5    160289.68447  23759244.37547
 20  5 16  1 53 58.9990000  0  8G04G08G09G11G16G26G27G31             0.000498447
  21393554.644 6   -427455.625 6   -322859.29748  21393552.95248
  20343147.972 7  -1209326.824 7   -918119.28949  20343149.03849
  22693362.440 6  -1133869.438 6   -864941.57849  22693362.31949
  22739075.269 6  -1995191.289 6  -1510170.37547  22739074.05047
  21538034.198 6   -284926.621 6   -219106.80948  21538031.34748
  23020305.331 5   -115533.422 5    -87559.98047  23020306.98747
  20094004.956 7   -389246.180 7   -294980.70349  20094004.86649
  23759391.878 5    210579.066 5    160895.14847  23759391.91347
 20  5 16  1 53 59.9990000  0  8G04G08G09G11G16G26G27G31             0.000497257
  21393389.300 6   -428323.137 6   -323535.28948  21393387.93348
  20342588.683 6  -1212265.074 6   -920408.83249  20342590.32749
  22692837.589 6  -1136628.898 6   -867091.80949  22692837.50349
  22738089.730 6  -2000369.336 6  -1514205.20747  22738087.89047
  21537919.737 6   -285526.348 6   -219574.12948  21537917.30048
  23020276.511 5   -115682.227 5    -87675.93447  23020278.71447
  20093854.222 7   -390037.508 7   -295597.32849  20093854.34749
  23759540.362 5    211358.535 5    161502.52047  23759540.36247
 20  5 16  1 54  0.9990000  0  8G04G08G09G11G16G26G27G31             0.000496065
  21393224.964 6   -429188.648 6   -324209.71548  21393223.52648
  20342029.823 7  -1215201.305 7   -922696.81349  20342031.18749
  22692312.620 6  -1139386.305 6   -869240.43849  22692312.48749
  22737105.151 6  -2005545.727 6  -1518238.75847  22737102.96447
  21537805.878 6   -286124.543 6   -220040.25048  21537803.33948
  23020249.198 5   -115829.539 5    -87790.72747  23020250.75347
  20093704.112 7   -390826.785 7   -296212.35249  20093704.02649
  23759689.003 5    212139.711 5    162111.22747  23759689.10147
 20  5 16  1 54  1.9990000  0  8G04G08G09G11G16G26G27G31             0.000494879
  21393060.300 6   -430052.125 6   -324882.55548  21393059.04648
  20341471.831 7  -1218135.523 7   -924983.21549  20341472.91349
  22691788.183 6  -1142141.695 6   -871387.49649  22691788.04249
  22736120.112 6  -2010720.527 6  -1522271.06647  22736118.24547
  21537692.105 6   -286721.258 6   -220505.22748  21537689.66748
  23020221.073 5   -115975.426 5    -87904.40247  23020222.72247
  20093554.425 7   -391614.109 7   -296825.84849  20093554.60849
  23759837.659 5    212922.594 5    162721.25847  23759838.29647
 20  5 16  1 54  2.9990000  0  8G04G08G09G11G16G26G27G31             0.000493689
  21392896.230 6   -430913.742 6   -325553.94948  21392895.12848
  20340913.769 7  -1221067.859 7   -927268.14849  20340914.56549
  22691264.019 6  -1144895.145 6   -873533.04749  22691264.39049
  22735136.222 6  -2015893.836 6  -1526302.22347  22735134.05047
  21537579.136 6   -287316.598 6   -220969.12548  21537576.33148
  23020193.558 5   -116119.945 5    -88017.02047  23020195.28847
  20093404.792 7   -392399.520 7   -297437.85249  20093404.38649
  23759986.698 5    213707.031 5    163332.50847  23759987.19847
 20  5 16  1 54  3.9990000  0  8G04G08G09G11G16G26G27G31             0.000492502
  21392732.722 6   -431773.367 6   -326223.78548  21392731.42548
  20340356.261 7  -1223998.219 7   -929551.55149  20340357.53849
  22690740.339 6  -1147646.590 6   -875677.03149  22690740.68749
  22734151.815 6  -2021065.520 6  -1530332.10947  22734150.20647
  21537465.878 6   -287910.457 6   -221431.87948  21537463.09348
  23020166.151 5   -116263.047 5    -88128.53147  23020167.99147
  20093255.956 7   -393182.977 7   -298048.34849  20093255.74149
  23760136.933 5    214493.180 5    163945.09847  23760136.81947
 20  5 16  1 54  4.9990000  0  8G04G08G09G11G16G26G27G31             0.000491316
  21392569.386 6   -432631.102 6   -326892.14548  21392568.01548
  20339798.690 7  -1226926.691 7   -931833.47749  20339800.01149
  22690217.323 6  -1150396.133 6   -877819.52349  22690217.44849
  22733167.894 6  -2026235.699 6  -1534360.82047  22733166.01547
  21537353.464 6   -288502.922 6   -221893.53948  21537350.55448
  23020139.386 5   -116404.820 5    -88239.01647  23020140.82747
  20093107.026 7   -393964.535 7   -298657.35249  20093107.03849
  23760286.550 5    215280.910 5    164558.91047  23760286.73747
 20  5 16  1 54  5.9990000  0  8G04G08G09G11G16G26G27G31             0.000490131
  21392406.581 6   -433486.996 6   -327559.07448  21392405.71448
  20339241.964 7  -1229853.328 7   -934113.96949  20339243.23749
  22689694.136 6  -1153143.805 6   -879960.57049  22689694.36649
  22732184.167 6  -2031404.453 6  -1538388.41447  22732182.51547
  21537240.831 6   -289094.059 6   -222354.16848  21537238.39448
  23020112.683 5   -116545.273 5    -88348.45747  23020114.49547
  20092958.534 7   -394744.297 7   -299264.96149  20092959.06249
  23760437.206 5    216070.160 5    165173.90247  23760436.82347
 20  5 16  1 54  6.9990000  0  8G04G08G09G11G16G26G27G31             0.000488945
  21392243.839 6   -434341.055 6   -328224.58248  21392242.52248
  20338685.464 7  -1232778.137 7   -936393.04349  20338686.57349
  22689171.659 6  -1155889.590 6   -882100.14849  22689171.95249
  22731201.058 6  -2036571.719 6  -1542414.85247  22731199.51547
  21537128.558 6   -289683.891 6   -222813.78548  21537125.73748
  23020086.597 5   -116684.488 5    -88456.93447  23020087.57347
  20092810.831 7   -395522.223 7   -299871.13349  20092810.74149
  23760587.480 5    216860.926 5    165790.08647  23760587.13247
 20  5 16  1 54  7.9990000  0  8G04G08G09G11G16G26G27G31             0.000487762
  21392082.167 6   -435193.313 6   -328888.68048  21392080.79648
  20338129.206 7  -1235701.141 7   -938670.70749  20338130.23349
  22688649.565 6  -1158633.578 6   -884238.32049  22688649.77649
  22730218.175 6  -2041737.609 6  -1546440.22347  22730216.10847
  21537016.472 6   -290272.438 6   -223272.39548  21537014.10848
  23020059.862 5   -116822.477 5    -88564.45747  23020061.33947
  20092662.667 7   -396298.371 7   -300475.92649  20092662.59749
  23760738.315 5    217653.160 5    166407.40247  23760737.55047
 20  5 16  1 54  8.9990000  0  8G04G08G09G11G16G26G27G31             0.000486578
  21391920.112 6   -436043.824 6   -329551.41448  21391919.10548
  20337573.464 7  -1238622.398 7   -940947.01249  20337574.21449
  22688128.003 6  -1161375.789 6   -886375.11349  22688127.95249
  22729235.112 6  -2046902.094 6  -1550464.50047  22729233.47647
  21536905.222 6   -290859.730 6   -223730.02348  21536902.35548
  23020034.065 5   -116959.188 5    -88670.98447  23020035.59347
  20092515.526 7   -397072.762 7   -301079.34849  20092515.25749
  23760889.253 5    218446.883 5    167025.89147  23760888.32747
 20  5 16  1 54  9.9990000  0  8G04G08G09G11G16G26G27G31             0.000485397
  21391758.378 6   -436892.594 6   -330212.79348  21391757.34348
  20337017.659 6  -1241541.930 6   -943221.97349  20337018.63249
  22687606.519 6  -1164116.277 6   -888510.55549  22687606.65149
  22728253.237 6  -2052065.301 6  -1554487.77747  22728251.17947
  21536793.065 6   -291445.809 6   -224186.70348  21536790.30448
  23020008.972 5   -117094.750 5    -88776.62147  23020010.14047
  20092368.456 7   -397845.461 7   -301681.45349  20092368.32749
  23761040.487 5    219241.977 5    167645.43847  23761039.63647
 20  5 16  1 54 10.9990000  0  8G04G08G09G11G16G26G27G31             0.000484215
  21391597.362 6   -437739.652 6   -330872.84048  21391596.01548
  20336462.315 6  -1244459.750 6   -945495.60249  20336463.39049
  22687085.323 6  -1166854.980 6   -890644.61349  22687085.49549
  22727270.565 6  -2057227.129 6  -1558509.97747  22727268.42547
  21536681.667 6   -292030.699 6   -224642.46948  21536679.01948
  23019983.190 5   -117229.172 5    -88881.36747  23019984.08547
  20092221.698 7   -398616.449 7   -302282.22349  20092221.84349
  23761192.448 5    220038.500 5    168266.10547  23761191.46847
 20  5 16  1 54 11.9990000  0  8G04G08G09G11G16G26G27G31             0.000483034
  21391436.620 6   -438585.090 6   -331531.62548  21391434.87448
  20335907.581 6  -1247375.918 6   -947767.93849  20335908.52649
  22686564.190 6  -1169592.059 6   -892777.39849  22686564.51949
  22726288.105 6  -2062387.715 6  -1562531.21547  22726287.05847
  21536570.464 6   -292614.438 6   -225097.32448  21536567.99948
  23019957.503 5   -117362.500 5    -88985.26247  23019958.91347
  20092075.636 7   -399385.805 7   -302881.71949  20092075.02249
  23761344.245 5    220836.348 5    168887.80547  23761342.93347
 20  5 16  1 54 12.9990000  0  8G04G08G09G11G16G26G27G31             0.000481853
  21391276.308 6   -439428.785 6   -332189.05148  21391274.66348
  20335353.042 6  -1250290.383 6   -950038.95349  20335353.90949
  22686043.753 6  -1172327.359 6   -894908.80949  22686044.05049
  22725306.737 6  -2067547.020 6  -1566551.44947  22725305.19047
  21536459.948 6   -293196.996 6   -225551.27048  21536457.25748
  23019932.472 5   -117494.668 5    -89088.25447  23019933.95247
  20091929.495 7   -400153.480 7   -303479.91049  20091929.14049
  23761496.448 5    221635.574 5    169510.57847  23761495.12847
 20  5 16  1 54 13.9990000  0  8G04G08G09G11G16G26G27G31             0.000480675
  21391115.347 6   -440270.906 6   -332845.25048  21391114.43748
  20334798.511 7  -1253203.211 7   -952308.69149  20334799.76149
  22685523.948 6  -1175061.063 6   -897038.96549  22685523.75349
  22724325.339 6  -2072705.090 6  -1570570.72347  22724323.42147
  21536349.355 6   -293778.445 6   -226004.34448  21536346.69048
  23019907.308 5   -117625.793 5    -89190.43447  23019908.58147
  20091783.480 7   -400919.551 7   -304076.84449  20091783.16749
  23761648.737 5    222436.145 5    170134.39847  23761647.41347
 20  5 16  1 54 14.9990000  0  8G04G08G09G11G16G26G27G31             0.000479494
  21390955.730 6   -441111.422 6   -333500.19948  21390954.63648
  20334244.659 6  -1256114.484 6   -954577.21549  20334245.99549
  22685003.917 6  -1177793.160 6   -899167.87549  22685003.88649
  22723343.534 6  -2077861.992 6  -1574589.09447  22723342.04247
  21536238.753 6   -294358.840 6   -226456.59848  21536236.23348
  23019882.636 5   -117755.875 5    -89291.79347  23019884.37847
  20091638.284 7   -401684.070 7   -304672.57049  20091638.18749
  23761801.644 5    223237.953 5    170759.18847  23761799.78847
 20  5 16  1 54 15.9990000  0  8G04G08G09G11G16G26G27G31             0.000478317
  21390795.995 6   -441950.406 6   -334153.95748  21390794.61248
  20333690.792 7  -1259024.168 7   -956844.50449  20333691.94449
  22684484.511 6  -1180523.656 6   -901295.53549  22684484.28449
  22722362.870 6  -2083017.699 6  -1578606.52747  22722361.13247
  21536128.792 6   -294938.176 6   -226908.03548  21536126.04648
  23019858.456 5   -117884.973 5    -89392.38747  23019859.35847
  20091492.800 7   -402447.023 7   -305267.08249  20091492.82349
  23761954.386 5    224040.984 5    171384.92647  23761952.98347
 20  5 16  1 54 16.9990000  0  8G04G08G09G11G16G26G27G31             0.000477139
  21390637.034 6   -442787.867 6   -334806.52048  21390635.73748
  20333137.433 7  -1261932.348 7   -959110.62149  20333138.48749
  22683964.948 6  -1183252.609 6   -903421.99249  22683964.69449
  22721381.972 6  -2088172.281 6  -1582623.08247  22721380.29647
  21536018.800 6   -295516.488 6   -227358.66448  21536015.67948
  23019833.472 5   -118013.059 5    -89492.19147  23019834.76147
  20091348.050 7   -403208.473 7   -305860.41849  20091347.92949
  23762107.065 5    224845.250 5    172011.61747  23762106.12447
 20  5 16  1 54 17.9990000  0  8G04G08G09G11G16G26G27G31             0.000475962
  21390477.456 6   -443623.813 6   -335457.90648  21390476.19448
  20332584.550 6  -1264838.984 6   -961375.53149  20332585.45649
  22683445.597 6  -1185980.047 6   -905547.26249  22683446.11249
  22720401.128 6  -2093325.762 6  -1586638.77747  22720399.54647
  21535908.964 6   -296093.832 6   -227808.54348  21535905.91348
  23019809.659 5   -118140.238 5    -89591.28947  23019810.90547
  20091203.495 7   -403968.469 7   -306452.62549  20091203.35149
  23762260.573 5    225650.746 5    172639.27747  23762259.43347
 20  5 16  1 54 18.9990000  0  8G04G08G09G11G16G26G27G31             0.000474785
  21390318.784 6   -444458.211 6   -336108.09448  21390317.65548
  20332031.628 7  -1267744.133 7   -963639.28149  20332032.49149
  22682927.308 6  -1188705.957 6   -907671.34849  22682927.22649
  22719421.190 6  -2098478.086 6  -1590653.57047  22719419.19847
  21535799.401 6   -296670.141 6   -228257.61748  21535796.46048
  23019785.433 5   -118266.406 5    -89689.60547  23019786.94447
  20091059.362 7   -404726.902 7   -307043.61349  20091058.94849
  23762413.558 5    226457.406 5    173267.83247  23762412.51147
 20  5 16  1 54 19.9990000  0  8G04G08G09G11G16G26G27G31             0.000473610
  21390160.573 6   -445291.176 6   -336757.15648  21390159.23048
  20331479.003 7  -1270647.789 7   -965901.86749  20331479.92149
  22682408.503 6  -1191430.316 6   -909794.22749  22682408.68749
  22718440.972 6  -2103629.344 6  -1594667.54347  22718438.75747
  21535689.933 6   -297245.496 6   -228705.93848  21535686.95248
  23019761.245 5   -118391.676 5    -89787.22347  23019762.97247
  20090914.917 7   -405483.875 7   -307633.46149  20090914.64749
  23762567.417 5    227265.246 5    173897.31347  23762566.85847
 20  5 16  1 54 20.9990000  0  8G04G08G09G11G16G26G27G31             0.000472433
  21390002.034 6   -446122.766 6   -337405.14848  21390000.89048
  20330926.784 7  -1273550.102 7   -968163.41849  20330927.63649
  22681890.745 6  -1194153.320 6   -911916.05149  22681890.54249
  22717460.815 6  -2108779.625 6  -1598680.74647  22717458.78047
  21535580.433 6   -297820.000 6   -229153.60948  21535577.48048
  23019737.589 5   -118516.129 5    -89884.20747  23019739.23347
  20090771.073 7   -406239.512 7   -308222.27049  20090771.03449
  23762721.269 5    228074.133 5    174527.61347  23762720.79247
 20  5 16  1 54 21.9990000  0  8G04G08G09G11G16G26G27G31             0.000471260
  21389844.183 6   -446952.902 6   -338052.00448  21389842.90148
  20330374.511 7  -1276450.996 7   -970423.84849  20330375.60149
  22681372.519 6  -1196874.871 6   -914036.73849  22681372.59349
  22716480.644 6  -2113928.852 6  -1602693.12947  22716478.97247
  21535471.448 6   -298393.578 6   -229600.55148  21535468.86648
  23019714.097 5   -118639.707 5    -89980.50847  23019715.90947
  20090627.698 7   -406993.766 7   -308810.00049  20090627.47649
  23762875.753 5    228884.152 5    175158.78947  23762875.02647
 20  5 16  1 54 22.9990000  0  8G04G08G09G11G16G26G27G31             0.000470083
  21389686.261 6   -447781.711 6   -338697.83248  21389684.90548
  20329823.206 7  -1279350.516 7   -972683.21549  20329824.10849
  22680855.339 6  -1199595.047 6   -916156.35549  22680855.03449
  22715500.683 6  -2119077.141 6  -1606704.78147  22715499.03847
  21535362.355 6   -298966.328 6   -230046.85548  21535359.57748
  23019690.995 5   -118762.480 5    -90076.18447  23019692.81947
  20090484.776 7   -407746.633 7   -309396.65249  20090484.34349
  23763029.823 5    229695.199 5    175790.76647  23763029.55847
 20  5 16  1 54 23.9990000  0  8G04G08G09G11G16G26G27G31             0.000468910
  21389529.440 6   -448609.141 6   -339342.58648  21389528.39748
  20329271.409 7  -1282248.645 7   -974941.50449  20329272.49149
  22680337.901 6  -1202313.785 6   -918274.85249  22680337.63249
  22714521.628 6  -2124224.426 6  -1610715.64847  22714519.60147
  21535253.237 6   -299538.191 6   -230492.46148  21535250.42148
  23019667.917 5   -118884.441 5    -90171.21147  23019669.21447
  20090341.292 7   -408498.148 7   -309982.25449  20090341.05049
  23763184.198 5    230507.348 5    176423.60247  23763183.46847
 20  5 16  1 54 24.9990000  0  8G04G08G09G11G16G26G27G31             0.000467737
  21389371.870 6   -449435.289 6   -339986.34048  21389370.67148
  20328720.073 7  -1285145.516 7   -977198.80149  20328721.71049
  22679820.769 6  -1205031.230 6   -920392.34449  22679821.12049
  22713542.355 6  -2129370.840 6  -1614725.83647  22713539.97647
  21535145.019 6   -300109.301 6   -230937.48048  21535142.14448
  23019645.097 5   -119005.648 5    -90265.66447  23019646.23347
  20090198.722 7   -409248.422 7   -310566.87949  20090198.40949
  23763338.917 5    231320.449 5    177057.18847  23763338.19847
 20  5 16  1 54 25.9990000  0  8G04G08G09G11G16G26G27G31             0.000466564
  21389214.605 6   -450260.102 6   -340629.05148  21389213.74148
  20328169.198 7  -1288041.027 7   -979455.04749  20328169.91349
  22679303.745 6  -1207747.336 6   -922508.79349  22679303.47249
  22712562.909 6  -2134516.297 6  -1618735.29347  22712561.10547
  21535036.034 6   -300679.590 6   -231381.86348  21535033.57748
  23019621.698 5   -119126.102 5    -90359.52347  23019623.50347
  20090055.823 7   -409997.371 7   -311150.47749  20090056.14749
  23763494.058 5    232134.551 5    177691.55147  23763493.25347
 20  5 16  1 54 26.9990000  0  8G04G08G09G11G16G26G27G31             0.000465391
  21389057.948 6   -451083.645 6   -341270.77348  21389057.31248
  20327618.308 7  -1290935.273 7   -981710.30149  20327619.48749
  22678787.011 6  -1210462.129 6   -924624.21549  22678787.01549
  22711584.261 6  -2139660.867 6  -1622744.05547  22711582.15947
  21534927.425 6   -301249.113 6   -231825.64848  21534925.12048
  23019599.058 5   -119245.801 5    -90452.79747  23019600.52247
  20089913.847 7   -410745.055 7   -311733.08249  20089913.92149
  23763649.308 5    232949.621 5    178326.66847  23763648.61647
 20  5 16  1 54 27.9990000  0  8G04G08G09G11G16G26G27G31             0.000464220
  21388901.651 6   -451905.918 6   -341911.50848  21388900.41748
  20327067.956 7  -1293828.262 7   -983964.57049  20327068.99549
  22678270.987 6  -1213175.664 6   -926738.65249  22678270.62449
  22710604.706 6  -2144804.563 6  -1626752.12947  22710603.22647
  21534819.425 6   -301817.891 6   -232268.85248  21534816.94848
  23019576.542 5   -119364.828 5    -90545.55147  23019578.06247
  20089771.839 7   -411491.480 7   -312314.71949  20089771.95249
  23763804.347 5    233765.648 5    178962.54747  23763804.01947
 20  5 16  1 54 28.9990000  0  8G04G08G09G11G16G26G27G31             0.000463047
  21388745.292 6   -452726.988 6   -342551.30148  21388744.19448
  20326517.542 7  -1296720.051 7   -986217.91849  20326518.82749
  22677754.651 6  -1215887.941 6   -928852.12549  22677754.71449
  22709626.159 6  -2149947.449 6  -1630759.56647  22709624.26547
  21534711.386 6   -302385.949 6   -232711.49648  21534708.85848
  23019553.761 5   -119483.168 5    -90637.76647  23019555.23047
  20089630.050 7   -412236.703 7   -312895.41049  20089630.11649
  23763959.597 5    234582.590 5    179599.12547  23763959.38647
 20  5 16  1 54 29.9990000  0  8G04G08G09G11G16G26G27G31             0.000461878
  21388589.167 6   -453546.789 6   -343190.11348  21388588.42948
  20325967.714 7  -1299610.551 7   -988470.25449  20325968.61649
  22677238.659 6  -1218598.926 6   -930964.58249  22677238.70649
  22708648.065 6  -2155089.453 6  -1634766.32847  22708646.42147
  21534603.394 6   -302953.270 6   -233153.56348  21534600.69048
  23019531.761 5   -119600.801 5    -90729.42647  23019532.98047
  20089488.355 7   -412980.699 7   -313475.14849  20089488.15949
  23764115.581 5    235400.445 5    180236.40647  23764115.01947
 20  5 16  1 54 30.9990000  0  8G04G08G09G11G16G26G27G31             0.000460707
  21388433.128 6   -454365.391 6   -343827.98448  21388432.43348
  20325417.651 6  -1302499.828 6   -990721.64149  20325418.48349
  22676722.901 6  -1221308.656 6   -933076.05949  22676722.98049
  22707669.690 6  -2160230.648 6  -1638772.44547  22707668.17547
  21534495.644 6   -303519.875 6   -233595.07448  21534492.55048
  23019509.339 5   -119717.797 5    -90820.59847  23019510.93347
  20089347.144 7   -413723.477 7   -314053.93449  20089346.91349
  23764271.448 5    236219.238 5    180874.42247  23764270.46447
 20  5 16  1 54 31.9990000  0  8G04G08G09G11G16G26G27G31             0.000459538
  21388277.651 6   -455182.855 6   -344464.96548  21388277.26148
  20324868.097 6  -1305387.973 6   -992972.14549  20324869.15949
  22676207.620 6  -1224017.238 6   -935186.64149  22676207.85549
  22706691.534 6  -2165371.070 6  -1642777.96947  22706690.15147
  21534387.855 6   -304085.863 6   -234036.10548  21534385.40148
  23019486.956 5   -119834.180 5    -90911.28947  23019488.78047
  20089206.003 7   -414465.145 7   -314631.85949  20089205.89449
  23764427.237 5    237038.859 5    181513.09447  23764426.94847
 20  5 16  1 54 32.9990000  0  8G04G08G09G11G16G26G27G31             0.000458364
  21388122.558 6   -455999.156 6   -345101.04348  21388121.49548
  20324318.605 6  -1308274.992 6   -995221.76649  20324319.83149
  22675692.730 6  -1226724.648 6   -937296.31349  22675692.69449
  22705713.534 6  -2170510.750 6  -1646782.91447  22705711.78847
  21534280.698 6   -304651.207 6   -234476.63348  21534277.81948
  23019465.105 5   -119949.984 5    -91001.51647  23019466.63647
  20089065.230 7   -415205.684 7   -315208.89849  20089064.98049
  23764583.823 5    237859.293 5    182152.37947  23764582.58947
 20  5 16  1 54 33.9990000  0  8G04G08G09G11G16G26G27G31             0.000457197
  21387967.597 6   -456814.316 6   -345736.24248  21387966.37448
  20323769.440 7  -1311160.816 7   -997470.46549  20323770.18749
  22675177.370 6  -1229430.887 6   -939405.07449  22675177.43749
  22704735.698 6  -2175649.637 6  -1650787.24247  22704733.65947
  21534172.855 6   -305215.918 6   -234916.67648  21534170.19048
  23019443.175 5   -120065.176 5    -91091.27747  23019444.94447
  20088924.401 7   -415945.055 7   -315785.03949  20088924.07349
  23764739.792 5    238680.633 5    182792.37547  23764739.21847
 20  5 16  1 54 34.9990000  0  8G04G08G09G11G16G26G27G31             0.000456026
  21387812.831 6   -457628.328 6   -346370.53548  21387811.93748
  20323220.636 6  -1314045.543 6   -999718.30549  20323221.65149
  22674662.526 6  -1232135.977 6   -941512.93849  22674662.63249
  22703758.073 6  -2180787.801 6  -1654791.01247  22703755.57747
  21534065.511 6   -305780.004 6   -235356.22348  21534062.56548
  23019421.597 5   -120179.781 5    -91180.57847  23019422.90147
  20088783.847 7   -416683.313 7   -316360.30549  20088783.84749
  23764896.245 5    239502.734 5    183432.96547  23764895.80847
 20  5 16  1 54 35.9990000  0  8G04G08G09G11G16G26G27G31             0.000454859
  21387658.276 6   -458441.277 6   -347004.00048  21387656.77248
  20322671.909 6  -1316929.148 6  -1001965.26649  20322672.69849
  22674147.956 5  -1234839.945 5   -943619.92649  22674148.22249
  22702780.042 6  -2185925.270 6  -1658794.23447  22702778.12447
  21533958.245 6   -306343.539 6   -235795.34048  21533955.85148
  23019399.511 5   -120293.863 5    -91269.47747  23019400.99147
  20088643.722 7   -417420.539 7   -316934.77049  20088643.53449
  23765053.276 5    240325.602 5    184074.15647  23765052.33547
 20  5 16  1 54 36.9990000  0  8G04G08G09G11G16G26G27G31             0.000453690
  21387503.565 6   -459253.094 6   -347636.59048  21387502.62048
  20322123.675 6  -1319811.633 6  -1004211.35949  20322124.17949
  22673633.855 6  -1237542.777 6   -945726.02749  22673633.69449
  22701802.503 6  -2191061.973 6  -1662796.85947  22701800.53847
  21533851.487 6   -306906.418 6   -236233.95348  21533848.59748
  23019378.175 5   -120407.340 5    -91357.89547  23019379.39447
  20088503.417 7   -418156.613 7   -317508.32849  20088503.46849
  23765209.534 5    241149.332 5    184716.02747  23765208.97247
 20  5 16  1 54 37.9990000  0  8G04G08G09G11G16G26G27G31             0.000452522
  21387349.222 6   -460063.824 6   -348268.32848  21387348.14048
  20321575.136 6  -1322693.043 6  -1006456.60549  20321575.89049
  22673119.948 6  -1240244.488 6   -947831.25449  22673119.85849
  22700825.323 6  -2196198.000 6  -1666798.95747  22700823.48347
  21533744.323 6   -307468.734 6   -236672.12148  21533741.37848
  23019356.409 5   -120520.328 5    -91445.94547  23019357.90147
  20088363.605 7   -418891.637 7   -318081.07849  20088363.65549
  23765366.565 6    241973.797 6    185358.46947  23765365.67947
 20  5 16  1 54 38.9990000  0  8G04G08G09G11G16G26G27G31             0.000451353
  21387195.409 6   -460873.449 6   -348899.20748  21387194.13248
  20321027.315 6  -1325573.332 6  -1008700.99649  20321028.05449
  22672606.495 6  -1242945.078 6   -949935.60949  22672605.95649
  22699848.089 6  -2201333.301 6  -1670800.48447  22699846.16747
  21533637.644 6   -308030.469 6   -237109.82848  21533634.55448
  23019335.081 5   -120632.730 5    -91533.53947  23019336.59747
  20088223.925 7   -419625.578 7   -318652.98049  20088223.73049
  23765523.347 5    242799.074 5    186001.54347  23765522.72647
 20  5 16  1 54 39.9990000  0  8G04G08G09G11G16G26G27G31             0.000450186
  21387041.573 6   -461682.051 6   -349529.28948  21387040.48048
  20320479.347 6  -1328452.574 6  -1010944.56349  20320480.19049
  22672092.308 6  -1245644.555 6   -952039.10249  22672092.28849
  22698870.987 6  -2206467.965 6  -1674801.52047  22698869.24947
  21533530.698 6   -308591.664 6   -237547.12148  21533527.58148
  23019313.730 5   -120744.645 5    -91620.73847  23019315.36647
  20088084.362 7   -420358.465 7   -319224.05949  20088084.47649
  23765680.659 5    243625.078 5    186645.18047  23765679.81547
 20  5 16  1 54 40.9990000  0  8G04G08G09G11G16G26G27G31             0.000449018
  21386887.886 6   -462489.652 6   -350158.59048  21386887.28048
  20319931.628 6  -1331330.840 6  -1013187.36749  20319932.22249
  22671578.894 6  -1248343.078 6   -954141.84449  22671578.33949
  22697894.159 6  -2211602.059 6  -1678802.11347  22697892.46847
  21533423.612 6   -309152.402 6   -237984.06348  21533420.42548
  23019292.792 5   -120856.164 5    -91707.63747  23019294.19047
  20087945.386 7   -421090.418 7   -319794.41849  20087945.15549
  23765838.222 5    244451.742 5    187289.33247  23765837.15947
 20  5 16  1 54 41.9990000  0  8G04G08G09G11G16G26G27G31             0.000447851
  21386733.980 6   -463296.148 6   -350787.02348  21386733.30048
  20319383.894 6  -1334208.008 6  -1015429.31649  20319384.71849
  22671065.269 6  -1251040.422 6   -956243.67249  22671065.63649
  22696917.448 6  -2216735.406 6  -1682802.12147  22696915.55847
  21533317.425 6   -309712.527 6   -238420.52348  21533314.26948
  23019271.284 5   -120967.090 5    -91794.07047  23019272.88647
  20087806.050 7   -421821.254 7   -320363.89549  20087806.09749
  23765995.386 5    245279.219 5    187934.10947  23765995.01547
 20  5 16  1 54 42.9990000  0  8G04G08G09G11G16G26G27G31             0.000446684
  21386580.776 6   -464101.672 6   -351414.70748  21386580.06948
  20318836.870 7  -1337084.188 7  -1017670.49649  20318837.37449
  22670552.323 6  -1253736.828 6   -958344.77049  22670552.26149
  22695940.487 6  -2221868.160 6  -1686801.67647  22695938.44447
  21533210.776 6   -310272.223 6   -238856.64548  21533207.80448
  23019250.276 5   -121077.633 5    -91880.21547  23019251.70647
  20087667.167 7   -422551.156 7   -320932.65249  20087667.19849
  23766153.050 5    246107.340 5    188579.39147  23766152.02647
 20  5 16  1 54 43.9990000  0  8G04G08G09G11G16G26G27G31             0.000445518
  21386428.128 6   -464906.250 6   -352041.64848  21386427.36648
  20318289.495 7  -1339959.422 7  -1019910.93449  20318290.21049
  22670039.480 6  -1256432.188 6   -960445.05549  22670039.52649
  22694963.776 6  -2227000.352 6  -1690800.78547  22694962.06947
  21533104.308 6   -310831.441 6   -239292.40648  21533101.48048
  23019229.417 5   -121187.730 5    -91966.00447  23019230.65547
  20087528.347 7   -423280.078 7   -321500.64849  20087528.53049
  23766310.737 5    246936.156 5    189225.21947  23766310.28847
 20  5 16  1 54 44.9990000  0  8G04G08G09G11G16G26G27G31             0.000444351
  21386275.120 6   -465709.816 6   -352667.80948  21386273.76548
  20317742.940 7  -1342833.648 7  -1022150.59449  20317743.50749
  22669526.753 6  -1259126.555 6   -962544.56349  22669526.42949
  22693987.706 6  -2232131.930 6  -1694799.41847  22693985.46047
  21532997.800 6   -311390.156 6   -239727.77348  21532994.89448
  23019208.362 5   -121297.379 5    -92051.45347  23019210.09747
  20087390.058 7   -424008.051 7   -322067.89849  20087390.23349
  23766468.355 5    247765.613 5    189871.54347  23766468.07347
 20  5 16  1 54 45.9990000  0  8G04G08G09G11G16G26G27G31             0.000443186
  21386122.300 6   -466512.465 6   -353293.25048  21386121.56248
  20317195.659 7  -1345706.953 7  -1024389.53149  20317196.13649
  22669013.690 6  -1261819.938 6   -964643.30549  22669014.21849
  22693010.690 6  -2237262.965 6  -1698797.62547  22693009.06947
  21532891.589 6   -311948.477 6   -240162.82848  21532888.79248
  23019187.151 5   -121406.672 5    -92136.61747  23019189.41347
  20087251.698 7   -424735.090 7   -322634.41849  20087251.44049
  23766626.487 5    248595.684 5    190518.35247  23766626.33547
 20  5 16  1 54 46.9990000  0  8G04G08G09G11G16G26G27G31             0.000442020
  21385969.394 6   -467314.156 6   -353917.94548  21385968.50748
  20316649.214 7  -1348579.309 7  -1026627.73049  20316650.14449
  22668501.917 6  -1264512.406 6   -966741.33249  22668501.69849
  22692034.370 6  -2242393.434 6  -1702795.39847  22692032.59347
  21532785.386 6   -312506.367 6   -240597.54748  21532782.44048
  23019167.081 5   -121515.535 5    -92221.44547  23019168.49947
  20087113.526 7   -425461.215 7   -323200.23849  20087113.54249
  23766784.464 5    249426.387 5    191165.65647  23766784.13247
 20  5 16  1 54 47.9990000  0  8G04G08G09G11G16G26G27G31             0.000440855
  21385817.394 6   -468114.930 6   -354541.93048  21385816.12048
  20316102.730 6  -1351450.719 6  -1028865.19549  20316103.51149
  22667989.480 6  -1267203.855 6   -968838.56649  22667989.76949
  22691058.292 6  -2247523.375 6  -1706792.75047  22691056.38247
  21532679.737 6   -313063.820 6   -241031.92248  21532676.74548
  23019146.808 5   -121624.031 5    -92305.98447  23019147.59347
  20086975.339 7   -426186.398 7   -323765.31349  20086975.37449
  23766943.058 5    250257.746 5    191813.46147  23766942.30447
 20  5 16  1 54 48.9990000  0  8G04G08G09G11G16G26G27G31             0.000439690
  21385665.198 6   -468914.789 6   -355165.19548  21385664.53048
  20315556.433 6  -1354321.199 6  -1031101.93449  20315557.15549
  22667477.722 6  -1269894.391 6   -970935.08649  22667477.78849
  22690082.448 6  -2252652.734 6  -1710789.64847  22690080.33947
  21532573.401 6   -313620.867 6   -241465.98848  21532570.58948
  23019126.253 5   -121732.199 5    -92390.27347  23019127.01547
  20086837.769 7   -426910.684 7   -324329.68849  20086837.48349
  23767101.386 5    251089.719 5    192461.76247  23767100.44847
 20  5 16  1 54 49.9990000  0  8G04G08G09G11G16G26G27G31             0.000438524
  21385513.073 6   -469713.805 6   -355787.80148  21385512.26948
  20315010.769 6  -1357190.836 6  -1033338.02049  20315011.19049
  22666965.948 6  -1272584.066 6   -973030.93849  22666965.82349
  22689106.315 6  -2257781.684 6  -1714786.23447  22689104.29647
  21532467.737 6   -314177.605 6   -241899.81648  21532464.54248
  23019105.401 5   -121840.035 5    -92474.30947  23019106.58147
  20086700.144 7   -427634.156 7   -324893.43849  20086700.17549
  23767259.558 5    251922.207 5    193110.44947  23767259.15147
 20  5 16  1 54 50.9990000  0  8G04G08G09G11G16G26G27G31             0.000437359
  21385360.878 6   -470511.891 6   -356409.69148  21385360.05448
  20314464.792 7  -1360059.563 7  -1035573.38749  20314465.60549
  22666453.925 6  -1275272.754 6   -975126.02049  22666453.85549
  22688130.425 6  -2262910.078 6  -1718782.38347  22688128.71047
  21532361.370 6   -314733.930 6   -242333.30948  21532358.19048
  23019084.839 5   -121947.492 5    -92558.03947  23019086.37447
  20086562.565 7   -428356.707 7   -325456.46549  20086562.71849
  23767417.808 5    252755.305 5    193759.60947  23767417.78847
 20  5 16  1 54 51.9990000  0  8G04G08G09G11G16G26G27G31             0.000436195
  21385209.315 6   -471309.102 6   -357030.89548  21385208.79248
  20313919.198 7  -1362927.359 7  -1037808.03549  20313919.81549
  22665942.894 6  -1277960.570 6   -977220.42249  22665942.39749
  22687154.784 6  -2268037.973 6  -1722778.14847  22687152.92547
  21532255.894 6   -315289.867 6   -242766.50848  21532252.57748
  23019064.667 5   -122054.641 5    -92641.53147  23019065.76947
  20086425.417 7   -429078.395 7   -326018.82049  20086425.40949
  23767576.901 5    253589.023 5    194409.26247  23767576.08547
 20  5 16  1 54 52.9990000  0  8G04G08G09G11G16G26G27G31             0.000435030
  21385057.933 6   -472105.352 6   -357651.34448  21385056.93748
  20313373.144 7  -1365794.234 7  -1040041.96549  20313374.21449
  22665431.487 6  -1280647.395 6   -979314.05149  22665431.48349
  22686179.081 6  -2273165.313 6  -1726773.47347  22686177.42547
  21532150.159 6   -315845.379 6   -243199.37948  21532147.19048
  23019043.737 5   -122161.379 5    -92724.70747  23019045.58947
  20086287.847 7   -429799.164 7   -326580.46149  20086287.85149
  23767735.589 5    254423.305 5    195059.34847  23767734.95647
 20  5 16  1 54 53.9990000  0  8G04G08G09G11G16G26G27G31             0.000433867
  21384906.183 6   -472900.828 6   -358271.20748  21384905.42148
  20312828.128 7  -1368660.266 7  -1042275.23449  20312829.03449
  22664920.558 6  -1283333.383 6   -981407.03549  22664920.36649
  22685203.315 6  -2278292.211 6  -1730768.46147  22685201.35547
  21532044.589 6   -316400.582 6   -243631.99648  21532041.39048
  23019023.995 5   -122267.875 5    -92807.68847  23019025.51147
  20086151.019 7   -430519.125 7   -327141.46149  20086150.78449
  23767894.417 5    255258.152 5    195709.87147  23767893.62447
 20  5 16  1 54 54.9990000  0  8G04G08G09G11G16G26G27G31             0.000432701
  21384755.472 6   -473695.441 6   -358890.38348  21384754.43348
  20312282.355 7  -1371525.477 7  -1044507.86749  20312283.74549
  22664409.261 6  -1286018.492 6   -983499.32449  22664409.56249
  22684227.855 6  -2283418.664 6  -1734763.09847  22684226.19847
  21531938.956 6   -316955.445 6   -244064.36348  21531935.98748
  23019003.628 5   -122374.063 5    -92890.43047  23019005.23747
  20086014.011 7   -431238.262 7   -327701.83249  20086014.30049
  23768053.487 5    256093.496 5    196360.78947  23768053.12447
 20  5 16  1 54 55.9990000  0  8G04G08G09G11G16G26G27G31             0.000431540
  21384604.339 6   -474489.219 6   -359508.91448  21384603.53848
  20311737.706 7  -1374389.832 7  -1046739.83249  20311738.46449
  22663898.034 6  -1288702.785 6   -985590.98449  22663898.56549
  22683251.940 6  -2288544.676 6  -1738757.39147  22683250.37447
  21531833.292 6   -317510.012 6   -244496.49248  21531830.34348
  23018983.128 5   -122479.949 5    -92972.94147  23018985.04647
  20085877.440 7   -431956.574 7   -328261.55149  20085877.43749
  23768212.550 5    256929.379 5    197012.12147  23768211.78047
 20  5 16  1 54 56.9990000  0  8G04G08G09G11G16G26G27G31             0.000430374
  21384453.425 6   -475282.117 6   -360126.75448  21384452.34748
  20311192.495 7  -1377253.324 7  -1048971.12549  20311193.39749
  22663388.190 6  -1291386.137 6   -987681.90649  22663387.55049
  22682277.362 6  -2293670.188 6  -1742751.29347  22682275.33947
  21531727.917 6   -318064.176 6   -244928.30148  21531725.14448
  23018963.394 5   -122585.520 5    -93055.19947  23018965.05847
  20085740.878 7   -432674.027 7   -328820.60549  20085740.74949
  23768371.605 5    257765.793 5    197663.87147  23768371.04647
 20  5 16  1 54 57.9990000  0  8G04G08G09G11G16G26G27G31             0.000429213
  21384302.417 6   -476074.172 6   -360743.93848  21384302.02248
  20310648.089 6  -1380115.949 6  -1051201.74249  20310648.56249
  22662877.448 6  -1294068.637 6   -989772.17249  22662877.37849
  22681301.839 6  -2298795.238 6  -1746744.84447  22681299.68747
  21531622.644 6   -318618.051 6   -245359.89848  21531619.31248
  23018943.355 5   -122690.824 5    -93137.26647  23018944.61247
  20085604.464 7   -433390.648 7   -329379.01249  20085604.85549
  23768530.878 5    258602.758 5    198316.05147  23768530.33147
 20  5 16  1 54 58.9990000  0  8G04G08G09G11G16G26G27G31             0.000428047
  21384152.292 6   -476865.426 6   -361360.49648  21384151.44048
  20310103.190 6  -1382977.766 6  -1053431.72749  20310104.01549
  22662367.144 6  -1296750.270 6   -991861.74649  22662367.13249
  22680326.128 6  -2303919.871 6  -1750738.05947  22680324.88647
  21531516.808 6   -319171.598 6   -245791.23448  21531514.35848
  23018923.237 5   -122795.875 5    -93219.12947  23018924.73347
  20085468.190 7   -434106.484 7   -329936.80949  20085468.22649
  23768690.300 5    259440.242 5    198968.62547  23768689.77647
 20  5 16  1 54 59.9990000  0  8G04G08G09G11G16G26G27G31             0.000426886
  21384001.487 6   -477655.879 6   -361976.43848  21384000.49948
  20309558.761 6  -1385838.758 6  -1055661.07449  20309559.58949
  22661856.753 6  -1299431.102 6   -993950.71149  22661856.92949
  22679351.503 6  -2309044.063 6  -1754730.93847  22679349.33947
  21531411.776 6   -319724.832 6   -246222.32448  21531409.00748
  23018903.511 5   -122900.633 5    -93300.75847  23018904.90147
  20085332.144 7   -434821.527 7   -330493.98849  20085332.26949
  23768849.503 5    260278.215 5    199621.58647  23768849.17947
 20  5 16  1 55  0.9990000  0  8G04G08G09G11G16G26G27G31             0.000425722
  21383851.308 6   -478445.500 6   -362591.73448  21383850.71048
  20309014.862 7  -1388698.957 7  -1057889.79749  20309015.41349
  22661347.097 6  -1302111.086 6   -996039.01249  22661347.03049
  22678376.112 6  -2314167.816 6  -1758723.48047  22678374.60147
  21531306.487 6   -320277.754 6   -246653.17248  21531303.79248
  23018883.347 5   -123005.152 5    -93382.19547  23018884.93747
  20085196.167 7   -435535.762 7   -331050.53149  20085196.49549
  23769009.401 5    261116.699 5    200274.94547  23769008.77647
 20  5 16  1 55  1.9990000  0  8G04G08G09G11G16G26G27G31             0.000424559
  21383701.112 6   -479234.270 6   -363206.35948  21383700.30048
  20308470.448 7  -1391558.281 7  -1060117.84449  20308471.42149
  22660836.558 6  -1304790.172 6   -998126.61349  22660837.17949
  22677401.230 6  -2319291.133 6  -1762715.66847  22677399.49547
  21531201.448 6   -320830.359 6   -247083.77348  21531198.86248
  23018864.003 5   -123109.336 5    -93463.37947  23018865.23747
  20085060.542 7   -436249.156 7   -331606.42249  20085060.93749
  23769168.730 5    261955.715 5    200928.71947  23769168.50747
 20  5 16  1 55  2.9990000  0  8G04G08G09G11G16G26G27G31             0.000423395
  21383550.620 6   -480022.324 6   -363820.43448  21383550.22248
  20307926.464 7  -1394416.855 7  -1062345.30949  20307927.11649
  22660327.175 6  -1307468.504 6  -1000213.62149  22660327.61649
  22676426.534 6  -2324414.063 6  -1766707.55947  22676424.65947
  21531096.472 6   -321382.715 6   -247514.18848  21531093.64448
  23018844.097 5   -123213.359 5    -93544.44147  23018845.15947
  20084924.667 7   -436961.836 7   -332161.75849  20084924.94849
  23769328.448 5    262795.195 5    201582.85547  23769328.13647
 20  5 16  1 55  3.9990000  0  8G04G08G09G11G16G26G27G31             0.000422234
  21383401.503 6   -480809.512 6   -364433.82048  21383400.31948
  20307382.776 7  -1397274.570 7  -1064572.10249  20307383.56949
  22659817.901 6  -1310145.938 6  -1002299.93449  22659817.96849
  22675451.565 6  -2329536.551 6  -1770699.10547  22675449.90547
  21530991.573 6   -321934.746 6   -247944.34448  21530988.37448
  23018824.175 5   -123317.051 5    -93625.24247  23018825.89047
  20084789.605 7   -437673.656 7   -332716.42649  20084789.48049
  23769488.300 5    263635.188 5    202237.38347  23769488.00347
 20  5 16  1 55  4.9990000  0  8G04G08G09G11G16G26G27G31             0.000421070
  21383251.675 6   -481595.887 6   -365046.59048  21383251.02248
  20306838.917 6  -1400131.477 6  -1066798.26249  20306839.99149
  22659308.542 6  -1312822.531 6  -1004385.59449  22659308.68349
  22674476.784 6  -2334658.566 6  -1774690.28947  22674475.16747
  21530886.440 6   -322486.449 6   -248374.24248  21530883.55848
  23018804.769 5   -123420.500 5    -93705.85247  23018806.03847
  20084654.050 7   -438384.703 7   -333270.48849  20084654.06949
  23769648.855 5    264475.727 5    202892.34047  23769648.18747
 20  5 16  1 55  5.9990000  0  8G04G08G09G11G16G26G27G31             0.000419910
  21383102.417 6   -482381.516 6   -365658.77048  21383101.37848
  20306295.386 6  -1402987.645 6  -1069023.84049  20306296.32349
  22658799.487 6  -1315498.379 6  -1006470.66449  22658799.69049
  22673502.581 6  -2339780.223 6  -1778681.19147  22673500.99547
  21530781.690 6   -323037.930 6   -248803.96548  21530778.36248
  23018785.409 5   -123523.727 5    -93786.28147  23018786.31247
  20084519.198 7   -439095.000 7   -333823.96949  20084518.92549
  23769808.261 5    265316.664 5    203547.61347  23769807.96847
 20  5 16  1 55  6.9990000  0  8G04G08G09G11G16G26G27G31             0.000418747
  21382953.019 6   -483166.363 6   -366270.34048  21382951.96848
  20305752.433 6  -1405843.035 6  -1071248.82449  20305753.04649
  22658290.081 6  -1318173.414 6  -1008555.10949  22658290.46449
  22672527.886 6  -2344901.504 6  -1782671.80147  22672526.16347
  21530676.620 6   -323589.156 6   -249233.49648  21530673.58948
  23018765.612 5   -123626.727 5    -93866.55147  23018766.85847
  20084384.105 7   -439804.535 7   -334376.85549  20084384.18749
  23769968.542 5    266158.090 5    204203.26647  23769968.07347
 20  5 16  1 55  7.9990000  0  8G04G08G09G11G16G26G27G31             0.000417585
  21382803.886 6   -483950.379 6   -366881.25848  21382803.21848
  20305209.011 6  -1408697.578 6  -1073473.14549  20305209.65149
  22657781.433 6  -1320847.582 6  -1010638.87149  22657781.47249
  22671553.612 6  -2350022.328 6  -1786662.05147  22671551.75347
  21530571.800 6   -324140.047 6   -249662.75448  21530568.72648
  23018746.128 5   -123729.461 5    -93946.60247  23018747.39747
  20084248.964 7   -440513.258 7   -334929.10249  20084249.35549
  23770128.940 5    267000.031 5    204859.31647  23770128.55847
 20  5 16  1 55  8.9990000  0  8G04G08G09G11G16G26G27G31             0.000416422
  21382654.823 6   -484733.617 6   -367491.57048  21382653.78048
  20304666.073 6  -1411551.352 6  -1075696.86749  20304666.79649
  22657272.675 6  -1323520.961 6  -1012722.03149  22657273.15149
  22670579.440 6  -2355142.734 6  -1790651.97747  22670577.16347
  21530467.034 6   -324690.664 6   -250091.80548  21530464.03448
  23018726.284 5   -123831.938 5    -94026.45747  23018727.81947
  20084114.237 7   -441221.219 7   -335480.76649  20084114.66749
  23770289.073 5    267842.449 5    205515.74247  23770288.94047
 20  5 16  1 55  9.9990000  0  8G04G08G09G11G16G26G27G31             0.000415262
  21382505.698 6   -485516.063 6   -368101.27048  21382504.80448
  20304122.909 6  -1414404.324 6  -1077919.95749  20304123.86249
  22656763.909 6  -1326193.473 6  -1014804.50849  22656764.20649
  22669605.300 6  -2360262.762 6  -1794641.60947  22669602.97647
  21530362.081 6   -325240.996 6   -250520.64148  21530359.58148
  23018706.370 5   -123934.215 5    -94106.16047  23018708.37047
  20083979.745 7   -441928.391 7   -336031.81349  20083979.53049
  23770449.526 5    268685.336 5    206172.54747  23770449.13647
 20  5 16  1 55 10.9990000  0  8G04G08G09G11G16G26G27G31             0.000414099
  21382357.269 6   -486297.730 6   -368710.35948  21382356.00748
  20303580.495 7  -1417256.547 7  -1080142.47749  20303581.19849
  22656255.472 6  -1328865.207 6  -1016886.37949  22656255.74949
  22668630.839 6  -2365382.402 6  -1798630.93847  22668628.80847
  21530257.261 6   -325791.066 6   -250949.26648  21530254.66348
  23018687.339 5   -124036.227 5    -94185.64847  23018689.15547
  20083845.378 7   -442634.813 7   -336582.27049  20083845.38649
  23770609.784 5    269528.691 5    206829.70347  23770609.62047
 20  5 16  1 55 11.9990000  0  8G04G08G09G11G16G26G27G31             0.000412939
  21382208.659 6   -487078.617 6   -369318.84448  21382207.68748
  20303037.714 6  -1420107.938 6  -1082364.33649  20303038.63249
  22655747.230 6  -1331536.109 6  -1018967.60549  22655747.48049
  22667656.745 6  -2370501.598 6  -1802619.92247  22667654.76147
  21530153.081 6   -326340.852 6   -251377.67248  21530150.11648
  23018668.378 5   -124138.023 5    -94264.96947  23018669.87847
  20083711.089 7   -443340.465 7   -337132.12149  20083711.23749
  23770770.222 5    270372.555 5    207487.25447  23770769.96447
 20  5 16  1 55 12.9990000  0  8G04G08G09G11G16G26G27G31             0.000411776
  21382060.144 6   -487858.723 6   -369926.72748  21382059.16348
  20302495.183 6  -1422958.602 6  -1084585.63349  20302495.85849
  22655239.308 6  -1334206.207 6  -1021048.20349  22655239.99949
  22666682.370 6  -2375620.418 6  -1806608.60947  22666680.33147
  21530048.362 6   -326890.371 6   -251805.86748  21530045.43748
  23018649.058 5   -124239.578 5    -94344.10247  23018650.23347
  20083576.737 7   -444045.352 7   -337681.38749  20083576.74149
  23770931.487 5    271216.844 5    208145.12547  23770930.80447
 20  5 16  1 55 13.9990000  0  8G04G08G09G11G16G26G27G31             0.000410616
  21381911.808 6   -488638.176 6   -370534.09048  21381910.61648
  20301952.886 6  -1425808.539 6  -1086806.35949  20301953.70649
  22654731.105 6  -1336875.617 6  -1023128.26249  22654731.56249
  22665708.058 6  -2380738.938 6  -1810597.07047  22665706.47247
  21529943.362 6   -327439.715 6   -252233.92248  21529940.64048
  23018629.558 5   -124341.031 5    -94423.15647  23018630.73347
  20083442.667 7   -444749.582 7   -338230.14149  20083442.92949
  23771091.917 5    272061.504 5    208803.30147  23771091.81247
 20  5 16  1 55 14.9990000  0  8G04G08G09G11G16G26G27G31             0.000409454
  21381763.409 6   -489416.906 6   -371140.89848  21381762.49148
  20301410.667 7  -1428657.781 7  -1089026.55149  20301411.48749
  22654223.651 6  -1339544.297 6  -1025207.74649  22654223.68349
  22664734.542 6  -2385857.172 6  -1814585.30147  22664732.27247
  21529839.362 6   -327988.879 6   -252661.84448  21529836.34748
  23018610.620 5   -124442.293 5    -94502.06647  23018611.57747
  20083308.956 7   -445453.117 7   -338778.35249  20083308.95649
  23771253.315 5    272906.547 5    209461.78947  23771252.49947
 20  5 16  1 55 15.9990000  0  8G04G08G09G11G16G26G27G31             0.000408295
  21381615.776 6   -490194.961 6   -371747.18048  21381614.51548
  20300868.730 7  -1431506.305 7  -1091246.18049  20300869.46049
  22653715.675 6  -1342212.250 6  -1027286.67649  22653716.44849
  22663760.175 6  -2390975.063 6  -1818573.26647  22663758.96847
  21529734.558 6   -328537.836 6   -253089.60948  21529731.90148
  23018590.620 5   -124543.426 5    -94580.87547  23018592.24147
  20083175.245 7   -446155.977 7   -339326.03149  20083175.30049
  23771413.886 5    273751.988 5    210120.57047  23771413.45647
 20  5 16  1 55 16.9990000  0  8G04G08G09G11G16G26G27G31             0.000407133
  21381467.761 6   -490972.270 6   -372352.87148  21381466.51548
  20300327.159 7  -1434354.066 7  -1093465.21549  20300327.46449
  22653208.347 6  -1344879.457 6  -1029365.01649  22653208.44049
  22662786.245 6  -2396092.598 6  -1822560.95347  22662784.54247
  21529630.612 6   -329086.582 6   -253517.19948  21529627.54248
  23018571.925 5   -124644.363 5    -94659.52347  23018572.95647
  20083041.690 7   -446858.113 7   -339873.15249  20083041.77649
  23771574.745 5    274597.863 5    210779.68847  23771574.14747
 20  5 16  1 55 17.9990000  0  8G04G08G09G11G16G26G27G31             0.000405973
  21381319.612 6   -491748.805 6   -372957.96548  21381319.21848
  20299784.917 7  -1437201.094 7  -1095683.68049  20299785.79649
  22652701.003 6  -1347545.824 6  -1031442.70749  22652701.23049
  22661813.089 6  -2401209.734 6  -1826548.32847  22661810.90147
  21529526.175 6   -329635.063 6   -253944.58648  21529523.12048
  23018552.730 5   -124745.098 5    -94738.01647  23018553.30447
  20082908.315 7   -447559.512 7   -340419.69549  20082908.08149
  23771735.831 5    275444.184 5    211439.16047  23771735.35847
 20  5 16  1 55 18.9990000  0  8G04G08G09G11G16G26G27G31             0.000404812
  21381171.769 6   -492524.633 6   -373562.50448  21381171.41748
  20299243.628 7  -1440047.359 7  -1097901.54749  20299244.17949
  22652193.519 6  -1350211.488 6  -1033519.84849  22652194.05449
  22660839.159 6  -2406326.566 6  -1830535.47747  22660837.59747
  21529421.683 6   -330183.340 6   -254371.81348  21529418.80048
  23018533.433 5   -124845.637 5    -94816.35547  23018534.37847
  20082774.972 7   -448260.164 7   -340965.66049  20082774.89449
  23771896.722 5    276290.914 5    212098.94147  23771896.70247
 20  5 16  1 55 19.9990000  0  8G04G08G09G11G16G26G27G31             0.000403652
  21381024.433 6   -493299.719 6   -374166.46948  21381023.56248
  20298702.026 7  -1442892.922 7  -1100118.87149  20298702.63249
  22651686.323 6  -1352876.359 6  -1035596.37549  22651686.55849
  22659865.448 6  -2411443.023 6  -1834522.32447  22659863.74147
  21529317.565 6   -330731.402 6   -254798.87548  21529314.40548
  23018514.300 5   -124946.008 5    -94894.57047  23018515.42147
  20082641.753 7   -448960.141 7   -341511.09849  20082641.90949
  23772057.753 5    277138.047 5    212759.04347  23772057.34347
 20  5 16  1 55 20.9990000  0  8G04G08G09G11G16G26G27G31             0.000402491
  21380877.034 6   -494074.098 6   -374769.88348  21380876.37848
  20298160.370 7  -1445737.758 7  -1102335.62949  20298161.36649
  22651179.651 6  -1355540.500 6  -1037672.32849  22651179.63649
  22658891.940 6  -2416559.137 6  -1838508.90247  22658890.51547
  21529213.144 6   -331279.242 6   -255225.77048  21529210.34348
  23018495.519 5   -125046.207 5    -94972.64847  23018496.35147
  20082508.769 7   -449659.387 7   -342055.96549  20082508.79649
  23772219.214 5    277985.648 5    213419.50847  23772218.90147
 20  5 16  1 55 21.9990000  0  8G04G08G09G11G16G26G27G31             0.000401331
  21380730.042 6   -494847.770 6   -375372.74248  21380729.71048
  20297619.394 7  -1448581.840 7  -1104551.79749  20297619.87449
  22650672.878 6  -1358203.898 6  -1039747.70749  22650672.97649
  22657917.933 6  -2421674.914 6  -1842495.21947  22657916.40547
  21529108.722 6   -331826.855 6   -255652.47748  21529105.99948
  23018476.495 5   -125146.242 5    -95050.60247  23018477.48747
  20082375.784 7   -450357.953 7   -342600.30949  20082375.71049
  23772380.222 5    278833.605 5    214080.25447  23772380.52247
 20  5 16  1 55 22.9990000  0  8G04G08G09G11G16G26G27G31             0.000400169
  21380582.534 6   -495620.676 6   -375975.00848  21380581.93748
  20297078.292 7  -1451425.168 7  -1106767.37949  20297078.93349
  22650166.409 6  -1360866.496 6  -1041822.46149  22650166.28849
  22656944.808 6  -2426790.320 6  -1846481.25447  22656943.18347
  21529004.573 6   -332374.242 6   -256079.01248  21529001.98348
  23018457.472 5   -125246.066 5    -95128.38747  23018458.77247
  20082242.612 7   -451055.777 7   -343144.06649  20082242.73049
  23772542.261 5    279682.031 5    214741.34847  23772541.83947
 20  5 16  1 55 23.9990000  0  8G04G08G09G11G16G26G27G31             0.000399010
  21380435.862 6   -496392.887 6   -376576.73048  21380434.74148
  20296537.276 7  -1454267.828 7  -1108982.43849  20296537.75349
  22649659.347 6  -1363528.387 6  -1043896.66049  22649659.64449
  22655971.276 6  -2431905.438 6  -1850467.06647  22655969.82347
  21528900.378 6   -332921.438 6   -256505.39548  21528897.67948
  23018438.355 5   -125345.727 5    -95206.04747  23018439.54247
  20082110.198 7   -451752.906 7   -343687.28149  20082110.12449
  23772703.589 5    280530.855 5    215402.77047  23772703.41747
 20  5 16  1 55 24.9990000  0  8G04G08G09G11G16G26G27G31             0.000397850
  21380288.933 6   -497164.426 6   -377177.93048  21380288.42548
  20295996.378 7  -1457109.801 7  -1111196.96149  20295997.54249
  22649153.370 6  -1366189.570 6  -1045970.30949  22649153.35849
  22654998.323 6  -2437020.227 6  -1854452.61347  22654996.30047
  21528796.605 6   -333468.480 6   -256931.67248  21528793.39448
  23018418.987 5   -125445.270 5    -95283.61347  23018420.56947
  20081977.425 7   -452449.395 7   -344229.99649  20081977.73349
  23772865.315 5    281380.023 5    216064.44947  23772864.78847
 20  5 16  1 55 25.9990000  0  8G04G08G09G11G16G26G27G31             0.000396690
  21380142.448 6   -497935.270 6   -377778.59048  21380141.84348
  20295455.667 7  -1459951.090 7  -1113410.95349  20295456.12849
  22648647.276 6  -1368850.035 6  -1048043.40249  22648647.05449
  22654025.105 6  -2442134.746 6  -1858437.95347  22654023.12047
  21528692.151 6   -334015.336 6   -257357.78948  21528689.50748
  23018400.331 5   -125544.695 5    -95361.08247  23018401.55847
  20081845.417 7   -453145.223 7   -344772.20749  20081845.24549
  23773026.956 5    282229.578 5    216726.43847  23773026.25347
 20  5 16  1 55 26.9990000  0  8G04G08G09G11G16G26G27G31             0.000395529
  21379995.737 6   -498705.426 6   -378378.71148  21379995.18748
  20294915.245 7  -1462791.652 7  -1115624.38349  20294915.69849
  22648141.065 6  -1371509.773 6  -1050115.92649  22648141.12449
  22653051.862 6  -2447248.922 6  -1862423.02047  22653049.85547
  21528588.222 6   -334562.008 6   -257783.77048  21528585.47248
  23018381.190 5   -125643.941 5    -95438.41847  23018382.74147
  20081713.144 7   -453840.348 7   -345313.86349  20081713.08549
  23773188.292 5    283079.492 5    217388.70347  23773188.08947
 20  5 16  1 55 27.9990000  0  8G04G08G09G11G16G26G27G31             0.000394371
  21379849.526 6   -499474.844 6   -378978.26248  21379848.92148
  20294374.769 7  -1465631.473 7  -1117837.22749  20294375.42549
  22647635.097 6  -1374168.730 6  -1052187.84049  22647634.88249
  22652078.855 6  -2452362.699 6  -1866407.78147  22652076.88247
  21528484.565 6   -335108.430 6   -258209.55148  21528481.55448
  23018362.870 5   -125742.988 5    -95515.60247  23018364.26547
  20081580.776 7   -454534.727 7   -345854.94149  20081581.01149
  23773350.105 5    283929.902 5    218051.36347  23773350.07747
 20  5 16  1 55 28.9990000  0  8G04G08G09G11G16G26G27G31             0.000393209
  21379703.558 6   -500243.547 6   -379577.25448  21379702.48748
  20293834.362 7  -1468470.563 7  -1120049.50849  20293834.77649
  22647129.589 6  -1376826.957 6  -1054259.18449  22647129.29249
  22651105.831 6  -2457476.176 6  -1870392.31347  22651103.74147
  21528380.480 6   -335654.664 6   -258635.19148  21528377.68748
  23018344.026 5   -125841.879 5    -95592.66847  23018345.43347
  20081449.190 7   -455228.445 7   -346395.49649  20081449.18749
  23773512.323 5    284780.672 5    218714.29747  23773511.77647
 20  5 16  1 55 29.9990000  0  8G04G08G09G11G16G26G27G31             0.000392052
  21379557.175 6   -501011.520 6   -380175.67248  21379556.09748
  20293294.347 7  -1471308.922 7  -1122261.21549  20293295.71449
  22646623.597 6  -1379484.410 6  -1056329.93849  22646623.45649
  22650132.987 6  -2462589.301 6  -1874376.56347  22650130.74547
  21528276.534 6   -336200.660 6   -259060.64848  21528273.85548
  23018325.206 5   -125940.602 5    -95669.59447  23018326.58547
  20081317.222 7   -455921.422 7   -346935.48849  20081317.03849
  23773673.909 5    285631.910 5    219377.58647  23773673.90947
 20  5 16  1 55 30.9990000  0  8G04G08G09G11G16G26G27G31             0.000390890
  21379411.026 6   -501778.820 6   -380773.57048  21379410.31548
  20292754.315 6  -1474146.645 6  -1124472.42649  20292755.14749
  22646118.144 6  -1382141.168 6  -1058400.13749  22646117.67949
  22649160.120 6  -2467702.145 6  -1878360.60247  22649157.94447
  21528172.706 6   -336746.492 6   -259485.96948  21528169.72248
  23018306.167 5   -126039.191 5    -95746.42247  23018307.17547
  20081185.214 7   -456613.746 7   -347474.95349  20081185.42149
  23773836.292 5    286483.441 5    220041.10947  23773836.10847
 20  5 16  1 55 31.9990000  0  8G04G08G09G11G16G26G27G31             0.000389732
  21379265.120 6   -502545.363 6   -381370.87948  21379264.38248
  20292214.487 6  -1476983.559 6  -1126683.00849  20292215.23049
  22645612.800 6  -1384797.133 6  -1060469.72349  22645612.45649
  22648187.339 6  -2472814.594 6  -1882344.32447  22648184.87847
  21528068.792 6   -337292.086 6   -259911.11748  21528065.88248
  23018287.917 5   -126137.563 5    -95823.08247  23018288.86647
  20081053.800 7   -457305.328 7   -348013.84849  20081053.76949
  23773998.269 5    287335.461 5    220705.02747  23773997.88247
 20  5 16  1 55 32.9990000  0  8G04G08G09G11G16G26G27G31             0.000388573
  21379119.925 6   -503311.227 6   -381967.65248  21379118.91748
  20291674.815 6  -1479819.809 6  -1128893.07449  20291675.54649
  22645107.503 6  -1387452.414 6  -1062538.77749  22645107.19049
  22647214.565 6  -2477926.738 6  -1886327.81347  22647212.41347
  21527965.214 6   -337837.504 6   -260336.12148  21527962.03048
  23018269.019 5   -126235.809 5    -95899.63347  23018269.82747
  20080922.214 7   -457996.273 7   -348552.25049  20080922.23049
  23774160.550 5    288187.840 5    221369.22347  23774160.46847
 20  5 16  1 55 33.9990000  0  8G04G08G09G11G16G26G27G31             0.000387415
  21378974.222 6   -504076.383 6   -382563.88348  21378973.33148
  20291135.144 6  -1482655.352 6  -1131102.59049  20291136.41749
  22644602.370 6  -1390106.938 6  -1064607.23449  22644602.17949
  22646241.995 6  -2483038.570 6  -1890311.05547  22646239.80447
  21527861.464 6   -338382.750 6   -260760.98448  21527858.65148
  23018250.308 5   -126333.914 5    -95976.07847  23018251.36647
  20080790.823 7   -458686.500 7   -349090.09449  20080791.15549
  23774322.933 5    289040.637 5    222033.74647  23774322.71047
 20  5 16  1 55 34.9990000  0  8G04G08G09G11G16G26G27G31             0.000386253
  21378828.308 6   -504840.871 6   -383159.58648  21378827.84748
  20290595.667 7  -1485490.172 7  -1133311.53949  20290596.37449
  22644097.175 6  -1392760.758 6  -1066675.14849  22644096.94049
  22645268.761 6  -2488150.090 6  -1894294.05547  22645266.77247
  21527757.878 6   -338927.785 6   -261185.69148  21527754.92148
  23018232.081 5   -126431.840 5    -96052.38347  23018232.84747
  20080659.855 7   -459376.063 7   -349627.41049  20080659.91749
  23774485.378 5    289893.813 5    222698.55547  23774484.51547
 20  5 16  1 55 35.9990000  0  8G04G08G09G11G16G26G27G31             0.000385096
  21378683.378 6   -505604.586 6   -383754.69148  21378682.41348
  20290056.644 7  -1488324.234 7  -1135519.90249  20290057.26949
  22643592.464 6  -1395413.766 6  -1068742.43049  22643591.99949
  22644295.964 6  -2493261.203 6  -1898276.73447  22644294.05447
  21527654.097 6   -339472.566 6   -261610.19148  21527650.90148
  23018212.987 5   -126529.598 5    -96128.55547  23018214.51947
  20080528.558 7   -460064.863 7   -350164.14149  20080528.66749
  23774647.589 5    290747.441 5    223363.70747  23774647.09347
 20  5 16  1 55 36.9990000  0  8G04G08G09G11G16G26G27G31             0.000383936
  21378537.839 6   -506367.605 6   -384349.25048  21378537.45248
  20289517.214 7  -1491157.586 7  -1137727.71149  20289518.19849
  22643087.128 6  -1398066.074 6  -1070809.15649  22643087.45249
  22643323.589 6  -2498372.012 6  -1902259.18847  22643321.81247
  21527550.495 6   -340017.172 6   -262034.55948  21527547.70248
  23018194.651 5   -126627.152 5    -96204.57847  23018195.58947
  20080397.855 7   -460753.008 7   -350700.35549  20080397.87849
  23774810.323 5    291601.438 5    224029.15247  23774809.70647
 20  5 16  1 55 37.9990000  0  8G04G08G09G11G16G26G27G31             0.000382778
  21378392.761 6   -507129.957 6   -384943.28948  21378392.11648
  20288978.401 6  -1493990.270 6  -1139934.99249  20288979.21049
  22642583.394 6  -1400717.672 6  -1072875.34049  22642582.86249
  22642351.058 6  -2503482.539 6  -1906241.42247  22642349.44847
  21527446.675 6   -340561.609 6   -262458.80148  21527443.95648
  23018175.769 5   -126724.609 5    -96280.52347  23018176.81947
  20080266.800 7   -461440.480 7   -351236.05149  20080266.97249
  23774973.019 5    292455.809 5    224694.88347  23774971.97247
 20  5 16  1 55 38.9990000  0  8G04G08G09G11G16G26G27G31             0.000381618
  21378248.175 6   -507891.594 6   -385536.77748  21378247.05848
  20288439.659 6  -1496822.238 6  -1142141.72349  20288439.87849
  22642078.331 6  -1403368.539 6  -1074940.94549  22642078.44049
  22641378.714 6  -2508592.750 6  -1910223.40647  22641376.95647
  21527343.292 6   -341105.859 6   -262882.89148  21527340.04248
  23018157.565 5   -126821.930 5    -96356.35547  23018158.48747
  20080136.011 7   -462127.262 7   -351771.20749  20080136.37849
  23775135.636 5    293310.559 5    225360.92247  23775135.30847
 20  5 16  1 55 39.9990000  0  8G04G08G09G11G16G26G27G31             0.000380461
  21378103.175 6   -508652.559 6   -386129.74248  21378102.28848
  20287900.964 7  -1499653.512 7  -1144347.91449  20287901.85849
  22641574.261 6  -1406018.660 6  -1077005.97749  22641574.29649
  22640406.276 6  -2513702.590 6  -1914205.09447  22640404.31947
  21527239.706 6   -341649.902 6   -263306.82048  21527236.73748
  23018139.183 5   -126919.055 5    -96432.04747  23018140.17147
  20080005.526 7   -462813.363 7   -352305.82849  20080005.86249
  23775298.503 5    294165.719 5    226027.27747  23775297.73047
 20  5 16  1 55 40.9990000  0  8G04G08G09G11G16G26G27G31             0.000379301
  21377958.394 6   -509412.773 6   -386722.10948  21377957.53848
  20287362.144 7  -1502484.055 7  -1146553.53149  20287362.75749
  22641069.964 6  -1408668.027 6  -1079070.42249  22641070.17549
  22639434.089 6  -2518812.121 6  -1918186.54747  22639431.86647
  21527135.831 6   -342193.742 6   -263730.59448  21527132.98748
  23018120.761 5   -127016.012 5    -96507.59847  23018121.74547
  20079875.237 7   -463498.758 7   -352839.90249  20079875.24949
  23775460.925 5    295021.289 5    226693.94547  23775460.26547
 20  5 16  1 55 41.9990000  0  8G04G08G09G11G16G26G27G31             0.000378143
  21377814.167 6   -510172.250 6   -387313.91448  21377812.90948
  20286823.651 6  -1505313.875 6  -1148758.58649  20286824.37049
  22640566.315 6  -1411316.617 6  -1081134.25849  22640566.12849
  22638462.112 6  -2523921.273 6  -1922167.69947  22638459.85147
  21527032.558 6   -342737.344 6   -264154.17648  21527029.69448
  23018102.183 5   -127112.801 5    -96583.01647  23018103.69047
  20079744.894 7   -464183.453 7   -353373.43449  20079745.34349
  23775623.925 5    295877.301 5    227360.96547  23775623.53847
 20  5 16  1 55 42.9990000  0  8G04G08G09G11G16G26G27G31             0.000376986
  21377669.573 6   -510931.047 6   -387905.18848  21377668.69048
  20286284.808 6  -1508142.988 6  -1150963.09449  20286285.71449
  22640062.011 6  -1413964.527 6  -1083197.57049  22640062.08549
  22637489.901 6  -2529030.145 6  -1926148.64547  22637487.49547
  21526929.237 6   -343280.777 6   -264577.62948  21526926.45648
  23018084.073 5   -127209.414 5    -96658.29347  23018085.44047
  20079614.597 7   -464867.430 7   -353906.40249  20079615.09749
  23775787.120 5    296733.668 5    228028.25847  23775786.80847
 20  5 16  1 55 43.9990000  0  8G04G08G09G11G16G26G27G31             0.000375828
  21377525.105 6   -511689.191 6   -388495.94548  21377524.51548
  20285747.034 6  -1510971.441 6  -1153167.07449  20285747.49949
  22639558.737 6  -1416611.730 6  -1085260.32449  22639558.43349
  22636517.964 6  -2534138.707 6  -1930129.33647  22636515.83547
  21526825.808 6   -343824.039 6   -265000.95348  21526823.15548
  23018065.081 5   -127305.934 5    -96733.50047  23018066.44047
  20079484.651 7   -465550.809 7   -354438.90649  20079484.98749
  23775950.237 5    297590.406 5    228695.84847  23775949.64047
 20  5 16  1 55 44.9990000  0  8G04G08G09G11G16G26G27G31             0.000374668
  21377380.940 6   -512446.641 6   -389086.17648  21377379.93348
  20285208.925 7  -1513799.176 7  -1155370.51249  20285209.36649
  22639054.573 6  -1419258.172 6  -1087322.48449  22639054.76149
  22635545.597 6  -2539246.949 6  -1934109.78547  22635543.49547
  21526722.620 6   -344367.137 6   -265424.14848  21526719.34748
  23018047.308 5   -127402.324 5    -96808.60947  23018048.20247
  20079354.815 7   -466233.477 7   -354970.85549  20079354.79249
  23776113.558 5    298447.508 5    229363.72747  23776112.84347
 20  5 16  1 55 45.9990000  0  8G04G08G09G11G16G26G27G31             0.000373512
  21377236.987 6   -513203.328 6   -389675.79748  21377235.95648
  20284670.769 7  -1516626.160 7  -1157573.35249  20284671.89049
  22638551.237 6  -1421903.879 6  -1089384.07049  22638551.51949
  22634573.284 6  -2544354.824 6  -1938089.94547  22634571.65147
  21526619.425 6   -344909.980 6   -265847.14148  21526616.10548
  23018028.620 5   -127498.480 5    -96883.54347  23018030.30847
  20079225.105 7   -466915.414 7   -355502.23049  20079224.90149
  23776277.183 5    299305.070 5    230031.95347  23776275.60147
 20  5 16  1 55 46.9990000  0  8G04G08G09G11G16G26G27G31             0.000372353
  21377092.769 6   -513959.320 6   -390264.87948  21377092.23048
  20284133.487 7  -1519452.402 7  -1159775.62549  20284134.05449
  22638048.050 6  -1424548.824 6  -1091445.07049  22638048.25349
  22633601.620 6  -2549462.371 6  -1942069.85247  22633599.49547
  21526515.909 6   -345452.609 6   -266269.97348  21526513.09348
  23018010.214 5   -127594.484 5    -96958.35547  23018011.72247
  20079095.456 7   -467596.656 7   -356033.07049  20079095.68749
  23776439.558 5    300163.031 5    230700.49247  23776439.31247
 20  5 16  1 55 47.9990000  0  8G04G08G09G11G16G26G27G31             0.000371195
  21376949.722 6   -514714.578 6   -390853.39848  21376948.61248
  20283595.440 7  -1522277.918 7  -1161977.32449  20283595.74949
  22637544.987 6  -1427193.023 6  -1093505.48449  22637544.52249
  22632630.011 6  -2554569.563 6  -1946049.48447  22632627.69047
  21526413.198 6   -345995.039 6   -266692.64848  21526409.82348
  23017992.105 5   -127690.305 5    -97033.02747  23017993.15947
  20078966.144 7   -468277.211 7   -356563.36749  20078966.11249
  23776603.105 5    301021.387 5    231369.32447  23776602.58547
 20  5 16  1 55 48.9990000  0  8G04G08G09G11G16G26G27G31             0.000370037
  21376805.808 6   -515469.152 6   -391441.37948  21376805.03848
  20283057.753 7  -1525102.711 7  -1164178.46549  20283058.14049
  22637042.503 6  -1429836.480 6  -1095565.32449  22637042.11649
  22631657.831 6  -2559676.406 6  -1950028.84447  22631655.51147
  21526309.839 6   -346537.250 6   -267115.14848  21526306.82748
  23017973.839 5   -127785.961 5    -97107.57047  23017975.54647
  20078836.511 7   -468957.039 7   -357093.10549  20078836.65949
  23776766.159 5    301880.176 5    232038.50847  23776766.07347
 20  5 16  1 55 49.9990000  0  8G04G08G09G11G16G26G27G31             0.000368879
  21376662.730 6   -516222.969 6   -392028.76648  21376661.85848
  20282520.480 6  -1527926.773 6  -1166379.03149  20282521.06949
  22636539.190 6  -1432479.145 6  -1097624.54749  22636538.95649
  22630686.081 6  -2564782.895 6  -1954007.92247  22630684.08947
  21526206.706 6   -347079.234 6   -267537.47348  21526203.49148
  23017956.269 5   -127881.430 5    -97181.96147  23017957.19047
  20078707.362 7   -469636.141 7   -357622.27749  20078707.46049
  23776929.753 5    302739.379 5    232708.01247  23776929.68347
 20  5 16  1 55 50.9990000  0  8G04G08G09G11G16G26G27G31             0.000367722
  21376519.284 6   -516976.047 6   -392615.58248  21376518.59748
  20281982.964 7  -1530750.063 7  -1168578.99649  20281984.03049
  22636036.026 6  -1435121.043 6  -1099683.17249  22636036.03049
  22629714.706 6  -2569889.035 6  -1957986.74247  22629712.37047
  21526103.401 6   -347620.992 6   -267959.62148  21526100.35548
  23017938.097 5   -127976.699 5    -97256.19547  23017939.12047
  20078578.198 7   -470314.551 7   -358150.91049  20078578.43749
  23777093.253 5    303599.035 5    233377.86747  23777093.11247
 20  5 16  1 55 51.9990000  0  8G04G08G09G11G16G26G27G31             0.000366566
  21376375.667 6   -517728.449 6   -393201.87148  21376375.34748
  20281446.190 6  -1533572.707 6  -1170778.46149  20281446.37049
  22635533.792 6  -1437762.242 6  -1101741.25049  22635533.35849
  22628742.565 6  -2574994.863 6  -1961965.30547  22628740.61247
  21525999.855 6   -348162.578 6   -268381.63348  21525997.32748
  23017919.073 5   -128071.836 5    -97330.33247  23017921.25747
  20078449.034 7   -470992.281 7   -358679.00849  20078448.71449
  23777257.331 5    304459.051 5    234048.01247  23777256.86247
 20  5 16  1 55 52.9990000  0  8G04G08G09G11G16G26G27G31             0.000365406
  21376232.894 6   -518480.238 6   -393787.68448  21376232.38648
  20280909.370 7  -1536394.699 7  -1172977.41449  20280909.89049
  22635031.394 6  -1440402.793 6  -1103798.82449  22635031.36649
  22627771.042 6  -2580100.445 6  -1965943.68447  22627769.05047
  21525897.511 6   -348704.051 6   -268803.55948  21525894.17548
  23017901.347 5   -128166.914 5    -97404.42247  23017902.99547
  20078320.355 7   -471669.426 7   -359206.66049  20078320.30449
  23777420.753 5    305319.367 5    234718.38747  23777420.44047
 20  5 16  1 55 53.9990000  0  8G04G08G09G11G16G26G27G31             0.000364250
  21376089.612 6   -519231.305 6   -394372.93048  21376089.33148
  20280372.269 7  -1539215.973 7  -1175175.81349  20280372.91349
  22634528.542 6  -1443042.625 6  -1105855.82849  22634528.88649
  22626799.620 6  -2585205.688 6  -1969921.79347  22626797.39447
  21525794.433 6   -349245.324 6   -269225.33248  21525791.34748
  23017883.128 5   -128261.813 5    -97478.36347  23017884.82347
  20078191.511 7   -472345.852 7   -359733.74249  20078191.56549
  23777584.628 5    306180.063 5    235389.05947  23777584.24147
 20  5 16  1 55 54.9990000  0  8G04G08G09G11G16G26G27G31             0.000363092
  21375947.112 6   -519981.633 6   -394957.60248  21375946.51948
  20279835.534 7  -1542036.473 7  -1177373.60249  20279835.99149
  22634026.464 6  -1445681.652 6  -1107912.21549  22634026.61249
  22625828.503 6  -2590310.570 6  -1973899.62147  22625826.09747
  21525691.495 6   -349786.344 6   -269646.90648  21525688.42548
  23017865.284 5   -128356.480 5    -97552.13747  23017866.56547
  20078063.073 7   -473021.547 7   -360260.25449  20078063.52649
  23777748.440 5    307041.262 5    236060.10947  23777747.76947
 20  5 16  1 55 55.9990000  0  8G04G08G09G11G16G26G27G31             0.000361937
  21375804.628 6   -520731.270 6   -395541.73848  21375804.31248
  20279299.269 7  -1544856.289 7  -1179570.85949  20279300.01549
  22633524.394 6  -1448319.938 6  -1109968.01649  22633524.83149
  22624857.183 6  -2595415.109 6  -1977877.18047  22624854.83547
  21525588.526 6   -350327.188 6   -270068.34848  21525585.57748
  23017846.948 5   -128451.020 5    -97625.80147  23017849.33547
  20077934.573 7   -473696.578 7   -360786.25849  20077934.63649
  23777911.948 5    307902.824 5    236731.44947  23777911.72247
 20  5 16  1 55 56.9990000  0  8G04G08G09G11G16G26G27G31             0.000360779
  21375661.511 6   -521480.199 6   -396125.31648  21375661.38648
  20278762.706 7  -1547675.398 7  -1181767.56649  20278763.11249
  22633022.073 6  -1450957.512 6  -1112023.27049  22633022.67949
  22623885.667 6  -2600519.324 6  -1981854.48447  22623883.44047
  21525485.831 6   -350867.828 6   -270489.62548  21525482.68748
  23017829.175 5   -128545.414 5    -97699.35547  23017830.97647
  20077806.269 7   -474370.914 7   -361311.71149  20077806.29649
  23778076.253 5    308764.762 5    237403.09447  23778075.94447
 20  5 16  1 55 57.9990000  0  8G04G08G09G11G16G26G27G31             0.000359623
  21375519.823 6   -522228.379 6   -396708.31648  21375518.67548
  20278226.315 7  -1550493.781 7  -1183963.71949  20278226.76549
  22632520.925 6  -1453594.309 6  -1114077.91849  22632521.31549
  22622913.956 6  -2605623.184 6  -1985831.52047  22622912.23747
  21525382.948 6   -351408.250 6   -270910.73848  21525379.73048
  23017811.581 5   -128639.602 5    -97772.75047  23017813.08547
  20077678.112 7   -475044.539 7   -361836.61349  20077678.10149
  23778240.425 5    309627.129 5    238075.06647  23778239.60147
 20  5 16  1 55 58.9990000  0  8G04G08G09G11G16G26G27G31             0.000358465
  21375377.417 6   -522975.891 6   -397290.79748  21375376.69848
  20277690.097 7  -1553311.422 7  -1186159.27749  20277690.53849
  22632019.198 6  -1456230.367 6  -1116131.98849  22632019.05849
  22621943.300 6  -2610726.711 6  -1989808.29347  22621941.35547
  21525280.214 6   -351948.473 6   -271331.68848  21525276.98048
  23017793.964 5   -128733.645 5    -97846.02747  23017795.27647
  20077549.917 7   -475717.445 7   -362360.95749  20077550.12049
  23778404.753 5    310489.895 5    238747.34447  23778404.36247
 20  5 16  1 55 59.9990000  0  8G04G08G09G11G16G26G27G31             0.000357309
  21375235.362 6   -523722.617 6   -397872.66048  21375234.60148
  20277153.745 7  -1556128.332 7  -1188354.27349  20277154.34749
  22631517.495 6  -1458865.645 6  -1118185.45749  22631518.23749
  22620972.112 6  -2615829.859 6  -1993784.77347  22620969.74547
  21525177.206 6   -352488.434 6   -271752.44148  21525174.37848
  23017775.706 5   -128827.469 5    -97919.13747  23017777.55447
  20077421.862 7   -476389.625 7   -362884.73449  20077422.03849
  23778568.198 5    311353.133 5    239419.99647  23778568.51147
 20  5 16  1 56  0.9990000  0  8G04G08G09G11G16G26G27G31             0.000356152
  21375093.230 6   -524468.621 6   -398453.96548  21375092.34348
  20276618.081 7  -1558944.473 7  -1190548.67249  20276618.83549
  22631015.940 6  -1461500.156 6  -1120238.32049  22631016.57349
  22620001.237 6  -2620932.633 6  -1997760.95747  22619999.23747
  21525074.644 6   -353028.168 6   -272173.00848  21525071.76548
  23017757.925 5   -128921.102 5    -97992.09847  23017759.43747
  20077294.409 7   -477061.078 7   -363407.95349  20077294.67549
  23778733.065 5    312216.809 5    240092.99647  23778732.84347
 20  5 16  1 56  1.9990000  0  8G04G08G09G11G16G26G27G31             0.000354996
  21374951.253 6   -525213.902 6   -399034.70348  21374950.54248
  20276082.409 7  -1561759.938 7  -1192742.53149  20276083.25349
  22630514.948 6  -1464133.891 6  -1122290.57449  22630515.28849
  22619030.159 6  -2626035.074 6  -2001736.88747  22619028.41347
  21524971.886 6   -353567.688 6   -272593.40648  21524968.87048
  23017740.128 5   -129014.539 5    -98064.90647  23017741.67547
  20077166.667 7   -477731.840 7   -363930.61749  20077166.88649
  23778897.659 5    313080.836 5    240766.27047  23778897.64447
 20  5 16  1 56  2.9990000  0  8G04G08G09G11G16G26G27G31             0.000353838
  21374810.003 6   -525958.402 6   -399614.83248  21374809.09348
  20275546.550 6  -1564574.539 6  -1194935.73049  20275547.12449
  22630013.878 6  -1466766.848 6  -1124342.23449  22630014.38649
  22618059.464 6  -2631137.078 6  -2005712.47747  22618057.43747
  21524869.495 6   -354106.949 6   -273013.61748  21524866.29648
  23017722.550 5   -129107.766 5    -98137.55947  23017724.08947
  20077039.222 7   -478401.852 7   -364452.71149  20077039.62049
  23779062.261 5    313945.398 5    241439.95747  23779061.71047
 20  5 16  1 56  3.9990000  0  8G04G08G09G11G16G26G27G31             0.000352684
  21374668.597 6   -526702.148 6   -400194.37948  21374667.46448
  20275011.167 7  -1567388.430 7  -1197128.37949  20275011.84749
  22629513.401 6  -1469399.016 6  -1126393.27049  22629513.56549
  22617088.815 6  -2636238.742 6  -2009687.79747  22617086.66747
  21524766.995 6   -354645.973 6   -273433.63748  21524763.90948
  23017704.401 5   -129200.797 5    -98210.05947  23017706.48347
  20076912.128 7   -479071.102 7   -364974.20349  20076911.87449
  23779226.722 5    314810.363 5    242113.94147  23779226.62447
 20  5 16  1 56  4.9990000  0  8G04G08G09G11G16G26G27G31             0.000351526
  21374527.019 6   -527445.250 6   -400773.42648  21374525.94048
  20274476.034 7  -1570201.645 7  -1199320.49249  20274476.34349
  22629012.050 6  -1472030.465 6  -1128443.75449  22629012.80449
  22616117.480 6  -2641340.113 6  -2013662.89147  22616115.72647
  21524664.151 6   -355184.805 6   -273853.50848  21524661.05048
  23017686.886 5   -129293.676 5    -98282.42647  23017688.52647
  20076784.448 7   -479739.699 7   -365495.19149  20076784.71849
  23779391.167 5    315675.711 5    242788.22747  23779391.05447
 20  5 16  1 56  5.9990000  0  8G04G08G09G11G16G26G27G31             0.000350370
  21374385.855 6   -528187.641 6   -401351.90648  21374384.63248
  20273940.464 7  -1573014.164 7  -1201512.06649  20273941.16349
  22628511.589 6  -1474661.254 6  -1130493.71549  22628512.02249
  22615147.175 6  -2646441.129 6  -2017637.70347  22615145.26147
  21524561.683 6   -355723.469 6   -274273.24648  21524558.81548
  23017668.808 5   -129386.434 5    -98354.70347  23017671.03047
  20076657.667 7   -480407.645 7   -366015.66849  20076657.55849
  23779556.425 5    316541.418 5    243462.80547  23779555.66347
 20  5 16  1 56  6.9990000  0  8G04G08G09G11G16G26G27G31             0.000349215
  21374244.636 6   -528929.336 6   -401929.85248  21374243.47248
  20273405.636 7  -1575825.957 7  -1203703.06649  20273406.17149
  22628011.120 6  -1477291.230 6  -1132543.04749  22628011.89449
  22614176.511 6  -2651541.836 6  -2021612.27747  22614174.51947
  21524459.128 6   -356261.930 6   -274692.82848  21524456.61648
  23017651.620 5   -129479.000 5    -98426.83647  23017652.60847
  20076530.628 7   -481074.898 7   -366535.60549  20076530.70249
  23779720.823 5    317407.570 5    244137.72347  23779720.85847
 20  5 16  1 56  7.9990000  0  8G04G08G09G11G16G26G27G31             0.000348059
  21374103.620 6   -529670.266 6   -402507.20748  21374102.62448
  20272870.706 7  -1578636.996 7  -1205893.48449  20272871.23749
  22627511.456 6  -1479920.453 6  -1134591.78949  22627511.52249
  22613205.901 6  -2656642.160 6  -2025586.55547  22613203.75347
  21524356.753 6   -356800.141 6   -275112.21548  21524353.94848
  23017633.706 5   -129571.418 5    -98498.84047  23017636.00347
  20076403.558 7   -481741.391 7   -367054.94149  20076403.94849
  23779885.808 5    318274.137 5    244812.96147  23779885.65547
 20  5 16  1 56  8.9990000  0  8G04G08G09G11G16G26G27G31             0.000346903
  21373962.839 6   -530410.516 6   -403084.02048  21373961.80048
  20272335.745 6  -1581447.324 6  -1208083.35549  20272336.86249
  22627010.542 6  -1482548.910 6  -1136639.93449  22627011.49949
  22612235.409 6  -2661742.156 6  -2029560.58647  22612233.27247
  21524254.378 6   -357338.168 6   -275531.45348  21524251.92148
  23017615.870 5   -129663.495 5    -98570.60547  23017617.96847
  20076277.245 7   -482407.215 7   -367573.76649  20076277.37049
  23780050.651 5    319141.074 5    245488.48847  23780051.01947
 20  5 16  1 56  9.9990000  0  7G04G08G09G11G16G26G27                0.000345745
  21373822.042 6   -531150.051 6   -403660.27348  21373820.85548
  20271801.409 7  -1584256.941 7  -1210272.66449  20271802.01149
  22626510.823 5  -1485176.641 5  -1138687.51649  22626511.24949
  22611265.019 6  -2666841.766 6  -2033534.30547  22611262.74147
  21524151.847 6   -357875.938 6   -275950.50048  21524149.73048
  23017599.425 5   -129755.649 5    -98642.44546  23017600.59746
  20076150.292 7   -483072.320 7   -368092.02749  20076150.44449
 20  5 16  1 56 10.9990000  0  7G04G08G09G11G16G26G27                0.000344589
  21373681.550 6   -531888.855 6   -404235.96948  21373680.02248
  20271266.800 7  -1587065.848 7  -1212461.43049  20271267.43349
  22626011.222 6  -1487803.621 6  -1140734.52049  22626011.27649
  22610294.659 6  -2671941.094 6  -2037507.81647  22610292.57747
  21524049.980 6   -358413.555 6   -276369.42248  21524047.31248
  23017581.386 5   -129847.508 5    -98714.01647  23017582.87847
  20076023.972 7   -483736.750 7   -368609.77049  20076024.11249
 20  5 16  1 56 11.9990000  0  8G04G08G09G11G16G26G27G31             0.000343435
  21373540.808 6   -532626.906 6   -404811.08248  21373539.92148
  20270732.120 7  -1589873.957 7  -1214649.57049  20270732.96049
  22625511.433 6  -1490429.816 6  -1142780.91049  22625511.58949
  22609324.245 6  -2677040.016 6  -2041481.00047  22609322.30847
  21523947.128 6   -358950.875 6   -276788.11348  21523945.00748
  23017564.355 5   -129939.152 5    -98785.40647  23017565.51147
  20075897.792 7   -484400.426 7   -369126.92249  20075897.91349
  23780546.35515      1622.47315                
 20  5 16  1 56 12.9990000  0  8G04G08G09G11G16G26G27G31             0.000342281
  21373400.651 6   -533364.168 6   -405385.57448  21373399.38648
  20270198.050 7  -1592681.285 7  -1216837.09849  20270198.83149
  22625011.628 6  -1493055.195 6  -1144826.66449  22625012.31549
  22608354.167 6  -2682138.508 6  -2045453.85247  22608352.40947
  21523845.323 6   -359487.938 6   -277206.60948  21523842.79648
  23017546.745 5   -130030.590 5    -98856.65647  23017548.39747
  20075771.581 7   -485063.320 7   -369643.47349  20075771.78449
  23780712.065 5      2491.195 5                
 20  5 16  1 56 13.9990000  0  8G04G08G09G11G16G26G27G31             0.000341127
  21373260.620 6   -534100.668 6   -405959.47348  21373259.42148
  20269664.144 7  -1595487.832 7  -1219024.01649  20269664.96849
  22624512.214 6  -1495679.750 6  -1146871.77349  22624512.82349
  22607384.081 6  -2687236.602 6  -2049426.39547  22607381.74947
  21523743.355 6   -360024.766 6   -277624.91448  21523740.12448
  23017529.081 5   -130121.770 5    -98927.69947  23017530.94447
  20075645.433 7   -485725.484 7   -370159.44149  20075645.68349
  23780876.995 5      3360.398 5                
 20  5 16  1 56 14.9990000  0  8G04G08G09G11G16G26G27G31             0.000339972
  21373120.542 6   -534836.383 6   -406532.75448  21373119.52648
  20269130.042 7  -1598293.582 7  -1221210.31649  20269130.61249
  22624012.925 6  -1498303.508 6  -1148916.26649  22624013.17149
  22606413.761 6  -2692334.320 6  -2053398.63347  22606411.62047
  21523641.097 6   -360561.277 6   -278042.97748  21523638.65548
  23017511.925 5   -130212.730 5    -98998.58247  23017514.03447
  20075519.722 7   -486386.867 7   -370674.80549  20075519.83549
  23781042.440 5      4230.035 5                
 20  5 16  1 56 15.9990000  0  8G04G08G09G11G16G26G27G31             0.000338818
  21372980.745 6   -535571.348 6   -407105.46148  21372979.62848
  20268596.511 7  -1601098.539 7  -1223395.99649  20268596.90949
  22623513.417 6  -1500926.457 6  -1150960.11749  22623514.32749
  22605443.690 6  -2697431.613 6  -2057370.55547  22605441.79647
  21523539.073 6   -361097.527 6   -278460.83248  21523536.42548
  23017494.612 5   -130303.434 5    -99069.26647  23017496.16347
  20075393.862 7   -487047.496 7   -371189.58249  20075394.12449
  23781208.425 5      5100.156 5                
 20  5 16  1 56 16.9990000  0  8G04G08G09G11G16G26G27G31             0.000337662
  21372840.870 6   -536305.480 6   -407677.50448  21372839.76148
  20268062.886 7  -1603902.695 7  -1225581.05149  20268063.60149
  22623014.722 6  -1503548.578 6  -1153003.33249  22623015.32749
  22604473.495 6  -2702528.500 6  -2061342.14847  22604471.92947
  21523436.995 6   -361633.512 6   -278878.48448  21523433.91348
  23017477.698 5   -130393.887 5    -99139.75047  23017479.27647
  20075268.292 7   -487707.355 7   -371703.75449  20075268.62849
  23781373.519 5      5970.766 5    249011.35557  23781373.17557
 20  5 16  1 56 17.9990000  0  8G04G08G09G11G16G26G27G31             0.000336508
  21372701.425 6   -537038.898 6   -408249.00048  21372700.21448
  20267529.550 7  -1606706.090 7  -1227765.51249  20267529.99549
  22622515.565 6  -1506169.918 6  -1155045.93449  22622516.31549
  22603503.980 6  -2707624.992 6  -2065313.44547  22603502.16747
  21523335.183 6   -362169.246 6   -279295.94148  21523332.75348
  23017460.253 5   -130484.184 5    -99210.11747  23017462.08547
  20075142.815 7   -488366.465 7   -372217.34849  20075142.97249
  23781539.683 5      6841.816 5    249690.09847  23781539.31247
