     2.10           OBSERVATION DATA    Mixed(MIXED)        RINEX VERSION / TYPE
cnvtToRINEX 3.07.0  convertToRINEX OPR  19-May-20 12:31 UTC PGM / RUN BY / DATE 
----------------------------------------------------------- COMMENT             
GBA0                                                        MARKER NAME         
GBA0                                                        MARKER NUMBER       
GNSS Observer       Trimble                                 OBSERVER / AGENCY   
0440102809          TRIMBLE 5700        2.32                REC # / TYPE / VERS 
                    TRM39105.00                             ANT # / TYPE        
 -3050760.6439  4927688.1391  2654110.8609                  APPROX POSITION XYZ 
        0.0000        0.0000        0.0000                  ANTENNA: DELTA H/E/N
     1     1     0                                          WAVELENGTH FACT L1/2
     4    C1    L1    L2    P2                              # / TYPES OF OBSERV 
  2020     5    16     0     1    8.0000000     GPS         TIME OF FIRST OBS   
  2020     5    16     1    33   42.0000000     GPS         TIME OF LAST OBS    
     0                                                      RCV CLOCK OFFS APPL 
    18                                                      LEAP SECONDS        
    12                                                      # OF SATELLITES     
   G03  1656  1640  1656  1656                              PRN / # OF OBS      
   G04  5555  5555  5555  5555                              PRN / # OF OBS      
   G08  4928  4879  4649  4649                              PRN / # OF OBS      
   G09  3126  3045  3064  3064                              PRN / # OF OBS      
   G11   628   576     0     0                              PRN / # OF OBS      
   G14  4115  4115  4056  4056                              PRN / # OF OBS      
   G16  5555  5555  5555  5555                              PRN / # OF OBS      
   G21  2433  2374  1579  1579                              PRN / # OF OBS      
   G22   408   372   133   133                              PRN / # OF OBS      
   G26  5018  4962  4896  4896                              PRN / # OF OBS      
   G27  5555  5555  5555  5555                              PRN / # OF OBS      
   G31  5543  5543  5543  5543                              PRN / # OF OBS      
CARRIER PHASE MEASUREMENTS: PHASE SHIFTS REMOVED            COMMENT             
                                                            END OF HEADER       
 20  5 16  0  1  8.0000000  0  5G04G14G16G26G27                     -0.000480453
  22712615.33616    -89665.76216    -24827.32457  22712613.62557
  21626004.24216     -7765.67616     -2341.49257  21626001.74257
  20493656.39816    -49557.43016    -14101.02358  20493652.94158
  20882571.44516    -35396.69916    -16800.53559  20882571.41859
  21419989.16416    -94693.27316    -26586.06359  21419988.03559
 20  5 16  0  1  9.0000000  0  5G04G14G16G26G27                     -0.000482561
  22711451.219 6    -95781.160 6    -29592.59047  22711449.54747
  21625898.477 6     -8321.211 6     -2774.36347  21625896.08647
  20493015.977 6    -52922.660 6    -16723.27748  20493012.42248
  20882211.453 6    -37291.309 6    -18276.85249  20882211.29749
  21418789.531 6   -100998.586 6    -31499.28949  21418788.40249
 20  5 16  0  1 10.0000000  0  5G04G14G16G26G27                     -0.000484673
  22710287.297 6   -101898.176 6    -34359.09847  22710285.37947
  21625792.820 6     -8878.324 6     -3208.47747  21625790.04347
  20492375.359 6    -56289.527 6    -19346.80948  20492371.67648
  20881850.180 6    -39187.773 6    -19754.62549  20881849.55149
  21417589.133 6   -107305.500 6    -36413.76649  21417588.03149
 20  5 16  0  1 11.0000000  0  5G04G14G16G26G27                     -0.000486782
  22709122.789 6   -108016.754 6    -39126.82047  22709120.95347
  21625686.422 6     -9436.941 6     -3643.76647  21625683.05547
  20491734.125 6    -59657.898 6    -21971.52348  20491730.88748
  20881489.023 6    -41085.988 6    -21233.75849  20881489.30949
  21416388.742 6   -113613.875 6    -41329.38749  21416387.70349
 20  5 16  0  1 12.0000000  0  5G04G14G16G26G27                     -0.000488892
  22707958.109 6   -114136.664 6    -43895.57847  22707957.07847
  21625579.523 6     -9996.816 6     -4080.03547  21625577.01247
  20491093.320 6    -63027.555 6    -24597.23848  20491090.02048
  20881127.453 6    -42985.707 6    -22714.06349  20881127.35949
  21415188.148 6   -119923.504 6    -46245.98049  21415186.88349
 20  5 16  0  1 13.0000000  0  5G04G14G16G26G27                     -0.000491005
  22706793.156 6   -120257.836 6    -48665.31347  22706791.79747
  21625473.211 6    -10557.934 6     -4517.27747  21625470.11747
  20490451.500 6    -66398.477 6    -27223.92648  20490448.18448
  20880766.023 6    -44886.918 6    -24195.53149  20880765.94149
  21413987.102 6   -126234.352 6    -51163.53549  21413985.83649
 20  5 16  0  1 14.0000000  0  5G04G14G16G26G27                     -0.000493118
  22705628.398 6   -126380.496 6    -53436.22346  22705626.59846
  21625365.969 6    -11120.438 6     -4955.59847  21625363.30947
  20489810.070 6    -69770.820 6    -29851.73448  20489806.53948
  20880403.773 6    -46789.766 6    -25678.27749  20880403.76249
  21412785.766 6   -132546.633 6    -56082.19149  21412784.77349
 20  5 16  0  1 15.0000000  0  5G04G14G16G26G27                     -0.000495235
  22704462.641 6   -132504.453 6    -58208.13746  22704461.62546
  21625258.414 6    -11684.215 6     -5394.90647  21625255.44147
  20489168.430 6    -73144.488 6    -32480.56348  20489165.22748
  20880041.266 6    -48694.164 6    -27162.21949  20880041.27049
  21411584.891 6   -138860.148 6    -61001.81649  21411583.79349
 20  5 16  0  1 16.0000000  0  5G04G14G16G26G27                     -0.000497351
  22703297.500 6   -138629.449 6    -62980.85947  22703295.64547
  21625151.055 6    -12248.996 6     -5834.99647  21625147.82847
  20488525.789 6    -76519.188 6    -35110.19948  20488522.63348
  20879678.492 6    -50599.777 6    -28647.11349  20879678.41849
  21410383.078 6   -145174.641 6    -65922.19949  21410381.62949
 20  5 16  0  1 17.0000000  0  5G04G14G16G26G27                     -0.000499470
  22702131.344 6   -144755.492 6    -67754.37947  22702129.86747
  21625043.234 6    -12814.719 6     -6275.80947  21625040.55947
  20487883.367 6    -79894.832 6    -37740.57048  20487880.37548
  20879316.031 6    -52506.602 6    -30132.95349  20879315.86349
  21409181.203 6   -151490.082 6    -70843.32449  21409180.28949
 20  5 16  0  1 18.0000000  0  5G04G14G16G26G27                     -0.000501587
  22700965.602 6   -150882.605 6    -72528.75446  22700964.03146
  21624935.719 6    -13381.492 6     -6717.44947  21624932.66447
  20487240.727 6    -83271.551 6    -40371.78148  20487237.50848
  20878952.961 6    -54414.730 6    -31619.81349  20878952.93449
  21407978.945 6   -157806.555 6    -75765.25049  21407978.05149
 20  5 16  0  1 18.9990000  0  5G04G14G16G26G27                      0.000496296
  22699800.503 6   -157004.613 6    -77299.14147  22699799.01147
  21624827.628 6    -13948.656 6     -7159.39847  21624824.57747
  20486598.901 6    -86645.918 6    -43001.16048  20486595.58548
  20878590.034 6    -56322.145 6    -33106.10949  20878589.53849
  21406777.886 6   -164117.645 6    -80682.98449  21406777.21849
 20  5 16  0  1 19.9990000  0  6G04G14G16G26G27G31                   0.000494175
  22698634.276 6   -163133.852 6    -82075.17247  22698632.82347
  21624719.620 6    -14517.438 6     -7602.60947  21624716.56247
  20485955.683 6    -90024.719 6    -45633.99648  20485952.37448
  20878226.386 6    -58232.801 6    -34594.93849  20878226.10149
  21405575.847 6   -170436.105 6    -85606.46149  21405574.80049
  21558857.88616    -75986.61716    -43758.96559  21558854.82759
 20  5 16  0  1 20.9990000  0  6G04G14G16G26G27G31                   0.000492058
  22697467.940 6   -169264.000 6    -86851.91446  22697466.44446
  21624610.909 6    -15087.055 6     -8046.46947  21624607.99947
  20485312.745 6    -93404.398 6    -48267.50848  20485308.94848
  20877862.401 6    -60144.547 6    -36084.61349  20877862.64749
  21404373.050 6   -176755.422 6    -90530.60249  21404372.35849
  21558378.550 6    -78505.457 6    -45721.69949  21558375.82349
 20  5 16  0  1 21.9990000  0  6G04G14G16G26G27G31                   0.000489935
  22696301.448 6   -175395.027 6    -91629.34446  22696299.72646
  21624502.222 6    -15657.539 6     -8491.00047  21624499.33547
  20484669.800 6    -96784.945 6    -50901.70748  20484666.01148
  20877498.495 6    -62057.371 6    -37575.12549  20877498.24549
  21403170.558 6   -183075.563 6    -95455.38349  21403169.91349
  21557899.222 6    -81025.363 6    -47685.26249  21557896.16749
 20  5 16  0  1 22.9990000  0  6G04G14G16G26G27G31                   0.000487812
  22695134.433 6   -181526.965 6    -96407.47747  22695132.82747
  21624394.167 6    -16228.848 6     -8936.18047  21624390.99547
  20484026.198 6   -100166.387 6    -53536.59848  20484022.27248
  20877134.612 6    -63971.305 6    -39066.50849  20877134.00749
  21401967.628 6   -189396.500 6   -100380.80149  21401967.18749
  21557419.136 6    -83546.301 6    -49649.62949  21557416.57349
 20  5 16  0  1 23.9990000  0  6G04G14G16G26G27G31                   0.000485689
  22693967.409 6   -187659.656 6   -101186.19947  22693965.69447
  21624285.073 6    -16800.887 6     -9381.92247  21624281.70247
  20483382.144 6   -103548.551 6    -56172.05148  20483378.91348
  20876769.886 6    -65886.188 6    -40558.62149  20876769.51549
  21400764.448 6   -195718.191 6   -105306.79349  21400764.08949
  21556938.987 6    -86068.176 6    -51614.73049  21556936.19049
 20  5 16  0  1 24.9990000  0  6G04G14G16G26G27G31                   0.000483566
  22692799.761 6   -193793.164 6   -105965.54746  22692798.54246
  21624176.370 6    -17373.664 6     -9828.25047  21624172.62447
  20482738.440 6   -106931.500 6    -58808.10948  20482735.14448
  20876404.886 6    -67802.066 6    -42051.51649  20876404.94849
  21399561.675 6   -202040.609 6   -110233.35549  21399560.78849
  21556459.284 6    -88591.008 6    -53580.57849  21556456.46849
 20  5 16  0  1 25.9990000  0  6G04G14G16G26G27G31                   0.000481441
  22691632.589 6   -199927.410 6   -110745.47746  22691631.38646
  21624066.800 6    -17947.141 6    -10275.11347  21624063.59347
  20482094.831 6   -110315.156 6    -61444.72348  20482091.37048
  20876040.433 6    -69718.914 6    -43545.17249  20876040.23749
  21398358.417 6   -208363.695 6   -115160.43449  21398357.71449
  21555978.894 6    -91114.707 6    -55547.09449  21555976.11649
 20  5 16  0  1 26.9990000  0  6G04G14G16G26G27G31                   0.000479315
  22690465.159 6   -206062.359 6   -115525.96146  22690463.44846
  21623957.620 6    -18521.266 6    -10722.48847  21623955.10147
  20481450.823 6   -113699.531 6    -64081.90248  20481447.10148
  20875675.362 6    -71636.652 6    -45039.51249  20875675.35149
  21397154.995 6   -214687.418 6   -120088.01649  21397154.14049
  21555498.417 6    -93639.266 6    -57514.28549  21555495.78849
 20  5 16  0  1 27.9990000  0  6G04G14G16G26G27G31                   0.000477190
  22689297.284 6   -212198.023 6   -120306.99246  22689296.06946
  21623848.269 6    -19096.086 6    -11170.39547  21623845.70647
  20480806.878 6   -117084.586 6    -66719.60948  20480802.77248
  20875310.284 6    -73555.289 6    -46534.55549  20875310.30449
  21395951.815 6   -221011.801 6   -125016.09849  21395950.77649
  21555017.581 6    -96164.719 6    -59482.17649  21555014.85849
 20  5 16  0  1 28.9990000  0  6G04G14G16G26G27G31                   0.000475063
  22688129.964 6   -218334.266 6   -125088.48847  22688128.56247
  21623738.464 6    -19671.383 6    -11618.68047  21623735.67147
  20480161.956 6   -120470.152 6    -69357.71548  20480158.67548
  20874945.245 6    -75474.715 6    -48030.21549  20874944.86649
  21394748.042 6   -227336.707 6   -129944.59849  21394747.42549
  21554537.190 6    -98690.898 6    -61450.62549  21554534.33949
 20  5 16  0  1 29.9990000  0  6G04G14G16G26G27G31                   0.000472935
  22686962.120 6   -224471.059 6   -129870.39846  22686960.95646
  21623628.714 6    -20247.215 6    -12067.37947  21623626.28847
  20479517.909 6   -123856.277 6    -71996.25848  20479514.60548
  20874579.878 6    -77394.902 6    -49526.46949  20874579.63249
  21393544.081 6   -233662.063 6   -134873.44549  21393543.31949
  21554056.151 6   -101217.758 6    -63419.60949  21554053.67149
 20  5 16  0  1 30.9990000  0  6G04G14G16G26G27G31                   0.000470808
  22685794.112 5   -230608.355 5   -134652.70347  22685792.72247
  21623519.628 6    -20823.488 6    -12516.41847  21623516.71047
  20478873.511 6   -127242.891 6    -74635.17248  20478870.01148
  20874214.011 6    -79315.766 6    -51023.24649  20874214.00349
  21392340.230 6   -239987.855 6   -139802.64149  21392339.27249
  21553575.620 6   -103745.273 6    -65389.10549  21553572.58549
 20  5 16  0  1 31.9990000  0  6G04G14G16G26G27G31                   0.000468679
  22684626.081 6   -236746.074 6   -139435.33247  22684624.89447
  21623409.784 6    -21400.117 6    -12965.74647  21623407.31947
  20478229.433 6   -130629.863 6    -77274.37548  20478224.97648
  20873848.487 6    -81237.258 6    -52520.50849  20873848.28049
  21391136.870 6   -246314.004 6   -144732.10249  21391135.67549
  21553094.323 6   -106273.387 6    -67359.06349  21553091.55449
 20  5 16  0  1 32.9990000  0  6G04G14G16G26G27G31                   0.000466551
  22683457.878 6   -242884.281 6   -144218.34847  22683456.56947
  21623299.987 6    -21977.219 6    -13415.44147  21623297.14447
  20477584.636 6   -134017.340 6    -79913.96948  20477580.78848
  20873482.534 6    -83159.449 6    -54018.32449  20873482.63249
  21389932.550 6   -252640.641 6   -149661.94949  21389931.83149
  21552613.136 6   -108802.137 6    -69329.52349  21552610.16749
 20  5 16  0  1 33.9990000  0  6G04G14G16G26G27G31                   0.000464420
  22682290.245 5   -249023.055 5   -149001.80547  22682288.42547
  21623190.120 6    -22554.832 6    -13865.52347  21623187.93347
  20476939.503 6   -137405.367 6    -82553.98848  20476935.79248
  20873116.425 6    -85082.426 6    -55516.74649  20873116.18349
  21388728.480 6   -258967.738 6   -154592.16049  21388727.93349
  21552131.808 6   -111331.609 6    -71300.54349  21552128.50749
 20  5 16  0  1 34.9990000  0  6G04G14G16G26G27G31                   0.000462290
  22681121.651 6   -255162.371 6   -153785.68847  22681120.04647
  21623079.784 6    -23132.906 6    -14315.98047  21623077.67947
  20476295.050 6   -140793.895 6    -85194.39848  20476291.43748
  20872750.448 6    -87006.125 6    -57015.73049  20872750.59349
  21387524.737 6   -265295.297 6   -159522.71949  21387523.66349
  21551650.019 6   -113861.789 6    -73272.11749  21551647.50749
 20  5 16  0  1 35.9990000  0  6G04G14G16G26G27G31                   0.000460159
  22679953.417 6   -261302.102 6   -158569.89547  22679952.06247
  21622969.862 6    -23711.367 6    -14766.73047  21622967.06947
  20475650.065 6   -144182.820 6    -87835.11748  20475646.45648
  20872384.425 6    -88930.438 6    -58515.19549  20872384.21049
  21386320.198 6   -271623.242 6   -164453.58649  21386319.74149
  21551168.339 6   -116392.512 6    -75244.11349  21551165.53449
 20  5 16  0  1 36.9990000  0  7G03G04G14G16G26G27G31                0.000458029
  24139726.10512    -59245.31312    -33974.25857  24139726.67557
  22678785.065 6   -267442.188 6   -163354.37947  22678783.82347
  21622859.636 6    -24290.117 6    -15217.71547  21622857.55847
  20475004.972 6   -147572.078 6    -90476.09848  20475001.34748
  20872017.823 6    -90855.297 6    -60015.09049  20872017.90949
  21385116.120 6   -277951.465 6   -169384.67249  21385115.40949
  21550686.769 6   -118923.758 6    -77216.51249  21550683.92949
 20  5 16  0  1 37.9990000  0  7G03G04G14G16G26G27G31                0.000455896
  24139369.081 2    -61118.680 2    -35434.02747  24139370.08947
  22677616.386 6   -273582.645 6   -168139.14847  22677614.69847
  21622749.870 6    -24869.230 6    -15668.96147  21622746.93347
  20474360.331 6   -150961.703 6    -93117.36748  20474356.20248
  20871651.714 6    -92780.773 6    -61515.45749  20871651.84749
  21383912.003 6   -284280.012 6   -174316.00449  21383910.90949
  21550205.276 6   -121455.563 6    -79189.34449  21550202.07349
 20  5 16  0  1 38.9990000  0  7G03G04G14G16G26G27G31                0.000453766
  24139013.105 3    -62992.660 3    -36894.28147  24139013.60847
  22676447.480 6   -279723.594 6   -172924.30947  22676446.72647
  21622639.362 6    -25448.742 6    -16120.53147  21622637.24147
  20473714.745 6   -154351.773 6    -95758.98048  20473710.78848
  20871284.987 6    -94706.883 6    -63016.32049  20871285.39449
  21382707.253 6   -290608.938 6   -179247.64149  21382706.82349
  21549723.159 6   -123987.953 6    -81162.63749  21549720.40949
 20  5 16  0  1 39.9990000  0  7G03G04G14G16G26G27G31                0.000451633
  24138656.425 3    -64867.055 3    -38354.85947  24138657.01547
  22675279.159 6   -285864.875 6   -177709.71946  22675277.90546
  21622529.151 6    -26028.563 6    -16572.34447  21622526.67547
  20473069.808 6   -157742.133 6    -98400.81648  20473065.59348
  20870918.065 6    -96633.535 6    -64517.61349  20870918.46449
  21381503.190 6   -296938.145 6   -184179.49249  21381502.24149
  21549241.151 6   -126520.832 6    -83136.31349  21549238.14449
 20  5 16  0  1 40.9990000  0  7G03G04G14G16G26G27G31                0.000449501
  24138299.175 3    -66741.926 3    -39815.80147  24138300.08547
  22674110.409 6   -292006.492 6   -182495.38346  22674109.09746
  21622418.519 6    -26608.672 6    -17024.38747  21622416.07747
  20472424.120 6   -161132.824 6   -101042.91848  20472420.22648
  20870551.792 6    -98560.750 6    -66019.32849  20870551.88249
  21380298.355 6   -303267.645 6   -189111.57049  21380297.89749
  21548758.815 6   -129054.234 6    -85110.40249  21548756.27249
 20  5 16  0  1 41.9990000  0  7G03G04G14G16G26G27G31                0.000447367
  24137943.058 3    -68617.313 3    -41277.14547  24137943.40147
  22672941.753 5   -298148.520 5   -187281.38346  22672940.49546
  21622308.190 6    -27189.148 6    -17476.71147  21622305.72647
  20471779.042 6   -164523.914 6   -103685.32848  20471775.30448
  20870184.612 6   -100488.559 6    -67521.52349  20870184.73349
  21379094.050 6   -309597.488 6   -194043.91449  21379093.34749
  21548276.972 6   -131588.199 6    -87084.91849  21548273.96049
 20  5 16  0  1 42.9990000  0  7G03G04G14G16G26G27G31                0.000445232
  24137586.355 3    -70493.266 3    -42738.92647  24137586.70647
  22671772.862 6   -304291.023 6   -192067.75846  22671771.56946
  21622197.480 6    -27770.031 6    -17929.34847  21622195.20647
  20471134.011 6   -167915.473 6   -106328.09448  20471129.82348
  20869818.019 6   -102417.043 6    -69024.23849  20869817.85549
  21377889.323 6   -315927.738 6   -198976.58249  21377888.58549
  21547794.612 6   -134122.762 6    -89059.90249  21547791.51149
 20  5 16  0  1 43.9990000  0  8G03G04G14G16G22G26G27G31             0.000443098
  24137229.487 3    -72369.805 3    -44201.17247  24137229.81247
  22670603.565 5   -310433.988 5   -196854.48047  22670601.77647
  21622086.620 6    -28351.363 6    -18382.33647  21622084.56547
  20470488.558 6   -171307.469 6   -108971.21148  20470484.25348
  24517806.25314    -60969.28514    -36461.89155  24517800.68355
  20869450.784 6   -104346.211 6    -70527.49249  20869450.35849
  21376684.995 6   -322258.414 6   -203909.57849  21376683.96849
  21547311.987 6   -136657.984 6    -91035.40249  21547308.88249
 20  5 16  0  1 44.9990000  0  8G03G04G14G16G22G26G27G31             0.000440968
  24136871.230 3    -74246.660 3    -45663.66447  24136872.30047
  22669435.026 5   -316577.172 5   -201641.37547  22669433.40947
  21621976.487 6    -28932.836 6    -18835.43047  21621974.09347
  20469842.823 6   -174699.633 6   -111614.44948  20469838.65148
  24517484.034 4    -62663.301 4    -37781.92645  24517477.94445
  20869083.542 6   -106275.797 6    -72031.06349  20869083.83549
  21375479.776 6   -328589.180 6   -208842.64149  21375479.39449
  21546829.284 6   -139193.559 6    -93011.16849  21546826.46449
 20  5 16  0  1 45.9990000  0  8G03G04G14G16G22G26G27G31             0.000438833
  24136514.878 3    -76124.055 3    -47126.57447  24136515.19447
  22668265.456 5   -322720.758 5   -206428.59847  22668263.90147
  21621865.761 6    -29514.668 6    -19288.80547  21621863.39447
  20469197.495 6   -178092.203 6   -114258.01248  20469193.10148
  24517162.487 4    -64358.023 4    -39102.50845  24517155.78045
  20868716.394 6   -108205.965 6    -73535.09049  20868716.35149
  21374275.269 6   -334920.324 6   -213776.00449  21374274.58949
  21546346.534 6   -141729.691 6    -94987.38349  21546343.88649
 20  5 16  0  1 46.9990000  0  8G03G04G14G16G22G26G27G31             0.000436697
  24136156.761 3    -78001.758 3    -48589.72747  24136158.21047
  22667096.495 5   -328864.582 5   -211215.98446  22667095.30046
  21621754.815 6    -30096.688 6    -19742.33247  21621752.84347
  20468551.636 6   -181484.977 6   -116901.73448  20468547.54648
  24516839.222 4    -66053.324 4    -40423.55945  24516833.05445
  20868349.026 6   -110136.582 6    -75039.46949  20868348.85849
  21373071.019 6   -341251.641 6   -218709.49649  21373069.40949
  21545863.823 6   -144266.211 6    -96963.89149  21545861.17149
 20  5 16  0  1 47.9990000  0  8G03G04G14G16G22G26G27G31             0.000434561
  24135799.659 3    -79879.996 3    -50053.29347  24135800.92147
  22665927.261 5   -335008.773 5   -216003.66846  22665925.71046
  21621644.605 6    -30679.043 6    -20196.12147  21621641.64747
  20467905.776 6   -184878.129 6   -119545.74648  20467901.78448
  24516516.925 4    -67749.414 4    -41745.18045  24516510.19845
  20867981.386 6   -112067.785 6    -76544.30149  20867981.74149
  21371865.753 6   -347583.273 6   -223643.23449  21371864.75749
  21545381.495 6   -146803.297 6    -98940.84049  21545378.53849
 20  5 16  0  1 48.9990000  0  8G03G04G14G16G22G26G27G31             0.000432425
  24135442.433 3    -81758.625 3    -51517.16047  24135443.35847
  22664758.300 5   -341153.293 5   -220791.60246  22664756.46446
  21621533.284 6    -31261.691 6    -20650.13347  21621530.23347
  20467260.050 6   -188271.570 6   -122189.98848  20467255.79648
  24516193.440 4    -69446.141 4    -43067.29745  24516187.59745
  20867613.644 6   -113999.523 6    -78049.55549  20867613.66349
  21370660.542 6   -353915.148 6   -228577.16849  21370660.20249
  21544898.276 6   -149340.836 6   -100918.14849  21544895.57349
 20  5 16  0  1 49.9990000  0  8G03G04G14G16G22G26G27G31             0.000430288
  24135084.386 3    -83637.574 3    -52981.27347  24135085.74547
  22663588.839 5   -347298.004 5   -225579.69547  22663587.49147
  21621422.198 6    -31844.469 6    -21104.24647  21621419.80447
  20466614.136 6   -191665.191 6   -124834.37148  20466609.85848
  24515870.417 4    -71143.418 4    -44389.84045  24515864.61245
  20867246.440 6   -115931.652 6    -79555.10949  20867246.32749
  21369456.136 6   -360247.160 6   -233511.20749  21369454.95649
  21544415.651 6   -151878.723 6   -102895.72349  21544412.64749
 20  5 16  0  1 50.9990000  0  8G03G04G14G16G22G26G27G31             0.000428150
  24134727.784 3    -85516.898 3    -54445.68847  24134728.23747
  22662419.331 5   -353443.008 5   -230368.00847  22662418.05047
  21621311.511 6    -32427.453 6    -21558.51647  21621308.66747
  20465968.917 6   -195059.047 6   -127478.93448  20465964.15148
  24515547.722 5    -72841.297 5    -45712.86345  24515541.22245
  20866878.472 6   -117864.215 6    -81061.00849  20866878.43349
  21368250.636 6   -366579.375 6   -238445.40249  21368250.01549
  21543932.620 6   -154417.023 6   -104873.61749  21543929.73049
 20  5 16  0  1 51.9990000  0  8G03G04G14G16G22G26G27G31             0.000426012
  24134369.128 3    -87396.688 3    -55910.45347  24134370.10547
  22661250.276 5   -359588.320 5   -235156.56646  22661248.62846
  21621200.401 6    -33010.746 6    -22013.03147  21621197.59347
  20465322.839 6   -198453.219 6   -130123.73448  20465318.01948
  24515224.019 4    -74539.859 4    -47036.43845  24515218.08945
  20866510.894 6   -119797.352 6    -82567.34449  20866510.49149
  21367045.675 6   -372911.859 6   -243379.80549  21367044.92549
  21543448.940 6   -156955.816 6   -106851.90649  21543446.28849
 20  5 16  0  1 52.9990000  0  8G03G04G14G16G22G26G27G31             0.000423874
  24134011.480 3    -89276.852 3    -57375.52047  24134011.99147
  22660080.480 5   -365733.941 5   -239945.35946  22660079.19046
  21621089.581 6    -33594.254 6    -22467.71147  21621086.84347
  20464676.862 6   -201847.668 6   -132768.75848  20464672.28048
  24514901.878 5    -76239.055 5    -48360.48845  24514894.86645
  20866142.753 6   -121730.973 6    -84074.06349  20866142.92549
  21365840.589 6   -379244.578 6   -248314.39549  21365839.58549
  21542966.073 6   -159495.063 6   -108830.53949  21542963.40549
 20  5 16  0  1 53.9990000  0  8G03G04G14G16G22G26G27G31             0.000421736
  24133654.425 3    -91157.355 3    -58840.85247  24133654.28447
  22658910.769 5   -371879.766 5   -244734.31346  22658909.44446
  21620978.190 6    -34177.949 6    -22922.54347  21620975.59347
  20464030.847 6   -205242.313 6   -135413.93448  20464026.20648
  24514577.925 5    -77938.805 5    -49684.96145  24514571.73745
  20865774.378 6   -123664.992 6    -85581.09849  20865774.73749
  21364635.722 6   -385577.434 6   -253249.08649  21364634.43749
  21542482.855 6   -162034.656 6   -110809.43849  21542479.87049
 20  5 16  0  1 54.9990000  0  8G03G04G14G16G22G26G27G31             0.000419598
  24133296.597 3    -93038.109 3    -60306.37547  24133296.47647
  22657741.425 5   -378025.738 5   -249523.38346  22657739.87446
  21620866.878 6    -34761.770 6    -23377.47747  21620864.43747
  20463384.831 6   -208637.082 6   -138059.20348  20463379.94048
  24514254.714 5    -79639.082 5    -51009.85245  24514247.94445
  20865406.847 6   -125599.398 6    -87088.42249  20865406.87449
  21363430.425 6   -391910.387 6   -258183.85949  21363429.69849
  21541999.308 6   -164574.559 6   -112788.59049  21541996.53849
 20  5 16  0  1 55.9990000  0  8G03G04G14G16G22G26G27G31             0.000417458
  24132939.222 4    -94919.277 4    -61772.21947  24132938.42947
  22656571.980 5   -384172.012 5   -254312.68046  22656570.19846
  21620756.144 6    -35345.828 6    -23832.58647  21620753.13647
  20462738.956 6   -212032.148 6   -140704.71948  20462734.30448
  24513930.597 5    -81339.957 5    -52335.21545  24513923.99545
  20865038.612 6   -127534.293 6    -88596.13749  20865038.19449
  21362225.073 6   -398243.578 6   -263118.81349  21362224.15149
  21541516.089 6   -167114.930 6   -114768.10249  21541513.19049
 20  5 16  0  1 56.9990000  0  8G03G04G14G16G22G26G27G31             0.000415319
  24132580.839 4    -96800.832 4    -63238.36347  24132580.70247
  22655402.206 5   -390318.578 5   -259102.20346  22655400.33546
  21620644.730 6    -35930.105 6    -24287.87147  21620641.91747
  20462093.050 6   -215427.461 6   -143350.41448  20462088.05048
  24513607.175 5    -83041.492 5    -53661.07045  24513600.33145
  20864670.565 6   -129469.648 6    -90104.20749  20864669.91749
  21361020.073 6   -404576.949 6   -268053.90649  21361019.23749
  21541032.651 6   -169655.727 6   -116747.94549  21541029.84749
 20  5 16  0  1 57.9990000  0  8G03G04G14G16G22G26G27G31             0.000413179
  24132222.339 4    -98682.879 4    -64704.89547  24132222.18747
  22654232.128 5   -396465.438 5   -263891.96946  22654230.93746
  21620533.933 6    -36514.664 6    -24743.36347  21620530.42547
  20461446.628 6   -218823.043 6   -145996.32848  20461441.99148
  24513283.253 5    -84743.719 5    -54987.51245  24513276.65945
  20864301.956 6   -131405.547 6    -91612.70749  20864301.61249
  21359814.667 6   -410910.633 6   -272989.24649  21359814.14449
  21540548.995 6   -172197.027 6   -118728.17649  21540546.03449
 20  5 16  0  1 58.9990000  0  8G03G04G14G16G22G26G27G31             0.000411037
  24131863.933 4   -100565.207 4    -66171.64147  24131863.70247
  22653062.667 5   -402612.531 5   -268681.91046  22653061.08946
  21620422.362 6    -37099.410 6    -25199.00447  21620419.27247
  20460800.042 6   -222218.891 6   -148642.44548  20460795.76948
  24512959.823 5    -86446.473 5    -56314.33645  24512952.73745
  20863933.292 6   -133341.875 6    -93121.53149  20863933.47649
  21358609.495 6   -417244.434 6   -277924.67649  21358609.10549
  21540065.198 6   -174738.699 6   -120708.70349  21540062.69049
 20  5 16  0  1 59.9990000  0  8G03G04G14G16G22G26G27G31             0.000408897
  24131506.081 4   -102447.883 4    -67638.65247  24131505.99147
  22651892.706 5   -408759.898 5   -273472.07446  22651891.46846
  21620311.058 6    -37684.363 6    -25654.80947  21620307.79247
  20460154.112 6   -225614.949 6   -151288.72348  20460149.94448
  24512635.065 5    -88149.844 5    -57641.65245  24512628.25745
  20863564.636 6   -135278.668 6    -94630.72349  20863564.37849
  21357404.370 6   -423578.418 6   -282860.25449  21357403.46849
  21539581.651 6   -177280.734 6   -122689.51249  21539579.08149
 20  5 16  0  2  0.9990000  0  8G03G04G14G16G22G26G27G31             0.000406755
  24131148.534 3   -104330.898 3    -69105.93847  24131147.53847
  22650723.519 5   -414907.438 5   -278262.36347  22650721.15947
  21620200.065 6    -38269.457 6    -26110.73047  21620196.77647
  20459507.706 6   -229011.180 6   -153935.13348  20459503.50348
  24512311.089 5    -89853.766 5    -58969.38745  24512304.64045
  20863196.167 6   -137215.863 6    -96140.22749  20863195.86249
  21356198.628 6   -429912.563 6   -287795.95349  21356197.64049
  21539097.737 6   -179823.152 6   -124670.61349  21539094.96849
 20  5 16  0  2  1.9990000  0  8G03G04G14G16G22G26G27G31             0.000404615
  24130789.628 4   -106214.215 4    -70573.45347  24130789.10547
  22649553.081 5   -421055.156 5   -283052.79347  22649551.35547
  21620088.276 6    -38854.680 6    -26566.76247  21620085.24547
  20458861.253 6   -232407.574 6   -156581.66848  20458857.02248
  24511986.323 5    -91558.258 5    -60297.55545  24511980.19445
  20862827.331 6   -139153.426 6    -97650.01249  20862827.15549
  21354993.737 6   -436246.813 6   -292731.73849  21354992.76149
  21538613.355 6   -182365.922 6   -126651.98849  21538611.06249
 20  5 16  0  2  2.9990000  0  8G03G04G14G16G22G26G27G31             0.000402473
  24130431.081 4   -108097.902 4    -72041.25847  24130430.81247
  22648383.253 5   -427203.168 5   -287843.45346  22648381.36246
  21619977.026 6    -39440.133 6    -27022.95347  21619973.94447
  20458214.878 6   -235804.215 6   -159228.40248  20458210.72648
  24511662.261 4    -93263.281 4    -61626.13345  24511655.51945
  20862458.737 6   -141091.441 6    -99160.15649  20862458.56949
  21353787.862 6   -442581.262 6   -297667.66849  21353787.47649
  21538129.870 6   -184909.066 6   -128633.66849  21538127.26949
 20  5 16  0  2  3.9990000  0  8G03G04G14G16G22G26G27G31             0.000400330
  24130071.855 4   -109982.055 4    -73509.42647  24130072.03847
  22647213.237 5   -433351.535 5   -292634.40646  22647211.67946
  21619865.519 6    -40025.910 6    -27479.41447  21619862.08547
  20457569.112 6   -239201.227 6   -161875.43048  20457564.03048
  24511336.933 4    -94969.105 4    -62955.32445  24511331.11645
  20862089.472 6   -143030.070 6   -100670.77749  20862089.53049
  21352582.972 6   -448916.023 6   -302603.84449  21352582.06549
  21537646.206 6   -187452.789 6   -130615.78549  21537643.61649
 20  5 16  0  2  4.9990000  0  8G03G04G14G16G22G26G27G31             0.000398188
  24129713.097 4   -111866.613 4    -74977.91047  24129713.46447
  22646043.362 5   -439500.148 5   -297425.52346  22646041.49146
  21619753.964 6    -40611.891 6    -27936.02047  21619750.52247
  20456922.519 6   -242598.445 6   -164522.61348  20456917.81248
  24511011.722 4    -96675.477 4    -64284.97345  24511006.41745
  20861720.534 6   -144969.129 6   -102181.72749  20861720.35149
  21351377.292 6   -455250.977 6   -307540.17249  21351376.60149
  21537161.644 6   -189996.902 6   -132598.21949  21537158.87049
 20  5 16  0  2  5.9990000  0  8G03G04G14G16G22G26G27G31             0.000396044
  24129354.144 4   -113751.402 4    -76446.57447  24129354.56547
  22644873.214 5   -445648.914 5   -302216.76246  22644871.42946
  21619642.651 6    -41197.988 6    -28392.71547  21619639.15147
  20456276.050 6   -245995.816 6   -167169.91848  20456271.33948
  24510687.714 4    -98382.383 4    -65615.05145  24510681.77645
  20861351.409 6   -146908.582 6   -103692.99649  20861351.22249
  21350171.745 6   -461586.012 6   -312476.57049  21350170.96449
  21536677.612 6   -192541.320 6   -134580.88349  21536674.98349
 20  5 16  0  2  6.9990000  0  8G03G04G14G16G22G26G27G31             0.000393900
  24128995.347 4   -115636.461 4    -77915.44947  24128996.01147
  22643702.831 5   -451797.832 5   -307008.13746  22643701.06946
  21619531.089 6    -41784.180 6    -28849.49247  21619527.65947
  20455629.214 6   -249393.297 6   -169817.30548  20455624.92548
  24510363.003 5   -100089.785 5    -66945.50045  24510356.99945
  20860982.394 6   -148848.352 6   -105204.50449  20860982.40149
  21348966.073 6   -467921.121 6   -317413.02049  21348965.53849
  21536193.034 6   -195086.016 6   -136563.76249  21536190.83149
 20  5 16  0  2  7.9990000  0  8G03G04G14G16G22G26G27G31             0.000391756
  24128636.855 4   -117521.852 4    -79384.57847  24128636.99947
  22642532.901 5   -457947.016 5   -311799.71546  22642531.06546
  21619419.081 6    -42370.563 6    -29306.41447  21619415.74147
  20454982.808 6   -252791.031 6   -172464.89548  20454978.20248
  24510037.894 5   -101797.750 5    -68276.39145  24510031.32745
  20860612.933 6   -150788.594 6   -106716.37549  20860612.79249
  21347760.362 6   -474256.406 6   -322349.60549  21347759.44449
  21535709.112 6   -197631.172 6   -138547.00049  21535706.20249
 20  5 16  0  2  8.9990000  0  8G03G04G14G16G22G26G27G31             0.000389612
  24128277.784 4   -119407.543 4    -80853.94947  24128278.27247
  22641362.690 5   -464096.320 5   -316591.36746  22641360.84746
  21619307.886 6    -42957.051 6    -29763.41447  21619304.41347
  20454335.878 6   -256188.895 6   -175112.57048  20454331.62448
  24509712.964 5   -103506.250 5    -69607.69945  24509706.37445
  20860243.605 6   -152729.152 6   -108228.49649  20860243.97649
  21346554.737 6   -480591.785 6   -327286.26649  21346554.06549
  21535224.495 6   -200176.559 6   -140530.42249  21535221.80449
 20  5 16  0  2  9.9990000  0  8G03G04G14G16G22G26G27G31             0.000387468
  24127918.253 3   -121293.535 3    -82323.54747  24127919.28447
  22640192.612 5   -470245.844 5   -321383.20346  22640190.61246
  21619196.128 6    -43543.715 6    -30220.55547  21619193.17147
  20453689.355 6   -259586.941 6   -177760.39548  20453684.80048
  24509387.823 5   -105215.320 5    -70939.45745  24509381.52245
  20859874.597 6   -154670.191 6   -109740.99249  20859874.69049
  21345349.464 6   -486927.336 6   -332223.05949  21345348.46849
  21534740.026 6   -202722.348 6   -142514.15249  21534737.15949
 20  5 16  0  2 10.9990000  0  8G03G04G14G16G22G26G27G31             0.000385323
  24127560.003 3   -123179.891 3    -83793.43047  24127560.14447
  22639022.065 5   -476395.578 5   -326175.20746  22639019.80046
  21619084.230 6    -44130.535 6    -30677.81347  21619081.60847
  20453042.651 6   -262985.176 6   -180408.37148  20453038.10148
  24509062.269 5   -106924.910 5    -72271.59845  24509056.43745
  20859505.534 6   -156611.594 6   -111253.77349  20859505.42149
  21344143.917 6   -493262.992 6   -337159.93449  21344143.09749
  21534255.503 6   -205268.465 6   -144498.14549  21534252.80049
 20  5 16  0  2 11.9990000  0  8G03G04G14G16G22G26G27G31             0.000383179
  24127200.987 3   -125066.402 3    -85263.44147  24127200.99147
  22637851.987 5   -482545.379 5   -330967.25846  22637849.88246
  21618972.370 6    -44717.410 6    -31135.13347  21618969.20647
  20452396.472 6   -266383.492 6   -183056.41448  20452391.50748
  24508736.753 5   -108634.977 5    -73604.11345  24508730.90945
  20859135.401 6   -158553.320 6   -112766.80949  20859135.17149
  21342938.542 6   -499598.691 6   -342096.84849  21342937.39049
  21533771.284 6   -207814.875 6   -146482.36349  21533768.24149
 20  5 16  0  2 12.9990000  0  8G03G04G14G16G22G26G27G31             0.000381033
  24126840.909 3   -126953.125 3    -86733.61347  24126841.99947
  22636681.519 5   -488695.289 5   -335759.40246  22636679.58146
  21618860.612 6    -45304.332 6    -31592.47347  21618856.96047
  20451749.620 6   -269781.883 6   -185704.51648  20451744.91348
  24508411.003 4   -110345.477 4    -74936.96545  24508405.19845
  20858765.730 6   -160495.320 6   -114280.06349  20858765.95249
  21341732.675 6   -505934.426 6   -347033.78949  21341731.72649
  21533286.495 6   -210361.496 6   -148466.74649  21533284.01549
 20  5 16  0  2 13.9990000  0  8G03G04G14G16G22G26G27G31             0.000378887
  24126482.214 3   -128840.215 3    -88204.07447  24126483.17547
  22635511.269 5   -494845.453 5   -340551.73846  22635509.30046
  21618749.050 6    -45891.477 6    -32049.98447  21618745.96447
  20451103.026 6   -273180.504 6   -188352.78948  20451098.05048
  24508085.105 4   -112056.563 4    -76270.28545  24508079.73045
  20858396.355 6   -162437.766 6   -115793.65649  20858396.39449
  21340526.690 6   -512270.313 6   -351970.84449  21340525.82349
  21532802.222 6   -212908.527 6   -150451.44949  21532799.36249
 20  5 16  0  2 14.9990000  0  8G03G04G14G16G22G26G27G31             0.000376740
  24126122.534 3   -130727.738 3    -89674.87947  24126123.48347
  22634341.440 5   -500995.891 5   -345344.28946  22634338.71846
  21618636.917 6    -46478.809 6    -32507.64547  21618634.11247
  20450455.776 6   -276579.371 6   -191001.25448  20450451.29248
  24507759.433 5   -113768.254 5    -77604.06345  24507753.58945
  20858026.620 6   -164380.691 6   -117307.62149  20858026.62849
  21339321.253 6   -518606.438 6   -356908.08249  21339320.31949
  21532316.792 6   -215455.980 6   -152436.48049  21532314.24949
 20  5 16  0  2 15.9990000  0  8G03G04G14G16G22G26G27G31             0.000374594
  24125763.464 2   -132615.563 2    -91145.90247  24125764.65947
  22633170.956 5   -507146.598 5   -350137.03946  22633168.91346
  21618525.159 6    -47066.449 6    -32965.54747  21618522.05047
  20449809.565 6   -279978.512 6   -193649.93048  20449804.91748
  24507433.323 4   -115480.645 4    -78938.40245  24507428.36645
  20857656.855 6   -166324.094 6   -118821.96149  20857656.97249
  21338115.003 6   -524942.738 6   -361845.45349  21338114.44049
  21531832.511 6   -218003.895 6   -154421.86749  21531829.60149
 20  5 16  0  2 16.9990000  0  8G03G04G14G16G22G26G27G31             0.000372446
  24125404.167 2   -134503.660 2    -92617.15647  24125405.38247
  22631999.753 5   -513297.441 5   -354929.91446  22631998.08146
  21618413.980 6    -47654.078 6    -33423.43447  21618410.56547
  20449162.558 6   -283377.762 6   -196298.69548  20449157.99948
  24507107.683 4   -117193.473 4    -80273.09445  24507102.39745
  20857286.855 6   -168267.848 6   -120336.57449  20857286.83149
  21336909.183 6   -531279.133 6   -366782.90649  21336908.80049
  21531347.276 6   -220552.051 6   -156407.44549  21531344.78849
 20  5 16  0  2 17.9990000  0  8G03G04G14G16G22G26G27G31             0.000370298
  24125045.269 2   -136392.086 2    -94088.65247  24125046.13247
  22630829.503 5   -519448.418 5   -359722.88346  22630827.80846
  21618302.065 6    -48241.867 6    -33881.45347  21618298.44847
  20448515.769 6   -286777.180 6   -198947.59448  20448510.86648
  24506781.792 5   -118906.840 5    -81608.18445  24506776.33545
  20856916.972 6   -170211.984 6   -121851.49649  20856916.93349
  21335703.433 6   -537615.613 6   -371720.42649  21335703.01149
  21530862.323 6   -223100.566 6   -158393.30149  21530859.87049
 20  5 16  0  2 18.9990000  0  8G03G04G14G16G22G26G27G31             0.000368151
  24124685.855 2   -138280.844 2    -95560.42647  24124686.35547
  22629658.862 5   -525599.727 5   -364516.10946  22629657.14746
  21618189.737 6    -48829.910 6    -34339.66447  21618186.83547
  20447868.909 6   -290176.805 6   -201596.65648  20447863.82748
  24506455.550 4   -120620.848 4    -82943.77745  24506450.22645
  20856546.815 6   -172156.598 6   -123366.77349  20856546.81949
  21334497.792 6   -543952.309 6   -376658.11349  21334496.80849
  21530377.284 6   -225649.504 6   -160379.48849  21530374.83949
 20  5 16  0  2 19.9990000  0  9G03G04G08G14G16G22G26G27G31          0.000366003
  24124326.440 2   -140169.770 2    -97032.31647  24124327.39447
  22628488.550 5   -531750.988 5   -369309.30146  22628486.43746
  23702187.44011   -317498.64111                
  21618077.612 6    -49417.879 6    -34797.82447  21618074.95247
  20447221.683 6   -293576.434 6   -204245.71948  20447217.10548
  24506129.409 4   -122335.148 4    -84279.58645  24506124.47245
  20856177.206 6   -174101.402 6   -124882.20749  20856177.04249
  21333291.722 6   -550288.926 6   -381595.74249  21333290.99149
  21529892.378 6   -228198.578 6   -162365.78149  21529889.72249
 20  5 16  0  2 20.9990000  0  9G03G04G08G14G16G22G26G27G31          0.000363886
  24123967.065 2   -142058.969 2    -98504.41847  24123967.52247
  22627317.644 5   -537902.398 5   -374102.60246  22627316.14446
  23700828.870 1   -324627.172 1                
  21617965.769 6    -50005.965 6    -35256.08247  21617962.93747
  20446575.175 6   -296976.238 6   -206894.91848  20446569.89448
  24505803.315 4   -124050.027 4    -85615.86345  24505797.77645
  20855806.808 6   -176046.602 6   -126397.94549  20855806.83549
  21332086.644 6   -556625.664 6   -386533.46149  21332085.35849
  21529407.526 6   -230748.004 6   -164352.34849  21529404.60849
 20  5 16  0  2 21.9990000  0  9G03G04G08G14G16G22G26G27G31          0.000361736
  24123607.956 2   -143948.453 2    -99976.73847  24123608.12447
  22626147.909 5   -544053.996 5   -378896.05946  22626145.49946
  23699472.792 1   -331756.207 1                
  21617854.042 6    -50594.219 6    -35714.46147  21617851.15147
  20445927.612 6   -300376.188 6   -209544.22748  20445922.94848
  24505476.878 4   -125765.387 4    -86952.52345  24505471.49545
  20855436.823 6   -177992.141 6   -127913.95349  20855436.97249
  21330880.487 6   -562962.512 6   -391471.26249  21330879.23349
  21528921.714 6   -233297.766 6   -166339.17249  21528919.44449
 20  5 16  0  2 22.9990000  0  9G03G04G08G14G16G22G26G27G31          0.000359587
  24123247.183 2   -145838.227 2   -101449.28547  24123248.03847
  22624976.909 5   -550205.824 5   -383689.68046  22624974.79646
  23698115.651 1   -338885.719 1                
  21617741.940 6    -51182.613 6    -36172.95747  21617738.97247
  20445280.987 6   -303776.352 6   -212193.69948  20445276.30048
  24505150.425 4   -127481.336 4    -88289.64145  24505144.86245
  20855066.644 6   -179938.121 6   -129430.30549  20855066.28849
  21329674.667 6   -569299.484 6   -396409.16449  21329673.54249
  21528436.362 6   -235847.879 6   -168326.27749  21528434.18749
 20  5 16  0  2 23.9990000  0  9G03G04G08G14G16G22G26G27G31          0.000357437
  24122888.378 2   -147728.250 2   -102922.03547  24122888.25747
  22623806.292 5   -556357.734 5   -388483.37946  22623804.51946
  23696758.206 1   -346015.477 1                
  21617630.058 6    -51771.070 6    -36631.49247  21617626.83147
  20444633.456 6   -307176.566 6   -214843.21548  20444629.22648
  24504824.183 4   -129197.742 4    -89627.09445  24504818.30845
  20854695.987 6   -181884.414 6   -130946.89549  20854696.06549
  21328468.784 6   -575636.488 6   -401347.09049  21328467.76149
  21527951.690 6   -238398.215 6   -170313.55149  21527948.70649
 20  5 16  0  2 24.9990000  0  9G03G04G08G14G16G22G26G27G31          0.000355288
  24122528.308 2   -149618.508 2   -104394.96547  24122528.76147
  22622635.261 5   -562509.805 5   -393277.21146  22622633.01146
  23695401.331 1   -353145.637 1                
  21617517.980 6    -52359.637 6    -37090.11347  21617514.49147
  20443986.331 6   -310576.930 6   -217492.85248  20443981.73748
  24504497.722 4   -130914.609 4    -90964.91445  24504491.52645
  20854326.026 6   -183831.066 6   -132463.76649  20854325.35549
  21327262.464 6   -581973.578 6   -406285.08249  21327261.48749
  21527466.526 6   -240948.891 6   -172301.09849  21527463.49149
 20  5 16  0  2 25.9990000  0  9G03G04G08G14G16G22G26G27G31          0.000353136
  24122168.745 2   -151509.004 2   -105868.08647  24122168.73747
  22621464.112 5   -568661.992 5   -398071.12546  22621462.90546
  23694044.550 1   -360276.246 1                
  21617405.956 6    -52948.281 6    -37548.79747  21617402.74547
  20443339.401 6   -313977.383 6   -220142.56348  20443335.00748
  24504171.026 4   -132631.969 4    -92303.11345  24504164.98745
  20853954.995 6   -185778.023 6   -133980.87949  20853954.81549
  21326057.105 6   -588310.738 6   -411223.13349  21326055.76949
  21526980.714 6   -243499.832 6   -174288.84049  21526977.86649
 20  5 16  0  2 26.9990000  0  9G03G04G08G14G16G22G26G27G31          0.000350986
  24121809.815 2   -153399.836 2   -107341.46547  24121809.01947
  22620293.362 5   -574814.336 5   -402865.14846  22620292.00346
  23692687.550 1   -367407.223 1                
  21617294.175 6    -53537.039 6    -38007.56647  21617290.72647
  20442692.097 6   -317377.980 6   -222792.37148  20442687.94048
  24503843.987 4   -134349.820 4    -93641.72745  24503838.03445
  20853584.659 6   -187725.348 6   -135498.27349  20853584.32749
  21324851.011 6   -594647.969 6   -416161.23449  21324849.57749
  21526495.253 6   -246051.066 6   -176276.81649  21526492.35149
 20  5 16  0  2 27.9990000  0  9G03G04G08G14G16G22G26G27G31          0.000348835
  24121449.300 2   -155290.965 2   -108815.07047  24121448.94447
  22619123.292 5   -580966.918 5   -407659.35546  22619121.02646
  23691330.323 1   -374538.715 1                
  21617181.831 6    -54126.031 6    -38466.52047  21617178.44047
  20442045.019 6   -320778.844 6   -225442.39548  20442040.79648
  24503516.964 4   -136068.313 4    -94980.80945  24503511.28045
  20853214.284 6   -189673.152 6   -137016.04349  20853213.80849
  21323644.956 6   -600985.422 6   -421099.51249  21323643.64449
  21526009.683 6   -248602.750 6   -178265.14549  21526007.28449
 20  5 16  0  2 28.9990000  0  9G03G04G08G14G16G22G26G27G31          0.000346684
  24121090.081 2   -157182.465 2   -110288.96547  24121089.31547
  22617952.237 5   -587119.723 5   -412453.75446  22617950.39446
  23689972.253 1   -381670.672 1                
  21617069.886 6    -54715.160 6    -38925.58247  21617066.49547
  20441397.745 6   -324179.879 6   -228092.55548  20441393.04648
  24503189.339 4   -137787.324 4    -96320.28145  24503184.22245
  20852843.511 6   -191621.363 6   -138534.13349  20852843.01149
  21322438.909 6   -607322.988 6   -426037.87149  21322438.05449
  21525523.995 6   -251154.766 6   -180253.73049  21525521.60149
 20  5 16  0  2 29.9990000  0  9G03G04G08G14G16G22G26G27G31          0.000344532
  24120730.495 3   -159074.148 3   -111763.00047  24120728.92147
  22616781.526 5   -593272.652 5   -417248.24646  22616779.60146
  23688613.987 1   -388802.902 1                
  21616957.964 6    -55304.387 6    -39384.72347  21616954.60147
  20440750.800 6   -327581.027 6   -230742.79348  20440746.45248
  24502862.987 4   -139506.852 4    -97660.17245  24502856.82745
  20852472.315 6   -193569.898 6   -140052.47349  20852472.27249
  21321233.026 6   -613660.637 6   -430976.30549  21321231.71849
  21525038.495 6   -253707.098 6   -182242.55949  21525036.07349
 20  5 16  0  2 30.9990000  0  9G03G04G08G14G16G22G26G27G31          0.000342381
  24120370.214 2   -160966.156 2   -113237.28147  24120369.15947
  22615609.886 5   -599425.695 5   -422042.83246  22615608.55446
  23687256.284 1   -395935.602 1                
  21616845.222 6    -55893.699 6    -39843.92647  21616842.08547
  20440103.151 6   -330982.270 6   -233393.11748  20440098.77648
  24502535.628 4   -141226.785 4    -99000.38745  24502529.37045
  20852101.784 6   -195518.773 6   -141571.07449  20852101.19049
  21320026.940 6   -619998.305 6   -435914.75049  21320025.74549
  21524552.745 6   -256259.676 6   -184231.58249  21524549.94849
 20  5 16  0  2 31.9990000  0  9G03G04G08G14G16G22G26G27G31          0.000340227
  24120010.315 2   -162858.320 2   -114711.69947  24120009.26547
  22614439.839 5   -605578.863 5   -426837.51646  22614438.06946
  23685898.815 1   -403068.637 1                
  21616733.300 6    -56483.109 6    -40303.21947  21616730.02647
  20439456.308 6   -334383.648 6   -236043.53548  20439451.82348
  24502208.315 5   -142947.289 5   -100341.03145  24502202.20645
  20851730.831 6   -197467.973 6   -143089.92649  20851730.37849
  21318820.886 6   -626336.066 6   -440853.27349  21318819.64449
  21524066.855 6   -258812.566 6   -186220.84849  21524064.51949
 20  5 16  0  2 32.9990000  0  9G03G04G08G14G16G22G26G27G31          0.000338076
  24119649.159 3   -164750.828 3   -116186.39147  24119648.64747
  22613268.706 5   -611732.188 5   -431632.30947  22613266.68347
  23684541.050 1   -410202.102 1                
  21616621.409 6    -57072.625 6    -40762.57047  21616618.16347
  20438808.605 6   -337785.176 6   -238694.07448  20438804.37448
  24501881.089 5   -144668.246 5   -101682.03145  24501875.21045
  20851359.612 6   -199417.559 6   -144609.08649  20851359.57349
  21317615.097 6   -632673.922 6   -445791.86349  21317613.80049
  21523581.097 6   -261365.789 6   -188210.37949  21523578.37449
 20  5 16  0  2 33.9990000  0  9G03G04G08G14G16G22G26G27G31          0.000335922
  24119289.597 2   -166643.531 2   -117661.22747  24119288.29647
  22612097.292 5   -617885.645 5   -436427.19546  22612095.81246
  23683183.206 1   -417335.910 1                
  21616508.745 6    -57662.219 6    -41221.99647  21616505.59347
  20438161.190 6   -341186.793 6   -241344.67648  20438157.12848
  24501553.894 4   -146389.711 4   -103023.45345  24501547.28845
  20850989.065 6   -201367.465 6   -146128.49249  20850988.13649
  21316409.526 6   -639011.832 6   -450730.49649  21316407.78849
  21523095.339 6   -263919.262 6   -190200.09449  21523092.69049
 20  5 16  0  2 34.9990000  0  9G03G04G08G14G16G22G26G27G31          0.000333769
  24118929.769 2   -168536.570 2   -119136.32847  24118928.31247
  22610926.308 5   -624039.309 5   -441222.25446  22610924.81546
  23681826.948 1   -424470.180 1                
  21616396.839 6    -58251.949 6    -41681.53147  21616393.44447
  20437513.495 6   -344588.582 6   -243995.42648  20437510.06948
  24501226.120 4   -148111.699 4   -104365.25045  24501219.80445
  20850617.315 6   -203317.770 6   -147648.21149  20850617.04249
  21315202.808 6   -645349.852 6   -455669.21149  21315201.70249
  21522609.128 6   -266473.078 6   -192190.08649  21522606.69849
 20  5 16  0  2 35.9990000  0  9G03G04G08G14G16G22G26G27G31          0.000331615
  24118569.526 2   -170429.836 2   -120611.61347  24118568.26947
  22609755.550 5   -630193.051 5   -446017.37546  22609753.91346
  23680469.261 1   -431604.852 1                
  21616284.370 6    -58841.781 6    -42141.14147  21616281.22247
  20436866.276 6   -347990.480 6   -246646.26248  20436862.26948
  24500897.909 4   -149834.168 4   -105707.43045  24500892.30845
  20850246.503 6   -205268.398 6   -149168.18449  20850245.81949
  21313996.472 6   -651687.930 6   -460607.97749  21313995.35849
  21522123.261 6   -269027.180 6   -194180.29349  21522120.56249
 20  5 16  0  2 36.9990000  0  9G03G04G08G14G16G22G26G27G31          0.000329462
  24118208.784 2   -172323.469 2   -122087.17247  24118207.93347
  22608584.315 5   -636347.035 5   -450812.69146  22608582.85146
  23679110.948 1   -438739.891 1                
  21616172.308 6    -59431.773 6    -42600.87547  21616169.00347
  20436219.370 6   -351392.566 6   -249297.23848  20436214.89748
  24500569.839 4   -151557.203 4   -107050.07445  24500563.98045
  20849875.675 6   -207219.434 6   -150688.46549  20849874.54649
  21312790.651 6   -658026.145 6   -465546.84449  21312789.31549
  21521637.222 6   -271581.625 6   -196170.76649  21521634.65149
 20  5 16  0  2 37.9990000  0  9G03G04G08G14G16G22G26G27G31          0.000327307
  24117848.440 3   -174217.297 3   -123562.87947  24117847.32347
  22607413.120 5   -642501.117 5   -455608.08646  22607411.75746
  23677754.237 1   -445875.367 1                
  21616060.144 6    -60021.891 6    -43060.70747  21616056.26147
  20435571.565 6   -354794.809 6   -251948.33648  20435567.68348
  24500242.151 4   -153280.707 4   -108393.08645  24500236.18345
  20849503.886 6   -209170.836 6   -152209.04349  20849503.27649
  21311584.815 6   -664364.434 6   -470485.76649  21311582.99949
  21521151.394 6   -274136.371 6   -198161.48049  21521148.64049
 20  5 16  0  2 38.9990000  0  9G03G04G08G14G16G22G26G27G31          0.000325153
  24117488.456 3   -176111.430 3   -125038.82447  24117486.54647
  22606241.980 5   -648655.336 5   -460403.58246  22606240.45246
  23676397.511 1   -453011.223 1                
  21615947.565 6    -60612.074 6    -43520.59847  21615944.47647
  20434924.042 6   -358197.164 6   -254599.51648  20434920.09748
  24499914.206 5   -155004.738 5   -109736.51245  24499908.64745
  20849132.300 6   -211122.605 6   -153729.90649  20849131.79249
  21310378.542 6   -670702.828 6   -475424.77749  21310376.99149
  21520664.605 6   -276691.457 6   -200152.45749  21520662.25349
 20  5 16  0  2 39.9990000  0  9G03G04G08G14G16G22G26G27G31          0.000322998
  24117127.573 3   -178005.793 3   -126514.94947  24117126.13247
  22605071.198 5   -654809.750 5   -465199.22346  22605069.29246
  23675039.190 1   -460147.438 1                
  21615835.495 6    -61202.367 6    -43980.56347  21615832.19047
  20434276.870 6   -361599.629 6   -257250.78948  20434272.39048
  24499586.058 4   -156729.254 4   -111080.29745  24499580.72645
  20848760.980 6   -213074.676 6   -155250.99649  20848760.43349
  21309172.440 6   -677041.246 6   -480363.80549  21309170.93749
  21520178.323 6   -279246.801 6   -202143.62949  21520176.08149
 20  5 16  0  2 40.9990000  0  9G03G04G08G14G16G22G26G27G31          0.000320843
  24116766.628 3   -179900.395 3   -127991.25447  24116765.46047
  22603899.675 5   -660964.254 5   -469994.93446  22603898.55446
  23673680.745 1   -467284.043 1                
  21615723.183 6    -61792.719 6    -44440.57447  21615719.79647
  20433629.284 6   -365002.199 6   -259902.14148  20433625.15548
  24499257.737 5   -158454.211 5   -112424.41845  24499252.00745
  20848389.409 6   -215027.086 6   -156772.35549  20848388.83549
  21307965.956 6   -683379.730 6   -485302.89149  21307964.60149
  21519692.206 6   -281802.430 6   -204135.03549  21519689.64749
 20  5 16  0  2 41.9990000  0  9G03G04G08G14G16G22G26G27G31          0.000318687
  24116406.440 3   -181795.176 3   -129467.70347  24116405.07747
  22602728.753 5   -667118.738 5   -474790.63746  22602727.27246
  23672320.737 1   -474420.934 1                
  21615610.683 6    -62383.066 6    -44900.59047  21615607.29647
  20432981.448 6   -368404.789 6   -262553.50448  20432977.32748
  24498929.636 5   -160179.598 5   -113768.87545  24498923.87845
  20848018.081 6   -216979.734 6   -158293.89849  20848017.29649
  21306760.058 6   -689718.188 6   -490241.94949  21306758.62049
  21519206.050 6   -284358.230 6   -206126.56649  21519203.51549
 20  5 16  0  2 42.9990000  0  9G03G04G08G14G16G22G26G27G31          0.000316532
  24116045.745 3   -183690.191 3   -130944.33247  24116044.66747
  22601557.534 5   -673273.426 5   -479586.50446  22601556.03446
  23670963.019 1   -481558.234 1                
  21615498.292 6    -62973.535 6    -45360.70347  21615495.13247
  20432334.151 6   -371807.547 6   -265205.00448  20432329.74948
  24498601.065 5   -161905.469 5   -115113.66845  24498595.53845
  20847646.347 6   -218932.758 6   -159815.73849  20847645.51149
  21305553.769 6   -696056.727 6   -495181.06649  21305552.22249
  21518719.503 6   -286914.355 6   -208118.35249  21518716.91349
 20  5 16  0  2 43.9990000  0  9G03G04G08G14G16G22G26G27G31          0.000314377
  24115684.690 3   -185585.434 3   -132421.14547  24115683.92947
  22600386.401 5   -679428.199 5   -484382.43046  22600384.42946
  23669605.839 1   -488695.871 1                
  21615385.995 6    -63564.082 6    -45820.86747  21615382.73047
  20431686.503 6   -375210.387 6   -267856.57048  20431682.30048
  24498272.401 5   -163631.797 5   -116458.84845  24498266.80845
  20847274.581 6   -220886.113 6   -161337.83649  20847274.15549
  21304347.987 6   -702395.316 6   -500120.22349  21304346.20249
  21518232.605 6   -289470.742 6   -210110.34849  21518230.39449
 20  5 16  0  2 44.9990000  0  9G03G04G08G14G16G22G26G27G31          0.000312220
  24115324.386 3   -187481.004 3   -133898.21147  24115323.01147
  22599215.089 5   -685583.125 5   -489178.47746  22599213.32746
  23668246.058 1   -495833.898 1                
  21615273.909 6    -64154.738 6    -46281.12147  21615270.23347
  20431039.362 6   -378613.344 6   -270508.22748  20431035.32348
  24497944.675 5   -165358.621 5   -117804.43045  24497938.34345
  20846902.550 6   -222839.793 6   -162860.18449  20846902.48049
  21303141.956 6   -708733.969 6   -505059.43049  21303139.97649
  21517746.456 6   -292027.434 6   -212102.57049  21517743.99949
 20  5 16  0  2 45.9990000  0  9G03G04G08G14G16G22G26G27G31          0.000310062
  24114963.276 3   -189376.586 3   -135375.29747  24114962.37047
  22598044.105 5   -691738.051 5   -493974.52346  22598042.08946
  23666887.565 1   -502972.188 1                
  21615161.206 6    -64745.344 6    -46741.33247  21615158.11247
  20430391.487 6   -382016.293 6   -273159.87548  20430387.33148
  24497615.745 4   -167085.844 4   -119150.31645  24497609.81545
  20846530.534 6   -224793.680 6   -164382.69549  20846530.42549
  21301935.206 6   -715072.559 6   -509998.58649  21301933.35549
  21517260.183 6   -294584.273 6   -214094.91849  21517257.08149
 20  5 16  0  2 46.9990000  0  9G03G04G08G14G16G22G26G27G31          0.000307907
  24114601.917 3   -191272.578 3   -136852.69947  24114601.12447
  22596872.644 5   -697893.164 5   -498770.70346  22596870.92546
  23665528.815 1   -510110.883 1                
  21615048.597 6    -65336.098 6    -47201.65647  21615045.46047
  20429743.589 6   -385419.414 6   -275811.66448  20429739.64448
  24497287.659 5   -168813.559 5   -120496.60545  24497280.90145
  20846158.815 6   -226747.973 6   -165905.52049  20846158.62049
  21300729.034 6   -721411.281 6   -514937.85249  21300727.32749
  21516773.417 6   -297141.465 6   -216087.53549  21516770.78449
 20  5 16  0  2 47.9990000  0  9G03G04G08G14G16G22G26G27G31          0.000305748
  24114241.495 3   -193168.797 3   -138330.27347  24114240.80447
  22595701.464 5   -704048.426 5   -503567.02046  22595699.56246
  23664170.987 1   -517250.020 1                
  21614936.261 6    -65926.977 6    -47662.09047  21614933.12847
  20429096.230 6   -388822.684 6   -278463.55948  20429092.07348
  24496957.995 5   -170541.813 5   -121843.32045  24496951.95645
  20845786.956 6   -228702.637 6   -167428.63749  20845786.24949
  21299522.956 6   -727750.090 6   -519877.18449  21299521.28049
  21516286.300 6   -299698.992 6   -218080.42249  21516284.21849
 20  5 16  0  2 48.9990000  0  9G03G04G08G14G16G22G26G27G31          0.000303591
  24113880.253 3   -195065.160 3   -139807.96147  24113879.55447
  22594530.198 5   -710203.711 5   -508363.35546  22594528.35546
  23662812.284 1   -524389.438 1                
  21614823.940 6    -66517.852 6    -48122.50847  21614820.78047
  20428448.276 6   -392225.973 6   -281115.47348  20428444.67948
  24496628.675 5   -172270.445 5   -123190.29345  24496623.21445
  20845414.526 6   -230657.551 6   -168951.94549  20845414.55049
  21298316.886 6   -734088.887 6   -524816.51249  21298314.47249
  21515799.776 6   -302256.668 6   -220073.41449  21515797.31249
 20  5 16  0  2 49.9990000  0  9G03G04G08G14G16G22G26G27G31          0.000301434
  24113520.105 4   -196961.809 4   -141285.86347  24113518.71847
  22593358.175 5   -716359.137 5   -513159.78146  22593356.92146
  23661454.862 1   -531529.227 1                
  21614711.769 6    -67108.828 6    -48583.01647  21614708.12847
  20427800.784 6   -395629.383 6   -283767.48848  20427796.76548
  24496300.144 5   -173999.551 5   -124537.66045  24496294.24945
  20845042.925 6   -232612.801 6   -170475.51649  20845042.40149
  21297110.636 6   -740427.703 6   -529755.84849  21297108.90549
  21515313.284 6   -304814.648 6   -222066.64849  21515310.51949
 20  5 16  0  2 50.9990000  0  9G03G04G08G14G16G22G26G27G31          0.000299276
  24113158.784 4   -198858.641 4   -142763.91047  24113158.10147
  22592186.800 5   -722514.664 5   -517956.30146  22592185.39446
  23660095.745 1   -538669.324 1                
  21614599.409 6    -67699.840 6    -49043.54347  21614595.49947
  20427152.995 6   -399032.879 6   -286419.55948  20427149.16348
  24495970.628 5   -175729.168 5   -125885.43445  24495965.22645
  20844670.823 6   -234568.348 6   -171999.32449  20844670.52649
  21295903.886 6   -746766.586 6   -534695.23849  21295902.45649
  21514826.355 6   -307372.895 6   -224060.08249  21514823.94849
 20  5 16  0  2 51.9990000  0  9G03G04G08G14G16G22G26G27G31          0.000297117
  24112797.808 3   -200755.773 3   -144242.19547  24112797.08147
  22591015.511 5   -728670.344 5   -522752.92646  22591014.49946
  23658736.714 1   -545809.902 1                
  21614486.972 6    -68290.988 6    -49504.17647  21614483.14447
  20426505.417 6   -402436.496 6   -289071.73048  20426501.48348
  24495641.144 5   -177459.227 5   -127233.52345  24495636.21445
  20844298.651 6   -236524.262 6   -173523.41049  20844298.08149
  21294698.284 6   -753105.539 6   -539634.68049  21294696.24549
  21514339.737 6   -309931.438 6   -226053.75449  21514336.65149
 20  5 16  0  2 52.9990000  0  9G03G04G08G14G16G22G26G27G31          0.000294958
  24112436.323 3   -202653.145 3   -145720.66447  24112436.02647
  22589844.925 5   -734826.148 5   -527549.65246  22589842.99546
  23657377.933 1   -552950.789 1                
  21614373.815 6    -68882.211 6    -49964.86747  21614370.37047
  20425857.831 6   -405840.254 6   -291724.00448  20425853.50748
  24495311.800 5   -179189.816 5   -128582.03545  24495306.55045
  20843926.425 6   -238480.523 6   -175047.77749  20843925.92949
  21293491.956 6   -759444.547 6   -544574.16849  21293489.95249
  21513852.503 6   -312490.246 6   -228047.63349  21513849.76549
 20  5 16  0  2 53.9990000  0  9G03G04G08G14G16G22G26G27G31          0.000292799
  24112075.440 3   -204550.672 3   -147199.26247  24112074.85147
  22588673.214 5   -740981.992 5   -532346.41046  22588671.29246
  23656018.651 1   -560092.035 1                
  21614261.675 6    -69473.453 6    -50425.58247  21614258.13647
  20425209.956 6   -409244.043 6   -294376.30948  20425205.86648
  24494982.894 4   -180920.797 4   -129930.84445  24494977.12445
  20843553.956 6   -240437.023 6   -176572.32449  20843553.76949
  21292285.526 6   -765783.555 6   -549513.65649  21292283.84349
  21513365.894 6   -315049.289 6   -230041.69549  21513363.19049
 20  5 16  0  2 54.9990000  0  9G03G04G08G14G16G22G26G27G31          0.000290640
  24111713.558 3   -206448.391 3   -148678.00847  24111714.03847
  22587501.831 5   -747137.914 5   -537143.23046  22587499.84346
  23654660.675 1   -567233.543 1                
  21614149.081 6    -70064.719 6    -50886.31347  21614145.40947
  20424562.605 6   -412647.859 6   -297028.63348  20424558.14448
  24494653.886 4   -182652.195 4   -131280.00045  24494647.94045
  20843181.386 6   -242393.816 6   -178097.10249  20843181.23349
  21291079.323 6   -772122.531 6   -554453.12149  21291077.35149
  21512878.464 6   -317608.527 6   -232035.91049  21512875.93349
 20  5 16  0  2 55.9990000  0  9G03G04G08G14G16G22G26G27G31          0.000288481
  24111352.425 3   -208346.355 3   -150156.94547  24111352.73047
  22586330.011 5   -753293.891 5   -541940.09846  22586328.31946
  23653302.300 1   -574375.410 1                
  21614036.519 6    -70656.059 6    -51347.10547  21614032.86647
  20423914.847 6   -416051.793 6   -299681.05948  20423910.30848
  24494323.745 4   -184384.098 4   -132629.55145  24494318.44445
  20842809.198 6   -244350.922 6   -179622.11749  20842808.49949
  21289872.769 6   -778461.578 6   -559392.64149  21289870.88649
  21512391.456 6   -320168.070 6   -234030.35549  21512388.86249
 20  5 16  0  2 56.9990000  0  9G03G04G08G14G16G22G26G27G31          0.000286320
  24110991.011 3   -210244.563 3   -151636.06347  24110991.60847
  22585159.198 5   -759450.055 5   -546737.10946  22585156.88646
  23651942.034 1   -581517.594 1                
  21613923.792 6    -71247.484 6    -51807.94947  21613920.14747
  20423267.058 6   -419455.859 6   -302333.57048  20423262.74948
  24493993.464 4   -186116.441 4   -133979.41845  24493988.76145
  20842436.839 6   -246308.391 6   -181147.41449  20842436.52649
  21288666.526 6   -784800.660 6   -564332.18449  21288664.42549
  21511904.480 6   -322727.867 6   -236025.00449  21511902.23349
 20  5 16  0  2 57.9990000  0  9G03G04G08G14G16G22G26G27G31          0.000284161
  24110630.292 3   -212142.906 3   -153115.28947  24110630.23347
  22583986.940 5   -765606.176 5   -551534.09446  22583985.03846
  23650582.667 1   -588660.086 1                
  21613811.753 6    -71838.887 6    -52268.78147  21613807.70647
  20422619.026 6   -422859.891 6   -304986.06648  20422615.02648
  24493664.292 5   -187849.133 5   -135329.55945  24493658.93745
  20842063.980 6   -248266.027 6   -182672.84049  20842063.70649
  21287460.065 6   -791139.695 6   -569271.69549  21287458.14449
  21511417.050 6   -325287.813 6   -238019.77049  21511414.57349
 20  5 16  0  2 58.9990000  0  9G03G04G08G14G16G22G26G27G31          0.000282000
  24110268.964 3   -214041.516 3   -154594.72347  24110268.74547
  22582815.222 5   -771762.465 5   -556331.20346  22582813.85846
  23649225.331 1   -595802.992 1                
  21613698.558 6    -72430.402 6    -52729.70347  21613695.26947
  20421971.300 6   -426264.086 6   -307638.68448  20421967.13248
  24493334.331 4   -189582.363 4   -136680.11745  24493329.21845
  20841691.511 6   -250224.063 6   -184198.58649  20841691.31949
  21286253.894 6   -797478.832 6   -574211.27349  21286251.76549
  21510929.987 6   -327848.117 6   -240014.81349  21510927.90949
 20  5 16  0  2 59.9990000  0  9G03G04G08G14G16G22G26G27G31          0.000279839
  24109908.120 3   -215940.238 3   -156074.25047  24109907.66747
  22581643.605 5   -777918.828 5   -561128.36346  22581642.56546
  23647864.175 1   -602946.156 1                
  21613586.120 6    -73021.949 6    -53190.64847  21613582.20247
  20421323.776 6   -429668.324 6   -310291.34048  20421319.28048
  24493004.105 4   -191316.004 4   -138031.02345  24492999.56245
  20841318.800 6   -252182.367 6   -185724.53549  20841318.11649
  21285047.401 6   -803817.930 6   -579150.83249  21285045.27249
  21510442.964 6   -330408.586 6   -242009.98849  21510440.31249
 20  5 16  0  3  0.9990000  0  9G03G04G08G14G16G22G26G27G31          0.000277679
  24109546.261 2   -217839.266 2   -157554.02747  24109546.51947
  22580472.378 5   -784075.246 5   -565925.57046  22580470.63246
  23646505.714 1   -610089.695 1                
  21613473.753 6    -73613.500 6    -53651.59847  21613470.33547
  20420675.597 6   -433072.625 6   -312944.03548  20420671.16348
  24492673.839 4   -193050.090 4   -139382.28145  24492669.64445
  20840945.917 6   -254140.938 6   -187250.69549  20840945.54649
  21283841.550 6   -810157.063 6   -584090.41849  21283839.15149
  21509955.386 6   -332969.313 6   -244005.35949  21509952.74149
 20  5 16  0  3  1.9990000  0  9G03G04G08G14G16G22G26G27G31          0.000275517
  24109184.628 3   -219738.570 3   -159034.00847  24109185.05447
  22579300.808 5   -790231.871 5   -570722.94146  22579298.81946
  23645145.972 1   -617233.668 1                
  21613361.128 6    -74205.234 6    -54112.69547  21613357.31547
  20420027.761 6   -436477.086 6   -315596.86348  20420023.44048
  24492343.331 4   -194784.719 4   -140733.93045  24492339.39745
  20840573.519 6   -256099.922 6   -188777.18049  20840572.82749
  21282635.339 6   -816496.289 6   -589030.07449  21282632.78449
  21509468.230 6   -335530.391 6   -246001.00849  21509465.69049
 20  5 16  0  3  2.9990000  0  9G03G04G08G14G16G22G26G27G31          0.000273355
  24108823.706 2   -221637.988 2   -160514.07447  24108823.48047
  22578130.073 5   -796388.504 5   -575520.32446  22578127.58546
  23643785.698 1   -624377.914 1                
  21613248.487 6    -74796.941 6    -54573.76647  21613244.62447
  20419379.722 6   -439881.602 6   -318249.72748  20419375.25748
  24492012.425 3   -196519.727 3   -142085.87945  24492009.00345
  20840200.308 6   -258059.148 6   -190303.85249  20840200.29249
  21281429.058 6   -822835.496 6   -593969.72349  21281426.67149
  21508980.573 6   -338091.652 6   -247996.80149  21508978.36249
 20  5 16  0  3  3.9990000  0  9G03G04G08G14G16G22G26G27G31          0.000271193
  24108462.425 2   -223537.699 2   -161994.37147  24108462.26147
  22576957.917 5   -802545.270 5   -580317.80146  22576955.84346
  23642426.862 1   -631522.551 1                
  21613135.737 6    -75388.781 6    -55034.94147  21613132.20247
  20418732.081 6   -443286.211 6   -320902.66848  20418728.16348
  24491681.761 3   -198255.242 3   -143438.23045  24491678.86645
  20839828.003 6   -260018.742 6   -191830.80949  20839827.33949
  21280222.573 6   -829174.789 6   -598909.43049  21280220.41749
  21508492.972 6   -340653.215 6   -249992.82449  21508490.75749
 20  5 16  0  3  4.9990000  0  9G03G04G08G14G16G22G26G27G31          0.000269032
  24108100.362 2   -225437.656 2   -163474.86347  24108100.89447
  22575786.378 5   -808702.195 5   -585115.41446  22575784.17146
  23641066.253 1   -638667.531 1                
  21613023.003 6    -75980.730 6    -55496.20347  21613019.42947
  20418084.261 6   -446690.973 6   -323555.73448  20418079.68348
  24491352.128 3   -199991.211 3   -144790.91845  24491349.04245
  20839454.714 6   -261978.648 6   -193358.01249  20839454.25749
  21279016.409 6   -835514.145 6   -603849.18849  21279013.97249
  21508005.464 6   -343215.063 6   -251989.07849  21508003.27649
 20  5 16  0  3  5.9990000  0  9G03G04G08G14G16G22G26G27G31          0.000266869
  24107740.292 3   -227337.840 3   -164955.53147  24107739.37047
  22574614.433 5   -814859.180 5   -589913.05946  22574612.67146
  23639705.620 1   -645812.824 1                
  21612910.784 6    -76572.676 6    -55957.47347  21612906.85847
  20417436.480 6   -450095.770 6   -326208.82848  20417432.16748
  24491022.073 3   -201727.672 3   -146144.07845  24491018.40545
  20839081.839 6   -263938.855 6   -194885.44549  20839080.89049
  21277809.855 6   -841853.461 6   -608788.91849  21277807.31549
  21507517.808 6   -345777.125 6   -253985.48849  21507515.87849
 20  5 16  0  3  6.9990000  0  9G03G04G08G14G16G22G26G27G31          0.000264706
  24107377.847 3   -229238.172 3   -166436.30547  24107377.47647
  22573442.612 5   -821016.219 5   -594710.74246  22573441.11646
  23638347.472 1   -652958.508 1                
  21612797.698 6    -77164.648 6    -56418.74247  21612794.12447
  20416788.159 6   -453500.629 6   -328861.95748  20416784.26148
  24490690.542 2   -203464.527 2   -147497.44945  24490688.03445
  20838708.651 6   -265899.355 6   -196413.10949  20838707.91349
  21276603.855 6   -848192.871 6   -613728.71149  21276601.22649
  21507030.276 6   -348339.418 6   -255982.08249  21507028.17149
 20  5 16  0  3  7.9990000  0  9G03G04G08G14G16G22G26G27G31          0.000262543
  24107016.487 2   -231138.652 2   -167917.19547  24107015.98047
  22572271.362 5   -827173.238 5   -599508.41446  22572269.53046
  23636987.675 1   -660104.387 1                
  21612685.425 6    -77756.590 6    -56880.00847  21612681.91347
  20416140.581 6   -456905.457 6   -331515.07448  20416136.07348
  24490359.761 2   -205201.754 2   -148851.11745  24490357.09345
  20838335.190 6   -267860.055 6   -197940.92649  20838334.72249
  21275397.362 6   -854532.117 6   -618668.38749  21275394.57749
  21506542.644 6   -350901.895 6   -257978.81649  21506540.69849
 20  5 16  0  3  8.9990000  0  9G03G04G08G14G16G22G26G27G31          0.000260380
  24106654.573 3   -233039.281 3   -169398.21547  24106654.35147
  22571099.605 5   -833330.340 5   -604306.16446  22571097.92546
  23635627.245 1   -667250.594 1                
  21612572.597 6    -78348.582 6    -57341.30547  21612568.85547
  20415492.620 6   -460310.367 6   -334168.25048  20415488.45648
  24490028.956 3   -206939.418 3   -150205.12545  24490026.48745
  20837962.261 6   -269821.012 6   -199468.94549  20837961.57349
  21274190.722 6   -860871.387 6   -623608.08249  21274188.23049
  21506055.433 6   -353464.563 6   -259975.70749  21506053.09749
 20  5 16  0  3  9.9990000  0  9G03G04G08G14G16G22G26G27G31          0.000258217
  24106293.050 3   -234940.215 3   -170879.46547  24106292.53847
  22569927.831 5   -839487.563 5   -609104.00846  22569925.92146
  23634268.136 1   -674397.133 1                
  21612459.940 6    -78940.617 6    -57802.61747  21612456.37847
  20414844.800 6   -463715.352 6   -336821.48448  20414840.39048
  24489698.190 2   -208677.523 2   -151559.46145  24489695.86645
  20837588.964 6   -271782.301 6   -200997.23049  20837588.43349
  21272984.253 6   -867210.711 6   -628547.81649  21272981.77649
  21505567.355 6   -356027.504 6   -261972.80949  21505564.80049
 20  5 16  0  3 10.9990000  0  9G03G04G08G14G16G22G26G27G31          0.000256052
  24105931.456 3   -236841.336 3   -172360.86347  24105930.60547
  22568756.112 5   -845644.867 5   -613901.90647  22568753.65947
  23632907.495 1   -681544.086 1                
  21612346.776 6    -79532.746 6    -58264.01247  21612343.44447
  20414196.558 6   -467120.445 6   -339474.80948  20414192.65548
  24489366.933 2   -210416.039 2   -152914.21944  24489364.86644
  20837216.269 6   -273743.914 6   -202525.75449  20837215.49949
  21271777.995 6   -873550.039 6   -633487.55549  21271775.70649
  21505079.581 6   -358590.691 6   -263970.09049  21505077.34749
 20  5 16  0  3 11.9990000  0  9G03G04G08G14G16G22G26G27G31          0.000253887
  24105569.503 3   -238742.816 3   -173842.53947  24105568.96447
  22567585.081 5   -851802.398 5   -618699.98046  22567582.55046
  23631547.534 1   -688691.449 1                
  21612234.401 6    -80125.031 6    -58725.53947  21612230.99547
  20413548.667 6   -470525.766 6   -342128.30548  20413544.60548
  24489036.378 2   -212155.234 2   -154269.48845  24489034.64045
  20836842.589 6   -275705.965 6   -204054.62949  20836841.84749
  21270571.925 6   -879889.586 6   -638427.46149  21270568.90549
  21504591.878 6   -361154.293 6   -265967.70749  21504589.25749
 20  5 16  0  3 12.9990000  0  9G03G04G08G14G16G22G26G27G31          0.000251722
  24105206.972 3   -240644.391 3   -175324.27047  24105207.16347
  22566413.175 5   -857959.965 5   -623498.08246  22566410.49546
  23630186.058 1   -695839.094 1                
  21612122.003 6    -80717.371 6    -59187.10547  21612118.30847
  20412900.659 6   -473931.098 6   -344781.80948  20412896.89448
  24488705.722 2   -213894.777 2   -155624.97344  24488703.35144
  20836469.011 6   -277668.270 6   -205583.69949  20836468.82349
  21269365.511 6   -886229.059 6   -643367.30949  21269362.48349
  21504103.667 6   -363718.074 6   -267965.46149  21504101.49149
 20  5 16  0  3 13.9990000  0  9G03G04G08G14G16G22G26G27G31          0.000249557
  24104845.222 3   -242546.180 3   -176806.19147  24104845.64747
  22565241.519 5   -864117.531 5   -628296.16846  22565238.93746
  23628824.878 1   -702987.043 1                
  21612009.144 6    -81309.641 6    -59648.61747  21612005.73047
  20412251.995 6   -477336.434 6   -347435.32048  20412248.19448
  24488375.034 2   -215634.715 2   -156980.80544  24488372.42944
  20836095.433 6   -279630.762 6   -207112.91849  20836094.95649
  21268159.339 6   -892568.465 6   -648307.10549  21268155.90949
  21503616.019 6   -366282.023 6   -269963.34849  21503613.61649
 20  5 16  0  3 14.9990000  0  9G03G04G08G14G16G22G26G27G31          0.000247393
  24104483.628 3   -244448.020 3   -178288.15647  24104483.72247
  22564069.870 5   -870275.070 5   -633094.26246  22564067.34746
  23627464.870 1   -710135.137 1                
  21611896.433 6    -81901.852 6    -60110.07847  21611892.58547
  20411604.347 6   -480741.707 6   -350088.77748  20411600.69848
  24488044.206 1   -217374.930 1   -158336.73844  24488041.26544
  20835722.214 6   -281593.480 6   -208642.30549  20835721.58949
  21266953.050 6   -898907.816 6   -653246.85549  21266950.01549
  21503128.136 6   -368846.047 6   -271961.28549  21503125.61249
 20  5 16  0  3 15.9990000  0  9G03G04G08G14G16G22G26G27G31          0.000245228
  24104122.339 3   -246350.117 3   -179770.31347  24104121.74147
  22562897.847 5   -876432.684 5   -637892.41046  22562895.88246
  23626105.159 1   -717283.602 1                
  21611783.503 6    -82494.168 6    -60571.62147  21611780.03047
  20410956.183 6   -484147.109 6   -352742.34048  20410952.46048
  24487714.073 2   -219115.645 2   -159693.16044  24487709.89044
  20835348.628 6   -283556.500 6   -210171.93449  20835348.03049
  21265746.394 6   -905247.176 6   -658186.61349  21265743.41349
  21502640.167 6   -371410.406 6   -273959.49249  21502637.66749
 20  5 16  0  3 16.9990000  0  9G03G04G08G14G16G22G26G27G31          0.000243063
  24103758.987 3   -248252.449 3   -181252.64147  24103759.87447
  22561724.886 5   -882590.422 5   -642690.66046  22561723.65546
  23624743.980 1   -724432.422 1                
  21611670.690 6    -83086.484 6    -61033.17647  21611667.59347
  20410308.519 6   -487552.543 6   -355395.91848  20410304.30848
  24487382.230 2   -220856.773 2   -161049.76644  24487378.92544
  20834975.128 6   -285519.805 6   -211701.78549  20834974.27649
  21264539.839 6   -911586.563 6   -663126.39849  21264537.56949
  21502152.706 6   -373974.992 6   -275957.86749  21502149.65149
 20  5 16  0  3 17.9990000  0  9G03G04G08G14G16G22G26G27G31          0.000240896
  24103397.511 4   -250154.930 4   -182735.07847  24103397.85547
  22560553.901 5   -888748.227 5   -647488.93846  22560551.90546
  23623383.503 1   -731581.523 1                
  21611558.347 6    -83678.895 6    -61494.80947  21611554.29647
  20409660.269 6   -490958.105 6   -358049.60248  20409656.55448
  24487050.706 2   -222598.445 2   -162406.97744  24487047.17144
  20834601.159 6   -287483.430 6   -213231.88349  20834600.64749
  21263333.526 6   -917925.957 6   -668066.18449  21263331.22249
  21501664.308 6   -376539.816 6   -277956.44149  21501661.23049
 20  5 16  0  3 18.9990000  0  9G03G04G08G14G16G22G26G27G31          0.000238729
  24103035.151 4   -252057.563 4   -184217.65247  24103035.85147
  22559382.784 5   -894906.023 5   -652287.21546  22559379.90946
  23622023.206 1   -738730.906 1                
  21611445.503 6    -84271.227 6    -61956.35947  21611442.08947
  20409012.394 6   -494363.633 6   -360703.26248  20409007.95248
  24486719.925 2   -224340.422 2                
  20834227.480 6   -289447.238 6   -214762.12149  20834227.03849
  21262127.409 6   -924265.250 6   -673005.89549  21262124.67149
  21501176.011 6   -379104.781 6   -279955.11749  21501173.01149
 20  5 16  0  3 19.9990000  0  9G03G04G08G14G16G22G26G27G31          0.000236563
  24102673.487 4   -253960.406 4   -185700.39847  24102673.76147
  22558209.980 5   -901063.859 5   -657085.52746  22558208.39746
  23620664.597 1   -745880.633 1                
  21611332.878 6    -84863.613 6    -62417.96147  21611329.42147
  20408364.347 6   -497769.215 6   -363356.95748  20408360.42548
  24486388.480 2   -226082.797 2                
  20833853.917 6   -291411.324 6   -216292.58249  20833853.25749
  21260921.394 6   -930604.570 6   -677945.62949  21260918.14049
  21500687.987 6   -381669.945 6   -281953.94549  21500685.09749
 20  5 16  0  3 20.9990000  0  9G03G04G08G14G16G22G26G27G31          0.000234398
  24102311.519 4   -255863.297 4   -187183.17247  24102311.54247
  22557038.940 5   -907221.703 5   -661883.84846  22557036.50746
  23619303.823 1   -753030.523 1                
  21611220.120 6    -85455.938 6    -62879.50447  21611216.52247
  20407716.315 6   -501174.742 6   -366010.61748  20407712.18348
  24486056.753 2   -227825.520 2                
  20833479.761 6   -293375.605 6   -217823.18849  20833479.40549
  21259714.792 6   -936943.816 6   -682885.30549  21259712.23349
  21500199.222 6   -384235.293 6   -283952.92249  21500197.04649
 20  5 16  0  3 21.9990000  0  9G03G04G08G14G16G22G26G27G31          0.000232231
  24101949.440 4   -257766.309 4   -188666.03547  24101949.62447
  22555866.714 5   -913379.520 5   -666682.14146  22555864.65146
  23617943.026 1   -760180.695 1                
  21611107.433 6    -86048.211 6    -63341.02047  21611104.16347
  20407067.940 6   -504580.293 6   -368664.28548  20407064.18748
  24485726.019 2   -229568.613 2                
  20833106.230 6   -295340.133 6   -219353.99249  20833105.46049
  21258508.331 6   -943282.957 6   -687824.89549  21258505.89049
  21499711.581 6   -386800.754 6   -285951.98449  21499708.63249
 20  5 16  0  3 22.9990000  0  9G03G04G08G14G16G22G26G27G31          0.000230062
  24101587.581 3   -259669.617 3   -190149.12947  24101587.17947
  22554695.355 5   -919537.422 5   -671480.51646  22554692.95646
  23616582.245 1   -767331.145 1                
  21610994.519 6    -86640.555 6    -63802.59047  21610990.93747
  20406419.917 6   -507985.887 6   -371317.99648  20406415.74148
  24485394.401 2   -231312.113 2                
  20832732.159 6   -297304.926 6   -220884.99649  20832731.54249
  21257302.026 6   -949622.137 6   -692764.51249  21257299.31949
  21499223.198 6   -389366.480 6   -287951.25049  21499220.31249
 20  5 16  0  3 23.9990000  0  9G03G04G08G14G16G22G26G27G31          0.000227896
  24101225.214 4   -261572.988 4   -191632.27747  24101225.12447
  22553523.917 5   -925695.348 5   -676278.90246  22553521.37446
  23615220.347 1   -774482.004 1                
  21610881.987 6    -87232.895 6    -64264.15247  21610878.52647
  20405772.089 6   -511391.582 6   -373971.78548  20405767.69448
  24485062.667 2   -233056.063 2                
  20832357.980 6   -299269.988 6   -222416.21949  20832357.72649
  21256095.839 6   -955961.273 6   -697704.09049  21256093.69849
  21498734.886 6   -391932.418 6   -289950.68049  21498732.23349
 20  5 16  0  3 24.9990000  0  9G03G04G08G14G16G22G26G27G31          0.000225729
  24100862.823 3   -263476.695 3   -193115.68447  24100862.56547
  22552351.511 6   -931853.406 6   -681077.39547  22552349.33147
  23613859.276 1   -781633.184 1                
  21610768.995 6    -87825.320 6    -64725.78547  21610765.58547
  20405124.042 6   -514797.289 6   -376625.57848  20405119.83548
  24484731.519 2   -234800.449 2                
  20831984.683 6   -301235.371 6   -223947.68849  20831983.75749
  21254889.245 6   -962300.457 6   -702643.71549  21254886.48049
  21498246.808 6   -394498.605 6   -291950.31349  21498243.81949
 20  5 16  0  3 25.9990000  0  9G03G04G08G14G16G22G26G27G31          0.000223560
  24100500.378 3   -265380.559 3   -194599.21947  24100500.41347
  22551179.800 5   -938011.527 5   -685875.93447  22551177.33547
  23612498.964 1   -788784.535 1                
  21610656.480 6    -88417.781 6    -65187.44547  21610652.86647
  20404476.026 6   -518203.113 6   -379279.46948  20404471.92948
  24484399.651 2   -236545.344 2                
  20831610.183 6   -303201.027 6   -225479.37149  20831609.67549
  21253682.823 6   -968639.660 6   -707583.35249  21253680.32349
  21497758.425 6   -397065.012 6   -293950.10949  21497755.24549
 20  5 16  0  3 26.9990000  0  9G03G04G08G14G16G22G26G27G31          0.000221392
  24100138.003 4   -267284.480 4   -196082.79347  24100138.48347
  22550008.019 5   -944169.617 5   -690674.43447  22550005.31547
  23611137.683 1   -795936.219 1                
  21610543.940 6    -89010.164 6    -65649.04747  21610540.31247
  20403827.526 6   -521608.887 6   -381933.32448  20403823.53048
  24484067.394 2   -238290.523 2                
  20831236.355 6   -305166.879 6   -227011.19949  20831235.62049
  21252476.534 6   -974978.758 6   -712522.90649  21252474.45249
  21497270.175 6   -399631.598 6   -295950.05549  21497266.75349
 20  5 16  0  3 27.9990000  0  9G03G04G08G14G16G22G26G27G31          0.000219223
  24099776.198 3   -269188.590 3   -197566.52047  24099776.12047
  22548836.019 5   -950327.738 5   -695472.96547  22548833.68347
  23609775.925 1   -803088.121 1                
  21610431.105 6    -89602.582 6    -66110.67647  21610427.88247
  20403179.597 6   -525014.691 6   -384587.19148  20403175.79248
  24483736.159 2   -240036.094 2                
  20830862.440 6   -307132.969 6   -228543.21949  20830861.37849
  21251270.417 6   -981317.801 6   -717462.41849  21251267.51549
  21496781.394 6   -402198.352 6   -297950.12149  21496778.55049
 20  5 16  0  3 28.9990000  0  9G03G04G08G14G16G22G26G27G31          0.000217056
  24099413.956 3   -271092.957 3   -199050.44947  24099413.68747
  22547664.323 5   -956485.969 5   -700271.59446  22547661.82746
  23608414.495 1   -810240.457 1                
  21610318.370 6    -90195.086 6    -66572.37147  21610314.67147
  20402531.089 6   -528420.590 6   -387241.14148  20402527.52648
  24483403.175 1   -241782.141 1                
  20830488.362 6   -309099.426 6   -230075.52749  20830487.08549
  21250063.542 6   -987656.945 6   -722402.01249  21250061.58549
  21496292.948 6   -404765.371 6   -299950.39549  21496290.21049
 20  5 16  0  3 29.9990000  0  9G03G04G08G14G16G22G26G27G31          0.000214886
  24099051.292 4   -272997.570 4   -200534.56347  24099051.55847
  22546492.550 5   -962644.320 5   -705070.32046  22546490.03846
  23607053.714 1   -817393.156 1                
  21610205.620 6    -90787.633 6    -67034.10247  21610202.13647
  20401883.472 6   -531826.605 6   -389895.17648  20401879.12848
  24483070.097 2   -243528.668 2                
  20830113.542 6   -311066.191 6   -231608.07449  20830113.07749
  21248857.698 6   -993996.094 6   -727341.61349  21248855.37449
  21495804.105 6   -407332.684 6   -301950.90249  21495801.27249
 20  5 16  0  3 30.9990000  0  9G03G04G08G14G16G22G26G27G31          0.000212717
  24098688.378 3   -274902.504 3   -202018.93047  24098689.13247
  22545320.565 5   -968802.902 5   -709869.21946  22545317.99546
  23605692.636 1   -824546.332 1                
  21610092.956 6    -91380.445 6    -67496.03147  21610089.66347
  20401234.956 6   -535232.832 6   -392549.37948  20401231.30448
  24482737.519 2   -245275.777 2                
  20829738.987 6   -313033.418 6   -233140.97349  20829738.57749
  21247651.339 6  -1000335.430 6   -732281.35249  21247648.69849
  21495315.956 6   -409900.379 6   -303951.70749  21495312.08949
 20  5 16  0  3 31.9990000  0  9G03G04G08G14G16G22G26G27G31          0.000210546
  24098325.597 3   -276807.660 3   -203503.46547  24098326.76547
  22544148.526 5   -974961.512 5   -714668.14146  22544146.05846
  23604331.253 1   -831699.754 1                
  21609979.862 6    -91973.195 6    -67957.91047  21609976.92147
  20400587.120 6   -538639.066 6   -395203.58248  20400582.83548
  24482405.776 2   -247023.332 2                
  20829364.503 6   -315000.863 6   -234674.05149  20829364.21449
  21246445.097 6  -1006674.684 6   -737221.03549  21246442.54649
  21494826.995 6   -412468.258 6   -305952.65249  21494823.80049
 20  5 16  0  3 32.9990000  0  9G03G04G08G14G16G22G26G27G31          0.000208378
  24097963.675 3   -278712.859 3   -204988.04747  24097964.51947
  22542976.620 6   -981120.074 6   -719467.01646  22542974.37046
  23602970.026 1   -838853.371 1                
  21609867.105 6    -92565.875 6    -68419.75047  21609864.10847
  20399939.073 6   -542045.273 6   -397857.77048  20399934.90948
  24482072.628 1   -248771.211 1                
  20828990.417 6   -316968.488 6   -236207.27049  20828989.99949
  21245238.589 6  -1013013.871 6   -742160.66049  21245236.43349
  21494338.065 6   -415036.273 6   -307953.70349  21494335.25749
 20  5 16  0  3 33.9990000  0  9G03G04G08G14G16G22G26G27G31          0.000206207
  24097600.651 4   -280618.188 4   -206472.71547  24097601.22247
  22541804.730 6   -987278.633 6   -724265.89147  22541802.21047
  23601607.987 1   -846007.285 1                
  21609754.675 6    -93158.574 6    -68881.59847  21609751.30847
  20399290.737 6   -545451.512 6   -400511.98048  20399286.78048
  24481739.745 2   -250519.445 2                
  20828615.987 6   -318936.344 6   -237740.66849  20828615.12449
  21244032.675 6  -1019352.996 6   -747100.23849  21244030.14449
  21493850.065 6   -417604.438 6   -309954.87549  21493846.80049
 20  5 16  0  3 34.9990000  0  9G03G04G08G14G16G22G26G27G31          0.000204037
  24097237.933 4   -282523.672 4   -207957.50447  24097238.97647
  22540632.753 6   -993437.234 6   -729064.80147  22540630.07747
  23600245.433 1   -853161.484 1                
  21609641.917 6    -93751.223 6    -69343.40647  21609638.37847
  20398642.620 6   -548857.730 6   -403166.18448  20398638.56948
  24481407.190 2   -252268.059 2                
  20828241.315 6   -320904.461 6   -239274.26649  20828240.76949
  21242826.206 6  -1025692.059 6   -752039.76249  21242823.96849
  21493361.230 6   -420172.797 6   -311956.18849  21493357.97649
 20  5 16  0  3 35.9990000  0  9G03G04G08G14G16G22G26G27G31          0.000201866
  24096875.542 4   -284429.305 4   -209442.41847  24096876.26947
  22539461.026 6   -999595.816 6   -733863.69947  22539458.52647
  23598885.230 1   -860315.859 1                
  21609528.901 6    -94343.867 6    -69805.21547  21609525.94047
  20397994.636 6   -552263.945 6   -405820.37548  20397990.68348
  24481073.690 2   -254017.043 2                
  20827867.003 6   -322872.773 6   -240808.01649  20827866.42549
  21241620.050 6  -1032031.066 6   -756979.25049  21241617.30449
  21492872.245 6   -422741.316 6   -313957.63749  21492869.03449
 20  5 16  0  3 36.9990000  0  9G03G04G08G14G16G22G26G27G31          0.000199696
  24096513.081 4   -286335.004 4   -210927.38347  24096513.81247
  22538288.769 6  -1005754.324 6   -738662.54347  22538286.69047
  23597523.526 1   -867470.402 1                
  21609416.167 6    -94936.430 6    -70266.94947  21609413.01547
  20397346.198 6   -555670.129 6   -408474.54748  20397342.28048
  24480739.964 2   -255766.309 2                
  20827492.198 6   -324841.238 6   -242341.88349  20827491.49149
  21240413.542 6  -1038369.949 6   -761918.63749  21240411.31549
  21492383.417 6   -425309.914 6   -315959.13749  21492380.10149
 20  5 16  0  3 37.9990000  0  9G03G04G08G14G16G22G26G27G31          0.000197525
  24096150.120 4   -288240.863 4   -212412.46947  24096151.09747
  22537116.784 5  -1011912.914 5   -743461.44946  22537114.70646
  23596162.003 1   -874625.305 1                
  21609303.355 6    -95528.992 6    -70728.68847  21609300.49547
  20396698.042 6   -559076.328 6   -411128.73048  20396694.51148
  24480407.378 2   -257516.086 2                
  20827118.175 6   -326810.000 6   -243875.98049  20827116.94049
  21239207.198 6  -1044708.820 6   -766858.02349  21239205.23749
  21491894.503 6   -427878.754 6   -317960.83649  21491890.91349
 20  5 16  0  3 38.9990000  0  9G03G04G08G14G16G22G26G27G31          0.000195353
  24095788.042 4   -290146.828 4   -213897.63347  24095788.48347
  22535945.003 6  -1018071.461 6   -748260.31646  22535942.83946
  23594799.980 1   -881780.449 1                
  21609190.667 6    -96121.496 6    -71190.38347  21609187.27647
  20396050.034 6   -562482.520 6   -413782.90248  20396045.83148
  24480073.722 2   -259266.152 2                
  20826743.011 6   -328778.926 6   -245410.20749  20826741.99949
  21238001.230 6  -1051047.605 6   -771797.33649  21237998.75349
  21491405.972 6   -430447.711 6   -319962.62549  21491402.08149
 20  5 16  0  3 39.9990000  0  9G03G04G08G14G16G22G26G27G31          0.000193182
  24095425.855 4   -292053.008 4   -215382.96947  24095426.19847
  22534773.214 6  -1024230.082 6   -753059.23447  22534770.78447
  23593437.612 1   -888935.813 1                
  21609078.058 6    -96714.055 6    -71652.12147  21609074.28047
  20395401.737 6   -565888.770 6   -416437.12148  20395397.78448
  24479740.987 2   -261016.641 2                
  20826368.198 6   -330748.141 6   -246944.66049  20826367.58149
  21236794.972 6  -1057386.367 6   -776736.63349  21236792.83949
  21490917.120 6   -433016.891 6   -321964.58649  21490913.05049
 20  5 16  0  3 40.9990000  0  9G03G04G08G14G16G22G26G27G31          0.000191010
  24095062.261 4   -293959.336 4   -216868.42247  24095063.26947
  22533601.386 5  -1030388.742 5   -757858.19147  22533599.21847
  23592076.425 1   -896091.523 1                
  21608965.401 6    -97306.559 6    -72113.81347  21608962.03447
  20394753.659 6   -569295.020 6   -419091.34048  20394749.41348
  24479407.714 2   -262767.586 2                
  20825993.058 6   -332717.605 6   -248479.30949  20825992.42149
  21235588.628 6  -1063725.078 6   -781675.88349  21235586.70649
  21490428.495 6   -435586.266 6   -323966.69549  21490424.21049
 20  5 16  0  3 41.9990000  0  9G03G04G08G14G16G22G26G27G31          0.000188837
  24094699.136 4   -295865.762 4   -218353.95347  24094700.51547
  22532429.237 6  -1036547.313 6   -762657.07847  22532426.87447
  23590715.433 1   -903247.473 1                
  21608852.886 6    -97899.051 6    -72575.48847  21608849.03047
  20394105.573 6   -572701.250 6   -421745.54348  20394101.39748
  24479074.886 2   -264518.781 2                
  20825618.487 6   -334687.262 6   -250014.11749  20825617.85549
  21234382.487 6  -1070063.699 6   -786615.07049  21234380.27249
  21489938.948 6   -438155.746 6   -325968.89149  21489935.00349
 20  5 16  0  3 42.9990000  0  9G03G04G08G14G16G22G26G27G31          0.000186665
  24094336.089 4   -297772.484 4   -219839.70747  24094337.60147
  22531257.151 6  -1042706.055 6   -767456.11347  22531255.00347
  23589352.815 1   -910403.742 1                
  21608739.933 6    -98491.676 6    -73037.27747  21608736.51547
  20393457.534 6   -576107.609 6   -424399.85948  20393453.48748
  24478741.776 2   -266270.535 2                
  20825243.675 6   -336657.258 6   -251549.17649  20825242.94049
  21233176.339 6  -1076402.402 6   -791554.31649  21233173.98349
  21489449.855 6   -440725.523 6   -327971.30949  21489445.95649
 20  5 16  0  3 43.9990000  0  9G03G04G08G14G16G22G26G27G31          0.000184492
  24093973.073 4   -299679.324 4   -221325.55147  24093974.83147
  22530085.315 6  -1048864.789 6   -772255.12547  22530082.85147
  23587991.065 1   -917560.332 1                
  21608626.980 6    -99084.207 6    -73499.00047  21608623.67147
  20392809.011 6   -579513.980 6   -427054.17648  20392805.00748
  24478408.151 3   -268022.625 3                
  20824868.956 6   -338627.492 6   -253084.42249  20824868.09349
  21231970.151 6  -1082741.059 6   -796493.53149  21231967.53049
  21488960.925 6   -443295.520 6   -329973.89849  21488957.30449
 20  5 16  0  3 44.9990000  0  9G03G04G08G14G16G22G26G27G31          0.000182320
  24093610.612 3   -301586.285 3   -222811.49647  24093612.17147
  22528913.331 6  -1055023.539 6   -777054.15647  22528911.25347
  23586629.198 1   -924717.086 1                
  21608514.659 6    -99676.754 6    -73960.72347  21608510.56247
  20392161.136 6   -582920.328 6   -429708.47748  20392156.90148
  24478075.308 2   -269775.070 2                
  20824493.761 6   -340597.918 6   -254619.82449  20824493.14049
  21230763.862 6  -1089079.613 6   -801432.66449  21230761.62049
  21488471.800 6   -445865.609 6   -331976.57049  21488468.00749
 20  5 16  0  3 45.9990000  0  9G03G04G08G14G16G22G26G27G31          0.000180145
  24093248.019 4   -303493.309 4   -224297.48847  24093249.90147
  22527740.972 6  -1061182.184 6   -781853.09847  22527739.19847
  23585267.581 1   -931874.035 1                
  21608401.589 6   -100269.184 6    -74422.35547  21608397.83947
  20391512.847 6   -586326.617 6   -432362.72748  20391508.47248
  24477741.331 3   -271527.840 3                
  20824118.886 6   -342568.492 6   -256155.33649  20824118.18349
  21229557.636 6  -1095418.039 6   -806371.69149  21229555.40949
  21487982.948 6   -448435.797 6   -333979.31349  21487978.80049
 20  5 16  0  3 46.9990000  0  9G03G04G08G14G16G22G26G27G31          0.000177973
  24092885.081 3   -305400.555 3   -225783.65247  24092886.43347
  22526569.315 6  -1067340.973 6   -786652.14547  22526567.17947
  23583904.315 1   -939031.367 1                
  21608288.644 6   -100861.742 6    -74884.09047  21608285.59747
  20390864.589 6   -589733.008 6   -435017.05548  20390860.41748
  24477406.948 3   -273281.078 3                
  20823743.901 6   -344539.418 6   -257691.13349  20823743.15949
  21228351.589 6  -1101756.520 6   -811310.76649  21228349.42949
  21487493.597 6   -451006.293 6   -335982.29749  21487489.82349
 20  5 16  0  3 47.9990000  0  9G03G04G08G14G16G22G26G27G31          0.000175798
  24092521.355 3   -307307.973 3   -227269.94947  24092523.57747
  22525397.776 6  -1073499.766 6   -791451.20747  22525395.69047
  23582542.237 1   -946188.953 1                
  21608175.503 6   -101454.246 6    -75345.77347  21608172.36247
  20390216.065 6   -593139.410 6   -437671.39548  20390212.16348
  24477073.120 2   -275034.664 2                
  20823368.534 6   -346510.570 6   -259227.09449  20823368.11649
  21227144.901 6  -1108094.961 6   -816249.81649  21227143.12449
  21487004.480 6   -453576.957 6   -337985.41449  21487000.56949
 20  5 16  0  3 48.9990000  0  9G03G04G08G14G16G22G26G27G31          0.000173624
  24092158.534 3   -309215.512 3   -228756.34447  24092160.61647
  22524226.011 6  -1079658.547 6   -796250.26647  22524223.89747
  23581181.183 1   -953346.766 1                
  21608063.042 6   -102046.734 6    -75807.45747  21608060.10547
  20389568.300 6   -596545.801 6   -440325.72348  20389564.43748
  24476739.175 3   -276788.668 3                
  20822993.448 6   -348481.934 6   -260763.22749  20822992.80449
  21225938.870 6  -1114433.297 6   -821188.77749  21225936.80849
  21486515.011 6   -456147.746 6   -339988.62549  21486511.44849
 20  5 16  0  3 49.9990000  0  9G03G04G08G14G16G22G26G27G31          0.000171452
  24091795.683 3   -311123.195 3   -230242.85247  24091797.85147
  22523053.690 6  -1085817.313 6   -801049.30947  22523051.72647
  23579819.394 1   -960504.820 1                
  21607950.394 6   -102639.180 6    -76269.10947  21607947.48747
  20388919.964 6   -599952.172 6   -442980.03948  20388916.02248
  24476405.909 3   -278542.953 3                
  20822618.456 6   -350453.508 6   -262299.51649  20822617.54249
  21224733.081 6  -1120771.563 6   -826127.68049  21224731.06949
  21486025.901 6   -458718.668 6   -341991.93849  21486022.25749
 20  5 16  0  3 50.9990000  0  9G03G04G08G14G16G22G26G27G31          0.000169277
  24091432.347 3   -313030.973 3   -231729.43447  24091434.53447
  22521881.620 6  -1091976.094 6   -805848.36347  22521879.56247
  23578457.026 1   -967663.160 1                
  21607837.323 6   -103231.602 6    -76730.74247  21607834.59347
  20388271.386 6   -603358.570 6   -445634.37948  20388267.73348
  24476072.776 3   -280297.715 3                
  20822242.769 6   -352425.320 6   -263835.99649  20822242.41749
  21223526.894 6  -1127109.801 6   -831066.57449  21223524.63249
  21485536.776 6   -461289.848 6   -343995.46149  21485532.83949
 20  5 16  0  3 51.9990000  0  9G03G04G08G14G16G22G26G27G31          0.000167101
  24091070.042 3   -314938.895 3   -233216.12147  24091071.44447
  22520709.683 6  -1098134.859 6   -810647.41047  22520707.68747
  23577094.480 1   -974821.719 1                
  21607724.784 6   -103823.992 6    -77192.34847  21607722.18747
  20387623.433 6   -606764.941 6   -448288.69148  20387619.36648
  24475739.644 3   -282052.816 3                
  20821867.519 6   -354397.348 6   -265372.63749  20821867.10549
  21222320.706 6  -1133447.938 6   -836005.37949  21222318.79649
  21485047.448 6   -463861.105 6   -345999.03149  21485043.77249
 20  5 16  0  3 52.9990000  0  9G03G04G08G14G16G22G26G27G31          0.000164927
  24090706.706 3   -316846.891 3   -234702.87147  24090708.32747
  22519538.026 6  -1104293.559 6   -815446.39147  22519535.88247
  23575732.698 1   -981980.434 1                
  21607612.011 6   -104416.301 6    -77653.88347  21607608.92947
  20386975.495 6   -610171.230 6   -450942.94148  20386971.51148
  24475405.065 4   -283808.148 4                
  20821492.690 6   -356369.527 6   -266909.40249  20821491.73349
  21221114.761 6  -1139785.949 6   -840944.09049  21221112.56949
  21484557.870 6   -466432.480 6   -348002.70349  21484554.46449
 20  5 16  0  3 53.9990000  0  9G03G04G08G14G16G22G26G27G31          0.000162752
  24090343.401 3   -318755.043 3   -236189.74247  24090345.37847
  22518365.683 6  -1110452.270 6   -820245.37947  22518363.82747
  23574369.925 1   -989139.492 1                
  21607499.433 6   -105008.563 6    -78115.38747  21607496.62447
  20386326.776 6   -613577.547 6   -453597.21148  20386323.59748
  24475070.659 3   -285563.875 3                
  20821117.394 6   -358341.934 6   -268446.34049  20821117.01549
  21219908.659 6  -1146123.898 6   -845882.75049  21219906.55849
  21484068.690 6   -469004.020 6   -350006.50449  21484065.00349
 20  5 16  0  3 54.9990000  0  9G03G04G08G14G16G22G26G27G31          0.000160576
  24089981.065 3   -320663.215 3   -237676.63747  24089981.90947
  22517194.198 6  -1116610.895 6   -825044.30147  22517191.74547
  23573007.230 1   -996298.625 1                
  21607387.081 6   -105600.754 6    -78576.84047  21607383.88247
  20385679.198 6   -616983.797 6   -456251.43848  20385675.01148
  24474735.933 3   -287319.934 3                
  20820741.987 6   -360314.477 6   -269983.38749  20820741.06949
  21218702.690 6  -1152461.699 6   -850821.29749  21218700.94049
  21483579.190 6   -471575.648 6   -352010.36749  21483575.58549
 20  5 16  0  3 55.9990000  0  9G03G04G08G14G16G22G26G27G31          0.000158401
  24089617.737 3   -322571.656 3   -239163.74647  24089618.92947
  22516022.003 6  -1122769.605 6   -829843.30147  22516020.00347
  23571645.534 1  -1003458.105 1                
  21607274.370 6   -106192.973 6    -79038.30547  21607271.35147
  20385030.503 6   -620390.113 6   -458905.70748  20385026.98748
  24474401.956 3   -289076.434 3                
  20820366.206 6   -362287.313 6   -271520.66049  20820365.79249
  21217496.198 6  -1158799.523 6   -855759.86349  21217494.57349
  21483089.589 6   -474147.512 6   -354014.41449  21483086.29649
 20  5 16  0  3 56.9990000  0  9G03G04G08G14G16G22G26G27G31          0.000156225
  24089254.573 3   -324480.191 3   -240650.91447  24089255.80847
  22514849.917 6  -1128928.332 6   -834642.31347  22514848.13647
  23570282.745 1  -1010617.875 1                
  21607161.245 6   -106785.199 6    -79499.78147  21607158.64047
  20384382.675 6   -623796.426 6   -461559.97348  20384378.79248
  24474067.972 3   -290833.285 3                
  20819991.292 6   -364260.383 6   -273058.11749  20819990.64449
  21216290.276 6  -1165137.289 6   -860698.37949  21216288.39449
  21482600.714 6   -476719.539 6   -356018.59449  21482596.93749
 20  5 16  0  3 57.9990000  0  9G03G04G08G14G16G22G26G27G31          0.000154049
  24088891.362 3   -326388.836 3   -242138.16847  24088892.41747
  22513678.019 6  -1135086.980 6   -839441.25447  22513675.94447
  23568920.073 1  -1017777.852 1                
  21607048.362 6   -107377.328 6    -79961.18047  21607045.82347
  20383734.097 6   -627202.691 6   -464214.20748  20383730.85148
  24473733.378 3   -292590.500 3                
  20819615.315 6   -366233.613 6   -274595.70349  20819615.19849
  21215084.870 6  -1171474.902 6   -865636.78149  21215082.54249
  21482110.980 6   -479291.676 6   -358022.85949  21482107.63649
 20  5 16  0  3 58.9990000  0  9G03G04G08G14G16G22G26G27G31          0.000151873
  24088528.190 3   -328297.523 3   -243625.46147  24088529.12847
  22512506.495 6  -1141245.578 6   -844240.16447  22512504.53847
  23567557.823 1  -1024937.996 1                
  21606935.870 6   -107969.406 6    -80422.54347  21606933.21047
  20383086.151 6   -630608.883 6   -466868.37948  20383082.84348
  24473399.011 3   -294347.977 3                
  20819240.292 6   -368207.027 6   -276133.43049  20819239.57749
  21213878.628 6  -1177812.406 6   -870575.10249  21213876.23749
  21481621.183 6   -481863.902 6   -360027.19149  21481617.79249
 20  5 16  0  3 59.9990000  0  9G03G04G08G14G16G22G26G27G31          0.000149696
  24088164.909 3   -330206.328 3   -245112.84847  24088165.68747
  22511334.433 6  -1147404.180 6   -849039.08247  22511332.64447
  23566195.128 1  -1032098.348 1                
  21606822.862 6   -108561.438 6    -80883.87147  21606820.48347
  20382438.081 6   -634015.098 6   -469522.57448  20382434.04648
  24473063.815 3   -296105.844 3                
  20818864.511 6   -370180.648 6   -277671.32049  20818864.27649
  21212672.386 6  -1184149.887 6   -875513.40249  21212670.31549
  21481131.886 6   -484436.316 6   -362031.68049  21481128.28449
 20  5 16  0  4  0.9990000  0  9G03G04G08G14G16G22G26G27G31          0.000147520
  24087801.284 3   -332115.465 3   -246600.48847  24087802.39747
  22510162.636 6  -1153562.930 6   -853838.10947  22510160.69847
  23564831.761 1  -1039259.180 1                
  21606710.659 6   -109153.602 6    -81345.29747  21606707.87447
  20381790.003 6   -637421.449 6   -472176.87548  20381786.39448
  24472729.526 3   -297864.180 3                
  20818488.823 6   -372154.645 6   -279209.49249  20818488.44449
  21211466.620 6  -1190487.395 6   -880451.71549  21211464.44049
  21480642.073 6   -487009.035 6   -364036.39149  21480639.03849
 20  5 16  0  4  1.9990000  0  9G03G04G08G14G16G22G26G27G31          0.000145344
  24087437.698 3   -334024.699 3   -248088.20747  24087438.91747
  22508990.065 6  -1159721.645 6   -858637.10247  22508988.38247
  23563469.940 1  -1046420.254 1                
  21606597.714 6   -109745.711 6    -81806.67647  21606595.26147
  20381141.448 6   -640827.785 6   -474831.16448  20381138.21048
  24472394.769 3   -299622.941 3                
  20818112.901 6   -374128.844 6   -280747.83249  20818112.60849
  21210260.534 6  -1196824.855 6   -885389.98849  21210258.69849
  21480152.886 6   -489581.898 6   -366041.21949  21480149.35149
 20  5 16  0  4  2.9990000  0  9G03G04G08G14G16G22G26G27G31          0.000143166
  24087074.526 2   -335934.004 2   -249575.98047  24087075.51547
  22507818.862 6  -1165880.285 6   -863436.04347  22507816.54647
  23562106.151 1  -1053581.430 1                
  21606484.792 6   -110337.699 6    -82267.97747  21606482.64747
  20380493.534 6   -644234.004 6   -477485.35948  20380490.10148
  24472060.003 3   -301381.930 3                
  20817737.605 6   -376103.156 6   -282286.25849  20817737.30049
  21209054.675 6  -1203162.125 6   -890328.13349  21209052.83149
  21479663.034 6   -492154.816 6   -368046.09449  21479659.85549
 20  5 16  0  4  3.9990000  0  9G03G04G08G14G16G22G26G27G31          0.000140989
  24086710.222 2   -337843.539 2   -251063.93447  24086712.59747
  22506646.714 6  -1172039.016 6   -868235.05147  22506644.56947
  23560742.800 1  -1060742.996 1                
  21606372.378 6   -110929.770 6    -82729.32447  21606369.65947
  20379845.440 6   -647640.359 6   -480139.66848  20379841.82348
  24471725.159 3   -303141.418 3                
  20817361.534 6   -378077.809 6   -283824.94549  20817361.55049
  21207848.644 6  -1209499.434 6   -895266.29749  21207846.57749
  21479173.565 6   -494728.012 6   -370051.18449  21479170.31949
 20  5 16  0  4  4.9990000  0  9G03G04G08G14G16G22G26G27G31          0.000138811
  24086346.706 2   -339753.160 2   -252551.94547  24086348.56547
  22505474.651 6  -1178197.738 6   -873034.05547  22505472.60547
  23559380.276 1  -1067904.625 1                
  21606259.690 6   -111521.801 6    -83190.65247  21606257.21447
  20379196.753 6   -651046.676 6   -482793.94548  20379193.58148
  24471389.659 3   -304901.230 3                
  20816985.839 6   -380052.676 6   -285363.80549  20816985.62449
  21206642.495 6  -1215836.688 6   -900204.41049  21206640.99949
  21478683.894 6   -497301.348 6   -372056.37949  21478680.46449
 20  5 16  0  4  5.9990000  0  9G03G04G08G14G16G22G26G27G31          0.000136633
  24085983.964 2   -341662.875 2   -254040.04347  24085985.08147
  22504302.987 6  -1184356.434 6   -877833.03547  22504300.90947
  23558020.175 1  -1075066.613 1                
  21606147.245 6   -112113.773 6    -83651.93447  21606144.88247
  20378549.089 6   -654452.957 6   -485448.19548  20378545.08948
  24471055.237 3   -306661.438 3                
  20816610.339 6   -382027.730 6   -286902.81349  20816610.02649
  21205436.722 6  -1222173.824 6   -905142.44149  21205435.31549
  21478194.120 6   -499874.816 6   -374061.67649  21478191.07349
 20  5 16  0  4  6.9990000  0  9G03G04G08G14G16G22G26G27G31          0.000134455
  24085620.495 2   -343572.598 2   -255528.14147  24085621.70247
  22503131.667 6  -1190514.938 6   -882631.87547  22503129.39747
  23556656.347 1  -1082228.730 1                
  21606034.190 6   -112705.570 6    -84113.06647  21606031.87447
  20377900.690 6   -657859.105 6   -488102.33648  20377897.05448
  24470719.956 3   -308421.809 3                
  20816233.995 6   -384002.820 6   -288441.84449  20816233.79249
  21204230.620 6  -1228510.754 6   -910080.30949  21204229.52249
  21477704.394 6   -502448.273 6   -376066.96949  21477701.13649
 20  5 16  0  4  7.9990000  0  9G03G04G08G14G16G22G26G27G31          0.000132261
  24085256.948 2   -345482.570 2   -257016.42647  24085258.36247
  22501958.776 6  -1196673.539 6   -887430.78547  22501956.98747
  23555292.31511                                
  21605921.847 6   -113297.406 6    -84574.24247  21605919.47647
  20377251.933 6   -661265.305 6   -490756.52048  20377248.88248
  24470385.550 3   -310182.605 3                
  20815858.362 6   -385978.230 6   -289981.12549  20815858.21449
  21203025.050 6  -1234847.668 6   -915018.16449  21203023.97649
  21477214.300 6   -505021.969 6   -378072.45349  21477211.14449
 20  5 16  0  4  8.9990000  0  9G03G04G08G14G16G22G26G27G31          0.000130083
  24084893.206 2   -347392.586 2   -258504.75047  24084894.56547
  22500786.940 6  -1202832.094 6   -892229.66447  22500785.35147
  23553929.605 1  -1096553.668 1                
  21605809.315 6   -113889.188 6    -85035.37547  21605806.89047
  20376603.909 6   -664671.473 6   -493410.68048  20376600.98748
  24470050.573 3   -311943.754 3                
  20815482.667 6   -387953.852 6   -291520.57449  20815482.33949
  21201819.417 6  -1241184.469 6   -919955.93449  21201817.74149
  21476724.761 6   -507595.820 6   -380078.04749  21476721.53049
 20  5 16  0  4  9.9990000  0  9G03G04G08G14G16G22G26G27G31          0.000127920
  24084529.933 2   -349302.734 2   -259993.18447  24084531.23347
  22499615.112 6  -1208990.617 6   -897028.50847  22499613.27647
  23552565.839 1  -1103716.449 1                
  21605696.448 6   -114480.910 6    -85496.46147  21605694.11247
  20375956.105 6   -668077.625 6   -496064.82848  20375952.51948
  24469714.987 3   -313705.246 3                
  20815106.433 6   -389929.621 6   -293060.13349  20815106.44849
  21200613.151 6  -1247521.176 6   -924893.62949  21200612.08549
  21476234.261 6   -510169.805 6   -382083.75449  21476231.80849
 20  5 16  0  4 10.9990000  0 10G03G04G08G14G16G22G26G27G31S22       0.000125740
  24084166.487 2   -351213.023 2   -261481.72347  24084167.74947
  22498443.581 6  -1215149.188 6   -901827.38347  22498441.55447
  23551202.151 1  -1110879.570 1                
  21605584.042 6   -115072.684 6    -85957.58247  21605581.39447
  20375308.097 6   -671483.824 6   -498719.00448  20375304.90148
  24469380.394 3   -315467.211 3                
  20814730.503 6   -391905.707 6   -294599.94549  20814730.59349
  21199407.417 6  -1253857.910 6   -929831.34049  21199406.12449
  21475744.620 6   -512743.969 6   -384089.59849  21475742.06249
  36681549.40116    -25980.14816                
 20  5 16  0  4 11.9990000  0 10G03G04G08G14G16G22G26G27G31S22       0.000123562
  24083803.003 2   -353123.445 2   -262970.34847  24083804.08947
  22497271.167 6  -1221307.691 6   -906626.22347  22497269.85547
  23549840.323 1  -1118042.859 1                
  21605471.214 6   -115664.309 6    -86418.59847  21605468.92547
  20374660.073 6   -674889.934 6   -501373.11748  20374656.55848
  24469044.167 3   -317229.387 3                
  20814354.276 6   -393881.902 6   -296139.83249  20814354.11249
  21198201.487 6  -1260194.469 6   -934768.92249  21198200.42149
  21475255.245 6   -515318.238 6   -386095.52049  21475252.42949
  36680884.105 6    -29482.039 6                
 20  5 16  0  4 12.9990000  0 10G03G04G08G14G16G22G26G27G31S22       0.000121382
  24083438.948 2   -355033.914 2   -264459.02047  24083440.55447
  22496099.386 6  -1227466.156 6   -911425.02747  22496097.84347
  23548477.519 1  -1125206.418 1                
  21605358.565 6   -116255.938 6    -86879.60947  21605356.12047
  20374011.511 6   -678296.020 6   -504027.21148  20374008.01148
  24468709.331 3   -318991.973 3                
  20813978.073 6   -395858.289 6   -297679.87949  20813978.23049
  21196995.761 6  -1266530.938 6   -939706.43449  21196995.03049
  21474765.636 6   -517892.621 6   -388101.53549  21474762.30049
  36680216.136 6    -32984.828 6                
 20  5 16  0  4 13.9990000  0 10G03G04G08G14G16G22G26G27G31S22       0.000119202
  24083075.784 2   -356944.484 2   -265947.78547  24083076.76147
  22494928.159 6  -1233624.563 6   -916223.78147  22494925.55047
  23547113.487 1  -1132370.070 1                
  21605245.964 6   -116847.441 6    -87340.52747  21605243.70647
  20373363.511 6   -681702.063 6   -506681.27348  20373360.59748
  24468373.831 3   -320754.859 3                
  20813601.925 6   -397834.863 6   -299220.07049  20813602.05049
  21195789.901 6  -1272867.262 6   -944643.82849  21195789.02249
  21474275.534 6   -520467.098 6   -390107.62149  21474272.39049
  36679548.136 6    -36487.836 6                
 20  5 16  0  4 14.9990000  0 10G03G04G08G14G16G22G26G27G31S22       0.000117023
  24082712.417 2   -358855.207 2   -267436.66047  24082712.69047
  22493755.933 6  -1239782.973 6   -921022.54347  22493754.15147
  23545750.995 1  -1139534.016 1                
  21605133.636 6   -117438.945 6    -87801.43847  21605130.90147
  20372715.167 6   -685108.090 6   -509335.32048  20372711.97648
  24468038.245 3   -322518.070 3                
  20813225.534 6   -399811.652 6   -300760.42649  20813225.63649
  21194584.315 6  -1279203.551 6   -949581.19549  21194583.39749
  21473785.597 6   -523041.773 6   -392113.86749  21473782.41349
  36678883.870 6    -39991.270 6                
 20  5 16  0  4 15.9990000  0 10G03G04G08G14G16G22G26G27G31S22       0.000114843
  24082349.394 2   -360765.949 2   -268925.55147  24082349.40147
  22492583.839 6  -1245941.273 6   -925821.21547  22492581.98747
  23544387.815 1  -1146698.133 1                
  21605021.034 6   -118030.355 6    -88262.27347  21605018.11247
  20372067.003 6   -688514.020 6   -511989.29348  20372063.76148
  24467702.253 3   -324281.574 3                
  20812849.495 6   -401788.598 6   -302300.90249  20812849.94849
  21193378.464 6  -1285539.660 6   -954518.42249  21193377.62849
  21473295.456 6   -525616.551 6   -394120.18849  21473292.69049
  36678216.605 6    -43494.895 6                
 20  5 16  0  4 16.9990000  0 10G03G04G08G14G16G22G26G27G31S22       0.000112663
  24081985.386 2   -362676.906 2   -270414.60547  24081985.56247
  22491412.019 6  -1252099.617 6   -930619.93047  22491409.78047
  23543024.480 1  -1153862.504 1                
  21604908.683 6   -118621.734 6    -88723.09047  21604905.75747
  20371419.167 6   -691919.996 6   -514643.29748  20371415.58548
  24467366.651 3   -326045.531 3                
  20812472.901 6   -403765.738 6   -303841.53549  20812473.14749
  21192172.808 6  -1291875.734 6   -959455.61749  21192171.56249
  21472805.558 6   -528191.438 6   -396126.59849  21472802.46849
  36677553.886 6    -46999.090 6                
 20  5 16  0  4 17.9990000  0 10G03G04G08G14G16G22G26G27G31S22       0.000110481
  24081622.245 3   -364587.926 3   -271903.71547  24081621.80047
  22490239.917 6  -1258257.941 6   -935418.62147  22490238.02647
  23541661.034 1  -1161027.063 1                
  21604796.237 5   -119213.086 5    -89183.88747  21604793.42147
  20370770.753 6   -695325.949 6   -517297.28948  20370767.78848
  24467030.972 4   -327809.781 4                
  20812097.534 6   -405743.125 6   -305382.35549  20812097.55449
  21190966.808 6  -1298211.695 6   -964392.73449  21190966.19049
  21472315.581 6   -530766.480 6   -398133.12149  21472312.60549
  36676879.026 6    -50503.309 6                
 20  5 16  0  4 18.9990000  0 10G03G04G08G14G16G22G26G27G31S22       0.000108301
  24081258.261 3   -366499.156 3   -273392.98847  24081258.33547
  22489068.378 6  -1264416.277 6   -940217.32047  22489065.92947
  23540296.714 1  -1168192.020 1                
  21604683.925 6   -119804.445 6    -89644.68447  21604680.79647
  20370122.808 6   -698731.922 6   -519951.29348  20370119.76148
  24466695.284 3   -329574.480 3                
  20811720.964 6   -407720.754 6   -306923.36749  20811721.39449
  21189761.347 6  -1304547.672 6   -969329.85549  21189760.50349
  21471825.206 6   -533341.758 6   -400139.83249  21471822.83949
  36676218.245 6    -54008.098 6                
 20  5 16  0  4 19.9990000  0 10G03G04G08G14G16G22G26G27G31S22       0.000106119
  24080894.706 3   -368410.523 3   -274882.36747  24080894.51547
  22487896.612 6  -1270574.648 6   -945016.05147  22487894.33547
  23538934.105 1  -1175357.063 1                
  21604571.190 6   -120395.809 6    -90105.50047  21604568.53047
  20369474.206 6   -702137.938 6   -522605.33248  20369471.48748
  24466358.995 4   -331339.539 4                
  20811344.815 6   -409698.648 6   -308464.57849  20811344.62849
  21188555.839 6  -1310883.566 6   -974266.91849  21188554.75349
  21471335.698 6   -535917.211 6   -402146.67649  21471332.97649
  36675549.214 6    -57513.207 6                
 20  5 16  0  4 20.9990000  0 10G03G04G08G14G16G22G26G27G31S22       0.000103939
  24080530.651 3   -370321.879 3   -276371.74247  24080530.85847
  22486724.675 6  -1276732.871 6   -949814.66447  22486722.56947
  23537570.714 1  -1182522.371 1                
  21604458.558 6   -120987.004 6    -90566.17647  21604455.78047
  20368825.956 6   -705543.801 6   -525259.25448  20368823.44048
  24466023.440 3   -333104.836 3                
  20810967.956 6   -411676.578 6   -310005.82849  20810968.27249
  21187350.073 6  -1317219.273 6   -979203.83649  21187349.33149
  21470844.987 6   -538492.664 6   -404153.53149  21470842.12449
  36674883.433 6    -61018.434 6                
 20  5 16  0  4 21.9990000  0 10G03G04G08G14G16G22G26G27G31S22       0.000101757
  24080166.925 3   -372233.328 3   -277861.18447  24080166.77647
  22485553.198 6  -1282891.043 6   -954613.24247  22485550.94847
  23536208.339 1  -1189687.789 1                
  21604345.855 6   -121578.125 6    -91026.79347  21604343.28447
  20368178.519 6   -708949.641 6   -527913.15248  20368175.22248
  24465687.159 3   -334870.539 3                
  20810591.542 6   -413654.738 6   -311547.25449  20810591.76949
  21186144.065 6  -1323554.859 6   -984140.65249  21186143.35549
  21470354.948 6   -541068.238 6   -406160.46949  21470352.33149
  36674213.167 6    -64524.113 6                
 20  5 16  0  4 22.9990000  0 10G03G04G08G14G16G22G26G27G31S22       0.000099577
  24079802.933 3   -374144.992 3   -279350.80147  24079803.12847
  22484380.901 6  -1289049.254 6   -959411.84847  22484378.70647
  23534845.698 1  -1196853.598 1                
  21604233.081 6   -122169.281 6    -91487.43847  21604230.56947
  20367530.464 6   -712355.496 6   -530567.06648  20367526.71448
  24465351.831 3   -336636.598 3                
  20810215.144 6   -415633.121 6   -313088.85249  20810215.79649
  21184938.628 6  -1329890.406 6   -989077.44549  21184938.21449
  21469865.003 6   -543644.043 6   -408167.59449  21469862.04649
  36673548.151 6    -68029.961 6                
 20  5 16  0  4 23.9990000  0 10G03G04G08G14G16G22G26G27G31S22       0.000097393
  24079440.237 3   -376056.727 3   -280840.46147  24079439.47647
  22483209.003 6  -1295207.461 6   -964210.44547  22483207.14047
  23533482.206 1  -1204019.496 1                
  21604120.862 6   -122760.398 6    -91948.04347  21604118.15947
  20366882.222 6   -715761.367 6   -533220.99248  20366878.84748
  24465015.394 3   -338403.000 3                
  20809838.722 6   -417611.730 6   -314630.62549  20809839.23749
  21183733.315 6  -1336225.887 6   -994014.18049  21183732.66749
  21469374.362 6   -546219.961 6   -410174.80949  21469371.95649
  36672881.417 6    -71536.465 6                
 20  5 16  0  4 24.9990000  0 10G03G04G08G14G16G22G26G27G31S22       0.000095213
  24079075.917 3   -377968.590 3   -282330.21147  24079075.50347
  22482037.753 6  -1301365.582 6   -969008.98047  22482035.27247
  23532118.909 1  -1211185.629 1                
  21604008.964 6   -123351.402 6    -92408.56347  21604005.80847
  20366234.206 6   -719167.133 6   -535874.84048  20366230.58948
  24464679.417 3   -340169.699 3                
  20809462.144 6   -419590.508 6   -316172.53149  20809462.35549
  21182527.761 6  -1342561.207 6   -998950.79349  21182527.14049
  21468884.300 6   -548795.973 6   -412182.09049  21468881.74549
  36672209.183 6    -75043.000 6                
 20  5 16  0  4 25.9990000  0 10G03G04G08G14G16G22G26G27G31S22       0.000093029
  24078712.089 3   -379880.543 3   -283820.05147  24078712.00747
  22480865.800 6  -1307523.707 6   -973807.52347  22480863.31547
  23530755.097 1  -1218352.098 1                
  21603896.519 6   -123942.422 6    -92869.09447  21603893.44447
  20365586.019 6   -722572.914 6   -538528.69148  20365582.56948
  24464342.565 4   -341936.805 4                
  20809085.636 6   -421569.504 6   -317714.60949  20809085.90549
  21181322.292 6  -1348896.500 6  -1003887.38749  21181321.76949
  21468394.315 6   -551372.148 6   -414189.50449  21468391.41749
  36671545.448 6    -78550.109 6                
 20  5 16  0  4 26.9990000  0 10G03G04G08G14G16G22G26G27G31S22       0.000090847
  24078348.308 3   -381792.488 3   -285309.88347  24078348.07347
  22479693.581 6  -1313681.676 6   -978605.94547  22479691.46047
  23529391.753 1  -1225518.609 1                
  21603783.714 6   -124533.242 6    -93329.47747  21603781.09347
  20364937.831 6   -725978.555 6   -541182.44148  20364934.56948
  24464006.730 3   -343704.145 3                
  20808708.651 6   -423548.570 6   -319256.73849  20808709.21849
  21180116.690 6  -1355231.551 6  -1008823.79349  21180116.21849
  21467904.128 6   -553948.359 6   -416196.94549  21467901.37849
  36670878.620 6    -82057.262 6                
 20  5 16  0  4 27.9990000  0 10G03G04G08G14G16G22G26G27G31S22       0.000088665
  24077984.394 3   -383704.605 3   -286799.84847  24077983.58947
  22478521.823 6  -1319839.648 6   -983404.36347  22478519.64047
  23528028.597 1  -1232685.301 1                
  21603671.737 6   -125124.023 6    -93789.83247  21603668.46847
  20364289.542 6   -729384.188 6   -543836.17648  20364286.28848
  24463669.526 4   -345471.828 4                
  20808331.878 6   -425527.859 6   -320799.03949  20808332.69849
  21178911.308 6  -1361566.535 6  -1013760.14549  21178910.33149
  21467414.065 6   -556524.711 6   -418204.48849  21467411.30849
  36670208.526 6    -85565.016 6                
 20  5 16  0  4 28.9990000  0 10G03G04G08G14G16G22G26G27G31S22       0.000086481
  24077620.730 3   -385616.719 3   -288289.81347  24077620.17147
  22477350.347 6  -1325997.492 6   -988202.68847  22477347.99947
  23526664.730 1  -1239852.215 1                
  21603559.417 6   -125714.715 6    -94250.11747  21603555.97647
  20363641.276 6   -732789.699 6   -546489.82848  20363638.75348
  24463333.050 3   -347239.797 3                
  20807955.698 6   -427507.262 6   -322341.43049  20807956.41749
  21177705.769 6  -1367901.348 6  -1018696.35949  21177705.12049
  21466923.542 6   -559101.129 6   -420212.09049  21466921.27649
  36669542.761 6    -89073.246 6                
 20  5 16  0  4 29.9990000  0 10G03G04G08G14G16G22G26G27G31S22       0.000084299
  24077256.901 3   -387528.895 3   -289779.81647  24077256.55047
  22476178.058 6  -1332155.242 6   -993000.93047  22476176.05047
  23525300.667 1  -1247019.215 1                
  21603446.659 6   -126305.285 6    -94710.30947  21603443.59747
  20362993.284 6   -736195.145 6   -549143.43048  20362990.15148
  24462996.995 3   -349008.020 3   -162682.09455  24462990.93755
  20807578.870 6   -429486.777 6   -323883.91049  20807579.52249
  21176500.425 6  -1374235.977 6  -1023632.43849  21176499.85849
  21466433.120 6   -561677.586 6   -422219.72349  21466430.53049
  36668876.995 6    -92581.391 6                
 20  5 16  0  4 30.9990000  0 10G03G04G08G14G16G22G26G27G31S22       0.000082115
  24076892.628 3   -389441.340 3   -291270.03147  24076892.64447
  22475006.370 6  -1338313.113 6   -997799.26647  22475004.39447
  23523936.644 1  -1254186.609 1                
  21603334.792 6   -126895.938 6    -95170.55547  21603331.04247
  20362345.253 6   -739600.680 6   -551797.09848  20362341.93748
  24462660.644 4   -350776.738 4   -164060.35245  24462654.73745
  20807202.175 6   -431466.652 6   -325426.67649  20807202.80049
  21175295.136 6  -1380570.656 6  -1028568.54749  21175294.36249
  21465942.940 6   -564254.332 6   -424227.58249  21465940.10549
  36668210.605 6    -96090.398 6                
 20  5 16  0  4 31.9990000  0 10G03G04G08G14G16G22G26G27G31S22       0.000079931
  24076528.589 3   -391353.922 3   -292760.34847  24076528.44447
  22473834.651 6  -1344471.008 6  -1002597.61347  22473832.60147
  23522572.612 1  -1261354.277 1                
  21603222.300 6   -127486.574 6    -95630.78147  21603218.87447
  20361697.730 6   -743006.277 6   -554450.80148  20361694.22648
  24462323.183 3   -352545.871 3   -165438.89145  24462318.17945
  20806825.355 6   -433446.789 6   -326969.64149  20806826.11249
  21174089.808 6  -1386905.293 6  -1033504.62549  21174088.95249
  21465453.089 6   -566831.262 6   -426235.57849  21465450.09749
  36667540.136 5    -99599.637 5                
 20  5 16  0  4 32.9990000  0 10G03G04G08G14G16G22G26G27G31S22       0.000077749
  24076165.105 3   -393266.648 3   -294250.78547  24076164.38247
  22472662.948 6  -1350628.926 6  -1007395.99647  22472660.83947
  23521209.776 1  -1268522.160 1                
  21603109.808 6   -128077.254 6    -96091.04747  21603106.20247
  20361049.730 6   -746411.871 6   -557104.50448  20361046.11648
  24461987.315 3   -354315.355 3   -166817.71545  24461981.78445
  20806448.542 6   -435427.145 6   -328512.77349  20806449.10849
  21172884.175 6  -1393239.895 6  -1038440.68049  21172883.22249
  21464962.542 6   -569408.383 6   -428243.72749  21464959.69449
  36666871.573 5   -103109.484 5                
 20  5 16  0  4 33.9990000  0 10G03G04G08G14G16G22G26G27G31S22       0.000075565
  24075801.144 3   -395179.559 3   -295741.37147  24075800.69447
  22471490.698 6  -1356786.816 6  -1012194.35547  22471488.80447
  23519845.511 1  -1275690.348 1                
  21602997.495 6   -128667.879 6    -96551.28147  21602994.15547
  20360401.362 6   -749817.461 6   -559758.21948  20360397.86648
  24461650.026 4   -356085.285 4   -168196.90245  24461644.77645
  20806071.706 6   -437407.715 6   -330056.07449  20806072.24949
  21171678.855 6  -1399574.418 6  -1043376.68049  21171678.17549
  21464472.019 6   -571985.668 6   -430252.00449  21464469.08149
  36666205.698 6   -106619.609 6                
 20  5 16  0  4 34.9990000  0 10G03G04G08G14G16G22G26G27G31S22       0.000073380
  24075436.792 3   -397092.422 3   -297231.91847  24075436.51947
  22470319.151 6  -1362944.594 6  -1016992.62947  22470316.89447
  23518482.980 1  -1282858.668 1                
  21602885.159 6   -129258.367 6    -97011.40647  21602881.65147
  20359753.550 6   -753222.934 6   -562411.84048  20359749.64748
  24461313.198 4   -357855.395 4   -169576.19145  24461308.56945
  20805694.878 6   -439388.406 6   -331599.47349  20805695.65149
  21170473.190 6  -1405908.738 6  -1048312.51649  21170472.24149
  21463981.495 6   -574562.988 6   -432260.30949  21463978.21049
  36665537.480 6   -110130.121 6                
 20  5 16  0  4 35.9990000  0 10G03G04G08G14G16G22G26G27G31S22       0.000071196
  24075072.675 3   -399005.355 3   -298722.52347  24075072.87447
  22469147.464 6  -1369102.254 6  -1021790.80147  22469145.22647
  23517118.355 1  -1290027.117 1                
  21602772.589 6   -129848.711 6    -97471.41047  21602769.16347
  20359105.550 6   -756628.301 6   -565065.37548  20359102.14448
  24460976.269 3   -359625.781 3   -170955.70745  24460971.61245
  20805316.987 6   -441369.207 6   -333142.95749  20805318.57749
  21169268.112 6  -1412242.895 6  -1053248.22349  21169267.28849
  21463490.980 6   -577140.355 6   -434268.65249  21463488.42949
  36664870.261 6   -113640.949 6                
 20  5 16  0  4 36.9990000  0 10G03G04G08G14G16G22G26G27G31S22       0.000069012
  24074709.026 3   -400918.348 3   -300213.18047  24074708.77647
  22467975.737 6  -1375259.824 6  -1026588.90647  22467973.34747
  23515752.573 1  -1297195.688 1                
  21602660.417 6   -130438.973 6    -97931.35947  21602656.75747
  20358457.370 6   -760033.617 6   -567718.87148  20358453.69448
  24460639.370 4   -361396.512 4   -172335.46945  24460634.47245
  20804940.745 6   -443350.137 6   -334686.54749  20804941.88649
  21168062.605 6  -1418576.879 6  -1058183.79749  21168061.59349
  21463000.636 6   -579717.813 6   -436277.06349  21462997.88249
  36664205.214 6   -117151.914 6                
 20  5 16  0  4 37.9990000  0 10G03G04G08G14G16G22G26G27G31S22       0.000066826
  24074344.948 2   -402831.453 2   -301703.91847  24074345.08947
  22466804.120 6  -1381417.383 6  -1031387.00847  22466802.02247
  23514387.886 1  -1304364.516 1                
  21602548.276 6   -131029.188 6    -98391.27047  21602544.51147
  20357809.698 6   -763438.863 6   -570372.30548  20357805.93348
  24460303.089 4   -363167.539 4   -173715.51245  24460298.03445
  20804563.878 6   -445331.301 6   -336230.30949  20804564.98349
  21166857.542 6  -1424910.781 6  -1063119.30949  21166856.44849
  21462510.347 6   -582295.398 6   -438285.57449  21462507.20649
  36663534.855 6   -120663.344 6                
 20  5 16  0  4 38.9990000  0 10G03G04G08G14G16G22G26G27G31S22       0.000064642
  24073980.386 2   -404744.508 2   -303194.60247  24073981.13647
  22465632.050 6  -1387574.746 6  -1036184.95347  22465629.99547
  23513023.097 1  -1311533.332 1                
  21602435.886 6   -131619.223 6    -98851.03947  21602432.22247
  20357161.315 6   -766843.996 6   -573025.66048  20357157.80048
  24459965.058 4   -364938.836 4   -175095.75445  24459960.68745
  20804186.542 6   -447312.484 6   -337774.09449  20804187.74549
  21165652.308 6  -1431244.449 6  -1068054.63349  21165651.19449
  21462019.433 6   -584872.961 6   -440294.06649  21462016.53849
  36662865.308 6   -124174.676 6                
 20  5 16  0  4 39.9990000  0 10G03G04G08G14G16G22G26G27G31S22       0.000062456
  24073616.542 2   -406657.801 2   -304685.46547  24073616.63647
  22464459.901 6  -1393732.109 6  -1040982.89147  22464458.15947
  23511658.331 1  -1318702.492 1                
  21602323.933 6   -132209.207 6    -99310.77047  21602319.75347
  20356513.526 6   -770249.078 6   -575678.96948  20356510.48748
  24459629.128 4   -366710.438 4   -176476.23845  24459624.29645
  20803809.456 6   -449293.902 6   -339318.04749  20803811.01949
  21164446.698 6  -1437578.039 6  -1072989.89849  21164446.12449
  21461529.269 6   -587450.719 6   -442302.70749  21461526.12449
  36662198.839 6   -127686.688 6                
 20  5 16  0  4 40.9990000  0 10G03G04G08G14G16G22G26G27G31S22       0.000060268
  24073252.355 2   -408571.098 2   -306176.35247  24073252.88647
  22463288.909 6  -1399889.480 6  -1045780.84447  22463286.85147
  23510293.667 1  -1325871.840 1                
  21602211.472 6   -132799.195 6    -99770.49647  21602207.50747
  20355865.636 6   -773654.188 6   -578332.30148  20355862.60548
  24459291.948 4   -368482.441 4   -177857.00445  24459286.98745
  20803432.550 6   -451275.570 6   -340862.20349  20803433.46049
  21163241.550 6  -1443911.563 6  -1077925.11349  21163240.68749
  21461038.659 6   -590028.605 6   -444311.45749  21461034.95249
  36661527.651 6   -131198.621 6                
 20  5 16  0  4 41.9990000  0 10G03G04G08G14G16G22G26G27G31S22       0.000058052
  24072888.409 2   -410484.645 2   -307667.42647  24072888.51547
  22462116.448 6  -1406046.910 6  -1050578.84847  22462114.52647
  23508929.651 1  -1333041.531 1                
  21602099.214 6   -133389.219 6   -100230.25847  21602095.31247
  20355217.956 6   -777059.383 6   -580985.69948  20355214.43748
  24458954.972 4   -370254.922 4   -179238.15245  24458949.83545
  20803055.362 6   -453257.504 6   -342406.57049  20803056.28049
  21162036.331 6  -1450245.109 6  -1082860.34449  21162035.71849
  21460547.972 6   -592606.742 6   -446320.39849  21460544.45249
  36660856.948 6   -134711.332 6                
 20  5 16  0  4 42.9990000  0 10G03G04G08G14G16G22G26G27G31S22       0.000055864
  24072524.464 2   -412398.176 2   -309158.50047  24072524.48047
  22460945.050 6  -1412204.117 6  -1055376.66447  22460943.23347
  23507566.878 1  -1340211.238 1                
  21601987.128 6   -133979.035 6   -100689.85547  21601982.99947
  20354569.706 6   -780464.359 6   -583638.93848  20354566.12048
  24458616.995 3   -372027.551 3   -180619.41445  24458612.81245
  20802677.706 6   -455239.477 6   -343950.96549  20802679.36649
  21160830.886 6  -1456578.359 6  -1087795.34049  21160830.87049
  21460057.776 6   -595184.836 6   -448329.30549  21460054.29649
  36660191.214 6   -138223.746 6                
 20  5 16  0  4 43.9990000  0 10G03G04G08G14G16G22G26G27G31S22       0.000053675
  24072160.042 2   -414311.863 2   -310649.69147  24072160.61647
  22459773.487 6  -1418361.434 6  -1060174.57047  22459771.42947
  23506201.323 1  -1347381.328 1                
  21601875.175 6   -134568.879 6   -101149.47747  21601871.32347
  20353921.534 6   -783869.441 6   -586292.23848  20353918.48348
  24458280.112 4   -373800.664 4   -182001.08244  24458275.81244
  20802301.151 6   -457221.734 6   -345495.58249  20802302.27249
  21159626.105 6  -1462911.625 6  -1092730.35549  21159625.30849
  21459567.269 6   -597763.172 6   -450338.39849  21459563.88649
  36659523.261 6   -141736.645 6                
 20  5 16  0  4 44.9990000  0 10G03G04G08G14G16G22G26G27G31S22       0.000051487
  24071795.761 2   -416225.621 2   -312140.94147  24071796.36247
  22458601.690 6  -1424518.602 6  -1064972.37147  22458599.71047
  23504837.245 1  -1354551.449 1                
  21601762.644 6   -135158.605 6   -101609.00447  21601758.72247
  20353274.011 6   -787274.363 6   -588945.43048  20353270.47248
  24457943.206 3   -375573.984 3   -183382.93845  24457938.24145
  20801923.644 6   -459204.121 6   -347040.29749  20801924.72249
  21158420.855 6  -1469244.695 6  -1097665.21949  21158420.51949
  21459076.339 6   -600341.535 6   -452347.51649  21459072.90149
  36658851.839 6   -145249.824 6                
 20  5 16  0  4 45.9990000  0 10G03G04G08G14G16G22G26G27G31S22       0.000049324
  24071431.261 2   -418139.457 2   -313632.24647  24071432.37047
  22457429.683 6  -1430675.750 6  -1069770.14847  22457427.70247
  23503474.230 1  -1361721.910 1                
  21601650.394 6   -135748.281 6   -102068.49647  21601646.85147
  20352626.245 6   -790679.305 6   -591598.62948  20352622.27248
  24457605.597 3   -377347.664 3   -184765.02345  24457600.64445
  20801546.745 6   -461186.715 6   -348585.17649  20801547.49949
  21157215.745 6  -1475577.672 6  -1102600.00849  21157214.99949
  21458585.714 6   -602920.063 6   -454356.75449  21458582.12049
  36658184.073 6   -148763.199 6                
 20  5 16  0  4 46.9990000  0 10G03G04G08G14G16G22G26G27G31S22       0.000047138
  24071066.690 1   -420053.328 1   -315123.57447  24071068.23747
  22456258.034 6  -1436832.715 6  -1074567.77747  22456256.27247
  23502110.347 1  -1368892.328 1                
  21601537.761 6   -136337.777 6   -102527.84047  21601534.51147
  20351977.878 6   -794084.059 6   -594251.68448  20351974.33148
  24457267.901 3   -379121.508 3   -186147.23845  24457263.39045
  20801169.167 6   -463169.340 6   -350130.07849  20801170.43349
  21156010.636 6  -1481910.395 6  -1107534.59849  21156010.40549
  21458094.847 6   -605498.539 6   -456365.96149  21458091.40949
  36657513.917 6   -152276.977 6                
 20  5 16  0  4 47.9990000  0 10G03G04G08G14G16G22G26G27G31S22       0.000044952
  24070703.175 1   -421967.262 1   -316614.95347  24070703.95247
  22455086.394 6  -1442989.703 6  -1079365.42647  22455084.85847
  23500745.589 1  -1376063.043 1                
  21601426.065 6   -136927.238 6   -102987.15247  21601421.78047
  20351330.284 6   -797488.824 6   -596904.74648  20351326.15148
  24456930.667 3   -380895.840 3   -187529.80545  24456925.89745
  20800792.300 6   -465152.223 6   -351675.18449  20800793.25749
  21154805.698 6  -1488243.086 6  -1112469.16449  21154805.19049
  21457604.472 6   -608077.230 6   -458375.33249  21457600.87049
  36656848.761 6   -155790.969 6                
 20  5 16  0  4 48.9990000  0 10G03G04G08G14G16G22G26G27G31S22       0.000042765
  24070338.651 1   -423881.207 1   -318106.35547  24070339.76547
  22453914.769 6  -1449146.508 6  -1084162.94147  22453913.16347
  23499381.565 1  -1383233.883 1                
  21601313.980 6   -137516.563 6   -103446.36747  21601309.93747
  20350682.230 6   -800893.453 6   -599557.70748  20350678.72248
  24456592.995 3   -382670.324 3   -188912.53145  24456588.50745
  20800415.003 6   -467135.145 6   -353220.32049  20800415.58549
  21153600.534 6  -1494575.535 6  -1117403.54349  21153599.83949
  21457113.675 6   -610655.906 6   -460384.69149  21457109.78449
  36656177.980 6   -159305.379 6                
 20  5 16  0  4 49.9990000  0 10G03G04G08G14G16G22G26G27G31S22       0.000040577
  24069974.011 1   -425795.277 1   -319597.84047  24069975.62847
  22452743.315 6  -1455303.254 6  -1088960.40647  22452741.67147
  23498017.659 1  -1390404.848 1                
  21601201.487 6   -138105.773 6   -103905.48847  21601198.21447
  20350034.565 6   -804298.004 6   -602210.60548  20350030.68748
  24456256.073 3   -384445.148 3   -190295.52045  24456250.42545
  20800037.440 6   -469118.234 6   -354765.58649  20800038.42549
  21152395.612 6  -1500907.859 6  -1122337.81649  21152395.10149
  21456623.050 6   -613234.695 6   -462394.13749  21456619.62049
  36655510.573 6   -162819.934 6                
 20  5 16  0  4 50.9990000  0 10G03G04G08G14G16G22G26G27G31S22       0.000038382
  24069610.456 1   -427709.313 1   -321089.30147  24069611.87847
  22451571.706 6  -1461459.875 6  -1093757.78547  22451569.46447
  23496652.065 1  -1397575.914 1                
  21601089.315 6   -138694.848 6   -104364.51247  21601085.39747
  20349386.620 6   -807702.438 6   -604863.41048  20349382.96448
  24455916.831 3   -386220.184 3   -191678.67245  24455913.42145
  20799660.144 6   -471101.449 6   -356310.94549  20799660.77649
  21151191.144 6  -1507239.992 6  -1127271.94549  21151190.26149
  21456132.183 6   -615813.473 6   -464403.57849  21456128.42149
  36654839.667 6   -166334.898 6                
 20  5 16  0  4 51.9990000  0 10G03G04G08G14G16G22G26G27G31S22       0.000036194
  24069246.206 1   -429623.406 1   -322580.81647  24069247.27247
  22450399.495 6  -1467616.387 6  -1098555.06347  22450398.46447
  23495286.862 1  -1404747.184 1                
  21600977.667 6   -139283.781 6   -104823.41047  21600973.81947
  20348738.573 6   -811106.773 6   -607516.13748  20348734.67148
  24455578.417 3   -387995.543 3   -193062.07445  24455575.09745
  20799282.722 6   -473084.758 6   -357856.38349  20799283.59349
  21149985.894 6  -1513571.914 6  -1132205.91449  21149985.32349
  21455641.573 6   -618392.328 6   -466413.07449  21455637.46849
  36654171.448 6   -169850.199 6                
 20  5 16  0  4 52.9990000  0 10G03G04G08G14G16G22G26G27G31S22       0.000034006
  24068882.011 1   -431537.520 1   -324072.33647  24068883.12847
  22449229.034 6  -1473772.809 6  -1103352.28147  22449226.76547
  23493921.800 1  -1411918.629 1                
  21600865.058 6   -139872.641 6   -105282.26247  21600861.41747
  20348090.800 6   -814511.043 6   -610168.81648  20348087.25348
  24455241.230 3   -389771.176 3   -194445.66445  24455237.51545
  20798905.183 6   -475068.223 6   -359401.94149  20798905.91749
  21148781.003 6  -1519903.734 6  -1137139.79349  21148780.60849
  21455151.065 6   -620971.289 6   -468422.66049  21455147.44049
  36653499.370 6   -173365.688 6                
 20  5 16  0  4 53.9990000  0 10G03G04G08G14G16G22G26G27G31S22       0.000031818
  24068517.472 1   -433451.883 1   -325564.03947  24068519.32347
  22448057.183 6  -1479929.227 6  -1108149.48447  22448055.27647
  23492556.362 1  -1419090.250 1                
  21600753.425 6   -140461.469 6   -105741.09047  21600749.78447
  20347443.550 6   -817915.309 6   -612821.48448  20347439.57348
  24454902.784 3   -391547.188 3   -195829.53545  24454900.19845
  20798527.464 6   -477051.918 6   -360947.68449  20798528.42949
  21147576.050 6  -1526235.457 6  -1142073.60949  21147575.63649
  21454660.042 6   -623550.383 6   -470432.33649  21454655.85849
  36652833.323 6   -176881.918 6                
 20  5 16  0  4 54.9990000  0 10G03G04G08G14G16G22G26G27G31S22       0.000029629
  24068152.839 1   -435366.215 1   -327055.73447  24068154.88647
  22446885.636 6  -1486085.570 6  -1112946.63347  22446883.85847
  23491192.331 1  -1426262.133 1                
  21600641.823 6   -141050.191 6   -106199.84047  21600637.73047
  20346794.917 6   -821319.512 6   -615474.10948  20346791.46048
  24454564.565 3   -393323.512 3   -197213.69145  24454562.22245
  20798149.800 6   -479035.766 6   -362493.53949  20798151.05449
  21146371.269 6  -1532567.043 6  -1147007.30949  21146370.65949
  21454169.073 6   -626129.582 6   -472442.10249  21454165.31949
  36652164.964 6   -180398.285 6                
 20  5 16  0  4 55.9990000  0 10G03G04G08G14G16G22G26G27G31S22       0.000027464
  24067788.870 1   -437280.750 1   -328547.57847  24067790.67547
  22445713.855 6  -1492241.922 6  -1117743.78547  22445712.29247
  23489827.308 1  -1433434.148 1                
  21600529.300 6   -141638.898 6   -106658.57047  21600525.65947
  20346147.276 6   -824723.715 6   -618126.73048  20346143.61248
  24454226.409 3   -395100.176 3   -198598.13345  24454224.15945
  20797772.542 6   -481019.840 6   -364039.57049  20797773.23749
  21145166.464 6  -1538898.563 6  -1151940.96549  21145165.96449
  21453678.222 6   -628708.961 6   -474452.01249  21453674.56949
  36651494.573 6   -183914.969 6                
 20  5 16  0  4 56.9990000  0 10G03G04G08G14G16G22G26G27G31S22       0.000025276
  24067424.644 1   -439195.211 1   -330039.37547  24067426.21447
  22444542.706 6  -1498398.066 6  -1122540.78147  22444540.79247
  23488462.222 1  -1440606.352 1                
  21600417.425 6   -142227.395 6   -107117.14547  21600413.83147
  20345499.550 6   -828127.746 6   -620779.23048  20345496.56548
  24453888.019 3   -396877.094 3   -199982.72345  24453886.20245
  20797395.042 6   -483003.984 6   -365585.65249  20797395.90149
  21143961.448 6  -1545229.824 6  -1156874.41449  21143961.25349
  21453187.855 6   -631288.309 6   -476461.89549  21453183.75749
  36650827.370 6   -187432.145 6                
 20  5 16  0  4 57.9990000  0 10G03G04G08G14G16G22G26G27G31S22       0.000023087
  24067059.628 1   -441109.766 1   -331531.24247  24067061.73347
  22443370.769 6  -1504554.203 6  -1127337.77347  22443369.29247
  23487097.909 1  -1447778.668 1                
  21600305.323 6   -142815.844 6   -107575.68047  21600301.36247
  20344851.784 6   -831531.730 6   -623431.68448  20344848.69048
  24453549.300 3   -398654.309 3   -201367.55545  24453548.17945
  20797017.542 6   -484988.301 6   -367131.87149  20797018.05049
  21142756.675 6  -1551560.992 6  -1161807.79749  21142756.58549
  21452696.800 6   -633867.773 6   -478471.86749  21452692.99549
  36650159.058 6   -190949.141 6                
 20  5 16  0  4 58.9990000  0 10G03G04G08G14G16G22G26G27G31S22       0.000020897
  24066695.573 1   -443024.488 1   -333023.23447  24066697.68747
  22442199.448 6  -1510710.238 6  -1132134.69147  22442198.20247
  23485733.855 1  -1454951.273 1                
  21600193.909 6   -143404.234 6   -108034.16847  21600189.65947
  20344204.089 6   -834935.672 6   -626084.11348  20344201.12848
  24453210.542 3   -400431.879 3   -202752.69545  24453209.94845
  20796639.761 6   -486972.777 6   -368678.21949  20796640.59349
  21141552.011 6  -1557892.023 6  -1166741.05949  21141551.60149
  21452205.980 6   -636447.340 6   -480481.92249  21452202.10549
  36649486.261 6   -194466.703 6                
 20  5 16  0  4 59.9990000  0 10G03G04G08G14G16G22G26G27G31S22       0.000018709
  24066331.050 1   -444939.270 1   -334515.26247  24066332.92147
  22441028.339 6  -1516866.242 6  -1136931.57847  22441026.52247
  23484371.230 1  -1462124.004 1                
  21600081.542 6   -143992.535 6   -108492.58647  21600077.99147
  20343555.745 6   -838339.551 6   -628736.49248  20343553.38248
  24452871.597 2   -402209.762 2   -204138.08645  24452871.34345
  20796262.237 6   -488957.457 6   -370224.72749  20796262.87449
  21140347.261 6  -1564222.945 6  -1171674.24649  21140346.85849
  21451715.355 6   -639027.055 6   -482492.09449  21451711.06249
  36648818.839 6   -197984.227 6                
 20  5 16  0  5  0.9990000  0 10G03G04G08G14G16G22G26G27G31S22       0.000016523
  24065967.644 1   -446854.254 1   -336007.45747  24065968.91747
  22439856.878 6  -1523022.332 6  -1141728.53147  22439855.41347
  23483005.136 1  -1469297.047 1                
  21599969.425 6   -144580.949 6   -108951.08647  21599965.84747
  20342908.519 6   -841743.555 6   -631388.96148  20342905.16348
  24452533.425 2   -403988.137 2   -205523.84445  24452533.11245
  20795884.159 6   -490942.441 6   -371771.46549  20795884.93349
  21139142.339 6  -1570553.902 6  -1176607.45749  21139142.46849
  21451224.081 6   -641606.996 6   -484502.43449  21451219.99949
  36648148.370 6   -201502.574 6                
 20  5 16  0  5  1.9990000  0 10G03G04G08G14G16G22G26G27G31S22       0.000014336
  24065602.980 1   -448769.234 1   -337499.65247  24065604.65547
  22438685.362 6  -1529178.254 6  -1146525.35247  22438683.67147
  23481639.480 1  -1476470.188 1                
  21599857.355 6   -145169.133 6   -109409.41047  21599854.28447
  20342260.589 6   -845147.367 6   -634041.27748  20342257.51948
  24452194.487 2   -405766.699 2   -206909.72345  24452194.52245
  20795506.667 6   -492927.473 6   -373318.24249  20795507.56249
  21137938.065 6  -1576884.574 6  -1181540.44949  21137937.46449
  21450732.925 6   -644186.945 6   -486512.78949  21450729.16349
  36647478.808 6   -205020.852 6                
 20  5 16  0  5  2.9990000  0 10G03G04G08G14G16G22G26G27G31S22       0.000012146
  24065238.862 2   -450684.254 2   -338991.86747  24065240.05847
  22437513.925 6  -1535334.074 6  -1151322.09447  22437512.33947
  23480274.323 1  -1483643.484 1                
  21599745.511 6   -145757.258 6   -109867.69547  21599742.17947
  20341612.909 6   -848551.102 6   -636693.53948  20341609.93748
  24451857.128 2   -407545.531 2   -208295.79345  24451856.49945
  20795128.753 6   -494912.652 6   -374865.13349  20795129.61649
  21136733.065 6  -1583215.109 6  -1186473.33249  21136733.12049
  21450242.347 6   -646766.914 6   -488523.14849  21450238.33549
  36646810.417 6   -208539.523 6                
 20  5 16  0  5  3.9990000  0 10G03G04G08G14G16G22G26G27G31S22       0.000009954
  24064874.667 2   -452599.332 2   -340484.13347  24064876.44847
  22436342.620 6  -1541489.797 6  -1156118.76647  22436341.00347
  23478910.589 1  -1490816.910 1                
  21599633.933 6   -146345.215 6   -110325.84447  21599629.96047
  20340965.339 6   -851954.758 6   -639345.73848  20340962.07748
  24451518.081 2   -409324.664 2   -209682.14145  24451517.11645
  20794751.292 6   -496897.957 6   -376412.12949  20794751.72249
  21135528.667 6  -1589545.480 6  -1191406.09049  21135528.44849
  21449751.386 6   -649347.012 6   -490533.61749  21449746.83949
  36646142.183 6   -212058.750 6                
 20  5 16  0  5  4.9990000  0 10G03G04G08G14G16G22G26G27G31S22       0.000007765
  24064509.815 2   -454514.422 2   -341976.41047  24064511.68747
  22435171.105 6  -1547645.414 6  -1160915.34847  22435169.58147
  23477545.526 1  -1497990.504 1                
  21599521.925 6   -146933.098 6   -110783.93447  21599518.38247
  20340317.401 6   -855358.289 6   -641997.84048  20340314.80048
  24451179.394 2   -411104.066 2   -211068.68445  24451179.20245
  20794373.394 6   -498883.391 6   -377959.22349  20794373.94449
  21134324.011 6  -1595875.656 6  -1196338.69549  21134323.56549
  21449260.542 6   -651927.141 6   -492544.10949  21449256.43349
  36645470.573 6   -215577.797 6                
 20  5 16  0  5  5.9990000  0 10G03G04G08G14G16G22G26G27G31S22       0.000005575
  24064145.448 2   -456429.676 2   -343468.80547  24064146.75747
  22434000.065 6  -1553800.926 6  -1165711.85247  22433998.12047
  23476178.128 1  -1505164.293 1                
  21599409.706 6   -147520.883 6   -111241.95347  21599406.15147
  20339669.886 6   -858761.777 6   -644649.90648  20339666.82748
  24450840.565 2   -412883.793 2   -212455.52745  24450840.44845
  20793996.019 6   -500869.000 6   -379506.45349  20793996.56549
  21133119.276 6  -1602205.719 6  -1201271.21949  21133119.12049
  21448769.386 6   -654507.363 6   -494554.67249  21448765.23749
  36644797.964 6   -219097.703 6                
 20  5 16  0  5  6.9990000  0 10G03G04G08G14G16G22G26G27G31S22       0.000003384
  24063780.355 2   -458344.930 2   -344961.21147  24063782.45647
  22432828.253 6  -1559956.398 6  -1170508.32847  22432826.96847
  23474812.964 1  -1512338.172 1                
  21599298.542 6   -148108.570 6   -111699.89547  21599294.77647
  20339022.120 6   -862165.211 6   -647301.93448  20339019.00348
  24450502.503 1   -414663.793 1   -213842.53545  24450501.81545
  20793617.722 6   -502854.754 6   -381053.79349  20793618.21449
  21131915.011 6  -1608535.625 6  -1206203.60949  21131914.57349
  21448277.909 6   -657087.691 6   -496565.31649  21448273.89049
  36644124.995 6   -222617.563 6                
 20  5 16  0  5  7.9990000  0 10G03G04G08G14G16G22G26G27G31S22       0.000001194
  24063416.550 2   -460260.453 2   -346453.81647  24063418.06947
  22431656.933 6  -1566111.992 6  -1175304.89147  22431655.34347
  23473448.042 1  -1519512.461 1                
  21599186.190 6   -148696.355 6   -112157.90247  21599182.74547
  20338374.565 6   -865568.766 6   -649954.05148  20338371.67948
  24450162.956 1   -416444.359 1                
  20793239.331 6   -504840.855 6   -382601.39849  20793240.24949
  21130710.456 6  -1614865.602 6  -1211136.05949  21130710.07749
  21447786.878 6   -659668.305 6   -498576.18849  21447782.96049
  36643462.386 6   -226138.500 6                
 20  5 16  0  5  8.9990000  0 10G03G04G08G14G16G22G26G27G31S22      -0.000000998
  24063052.659 2   -462176.027 2   -347946.47747  24063053.33547
  22430485.745 6  -1572267.465 6  -1180101.36347  22430483.98747
  23472082.980 1  -1526686.902 1                
  21599074.683 6   -149284.031 6   -112615.83647  21599070.96047
  20337727.269 6   -868972.215 6   -652606.09448  20337723.71448
  24449823.542 1   -418225.121 1                
  20792861.667 6   -506827.086 6   -384149.11749  20792862.37049
  21129505.651 6  -1621195.402 6  -1216068.37549  21129505.52649
  21447295.894 6   -662248.969 6   -500587.09449  21447292.28449
  36642790.808 6   -229659.570 6                
 20  5 16  0  5  9.9990000  0 10G03G04G08G14G16G22G26G27G31S22      -0.000003189
  24062687.128 2   -464091.590 2   -349439.12147  24062689.08947
  22429314.597 6  -1578422.742 6  -1184897.68447  22429312.67147
  23470719.308 1  -1533861.406 1                
  21598963.323 6   -149871.488 6   -113073.59847  21598959.31247
  20337079.230 6   -872375.461 6   -655257.97348  20337076.68748
  24449485.230 1   -420006.207 1                
  20792483.675 6   -508813.352 6   -385696.85549  20792484.22249
  21128301.183 6  -1627524.926 6  -1221000.46549  21128301.34349
  21446804.628 6   -664829.609 6   -502597.98449  21446800.69049
  36642121.183 6   -233180.996 6                
 20  5 16  0  5 10.9990000  0 10G03G04G08G14G16G22G26G27G31S22      -0.000005381
  24062322.769 2   -466007.137 2   -350931.74247  24062324.34747
  22428143.120 6  -1584577.891 6  -1189693.89847  22428141.88247
  23469352.792 1  -1541035.984 1                
  21598851.284 6   -150458.820 6   -113531.26247  21598847.30047
  20336431.847 6   -875778.613 6   -657909.77748  20336428.71448
  24449147.042 1   -421787.414 1                
  20792105.800 6   -510799.730 6   -387244.68849  20792106.60849
  21127096.769 6  -1633854.258 6  -1225932.41049  21127096.76549
  21446314.073 6   -667410.297 6   -504608.91049  21446309.94049
  36641449.292 6   -236702.727 6                
 20  5 16  0  5 11.9990000  0 10G03G04G08G14G16G22G26G27G31S22      -0.000007572
  24061958.089 2   -467922.793 2   -352424.46947  24061959.51147
  22426971.620 6  -1590733.008 6  -1194490.09047  22426970.52647
  23467987.394 1  -1548210.844 1                
  21598739.628 6   -151046.109 6   -113988.90247  21598735.65147
  20335784.003 6   -879181.727 6   -660561.55148  20335780.74148
  24448807.480 1   -423569.020 1                
  20791727.612 6   -512786.281 6   -388792.64849  20791728.52649
  21125892.487 6  -1640183.488 6  -1230864.27749  21125892.00749
  21445822.190 6   -669991.090 6   -506619.91849  21445818.68749
  36640780.308 6   -240224.551 6                
 20  5 16  0  5 12.9990000  0 10G03G04G08G14G16G22G26G27G31S22      -0.000009764
  24061594.401 2   -469838.566 2   -353917.27347  24061595.35547
  22425800.964 6  -1596888.059 6  -1199286.23847  22425799.27247
  23466621.620 1  -1555385.867 1                
  21598627.370 6   -151633.328 6   -114446.47747  21598624.07747
  20335136.940 6   -882584.797 6   -663213.29748  20335133.44048
  24448467.589 1   -425350.945 1                
  20791349.612 6   -514773.031 6   -390340.77049  20791349.74549
  21124688.417 6  -1646512.605 6  -1235796.05949  21124687.72249
  21445330.659 6   -672572.004 6   -508631.01249  21445327.70649
  36640109.917 6   -243746.988 6                
 20  5 16  0  5 13.9990000  0 10G03G04G08G14G16G22G26G27G31S22      -0.000011955
  24061230.089 2   -471754.363 2   -355410.10947  24061231.22247
  22424629.519 6  -1603043.012 6  -1204082.30947  22424627.67147
  23465256.269 1  -1562561.016 1                
  21598515.526 6   -152220.441 6   -114903.96547  21598512.66347
  20334488.706 6   -885987.797 6   -665864.99248  20334486.10848
  24448128.745 1   -427133.094 1                
  20790971.776 6   -516759.918 6   -391888.98849  20790972.14749
  21123483.675 6  -1652841.555 6  -1240727.70749  21123483.41749
  21444839.730 6   -675153.012 6   -510642.19149  21444836.15149
  36639438.480 6   -247269.219 6                
 20  5 16  0  5 14.9990000  0 10G03G04G08G14G16G22G26G27G31S22      -0.000014147
  24060864.433 2   -473670.320 2   -356903.06347  24060866.61647
  22423458.550 6  -1609197.977 6  -1208878.39147  22423456.50347
  23463892.050 1  -1569736.461 1                
  21598404.237 6   -152807.535 6   -115361.43847  21598400.83547
  20333841.300 6   -889390.785 6   -668516.66848  20333838.60148
  24447789.722 1   -428915.770 1                
  20790593.206 6   -518747.031 6   -393437.39149  20790593.92949
  21122279.589 6  -1659170.441 6  -1245659.31349  21122279.33949
  21444348.808 6   -677734.156 6   -512653.46949  21444345.05449
  36638762.995 6   -250792.207 6                
 20  5 16  0  5 15.9990000  0 10G03G04G08G14G16G22G26G27G31S22      -0.000016340
  24060500.081 3   -475586.324 3   -358396.04347  24060501.76547
  22422287.159 6  -1615352.797 6  -1213674.34047  22422285.28847
  23462524.745 1  -1576911.996 1                
  21598292.558 6   -153394.496 6   -115818.80947  21598289.26547
  20333193.972 6   -892793.660 6   -671168.25848  20333190.92948
  24447450.487 1   -430698.551 1                
  20790215.300 6   -520734.262 6   -394985.88349  20790215.94449
  21121075.120 6  -1665499.141 6  -1250590.76649  21121074.91749
  21443857.597 6   -680315.352 6   -514664.79349  21443854.19849
  36638101.886 6   -254314.969 6                
 20  5 16  0  5 16.9990000  0 10G03G04G08G14G16G22G26G27G31S22      -0.000018532
  24060135.425 2   -477502.363 2   -359889.07047  24060137.27647
  22421115.433 6  -1621507.520 6  -1218470.23447  22421114.22647
  23461159.487 1  -1584087.695 1                
  21598181.097 6   -153981.309 6   -116276.07447  21598177.26947
  20332546.222 6   -896196.449 6   -673819.77748  20332543.39048
  24447111.605 1   -432481.688 1                
  20789836.589 6   -522721.594 6   -396534.45749  20789837.65549
  21119870.808 6  -1671827.621 6  -1255522.05149  21119870.32349
  21443366.542 6   -682896.594 6   -516676.15249  21443363.03449
  36637424.730 6   -257838.480 6                
 20  5 16  0  5 17.9990000  0 10G03G04G08G14G16G22G26G27G31S22      -0.000020725
  24059771.386 3   -479418.336 3   -361382.03947  24059772.94447
  22419944.315 6  -1627662.055 6  -1223265.97747  22419942.93747
  23459793.245 1  -1591263.402 1                
  21598069.440 6   -154567.965 6   -116733.20747  21598066.12047
  20331898.714 6   -899599.063 6   -676471.16848  20331895.47248
  24446771.651 1   -434265.051 1                
  20789459.175 6   -524709.000 6   -398083.08649  20789459.54649
  21118666.698 6  -1678155.887 6  -1260453.16849  21118666.35849
  21442875.151 6   -685477.824 6   -518687.50049  21442871.93349
  36636754.230 6   -261361.773 6                
 20  5 16  0  5 18.9990000  0 10G03G04G08G14G16G22G26G27G31S22      -0.000022917
  24059406.144 2   -481334.348 2   -362875.03947  24059408.39447
  22418773.636 6  -1633816.496 6  -1228061.64147  22418771.78447
  23458427.690 1  -1598439.281 1                
  21597957.644 6   -155154.500 6   -117190.25047  21597954.18347
  20331251.284 6   -903001.574 6   -679122.47348  20331248.53048
  24446432.245 1   -436048.668 1                
  20789080.409 6   -526696.512 6   -399631.79349  20789080.72649
  21117462.276 6  -1684483.992 6  -1265384.16049  21117462.32749
  21442384.089 6   -688059.148 6   -520698.91849  21442380.48749
  36636087.308 6   -264885.332 6                
 20  5 16  0  5 19.9990000  0 10G03G04G08G14G16G22G26G27G31S22      -0.000025110
  24059040.933 3   -483250.602 3   -364368.22747  24059043.73047
  22417602.128 6  -1639970.957 6  -1232857.32047  22417600.78847
  23457062.175 1  -1605615.434 1                
  21597846.245 6   -155741.078 6   -117647.32447  21597842.58547
  20330603.628 6   -906404.145 6   -681773.82848  20330600.48348
  24446094.198 1   -437832.715 1                
  20788702.433 6   -528684.348 6   -401180.76249  20788702.69449
  21116258.167 6  -1690812.043 6  -1270315.10249  21116258.02649
  21441892.980 6   -690640.656 6   -522710.48449  21441889.27649
  36635417.558 6   -268409.555 6                
 20  5 16  0  5 20.9990000  0 10G03G04G08G14G16G22G26G27G31S22      -0.000027304
  24058676.183 3   -485166.930 3   -365861.45747  24058679.19847
  22416431.394 6  -1646125.371 6  -1237652.97347  22416429.49947
  23455695.690 1  -1612791.781 1                
  21597734.495 6   -156327.566 6   -118104.32847  21597731.17947
  20329956.183 6   -909806.668 6   -684425.14848  20329953.30448
  24445754.409 1   -439617.105 1                
  20788323.917 6   -530672.324 6   -402729.82849  20788324.44849
  21115054.206 6  -1697139.980 6  -1275245.96949  21115053.90149
  21441401.776 6   -693222.277 6   -524722.13749  21441398.33549
  36634745.198 6   -271933.801 6                
 20  5 16  0  5 21.9990000  0 10G03G04G08G14G16G22G26G27G31S22      -0.000029497
  24058311.370 3   -487083.316 3   -367354.74647  24058314.53847
  22415260.136 6  -1652279.684 6  -1242448.54747  22415258.46847
  23454331.800 1  -1619968.371 1                
  21597622.917 6   -156913.973 6   -118561.27347  21597619.60547
  20329308.800 6   -913209.113 6   -687076.40248  20329305.45648
  24445415.136 1   -441401.758 1                
  20787945.605 6   -532660.430 6   -404279.00849  20787946.26949
  21113850.058 6  -1703467.758 6  -1280176.70349  21113849.63249
  21440909.956 6   -695803.941 6   -526733.82449  21440906.76149
  36634075.183 6   -275458.676 6                
 20  5 16  0  5 22.9990000  0 10G03G04G08G14G16G22G26G27G31S22      -0.000031691
  24057946.972 3   -488999.672 3   -368848.00447  24057949.66347
  22414089.331 6  -1658433.801 6  -1247243.95747  22414087.41747
  23452966.581 1  -1627144.852 1                
  21597511.433 6   -157500.152 6   -119018.04347  21597508.10547
  20328661.589 6   -916611.363 6   -689727.50848  20328658.65548
  24445075.081 1   -443186.586 1                
  20787567.073 6   -534648.590 6   -405828.22349  20787567.84749
  21112645.909 6  -1709795.285 6  -1285107.24649  21112645.74949
  21440419.058 6   -698385.613 6   -528745.51249  21440415.40549
  36633408.089 6   -278983.000 6                
 20  5 16  0  5 23.9990000  0 10G03G04G08G14G16G22G26G27G31S22      -0.000033884
  24057582.855 3   -490916.094 3   -370341.32047  24057585.32347
  22412917.823 6  -1664587.844 6  -1252039.32447  22412916.46847
  23451601.761 1  -1634321.551 1                
  21597399.706 6   -158086.238 6   -119474.74247  21597396.69447
  20328014.315 6   -920013.547 6   -692378.55948  20328010.85848
  24444734.644 1   -444971.742 1                
  20787188.644 6   -536636.902 6   -407377.55949  20787189.67149
  21111441.581 6  -1716122.648 6  -1290037.66049  21111441.62049
  21439927.526 6   -700967.352 6   -530757.25849  21439924.35549
  36632733.995 6   -282508.000 6                
 20  5 16  0  5 24.9990000  0 10G03G04G08G14G16G22G26G27G31S22      -0.000036079
  24057217.886 3   -492832.633 3   -371834.73047  24057220.49547
  22411746.589 6  -1670741.848 6  -1256834.64847  22411745.25347
  23450235.128 1  -1641498.477 1                
  21597287.925 6   -158672.309 6   -119931.42647  21597285.14447
  20327366.698 6   -923415.707 6   -695029.59848  20327363.35548
  24444395.651 1   -446757.293 1                
  20786810.339 6   -538625.422 6   -408927.05949  20786810.93749
  21110237.448 6  -1722449.930 6  -1294968.01249  21110237.64449
  21439436.605 6   -703549.258 6   -532769.13749  21439433.28849
  36632061.667 6   -286032.754 6                
 20  5 16  0  5 25.9990000  0 10G03G04G08G14G16G22G26G27G31S22      -0.000038273
  24056853.573 3   -494749.164 3   -373328.13747  24056856.10547
  22410575.448 6  -1676895.711 6  -1261629.86347  22410574.16347
  23448868.503 1  -1648675.566 1                
  21597176.612 6   -159258.203 6   -120387.96147  21597173.44447
  20326719.222 6   -926817.738 6   -697680.53948  20326716.06248
  24444056.409 1   -448543.039 1                
  20786431.909 6   -540614.020 6   -410476.62149  20786432.36649
  21109033.683 6  -1728776.980 6  -1299898.18849  21109033.62849
  21438944.831 6   -706131.152 6   -534781.00049  21438941.88249
  36631392.948 6   -289558.344 6                
 20  5 16  0  5 26.9990000  0 10G03G04G08G14G16G22G26G27G31S22      -0.000040468
  24056488.487 3   -496665.766 3   -374821.59047  24056491.15947
  22409404.886 6  -1683049.477 6  -1266424.99247  22409402.96447
  23447502.425 1  -1655852.809 1                
  21597064.972 6   -159844.023 6   -120844.43847  21597062.17547
  20326072.214 6   -930219.691 6   -700331.41048  20326068.33548
  24443716.659 1   -450329.094 1                
  20786053.519 6   -542602.777 6   -412026.30149  20786053.96049
  21107829.776 6  -1735103.895 6  -1304828.24649  21107829.49149
  21438453.597 6   -708713.141 6   -536792.94149  21438450.74549
  36630719.573 6   -293083.848 6                
 20  5 16  0  5 27.9990000  0 10G03G04G08G14G16G22G26G27G31S22      -0.000042662
  24056123.269 3   -498582.473 3   -376315.12547  24056126.39047
  22408233.565 6  -1689203.176 6  -1271220.09447  22408232.14447
  23446136.550 1  -1663030.137 1                
  21596953.792 6   -160429.762 6   -121300.86347  21596951.08947
  20325424.425 6   -933621.574 6   -702982.23848  20325421.40148
  24443377.355 1   -452115.449 1                
  20785675.105 6   -544591.688 6   -413576.10549  20785675.59749
  21106625.831 6  -1741430.664 6  -1309758.19149  21106625.72649
  21437962.105 6   -711295.195 6   -538804.93449  21437959.01149
  36630051.214 6   -296610.188 6                
 20  5 16  0  5 28.9990000  0 10G03G04G08G14G16G22G26G27G31S22      -0.000044857
  24055758.972 4   -500499.223 4   -377808.70347  24055761.55847
  22407062.886 6  -1695356.793 6  -1276015.12147  22407061.40147
  23444769.378 1  -1670207.691 1                
  21596842.105 6   -161015.414 6   -121757.22347  21596839.13647
  20324777.136 6   -937023.402 6   -705633.01648  20324773.99548
  24443037.401 1   -453902.156 1                
  20785296.839 6   -546580.762 6   -415126.03549  20785296.81549
  21105422.050 6  -1747757.281 6  -1314688.02749  21105421.56549
  21437471.034 6   -713877.363 6   -540817.01249  21437468.08549
  36629379.901 6   -300137.125 6                
 20  5 16  0  5 29.9990000  0 10G03G04G08G14G16G22G26G27G31S22      -0.000047052
  24055394.761 4   -502416.070 4   -379302.34847  24055396.89047
  22405891.448 6  -1701510.328 6  -1280810.09047  22405890.02647
  23443404.198 1  -1677385.406 1                
  21596731.050 6   -161600.965 6   -122213.50447  21596727.60547
  20324129.472 6   -940425.180 6   -708283.74648  20324126.46448
  24442697.909 1   -455689.191 1                
  20784918.628 6   -548569.996 6   -416676.08649  20784918.54249
  21104217.815 6  -1754083.750 6  -1319617.74249  21104217.48349
  21436979.565 6   -716459.641 6   -542829.17649  21436976.66749
  36628711.308 6   -303664.043 6                
 20  5 16  0  5 30.9990000  0 10G03G04G08G14G16G22G26G27G31S22      -0.000049246
  24055030.198 4   -504332.855 4   -380795.94147  24055031.89447
  22404720.964 6  -1707663.680 6  -1285604.90647  22404719.46047
  23442038.019 1  -1684563.137 1                
  21596619.784 6   -162186.316 6   -122669.62547  21596616.81247
  20323482.730 6   -943826.762 6   -710934.33248  20323479.25348
  24442357.128 2   -457476.402 2                
  20784540.011 6   -550559.273 6   -418226.17249  20784539.96049
  21103014.058 6  -1760409.953 6  -1324547.25449  21103013.98749
  21436488.230 6   -719041.863 6   -544841.30549  21436485.35849
  36628038.855 6   -307191.633 6                
 20  5 16  0  5 31.9990000  0 10G03G04G08G14G16G22G26G27G31S22      -0.000051441
  24054665.331 4   -506249.719 4   -382289.60547  24054666.90547
  22403550.167 6  -1713816.953 6  -1290399.66447  22403548.38647
  23440671.831 1  -1691741.086 1                
  21596508.362 6   -162771.598 6   -123125.69947  21596505.48347
  20322835.081 6   -947228.297 6   -713584.88348  20322831.80448
  24442016.472 1   -459263.887 1                
  20784161.167 6   -552548.711 6   -419776.39549  20784161.14749
  21101810.339 6  -1766736.055 6  -1329476.69149  21101810.20249
  21435996.503 6   -721624.184 6   -546853.50849  21435994.04649
  36627367.886 6   -310718.855 6                
 20  5 16  0  5 32.9990000  0 10G03G04G08G14G16G22G26G27G31S22      -0.000053637
  24054300.831 4   -508166.637 4   -383783.29747  24054302.09347
  22402378.972 6  -1719970.129 6  -1295194.34047  22402377.25347
  23439307.862 1  -1698919.211 1                
  21596396.870 6   -163356.762 6   -123581.66847  21596393.60847
  20322187.636 6   -950629.746 6   -716235.36748  20322185.12448
  24441677.417 1   -461051.684 1                
  20783783.089 6   -554538.289 6   -421326.71149  20783782.93749
  21100606.245 6  -1773061.949 6  -1334405.96149  21100606.49149
  21435505.167 6   -724206.570 6   -548865.75849  21435502.38249
  36626694.136 6   -314247.230 6                
 20  5 16  0  5 33.9990000  0 10G03G04G08G14G16G22G26G27G31S22      -0.000055834
  24053935.526 4   -510083.613 4   -385277.04747  24053937.27647
  22401207.964 6  -1726123.219 6  -1299988.95347  22401206.66747
  23437943.284 1  -1706097.457 1                
  21596285.753 6   -163941.844 6   -124037.57847  21596282.27247
  20321541.011 6   -954031.102 6   -718885.77348  20321537.62448
  24441337.230 2   -462839.781 2                
  20783404.480 6   -556527.980 6   -422877.12549  20783403.96849
  21099402.792 6  -1779387.688 6  -1339335.10949  21099402.61249
  21435013.925 6   -726789.055 6   -550878.07849  21435010.93749
  36626025.745 6   -317775.355 6                
 20  5 16  0  5 34.9990000  0 10G03G04G08G14G16G22G26G27G31S22      -0.000058029
  24053570.878 4   -512000.801 4   -386770.95747  24053572.45647
  22400037.253 6  -1732276.289 6  -1304783.55947  22400035.22647
  23436576.440 1  -1713275.965 1                
  21596174.370 6   -164526.910 6   -124493.46547  21596171.55047
  20320892.925 6   -957432.480 6   -721536.19948  20320889.95648
  24440996.065 2   -464628.234 2                
  20783025.355 6   -558517.941 6   -424427.74249  20783025.36249
  21098199.222 6  -1785713.375 6  -1344264.21549  21098198.99549
  21434522.409 6   -729371.680 6   -552890.52049  21434519.19049
  36625356.745 6   -321304.180 6                
 20  5 16  0  5 35.9990000  0 10G03G04G08G14G16G22G26G27G31S22      -0.000060225
  24053206.011 4   -513917.934 4   -388264.83647  24053207.76147
  22398866.183 6  -1738429.223 6  -1309578.05547  22398864.88247
  23435209.425 1  -1720454.563 1                
  21596062.644 6   -165111.813 6   -124949.23447  21596059.90147
  20320246.565 6   -960833.734 6   -724186.52748  20320243.31248
  24440656.605 1   -466416.969 1                
  20782646.894 6   -560507.965 6   -425978.41049  20782646.62849
  21096995.745 6  -1792038.848 6  -1349193.15649  21096995.27649
  21434031.050 6   -731954.344 6   -554902.98449  21434028.18749
  36624683.073 6   -324833.254 6                
 20  5 16  0  5 36.9990000  0 10G03G04G08G14G16G22G26G27G31S22      -0.000062422
  24052841.245 4   -515834.961 4   -389758.62947  24052842.99947
  22397695.651 6  -1744581.848 6  -1314372.30147  22397693.81247
  23433843.394 1  -1727633.109 1                
  21595951.847 6   -165696.430 6   -125404.78947  21595949.03047
  20319598.730 6   -964234.695 6   -726836.62948  20319595.70648
  24440316.565 2   -468205.781 2                
  20782268.167 6   -562497.965 6   -427529.06349  20782268.23349
  21095792.034 6  -1798363.938 6  -1354121.79749  21095791.62049
  21433539.675 6   -734536.867 6   -556915.34449  21433537.03449
  36624009.526 6   -328362.074 6                
 20  5 16  0  5 37.9990000  0 10G03G04G08G14G16G22G26G27G31S22      -0.000064617
  24052476.198 4   -517752.102 4   -391252.50847  24052477.99147
  22396524.401 6  -1750734.477 6  -1319166.56347  22396522.67547
  23432477.253 1  -1734811.910 1                
  21595840.276 6   -166281.031 6   -125860.31647  21595837.55447
  20318951.769 6   -967635.656 6   -729486.72748  20318948.41748
  24439975.823 1   -469994.973 1                
  20781889.472 6   -564488.180 6   -429079.88349  20781889.15949
  21094587.808 6  -1804688.988 6  -1359050.41049  21094587.80049
  21433048.331 6   -737119.543 6   -558927.82049  21433045.03049
  36623338.136 6   -331891.949 6                
 20  5 16  0  5 38.9990000  0 10G03G04G08G14G16G22G26G27G31S22      -0.000066814
  24052111.886 4   -519669.191 4   -392746.34447  24052112.89447
  22395353.901 6  -1756886.863 6  -1323960.63347  22395352.06247
  23431110.073 1  -1741990.668 1                
  21595729.761 6   -166865.379 6   -126315.65647  21595726.56247
  20318304.370 6   -971036.430 6   -732136.67648  20318301.01548
  24439636.065 1   -471784.320 1                
  20781509.753 6   -566478.402 6   -430630.70749  20781510.19049
  21093384.886 6  -1811013.730 6  -1363978.77749  21093384.49149
  21432556.526 6   -739702.164 6   -560940.25449  21432553.83149
  36622667.823 6   -335421.492 6                
 20  5 16  0  5 39.9990000  0 10G03G04G08G14G16G22G26G27G31S22      -0.000069010
  24051746.323 4   -521586.504 4   -394240.35547  24051748.08547
  22394182.878 6  -1763039.336 6  -1328754.76647  22394181.73347
  23429745.503 1  -1749169.805 1                
  21595618.003 6   -167449.797 6   -126771.05147  21595614.98347
  20317657.753 6   -974437.277 6   -734786.69148  20317653.91348
  24439293.870 2   -473574.176 2                
  20781131.847 6   -568468.934 6   -432181.77749  20781131.65549
  21092181.089 6  -1817338.457 6  -1368907.13749  21092180.51149
  21432065.339 6   -742285.043 6   -562952.88749  21432062.39749
  36621995.620 6   -338952.098 6                
 20  5 16  0  5 40.9990000  0 10G03G04G08G14G16G22G26G27G31S22      -0.000071207
  24051381.105 4   -523503.855 4   -395734.39547  24051383.24947
  22393011.847 6  -1769191.719 6  -1333548.82847  22393010.60147
  23428377.448 1  -1756349.195 1                
  21595507.362 6   -168034.121 6   -127226.37147  21595504.19047
  20317010.386 6   -977838.047 6   -737436.64148  20317006.52648
  24438953.237 2   -475364.250 2                
  20780752.433 6   -570459.602 6   -433732.94549  20780752.55049
  21090977.620 6  -1823663.039 6  -1373835.38749  21090977.15549
  21431573.519 6   -744867.988 6   -564965.57449  21431571.02649
  36621327.526 6   -342482.324 6                
 20  5 16  0  5 41.9990000  0 10G03G04G08G14G16G22G26G27G31S22      -0.000073404
  24051016.878 4   -525421.211 4   -397228.44147  24051018.10147
  22391841.487 6  -1775343.930 6  -1338342.76247  22391839.92147
  23427012.292 1  -1763528.457 1                
  21595395.300 6   -168618.293 6   -127681.57447  21595392.93747
  20316363.159 6   -981238.695 6   -740086.49248  20316359.83548
  24438612.714 1   -477154.637 1                
  20780374.026 6   -572450.375 6   -435284.20349  20780373.81249
  21089774.261 6  -1829987.410 6  -1378763.46549  21089773.73749
  21431082.331 6   -747450.945 6   -566978.27049  21431079.49549
  36620649.339 6   -346013.363 6                
 20  5 16  0  5 42.9990000  0 10G03G04G08G14G16G22G26G27G31S22      -0.000075602
  24050651.808 4   -527338.648 4   -398722.55547  24050653.28047
  22390670.261 6  -1781496.098 6  -1343136.66447  22390669.02247
  23425646.097 1  -1770708.051 1                
  21595284.815 6   -169202.367 6   -128136.69547  21595281.46847
  20315715.933 6   -984639.250 6   -742736.28548  20315712.44048
  24438271.339 1   -478945.363 1                
  20779994.901 6   -574441.285 6   -436835.56349  20779995.15949
  21088570.792 6  -1836311.641 6  -1383691.44149  21088570.51549
  21430590.440 6   -750034.031 6   -568991.06349  21430587.98749
  36619981.573 6   -349543.984 6                
 20  5 16  0  5 43.9990000  0 10G03G04G08G14G16G22G26G27G31S22      -0.000077799
  24050287.050 4   -529256.172 4   -400216.73047  24050288.45247
  22389500.042 6  -1787648.129 6  -1347930.44547  22389498.29247
  23424279.948 1  -1777887.758 1                
  21595173.112 6   -169786.383 6   -128591.77747  21595170.61647
  20315069.144 6   -988039.723 6   -745385.99648  20315065.38248
  24437930.987 1   -480736.293 1                
  20779615.894 6   -576432.344 6   -438387.03549  20779616.28849
  21087367.308 6  -1842635.668 6  -1388619.25849  21087366.96849
  21430099.159 6   -752617.133 6   -571003.86749  21430096.14049
  36619308.667 6   -353074.902 6                
 20  5 16  0  5 44.9990000  0 10G03G04G08G14G16G22G26G27G31S22      -0.000079996
  24049922.136 4   -531173.711 4   -401710.92647  24049923.28047
  22388328.917 6  -1793800.055 6  -1352724.15247  22388327.64747
  23422913.612 1  -1785067.602 1                
  21595062.003 6   -170370.223 6   -129046.71547  21595059.76547
  20314422.253 6   -991440.121 6   -748035.66448  20314418.62048
  24437590.026 1   -482527.457 1                
  20779237.081 6   -578423.527 6   -439938.61349  20779237.10149
  21086163.894 6  -1848959.535 6  -1393546.94549  21086163.63649
  21429607.175 6   -755200.313 6   -573016.73449  21429604.55049
  36618633.558 6   -356606.242 6                
 20  5 16  0  5 45.9990000  0 10G03G04G08G14G16G22G26G27G31S22      -0.000082193
  24049556.839 4   -533091.320 4   -403205.16447  24049558.17947
  22387158.230 6  -1799951.887 6  -1357517.79347  22387157.03447
  23421546.901 1  -1792247.578 1                
  21594951.573 6   -170953.977 6   -129501.59447  21594948.14747
  20313774.581 6   -994840.414 6   -750685.24248  20313771.42948
  24437249.597 1   -484319.020 1                
  20778858.151 6   -580414.859 6   -441490.29349  20778858.34349
  21084960.581 6  -1855283.262 6  -1398474.52349  21084960.37849
  21429115.675 6   -757783.570 6   -575029.66849  21429113.39049
  36617965.933 6   -360137.496 6                
 20  5 16  0  5 46.9990000  0 10G03G04G08G14G16G22G26G27G31S22      -0.000084393
  24049192.245 3   -535008.875 3   -404699.34847  24049193.13247
  22385987.878 6  -1806103.516 6  -1362311.27347  22385986.02647
  23420181.081 1  -1799427.555 1                
  21594839.917 6   -171537.531 6   -129956.31347  21594837.74547
  20313127.995 6   -998240.547 6   -753334.69948  20313124.18348
  24436908.605 1   -486110.789 1                
  20778479.401 6   -582406.223 6   -443042.01249  20778479.31549
  21083757.300 6  -1861606.715 6  -1403401.88749  21083756.76549
  21428624.597 6   -760366.809 6   -577042.58249  21428621.81249
  36617289.917 6   -363669.387 6                
 20  5 16  0  5 47.9990000  0 10G03G04G08G14G16G22G26G27G31S22      -0.000086590
  24048826.847 4   -536926.578 4   -406193.66447  24048828.04247
  22384817.245 6  -1812255.102 6  -1367104.71547  22384815.72647
  23418814.237 1  -1806607.820 1                
  21594729.237 6   -172121.047 6   -130411.00847  21594726.47647
  20312480.987 6  -1001640.645 6   -755984.12548  20312477.51548
  24436567.261 1   -487902.871 1                
  20778100.519 6   -584397.789 6   -444593.88349  20778100.07349
  21082553.745 6  -1867930.047 6  -1408329.16049  21082553.14749
  21428132.987 6   -762950.141 6   -579055.57449  21428130.13249
  36616619.886 6   -367200.844 6                
 20  5 16  0  5 48.9990000  0 10G03G04G08G14G16G22G26G27G31S22      -0.000088787
  24048462.550 4   -538844.242 4   -407687.94947  24048462.52647
  22383646.612 6  -1818406.535 6  -1371898.03947  22383645.05447
  23417448.355 1  -1813788.145 1                
  21594618.550 6   -172704.402 6   -130865.57047  21594615.58547
  20311834.214 6  -1005040.590 6   -758633.43848  20311830.62848
  24436225.558 1   -489695.195 1                
  20777721.573 6   -586389.441 6   -446145.81649  20777721.58549
  21081350.972 6  -1874253.164 6  -1413256.26649  21081350.44049
  21427641.362 6   -765533.504 6   -581068.58249  21427638.75749
  36615943.839 6   -370732.828 6                
 20  5 16  0  5 49.9990000  0 10G03G04G08G14G16G22G26G27G31S22      -0.000090986
  24048098.089 4   -540761.797 4   -409182.15247  24048098.03447
  22382476.136 6  -1824557.672 6  -1376691.13347  22382474.50747
  23416082.206 1  -1820968.375 1                
  21594507.862 6   -173287.438 6   -131319.87947  21594504.78847
  20311187.034 6  -1008440.270 6   -761282.53548  20311183.41348
  24435884.034 1   -491487.574 1                
  20777342.464 6   -588381.012 6   -447697.69149  20777342.40149
  21080147.206 6  -1880575.895 6  -1418183.07049  21080147.05849
  21427149.440 6   -768116.738 6   -583081.49249  21427147.39449
  36615277.792 6   -374264.641 6                
 20  5 16  0  5 50.9990000  0 10G03G04G08G14G16G22G26G27G31S22      -0.000093184
  24047732.737 4   -542679.379 4   -410676.37947  24047733.21447
  22381305.597 6  -1830708.699 6  -1381484.14547  22381303.91347
  23414716.120 1  -1828148.793 1                
  21594396.456 6   -173870.363 6   -131774.10547  21594393.44847
  20310539.972 6  -1011839.840 6   -763931.54748  20310536.51948
  24435542.753 1   -493280.254 1                
  20776963.347 6   -590372.727 6   -449249.68049  20776963.49149
  21078944.128 7  -1886898.480 7  -1423109.75849  21078943.80449
  21426658.237 6   -770700.023 6   -585094.44949  21426655.86649
  36614600.245 6   -377796.719 6                
 20  5 16  0  5 51.9990000  0 10G03G04G08G14G16G22G26G27G31S22      -0.000095383
  24047367.315 4   -544597.055 4   -412170.67247  24047367.90947
  22380134.761 6  -1836859.637 6  -1386277.09047  22380133.27647
  23413349.003 1  -1835329.387 1                
  21594285.737 6   -174453.207 6   -132228.27347  21594282.60847
  20309893.378 6  -1015239.352 6   -766580.52748  20309889.76548
  24435202.214 1   -495073.254 1                
  20776584.253 6   -592364.625 6   -450801.81349  20776584.10549
  21077741.433 6  -1893220.887 6  -1428036.31649  21077740.66749
  21426166.237 6   -773283.406 6   -587107.47749  21426163.99549
  36613927.448 6   -381329.215 6                
 20  5 16  0  5 52.9990000  0 10G03G04G08G14G16G22G26G27G31S22      -0.000097582
  24047003.089 4   -546514.730 4   -413664.97347  24047002.77647
  22378964.667 6  -1843010.465 6  -1391069.93847  22378962.95247
  23411983.034 1  -1842510.074 1                
  21594174.222 6   -175035.898 6   -132682.32047  21594171.60147
  20309246.706 6  -1018638.766 6   -769229.41848  20309242.65148
  24434861.776 1   -496866.500 1                
  20776205.237 6   -594356.605 6   -452354.00449  20776205.18749
  21076538.370 6  -1899543.117 6  -1432962.73049  21076537.35149
  21425675.362 6   -775866.844 6   -589120.55149  21425672.66749
  36613254.167 6   -384861.844 6                
 20  5 16  0  5 53.9990000  0 10G03G04G08G14G16G22G26G27G31S22      -0.000099781
  24046638.909 4   -548432.406 4   -415159.26647  24046637.92147
  22377793.690 5  -1849161.070 5  -1395862.61746  22377792.26946
  23410616.456 1  -1849690.879 1                
  21594063.300 6   -175618.418 6   -133136.23847  21594060.18347
  20308599.761 6  -1022037.980 6   -771878.16048  20308596.46848
  24434520.698 1   -498659.980 1                
  20775826.151 6   -596348.609 6   -453906.21549  20775826.26549
  21075334.659 6  -1905865.078 6  -1437888.93049  21075334.76549
  21425183.323 6   -778450.250 6   -591133.59449  21425181.06249
  36612584.011 6   -388394.977 6                
 20  5 16  0  5 54.9990000  0 10G03G04G08G14G16G22G26G27G31S22      -0.000101980
  24046273.800 4   -550350.164 4   -416653.61347  24046272.77247
  22376623.386 6  -1855311.668 6  -1400655.29347  22376621.93347
  23409250.355 1  -1856871.828 1                
  21593952.980 6   -176200.891 6   -133590.10947  21593949.65547
  20307952.706 6  -1025437.168 6   -774526.88348  20307948.86648
  24434178.464 1   -500453.816 1                
  20775447.480 6   -598340.859 6   -455458.61749  20775447.33149
  21074131.878 6  -1912186.945 6  -1442815.05549  21074131.59749
  21424691.870 6   -781033.781 6   -593146.73049  21424689.20649
  36611911.058 6   -391928.238 6                
 20  5 16  0  5 55.9990000  0 10G03G04G08G14G16G22G26G27G31S22      -0.000104179
  24045909.034 4   -552268.043 4   -418148.06347  24045907.74147
  22375452.480 6  -1861462.180 6  -1405447.89546  22375451.19046
  23407884.651 1  -1864052.953 1                
  21593841.542 6   -176783.320 6   -134043.94947  21593839.13247
  20307306.073 6  -1028836.363 6   -777175.60248  20307302.17148
  24433835.956 1   -502247.969 1                
  20775068.011 6   -600333.273 6   -457011.15649  20775067.88249
  21072928.972 6  -1918508.703 6  -1447741.10249  21072928.69449
  21424200.308 6   -783617.418 6   -595159.95749  21424197.64049
  36611242.401 6   -395462.012 6                
 20  5 16  0  5 56.9990000  0 10G03G04G08G14G16G22G26G27G31S22      -0.000106379
  24045543.995 4   -554185.980 4   -419642.55547  24045542.70247
  22374282.675 6  -1867612.609 6  -1410240.43446  22374281.12846
  23406517.987 1  -1871234.293 1                
  21593731.081 6   -177365.598 6   -134497.67647  21593727.56247
  20306659.097 6  -1032235.449 6   -779824.23848  20306655.55048
  24433494.339 1   -504042.367 1                
  20774688.300 6   -602325.805 6   -458563.77749  20774688.89049
  21071726.105 6  -1924830.246 6  -1452666.98449  21071725.82749
  21423708.105 6   -786201.137 6   -597173.24649  21423705.71449
  36610564.776 6   -398995.711 6                
 20  5 16  0  5 57.9990000  0 10G03G04G08G14G16G22G26G27G31S22      -0.000108578
  24045179.058 4   -556103.953 4   -421137.08647  24045177.53047
  22373112.230 6  -1873762.902 6  -1415032.86747  22373110.54247
  23405150.667 1  -1878415.746 1                
  21593620.300 6   -177947.793 6   -134951.33247  21593616.89747
  20306012.167 6  -1035634.406 6   -782472.78148  20306008.64748
  24433152.683 1   -505837.113 1                
  20774309.526 6   -604318.488 6   -460116.51649  20774309.23749
  21070523.276 6  -1931151.648 6  -1457592.75049  21070522.81949
  21423216.722 6   -788784.906 6   -599186.56649  21423214.09749
  36609895.355 6   -402530.359 6                
 20  5 16  0  5 58.9990000  0 10G03G04G08G14G16G22G26G27G31S22      -0.000110779
  24044813.620 4   -558021.941 4   -422631.62547  24044812.46047
  22371941.448 5  -1879913.070 5  -1419825.20346  22371940.30846
  23403785.511 1  -1885597.215 1                
  21593508.995 6   -178529.801 6   -135404.84847  21593506.01147
  20305365.331 6  -1039033.250 6   -785121.23448  20305361.67148
  24432811.355 1   -507632.094 1                
  20773930.558 6   -606311.258 6   -461669.32849  20773930.39449
  21069320.112 6  -1937472.816 6  -1462518.33649  21069319.74549
  21422724.878 6   -791368.695 6   -601199.91849  21422722.55049
  36609219.433 6   -406065.152 6                
 20  5 16  0  5 59.9990000  0 10G03G04G08G14G16G22G26G27G31S22      -0.000112980
  24044449.245 4   -559940.070 4   -424126.27747  24044447.34347
  22370771.105 6  -1886063.195 6  -1424617.51246  22370770.08946
  23402418.636 1  -1892778.992 1                
  21593399.253 6   -179111.813 6   -135858.36747  21593395.79647
  20304718.495 6  -1042432.125 6   -787769.70748  20304714.95648
  24432469.690 1   -509427.469 1                
  20773550.636 6   -608304.230 6   -463222.29349  20773550.76949
  21068117.315 6  -1943793.898 6  -1467443.85949  21068117.18349
  21422233.065 6   -793952.645 6   -603213.38749  21422230.80049
  36608548.151 6   -409600.297 6                
 20  5 16  0  6  0.9990000  0 10G03G04G08G14G16G22G26G27G31S22      -0.000115179
  24044083.769 4   -561858.172 4   -425620.90547  24044082.37847
  22369600.761 5  -1892213.148 5  -1429409.68446  22369599.56546
  23401052.417 1  -1899960.770 1     -5665.08656  23401063.95256
  21593287.792 6   -179693.652 6   -136311.75047  21593284.14447
  20304071.706 6  -1045830.789 6   -790418.01648  20304068.22248
  24432127.730 1   -511222.895 1                
  20773171.315 6   -610297.270 6   -464775.31649  20773171.88649
  21066914.565 7  -1950114.734 7  -1472369.18049  21066914.60549
  21421741.948 6   -796536.559 6   -605226.82449  21421739.13249
  36607877.401 6   -413135.793 6                
 20  5 16  0  6  1.9990000  0 10G03G04G08G14G16G22G26G27G31S22      -0.000117374
  24043719.386 4   -563776.328 4   -427115.57047  24043717.32347
  22368430.362 6  -1898363.035 6  -1434201.80546  22368429.06946
  23399684.737 1  -1907142.750 1    -11261.46946  23399696.99146
  21593177.409 6   -180275.367 6   -136765.03947  21593174.28847
  20303425.315 6  -1049229.402 6   -793066.28148  20303421.41748
  24431785.11211   -513018.80911                
  20772792.542 6   -612290.488 6   -466328.48049  20772792.21049
  21065712.034 7  -1956435.398 7  -1477294.37949  21065711.42949
  21421249.964 6   -799120.566 6   -607240.34049  21421247.10549
  36607205.776 6   -416671.277 6                
 20  5 16  0  6  2.9990000  0 10G03G04G08G14G16G22G26G27G31S22      -0.000119581
  24043354.347 4   -565694.531 4   -428610.27347  24043352.19047
  22367260.081 5  -1904512.711 5  -1438993.76247  22367258.96447
  23398319.409 1  -1914324.836 1    -16857.88345  23398330.15145
  21593066.526 6   -180856.961 6   -137218.22347  21593063.47247
  20302778.628 6  -1052627.898 6   -795714.46148  20302774.78848
  24431442.245 1   -514814.891 1                
  20772412.784 6   -614283.773 6   -467881.69149  20772413.44449
  21064509.128 7  -1962755.863 7  -1482219.41849  21064508.70649
  21420758.292 6   -801704.602 6   -609253.87149  21420755.53449
  36606532.151 6   -420207.707 6                
 20  5 16  0  6  3.9990000  0 10G03G04G08G14G16G22G26G27G31S22      -0.000121780
  24042989.347 4   -567612.793 4   -430105.02047  24042987.63247
  22366090.253 5  -1910662.375 5  -1443785.70346  22366089.12846
  23396951.761 1  -1921507.176 1    -22454.50045  23396963.99545
  21592956.597 6   -181438.469 6   -137671.34847  21592952.73347
  20302131.855 6  -1056026.340 6   -798362.59848  20302127.97648
  24431100.159 1   -516611.328 1                
  20772033.440 6   -616277.230 6   -469435.03149  20772033.92949
  21063306.589 6  -1969076.207 6  -1487144.35549  21063306.10149
  21420266.550 6   -804288.730 6   -611267.48449  21420264.12449
  36605857.730 6   -423744.262 6                
 20  5 16  0  6  4.9990000  0 10G03G04G08G14G16G22G26G27G31S22      -0.000123976
  24042624.894 4   -569531.047 4   -431599.76247  24042622.21847
  22364919.636 5  -1916811.832 5  -1448577.48846  22364918.64746
  23395584.058 1  -1928689.430 1    -28051.07845  23395597.49945
  21592845.667 6   -182019.809 6   -138124.34447  21592841.98747
  20301485.159 6  -1059424.590 6   -801010.58248  20301481.29648
  24430758.30811                                
  20771654.105 6   -618270.754 6   -470988.43049  20771654.23749
  21062104.019 6  -1975396.277 6  -1492069.09049  21062103.78449
  21419774.581 6   -806872.852 6   -613281.08649  21419772.02649
  36605188.323 6   -427281.328 6                
 20  5 16  0  6  5.9990000  0 10G03G04G08G14G16G22G26G27G31S22      -0.000126177
  24042259.394 4   -571449.402 4   -433094.59047  24042257.35847
  22363749.964 5  -1922961.246 5  -1453369.23846  22363748.52646
  23394216.222 1  -1935871.945 1    -33647.87145  23394230.76545
  21592734.589 6   -182601.074 6   -138577.27347  21592731.50747
  20300838.433 6  -1062822.824 6   -803658.56348  20300834.65148
  24430417.33911                                
  20771274.761 6   -620264.449 6   -472541.96549  20771275.18349
  21060901.183 7  -1981716.234 7  -1496993.73449  21060900.78049
  21419283.136 6   -809457.074 6   -615294.76249  21419280.19049
  36604512.901 6   -430818.355 6                
 20  5 16  0  6  6.9990000  0 10G03G04G08G14G16G22G26G27G31S22      -0.000128378
  24041894.987 4   -573367.832 4   -434589.46947  24041892.77647
  22362579.253 5  -1929110.547 5  -1458160.90246  22362577.82746
  23392849.323 1  -1943054.660 1    -39244.78945  23392863.50345
  21592624.206 6   -183182.238 6   -139030.12947  21592621.00347
  20300192.073 6  -1066220.977 6   -806306.47348  20300187.77648
  24430074.308 1   -522002.176 1                
  20770895.105 6   -622258.316 6   -474095.62949  20770895.88649
  21059698.565 6  -1988036.031 6  -1501918.25049  21059698.54249
  21418791.417 6   -812041.387 6   -617308.51649  21418788.45649
  36603840.792 6   -434355.898 6                
 20  5 16  0  6  7.9990000  0 10G03G04G08G14G16G22G26G27G31S22      -0.000130587
  24041529.753 4   -575286.262 4   -436084.34847  24041527.78847
  22361409.105 5  -1935259.727 5  -1462952.46146  22361407.91746
  23391482.745 1  -1950237.422 1    -44841.75845  23391496.92145
  21592513.776 6   -183763.273 6   -139482.89147  21592510.11647
  20299545.347 6  -1069619.008 6   -808954.28948  20299541.39748
  24429732.230 1   -523799.727 1                
  20770515.612 6   -624252.250 6   -475649.34449  20770516.30449
  21058495.800 6  -1994355.617 6  -1506842.60549  21058495.83949
  21418299.347 6   -814625.738 6   -619322.29749  21418296.60849
  36603164.370 6   -437893.621 6                
 20  5 16  0  6  8.9990000  0 10G03G04G08G14G16G22G26G27G31S22      -0.000132782
  24041164.222 4   -577204.820 4   -437579.33247  24041162.65147
  22360239.175 5  -1941408.805 5  -1467743.95347  22360237.49547
  23390114.480 1  -1957420.340 1    -50438.84845  23390129.99945
  21592402.667 6   -184344.211 6   -139935.57047  21592399.83547
  20298898.542 6  -1073016.988 6   -811602.07048  20298894.30048
  24429390.48011                                
  20770136.519 6   -626246.371 6   -477203.21149  20770136.63649
  21057293.581 6  -2000675.047 6  -1511766.83649  21057293.17549
  21417807.753 6   -817210.156 6   -621336.12549  21417804.52649
  36602494.214 6   -441431.242 6                
 20  5 16  0  6  9.9990000  0 10G03G04G08G14G16G22G26G27G31S22      -0.000134983
  24040799.448 4   -579123.309 4   -439074.26247  24040797.76147
  22359068.956 5  -1947557.727 5  -1472535.33246  22359067.41346
  23388748.081 1  -1964603.445 1    -56036.04345  23388762.95245
  21592292.495 6   -184924.988 6   -140388.12147  21592289.37447
  20298252.323 6  -1076414.793 6   -814249.71148  20298247.85548
  24429047.62811                                
  20769757.081 6   -628240.555 6   -478757.12549  20769757.31249
  21056091.065 6  -2006994.242 6  -1516690.88349  21056090.41349
  21417316.167 6   -819794.582 6   -623349.96549  21417313.12049
  36601816.417 6   -444969.426 6                
 20  5 16  0  6 10.9990000  0 10G03G04G08G14G16G22G26G27G31S22      -0.000137186
  24040435.386 4   -581042.016 4   -440569.36747  24040432.58547
  22357898.300 5  -1953706.672 5  -1477326.71546  22357897.19046
  23387381.323 1  -1971786.719 1    -61633.36745  23387396.24945
  21592181.839 6   -185505.777 6   -140840.68847  21592178.37447
  20297605.370 6  -1079812.676 6   -816897.41048  20297601.59348
  24428705.62011                                
  20769377.433 6   -630235.027 6   -480311.25849  20769377.59349
  21054888.550 7  -2013313.426 7  -1521614.91849  21054888.19449
  21416824.019 6   -822379.211 6   -625363.96549  21416821.09349
  36601145.542 6   -448507.676 6                
 20  5 16  0  6 11.9990000  0 10G03G04G08G14G16G22G26G27G31S22      -0.000139387
  24040069.878 4   -582960.582 4   -442064.35247  24040067.39047
  22356728.620 5  -1959855.297 5  -1482117.84446  22356727.58146
  23386013.605 1  -1978970.039 1    -67230.72745  23386029.23345
  21592071.534 6   -186086.277 6   -141293.03147  21592067.86647
  20296958.980 6  -1083210.246 6   -819544.86348  20296955.10548
  24428362.12811                                
  20768997.847 6   -632229.398 6   -481865.31649  20768997.98349
  21053686.495 7  -2019632.199 7  -1526538.63749  21053685.71449
  21416332.292 6   -824963.680 6   -627377.83249  21416329.41349
  36600470.558 6   -452046.453 6                
 20  5 16  0  6 12.9990000  0 10G03G04G08G14G16G22G26G27G31S22      -0.000141590
  24039704.909 4   -584878.902 4   -443559.15247  24039703.13647
  22355558.769 5  -1966003.516 5  -1486908.65647  22355557.21047
  23384646.472 1  -1986153.176 1    -72827.97745  23384662.21845
  21591960.909 6   -186666.375 6   -141745.05147  21591957.85147
  20296312.784 6  -1086607.422 6   -822192.01248  20296308.33148
  24428021.09711                                
  20768618.167 6   -634223.637 6   -483419.27049  20768618.78849
  21052484.167 7  -2025950.504 7  -1531462.00049  21052483.56249
  21415840.456 6   -827547.926 6   -629391.53149  21415837.31949
  36599795.870 6   -455584.406 6                
 20  5 16  0  6 13.9990000  0 10G03G04G08G14G16G22G26G27G31S22      -0.000143791
  24039339.472 4   -586797.285 4   -445053.99647  24039338.02647
  22354389.050 5  -1972151.703 5  -1491699.45346  22354387.10146
  23383280.261 1  -1993336.449 1    -78425.35245  23383295.77245
  21591850.894 6   -187246.383 6   -142197.01247  21591847.26147
  20295665.917 6  -1090004.598 6   -824839.16048  20295661.76148
  24427679.63611                                
  20768238.753 6   -636218.051 6   -484973.35249  20768239.14749
  21051281.636 7  -2032268.707 7  -1536385.27749  21051281.10549
  21415348.683 6   -830132.301 6   -631405.33249  21415345.68349
  36599122.620 6   -459123.219 6                
 20  5 16  0  6 14.9990000  0 10G03G04G08G14G16G22G26G27G31S22      -0.000145994
  24038974.581 4   -588715.805 4   -446548.94947  24038972.91747
  22353218.831 5  -1978299.762 5  -1496490.14846  22353217.20646
  23381912.526 1  -2000519.914 1    -84022.88345  23381928.74145
  21591740.261 6   -187826.313 6   -142648.91047  21591737.06247
  20295019.550 6  -1093401.691 6   -827486.25048  20295015.46448
  24427338.651 1   -536389.355 1                
  20767859.511 6   -638212.637 6   -486527.58249  20767859.83149
  21050079.300 7  -2038586.750 7  -1541308.42249  21050078.69049
  21414856.636 6   -832716.738 6   -633419.17649  21414853.40549
  36598448.886 6   -462661.996 6                
 20  5 16  0  6 15.9990000  0 10G03G04G08G14G16G22G26G27G31S22      -0.000148197
  24038609.776 5   -590634.301 5   -448043.87947  24038608.13247
  22352048.948 5  -1984447.699 5  -1501280.75446  22352047.31246
  23380545.714 1  -2007703.434 1    -89620.44545  23380561.57745
  21591630.089 6   -188406.102 6   -143100.69147  21591626.50347
  20294373.058 6  -1096798.637 6   -830133.21948  20294368.86248
  24426996.128 1   -538188.785 1                
  20767479.815 6   -640207.266 6   -488081.83249  20767480.07349
  21048876.831 7  -2044904.547 7  -1546231.37949  21048876.35849
  21414364.940 6   -835301.184 6   -635433.03549  21414361.94049
  36597774.292 6   -466200.957 6                
 20  5 16  0  6 16.9990000  0 10G03G04G08G14G16G22G26G27G31S22      -0.000150400
  24038243.800 4   -592552.777 4   -449538.80147  24038242.91347
  22350879.409 5  -1990595.422 5  -1506071.18446  22350877.31246
  23379179.823 1  -2014886.996 1    -95218.02045  23379195.10145
  21591519.511 6   -188985.699 6   -143552.32447  21591516.26947
  20293726.815 6  -1100195.395 6   -832780.04748  20293722.63248
  24426652.253 1   -539988.426 1                
  20767100.183 6   -642201.973 6   -489636.15249  20767100.42549
  21047674.784 7  -2051222.098 7  -1551154.14549  21047674.23749
  21413873.097 6   -837885.590 6   -637446.85949  21413870.16349
  36597103.886 6   -469740.414 6                
 20  5 16  0  6 17.9990000  0 10G03G04G08G14G16G22G26G27G31S22      -0.000152603
  24037879.472 4   -594471.410 4   -451033.84047  24037878.01147
  22349709.253 5  -1996743.141 5  -1510861.61346  22349707.40546
  23377812.097 1  -2022070.828 1   -100815.78945  23377828.01945
  21591409.605 6   -189565.254 6   -144003.93047  21591405.97247
  20293080.339 6  -1103592.199 6   -835426.90248  20293076.28048
  24426310.292 1   -541788.418 1                
  20766720.784 6   -644196.898 6   -491190.64549  20766720.73349
  21046472.753 7  -2057539.582 7  -1556076.86349  21046472.02249
  21413381.003 6   -840470.199 6   -639460.84449  21413378.08549
  36596429.511 6   -473279.801 6                
 20  5 16  0  6 18.9990000  0 10G03G04G08G14G16G22G26G27G31S22      -0.000154806
  24037514.120 5   -596390.141 5   -452528.95747  24037513.33147
  22348539.284 5  -2002890.801 5  -1515652.00846  22348537.23746
  23376445.050 1  -2029254.801 1   -106413.71145  23376461.08945
  21591298.800 6   -190144.820 6   -144455.53947  21591296.01147
  20292434.331 6  -1106988.957 6   -838073.73048  20292429.98048
  24425968.65111                                
  20766340.862 6   -646192.039 6   -492745.30549  20766341.17549
  21045270.776 7  -2063856.934 7  -1560999.47349  21045269.92549
  21412889.206 6   -843054.895 6   -641474.89149  21412886.22649
  36595756.698 6   -476819.934 6                
 20  5 16  0  6 19.9990000  0 10G03G04G08G14G16G22G26G27G31S22      -0.000157009
  24037148.714 4   -598308.973 4   -454024.14847  24037148.14047
  22347369.831 5  -2009038.398 5  -1520442.35547  22347367.74947
  23375077.690 1  -2036439.027 1   -112011.80545  23375093.61245
  21591189.089 6   -190724.273 6   -144907.05947  21591185.25747
  20291787.503 6  -1110385.672 6   -840720.52048  20291783.47248
  24425624.94811                                
  20765961.605 6   -648187.336 6   -494300.07849  20765961.96449
  21044068.659 7  -2070174.145 7  -1565921.98049  21044067.58149
  21412397.370 6   -845639.719 6   -643489.03949  21412394.36649
  36595083.026 6   -480359.973 6                
 20  5 16  0  6 20.9990000  0 10G03G04G08G14G16G22G26G27G31S22      -0.000159214
  24036783.698 5   -600227.867 5   -455519.39547  24036783.30847
  22346200.081 5  -2015185.926 5  -1525232.62546  22346197.87846
  23373710.972 1  -2043623.387 1   -117610.01245  23373726.48345
  21591078.659 6   -191303.656 6   -145358.53147  21591075.30447
  20291141.300 6  -1113782.313 6   -843367.25048  20291137.38648
  24425282.464 1                                
  20765581.823 6   -650182.793 6   -495854.98849  20765581.78449
  21042866.284 7  -2076491.234 7  -1570844.38749  21042865.63649
  21411906.112 6   -848224.602 6   -645503.23449  21411902.42149
  36594409.948 6   -483900.648 6                
 20  5 16  0  6 21.9990000  0 10G03G04G08G14G16G22G26G27G31S22      -0.000161417
  24036417.886 5   -602146.816 5   -457014.68047  24036418.14447
  22345029.706 5  -2021333.305 5  -1530022.78546  22345027.80046
  23372342.870 1  -2050807.867 1   -123208.30145  23372359.78845
  21590968.394 6   -191882.926 6   -145809.91047  21590965.35847
  20290494.894 6  -1117178.859 6   -846013.90648  20290490.72248
  24424940.31511                                
  20765201.784 6   -652178.383 6   -497409.99249  20765201.92149
  21041664.112 7  -2082808.094 7  -1575766.61749  21041663.46849
  21411413.925 6   -850809.563 6   -647517.48849  21411410.52249
  36593734.901 6   -487441.320 6                
 20  5 16  0  6 22.9990000  0 10G03G04G08G14G16G22G26G27G31S22      -0.000163622
  24036052.394 4   -604065.758 4   -458509.96947  24036053.14047
  22343860.495 5  -2027480.531 5  -1534812.83647  22343857.91747
  23370976.011 1  -2057992.422 1   -128806.66045  23370992.46045
  21590858.019 6   -192462.020 6   -146261.14547  21590854.84347
  20289848.573 6  -1120575.246 6   -848660.44548  20289844.55448
  24424596.612 1                                
  20764822.237 6   -654174.035 6   -498965.04749  20764822.31549
  21040462.433 7  -2089124.758 7  -1580688.68849  21040461.45649
  21410921.808 6   -853394.488 6   -649531.71549  21410918.77649
  36593057.933 6   -490982.531 6                
 20  5 16  0  6 23.9990000  0 10G03G04G08G14G16G22G26G27G31S22      -0.000165825
  24035687.159 4   -605984.785 4   -460005.31347  24035687.96847
  22342690.745 5  -2033627.633 5  -1539602.79746  22342688.17146
  23369608.901 1  -2065177.176 1   -134405.16445  23369625.46845
  21590747.839 6   -193040.977 6   -146712.27747  21590744.62847
  20289202.378 6  -1123971.574 6   -851306.93048  20289197.83548
  24424254.440 1                                
  20764442.292 6   -656169.840 6   -500520.21549  20764442.57349
  21039260.058 7  -2095441.234 7  -1585610.61749  21039259.31949
  21410430.206 6   -855979.523 6   -651546.02749  21410426.99149
  36592387.011 6   -494524.215 6                
 20  5 16  0  6 24.9990000  0 10G03G04G08G14G16G22G26G27G31S22      -0.000168030
  24035321.159 4   -607903.805 4   -461500.66047  24035322.43747
  22341520.628 5  -2039774.617 5  -1544392.65246  22341518.55046
  23368240.870 1  -2072361.977 1   -140003.70345  23368258.14045
  21590637.612 6   -193619.863 6   -147163.35947  21590634.50747
  20288556.167 6  -1127367.781 6   -853953.32448  20288552.33548
  24423911.23011                                
  20764062.644 6   -658165.762 6   -502075.48049  20764062.82349
  21038057.878 7  -2101757.520 7  -1590532.39849  21038057.37849
  21409938.058 6   -858564.570 6   -653560.35249  21409935.19049
  36591713.339 6   -498066.043 6                
 20  5 16  0  6 25.9990000  0 10G03G04G08G14G16G22G26G27G31S22      -0.000170235
  24034956.230 4   -609822.875 4   -462996.04347  24034957.58147
  22340350.870 5  -2045921.461 5  -1549182.39146  22340348.78446
  23366873.815 1  -2079546.930 1   -145602.36345  23366890.90945
  21590527.792 6   -194198.586 6   -147614.31647  21590524.38647
  20287909.823 6  -1130763.871 6   -856599.63348  20287905.54648
  24423566.77611                                
  20763682.894 6   -660161.777 6   -503630.82049  20763683.06549
  21036856.136 7  -2108073.570 7  -1595453.99249  21036855.53049
  21409446.237 6   -861149.660 6   -655574.70749  21409442.96449
  36591038.589 6   -501608.113 6                
 20  5 16  0  6 26.9990000  0  9G03G04G08G14G16G26G27G31S22         -0.000172440
  24034590.448 3   -611741.906 3   -464491.39547  24034592.29647
  22339181.323 5  -2052068.156 5  -1553972.01646  22339179.24546
  23365505.987 1  -2086732.000 1   -151201.11745  23365523.72645
  21590417.347 6   -194777.141 6   -148065.13747  21590414.26947
  20287263.776 6  -1134159.824 6   -859245.83248  20287259.92548
  20763303.105 6   -662157.875 6   -505186.22349  20763303.14449
  21035654.323 7  -2114389.438 7  -1600375.45349  21035653.73049
  21408953.901 6   -863734.762 6   -657589.07049  21408950.86649
  36590365.401 6   -505150.492 6                
 20  5 16  0  6 27.9990000  0  9G03G04G08G14G16G26G27G31S22         -0.000174644
  24034225.464 3   -613661.066 3   -465986.84447  24034227.60847
  22338011.019 5  -2058214.746 5  -1558761.57046  22338009.19846
  23364139.394 1  -2093917.137 1   -156799.93445  23364156.72245
  21590306.972 6   -195355.629 6   -148515.90647  21590304.02247
  20286617.151 6  -1137555.727 6   -861891.99248  20286613.14048
  20762923.276 6   -664154.145 6   -506741.75449  20762923.29249
  21034452.565 7  -2120705.121 7  -1605296.75849  21034451.71049
  21408462.058 6   -866319.957 6   -659603.50849  21408459.33549
  36589692.808 6   -508693.195 6                
 20  5 16  0  6 28.9990000  0  9G03G04G08G14G16G26G27G31S22         -0.000176847
  24033861.097 3   -615580.195 3   -467482.28147  24033862.75347
  22336842.003 5  -2064361.168 5  -1563551.00046  22336839.55046
  23362770.855 1  -2101102.453 1   -162398.87545  23362789.17945
  21590197.409 6   -195933.941 6   -148966.53947  21590193.69447
  20285971.644 6  -1140951.441 6   -864538.00848  20285966.77248
  20762542.753 6   -666150.469 6   -508297.34049  20762543.58549
  21033250.433 7  -2127020.555 7  -1610217.88349  21033249.98049
  21407970.339 6   -868905.133 6   -661617.93049  21407967.13249
  36589017.198 6   -512235.891 6                
 20  5 16  0  6 29.9990000  0  9G03G04G08G14G16G26G27G31S22         -0.000179054
  24033495.401 3   -617499.414 3   -468977.78147  24033496.90547
  22335672.198 5  -2070507.488 5  -1568340.34446  22335669.98046
  23361404.065 1  -2108287.902 1   -167997.88345  23361421.80445
  21590087.011 6   -196512.172 6   -149417.10947  21590083.80047
  20285325.292 6  -1144347.098 6   -867183.96948  20285320.53848
  20762163.128 6   -668146.926 6   -509853.02349  20762163.46849
  21032048.737 7  -2133335.840 7  -1615138.88349  21032048.23049
  21407478.058 6   -871490.379 6   -663632.41449  21407475.16349
  36588344.980 6   -515779.195 6                
 20  5 16  0  6 30.9990000  0  9G03G04G08G14G16G26G27G31S22         -0.000181259
  24033129.948 2   -619418.488 2   -470473.16447  24033132.09347
  22334502.190 5  -2076653.539 5  -1573129.47746  22334500.56946
  23360036.644 1  -2115473.223 1   -173596.84845  23360054.73345
  21589977.706 6   -197090.105 6   -149867.45347  21589973.98347
  20284679.159 6  -1147742.523 6   -869829.75448  20284674.33148
  20761783.401 6   -670143.406 6   -511408.72749  20761783.56549
  21030846.987 7  -2139650.797 7  -1620059.62949  21030846.17949
  21406986.105 6   -874075.535 6   -665646.82049  21406982.82349
  36587670.620 6   -519322.383 6                
 20  5 16  0  6 31.9990000  0  9G03G04G08G14G16G26G27G31S22         -0.000183464
  24032764.190 2   -621337.625 2   -471968.59847  24032766.78447
  22333332.855 5  -2082799.410 5  -1577918.46546  22333330.66346
  23358670.011 1  -2122658.691 1   -179195.92245  23358687.28045
  21589867.425 6   -197667.883 6   -150317.66047  21589863.65947
  20284032.636 6  -1151137.777 6   -872475.41448  20284028.46448
  20761403.144 6   -672139.914 6   -512964.44149  20761404.15949
  21029645.464 7  -2145965.504 7  -1624980.18049  21029644.84349
  21406494.464 6   -876660.680 6   -667661.21949  21406491.34349
  36586996.839 6   -522865.898 6                
 20  5 16  0  6 32.9990000  0  9G03G04G08G14G16G26G27G31S22         -0.000185671
  24032398.847 2   -623256.633 2   -473463.92247  24032401.70647
  22332163.870 5  -2088945.063 5  -1582707.28146  22332161.56946
  23357302.909 1  -2129844.219 1   -184795.06345  23357320.12045
  21589757.495 6   -198245.465 6   -150767.72747  21589753.73747
  20283386.753 6  -1154532.836 6   -875120.91448  20283382.43348
  20761023.745 6   -674136.477 6   -514520.20349  20761023.81549
  21028444.222 7  -2152279.941 7  -1629900.51649  21028443.12849
  21406002.542 6   -879245.762 6   -669675.56649  21405999.58149
  36586322.355 6   -526409.375 6                
 20  5 16  0  6 33.9990000  0  9G03G04G08G14G16G26G27G31S22         -0.000187876
  24032033.323 2   -625175.746 2   -474959.34047  24032036.60547
  22330994.034 5  -2095090.613 5  -1587496.03146  22330991.83146
  23355934.722 1  -2137029.832 1   -190394.23045  23355952.40145
  21589647.690 6   -198822.906 6   -151217.68047  21589644.05047
  20282741.175 6  -1157927.797 6   -877766.33248  20282736.42948
  20760643.526 6   -676133.160 6   -516076.05949  20760644.01949
  21027242.581 7  -2158594.188 7  -1634820.71549  21027241.64749
  21405510.433 6   -881830.922 6   -671689.97749  21405507.19049
  36585644.214 6   -529953.184 6                
 20  5 16  0  6 34.9990000  0  9G03G04G08G14G16G26G27G31S22         -0.000190083
  24031667.980 2   -627094.824 2   -476454.73847  24031671.68747
  22329824.940 5  -2101235.980 5  -1592284.62546  22329822.56946
  23354567.355 1  -2144215.500 1   -195993.42645  23354585.62045
  21589538.245 6   -199400.168 6   -151667.49247  21589534.05047
  20282094.667 6  -1161322.629 6   -880411.65648  20282090.01948
  20760263.901 6   -678129.914 6   -517631.97349  20760263.93749
  21026040.737 6  -2164908.156 6  -1639740.68849  21026039.92549
  21405018.808 6   -884416.031 6   -673704.35249  21405015.41349
  36584969.230 6   -533497.313 6                
 20  5 16  0  6 35.9990000  0  9G03G04G08G14G16G26G27G31S22         -0.000192287
  24031303.815 2   -629013.961 2   -477950.16447  24031305.81947
  22328655.425 5  -2107381.250 5  -1597073.14846  22328653.14046
  23353199.433 1  -2151401.375 1   -201592.79745  23353217.81545
  21589427.808 6   -199977.367 6   -152117.26647  21589424.15947
  20281448.612 6  -1164717.367 6   -883056.91048  20281444.26548
  20759883.472 6   -680126.828 6   -519188.01249  20759883.93349
  21024839.495 7  -2171221.980 7  -1644660.55149  21024838.55849
  21404526.972 6   -887001.270 6   -675718.82849  21404523.36649
  36584299.245 6   -537041.316 6                
 20  5 16  0  6 36.9990000  0  9G03G04G08G14G16G26G27G31S22         -0.000194494
  24030938.269 2   -630933.133 2   -479445.61747  24030940.71447
  22327485.675 5  -2113526.367 5  -1601861.55146  22327483.36646
  23351832.964 1  -2158587.270 1   -207192.21945  23351850.40945
  21589318.042 6   -200554.410 6   -152566.91047  21589314.50747
  20280802.831 6  -1168111.988 6   -885702.07048  20280798.03848
  20759503.737 6   -682123.820 6   -520744.10549  20759503.90549
  21023637.831 7  -2177535.598 7  -1649580.25449  21023636.76149
  21404034.433 6   -889586.504 6   -677733.29349  21404031.49149
  36583622.464 6   -540586.168 6                
 20  5 16  0  6 37.9990000  0  9G03G04G08G14G16G26G27G31S22         -0.000196701
  24030573.230 2   -632852.336 2   -480941.10547  24030575.19447
  22326316.636 5  -2119671.379 5  -1606649.87546  22326314.12846
  23350465.081 1  -2165773.410 1   -212791.82845  23350483.11245
  21589208.042 6   -201131.363 6   -153016.48847  21589204.98047
  20280156.870 6  -1171506.527 6   -888347.16848  20280152.23748
  20759123.847 6   -684120.969 6   -522300.32449  20759123.72249
  21022436.440 6  -2183849.059 6  -1654499.83649  21022435.47249
  21403542.847 6   -892171.852 6   -679747.84449  21403539.23049
  36582950.230 6   -544130.574 6                
 20  5 16  0  6 38.9990000  0  9G03G04G08G14G16G26G27G31S22         -0.000198906
  24030207.331 2   -634771.730 2   -482436.73447  24030210.53047
  22325146.972 5  -2125816.383 5  -1611438.19146  22325144.62846
  23349097.573 1  -2172959.746 1   -218391.59845  23349115.95645
  21589098.440 6   -201708.293 6   -153466.03147  21589094.85147
  20279510.800 6  -1174901.070 6   -890992.27048  20279506.56248
  20758743.651 6   -686118.348 6   -523856.72349  20758743.77649
  21021234.870 6  -2190162.414 6  -1659419.33249  21021234.26549
  21403050.589 6   -894757.309 6   -681762.48849  21403047.49949
  36582273.105 6   -547675.676 6                
 20  5 16  0  6 39.9990000  0  9G03G04G08G14G16G26G27G31S22         -0.000201115
  24029842.253 2   -636691.164 2   -483932.39847  24029845.14047
  22323977.823 5  -2131961.238 5  -1616226.39546  22323975.17146
  23347730.136 1  -2180146.203 1   -223991.41845  23347748.16745
  21588988.495 6   -202285.090 6   -153915.48447  21588985.17147
  20278864.878 6  -1178295.500 6   -893637.27048  20278860.43348
  20758363.292 6   -688115.824 6   -525413.20349  20758363.70249
  21020033.675 7  -2196475.578 7  -1664338.68449  21020032.96449
  21402558.269 6   -897342.816 6   -683777.17249  21402555.31249
  36581595.120 6   -551220.879 6                
 20  5 16  0  6 40.9990000  0  9G03G04G08G14G16G26G27G31S22         -0.000203321
  24029477.058 2   -638610.645 2   -485428.09847  24029479.81947
  22322808.831 5  -2138105.957 5  -1621014.48846  22322805.87046
  23346362.800 1  -2187332.793 1   -229591.37145  23346381.12445
  21588878.901 6   -202861.777 6   -154364.85547  21588875.66747
  20278218.550 6  -1181689.820 6   -896282.19948  20278214.79648
  20757983.300 6   -690113.426 6   -526969.77049  20757983.46449
  21018832.300 7  -2202788.531 7  -1669257.87149  21018831.35849
  21402066.776 6   -899928.379 6   -685791.89149  21402063.65949
  36580923.995 6   -554766.367 6                
 20  5 16  0  6 41.9990000  0  9G03G04G08G14G16G26G27G31S22         -0.000205528
  24029111.948 2   -640530.105 2   -486923.77747  24029114.85847
  22321638.753 5  -2144250.582 5  -1625802.51646  22321636.31946
  23344995.144 1  -2194519.512 1   -235191.42245  23345013.35145
  21588769.198 6   -203438.332 6   -154814.11747  21588765.78847
  20277572.855 6  -1185084.047 6   -898927.05148  20277568.93748
  20757603.105 6   -692111.145 6   -528526.43049  20757603.33549
  21017631.347 7  -2209101.305 7  -1674176.91849  21017629.86649
  21401574.690 6   -902514.000 6   -687806.66449  21401571.71849
  36580249.870 6   -558312.172 6                
 20  5 16  0  6 42.9990000  0  9G03G04G08G14G16G26G27G31S22         -0.000207735
  24028746.706 2   -642449.586 2   -488419.48447  24028749.27247
  22320470.159 5  -2150395.004 5  -1630590.37546  22320467.46046
  23343628.167 1  -2201706.199 1   -240791.43045  23343645.55445
  21588659.800 6   -204014.719 6   -155263.25447  21588656.25747
  20276927.323 6  -1188478.121 6   -901571.78548  20276923.03048
  20757223.151 6   -694108.945 6   -530083.15649  20757223.06249
  21016430.409 7  -2215413.840 7  -1679095.77749  21016428.88649
  21401082.808 6   -905099.598 6   -689821.41449  21401079.51149
  36579575.261 6   -561858.191 6                
 20  5 16  0  6 43.9990000  0  9G03G04G08G14G16G26G27G31S22         -0.000209944
  24028381.206 2   -644369.004 2   -489915.14147  24028384.18747
  22319300.995 5  -2156539.246 5  -1635378.09846  22319298.03446
  23342260.800 1  -2208893.035 1   -246391.54745  23342278.06945
  21588550.323 6   -204590.906 6   -155712.23047  21588546.77647
  20276281.276 6  -1191872.012 6   -904216.37148  20276276.83948
  20756842.323 6   -696106.789 6   -531639.91849  20756843.06949
  21015228.526 7  -2221726.102 7  -1684014.42249  21015227.59749
  21400590.558 6   -907685.176 6   -691836.14849  21400587.75749
  36578900.964 6   -565404.684 6                
 20  5 16  0  6 44.9990000  0  9G03G04G08G14G16G26G27G31S22         -0.000212151
  24028015.823 2   -646288.586 2   -491410.91847  24028018.75747
  22318131.784 5  -2162683.379 5  -1640165.72746  22318128.98746
  23340892.980 1  -2216080.066 1   -251991.86345  23340911.14445
  21588440.526 6   -205167.027 6   -156161.15647  21588436.86247
  20275635.644 6  -1195265.875 6   -906860.94148  20275631.51148
  20756462.425 6   -698104.789 6   -533196.80949  20756462.93349
  21014027.526 7  -2228038.207 7  -1688932.94949  21014026.23749
  21400098.222 6   -910270.852 6   -693850.96149  21400095.35849
  36578225.214 6   -568951.160 6                
 20  5 16  0  6 45.9990000  0  9G03G04G08G14G16G26G27G31S22         -0.000214359
  24027651.276 3   -648208.020 3   -492906.58247  24027653.51947
  22316962.589 5  -2168827.293 5  -1644953.19946  22316959.89446
  23339524.831 1  -2223266.988 1   -257592.06645  23339543.40145
  21588330.519 6   -205742.910 6   -156609.89547  21588327.66347
  20274989.808 6  -1198659.496 6   -909505.31648  20274985.50748
  20756082.214 6   -700102.793 6   -534753.69949  20756082.61249
  21012826.831 7  -2234350.012 7  -1693851.24249  21012825.47249
  21399606.183 6   -912856.449 6   -695865.71149  21399603.30449
  36577550.558 6   -572498.164 6                
 20  5 16  0  6 46.9990000  0  9G03G04G08G14G16G26G27G31S22         -0.000216566
  24027286.120 3   -650127.570 3   -494402.34047  24027288.45647
  22315793.456 5  -2174971.063 5  -1649740.55546  22315790.49146
  23338157.831 1  -2230454.078 1   -263192.37145  23338175.66345
  21588221.214 6   -206318.656 6   -157058.53147  21588218.05847
  20274344.214 6  -1202053.027 6   -912149.63348  20274339.72648
  20755702.065 6   -702100.934 6   -536310.69149  20755702.33549
  21011625.730 7  -2240661.613 7  -1698769.37149  21011623.96449
  21399114.487 6   -915442.094 6   -697880.50449  21399111.50349
  36576871.917 6   -576045.039 6                
 20  5 16  0  6 47.9990000  0  9G03G04G08G14G16G26G27G31S22         -0.000218775
  24026921.026 3   -652046.980 3   -495897.98047  24026922.96847
  22314624.909 5  -2181114.605 5  -1654527.73446  22314621.67946
  23336789.855 1  -2237641.164 1   -268792.70745  23336807.87045
  21588111.909 6   -206894.176 6   -157506.98447  21588108.92147
  20273697.933 6  -1205446.344 6   -914793.77348  20273694.00348
  20755321.839 6   -704099.078 6   -537867.68849  20755322.00749
  21010424.573 7  -2246972.941 7  -1703687.29349  21010423.26549
  21398622.237 6   -918027.664 6   -699895.23449  21398619.41349
  36576199.511 6   -579592.570 6                
 20  5 16  0  6 48.9990000  0  9G03G04G08G14G16G26G27G31S22         -0.000220982
  24026555.792 3   -653966.426 3   -497393.66447  24026557.73047
  22313455.573 5  -2187257.980 5  -1659314.78146  22313452.33146
  23335422.253 1  -2244828.387 1   -274393.15645  23335440.50345
  21588001.417 6   -207469.574 6   -157955.34847  21587998.79247
  20273052.644 6  -1208839.527 6   -917437.80548  20273048.35148
  20754941.792 6   -706097.313 6   -539424.75449  20754941.97249
  21009223.847 7  -2253284.016 7  -1708605.01249  21009222.05449
  21398130.276 6   -920613.270 6   -701909.99249  21398127.39749
  36575525.558 6   -583140.410 6                
 20  5 16  0  6 49.9990000  0  9G03G04G08G14G16G26G27G31S22         -0.000223190
  24026190.401 3   -655885.852 3   -498889.32847  24026192.10547
  22312286.784 5  -2193401.152 5  -1664101.67246  22312283.88646
  23334053.792 1  -2252015.609 1   -279993.58645  23334073.15545
  21587892.292 6   -208044.746 6   -158403.53147  21587889.51147
  20272407.019 6  -1212232.539 6   -920081.71548  20272402.67548
  20754561.519 6   -708095.602 6   -540981.85949  20754561.84349
  21008022.847 7  -2259594.816 7  -1713522.51649  21008021.20249
  21397638.440 6   -923198.844 6   -703924.72749  21397635.64749
  36574850.714 6   -586688.188 6                
 20  5 16  0  6 50.9990000  0  9G03G04G08G14G16G26G27G31S22         -0.000225399
  24025825.128 3   -657805.465 3   -500385.12947  24025826.86647
  22311117.151 5  -2199544.387 5  -1668888.62146  22311114.78846
  23332685.112 1  -2259203.141 1   -285594.23845  23332705.40945
  21587782.995 6   -208619.941 6   -158851.73847  21587780.01947
  20271761.284 6  -1215625.578 6   -922725.64148  20271757.11248
  20754180.987 6   -710094.141 6   -542539.16849  20754181.60549
  21006821.972 7  -2265905.594 7  -1718440.00849  21006820.14449
  21397146.253 6   -925784.602 6   -705939.60249  21397143.15549
  36574174.042 6   -590236.590 6                
 20  5 16  0  6 51.9990000  0  9G03G04G08G14G16G26G27G31S22         -0.000227608
  24025459.894 3   -659724.973 3   -501880.83247  24025461.51947
  22309948.784 5  -2205687.277 5  -1673675.28946  22309945.89746
  23331318.190 1  -2266390.602 1   -291194.85245  23331337.93345
  21587673.136 6   -209194.871 6   -159299.73047  21587670.33947
  20271116.003 6  -1219018.387 6   -925369.39548  20271111.60848
  20753801.120 6   -712092.664 6   -544096.45749  20753800.84349
  21005621.167 7  -2272216.008 7  -1723357.21149  21005619.49549
  21396654.511 6   -928370.254 6   -707954.39849  21396651.58949
  36573500.558 6   -593784.953 6                
 20  5 16  0  6 52.9990000  0  9G03G04G08G14G16G26G27G31S22         -0.000229816
  24025094.495 4   -661644.340 4   -503376.44547  24025096.02647
  22308778.925 5  -2211829.895 5  -1678461.73846  22308776.97646
  23329950.511 1  -2273578.016 1   -296795.44545  23329969.96045
  21587564.011 6   -209769.516 6   -159747.50047  21587561.08547
  20270470.050 6  -1222410.895 6   -928012.90648  20270465.90548
  20753420.440 6   -714091.121 6   -545653.69949  20753420.92949
  21004420.105 7  -2278526.063 7  -1728274.14149  21004418.62049
  21396162.159 6   -930955.793 6   -709969.10549  21396159.36649
  36572827.370 6   -597333.395 6                
 20  5 16  0  6 53.9990000  0  9G03G04G08G14G16G26G27G31S22         -0.000232025
  24024729.433 3   -663563.715 3   -504872.06647  24024730.80047
  22307610.878 5  -2217972.395 5  -1683248.09846  22307608.13246
  23328583.097 1  -2280765.535 1   -302396.12145  23328602.40145
  21587455.112 6   -210344.035 6   -160195.18047  21587451.51947
  20269824.628 6  -1225803.316 6   -930656.35248  20269820.37848
  20753040.495 6   -716089.719 6   -547211.04349  20753040.75749
  21003219.644 7  -2284835.926 7  -1733190.91849  21003218.05049
  21395670.128 6   -933541.375 6   -711983.84449  21395667.72249
  36572148.308 6   -600882.090 6                
 20  5 16  0  6 54.9990000  0  9G03G04G08G14G16G26G27G31S22         -0.000234234
  24024363.612 4   -665483.180 4   -506367.76247  24024365.80447
  22306442.026 5  -2224114.770 5  -1688034.37146  22306439.17546
  23327215.370 1  -2287953.215 1   -307996.88345  23327234.67145
  21587345.565 6   -210918.449 6   -160642.79347  21587342.48047
  20269179.151 6  -1229195.656 6   -933299.72748  20269174.61248
  20752660.073 6   -718088.441 6   -548768.49249  20752660.23349
  21002019.105 7  -2291145.594 7  -1738107.53949  21002016.96449
  21395178.401 6   -936127.020 6   -713998.63349  21395175.08549
  36571473.964 6   -604430.855 6                
 20  5 16  0  6 55.9990000  0  9G03G04G08G14G16G26G27G31S22         -0.000236443
  24023999.144 4   -667402.676 4   -507863.47747  24024000.19447
  22305272.956 5  -2230257.012 5  -1692820.52746  22305270.20246
  23325846.800 1  -2295140.941 1   -313597.68845  23325867.07345
  21587236.011 6   -211492.711 6   -161090.26647  21587233.34347
  20268533.425 6  -1232587.879 6   -935943.01648  20268529.28848
  20752279.550 6   -720087.270 6   -550326.02049  20752279.97649
  21000818.339 6  -2297455.059 6  -1743024.00449  21000816.30849
  21394686.105 6   -938712.680 6   -716013.43049  21394683.27249
  36570794.667 6   -607980.129 6                
 20  5 16  0  6 56.9990000  0  9G03G04G08G14G16G26G27G31S22         -0.000238651
  24023634.417 4   -669322.270 4   -509359.26647  24023634.79247
  22304103.956 5  -2236399.152 5  -1697606.60946  22304101.62446
  23324479.823 1  -2302328.926 1   -319198.72345  23324498.93345
  21587127.401 6   -212066.934 6   -161537.71147  21587124.13647
  20267887.628 6  -1235980.063 6   -938586.27748  20267883.78048
  20751899.284 6   -722086.285 6   -551883.69549  20751899.27249
  20999617.690 6  -2303764.387 6  -1747940.36749  20999616.41349
  21394193.972 6   -941298.457 6   -718028.32849  21394191.22649
  36570118.292 6   -611529.641 6                
 20  5 16  0  6 57.9990000  0  9G03G04G08G14G16G26G27G31S22         -0.000240862
  24023268.808 4   -671241.836 4   -510855.03547  24023269.51947
  22302935.237 5  -2242541.141 5  -1702392.57446  22302932.86646
  23323112.112 1  -2309516.930 1   -324799.76245  23323130.96445
  21587017.917 6   -212640.977 6   -161985.02047  21587014.89047
  20267242.120 6  -1239372.090 6   -941229.41448  20267238.07748
  20751518.487 6   -724085.367 6   -553441.41849  20751518.78849
  20998417.019 6  -2310073.473 6  -1752856.53949  20998415.39049
  21393701.933 6   -943884.250 6   -720043.22749  21393699.30049
  36569444.511 6   -615079.203 6                
 20  5 16  0  6 58.9990000  0  9G03G04G08G14G16G26G27G31S22         -0.000243071
  24022903.605 4   -673161.391 4   -512350.78947  24022904.58947
  22301766.355 5  -2248682.930 5  -1707178.39546  22301764.40946
  23321743.550 1  -2316705.016 1   -330400.84045  23321763.66345
  21586908.823 6   -213214.809 6   -162432.15247  21586905.21047
  20266597.042 6  -1242763.938 6   -943872.41448  20266592.91748
  20751138.378 6   -726084.484 6   -554999.18049  20751138.44049
  20997216.370 7  -2316382.305 7  -1757772.50849  20997215.07349
  21393209.901 6   -946469.980 6   -722058.09049  21393207.11249
  36568770.589 6   -618629.516 6                
 20  5 16  0  6 59.9990000  0  9G03G04G08G14G16G26G27G31S22         -0.000245281
  24022537.636 4   -675080.922 4   -513846.53147  24022539.04247
  22300597.776 5  -2254824.563 5  -1711964.09046  22300595.42946
  23320375.315 1  -2323893.156 1   -336001.97745  23320395.56245
  21586799.519 6   -213788.508 6   -162879.19947  21586796.42947
  20265951.761 6  -1246155.660 6   -946515.30948  20265947.36648
  20750758.542 6   -728083.695 6   -556557.00049  20750758.38249
  20996015.745 7  -2322690.879 7  -1762688.28149  20996014.54649
  21392718.394 6   -949055.715 6   -724072.94149  21392715.56249
  36568091.464 6   -622179.652 6                
 20  5 16  0  7  0.9990000  0  9G03G04G08G14G16G26G27G31S22         -0.000247490
  24022172.722 4   -677000.488 4   -515342.29347  24022173.49547
  22299429.550 5  -2260965.988 5  -1716749.61346  22299427.28446
  23319008.315 1  -2331081.418 1   -341603.25845  23319027.98045
  21586690.409 6   -214362.031 6   -163326.10247  21586687.18347
  20265306.097 6  -1249547.238 6   -949158.10548  20265301.95648
  20750377.511 6   -730082.977 6   -558114.88749  20750377.64449
  20994815.065 7  -2328999.211 7  -1767603.86349  20994814.10549
  21392226.089 6   -951641.477 6   -726087.82849  21392223.08149
  36567416.167 6   -625730.094 6                
 20  5 16  0  7  1.9990000  0  9G03G04G08G14G16G26G27G31S22         -0.000249701
  24021807.120 4   -678920.152 4   -516838.14147  24021807.99947
  22298260.581 5  -2267107.348 5  -1721535.09446  22298257.98046
  23317640.151 1  -2338269.867 1   -347204.66445  23317659.90145
  21586581.378 6   -214935.477 6   -163772.94547  21586578.47647
  20264661.089 6  -1252938.746 6   -951800.83248  20264656.56248
  20749996.909 6   -732082.445 6   -559672.91849  20749997.17149
  20993614.870 6  -2335307.406 6  -1772519.34449  20993613.70249
  21391733.948 6   -954227.348 6   -728102.79349  21391730.87449
  36566742.433 6   -629280.961 6                
 20  5 16  0  7  2.9990000  0  9G03G04G08G14G16G26G27G31S22         -0.000251911
  24021442.222 4   -680839.773 4   -518333.95347  24021442.78847
  22297092.120 5  -2273248.527 5  -1726320.43046  22297089.81946
  23316271.761 1  -2345458.258 1   -352806.00445  23316291.81545
  21586471.940 6   -215508.770 6   -164219.66847  21586469.02247
  20264015.472 6  -1256330.133 6   -954443.48048  20264011.17148
  20749616.206 6   -734081.996 6   -561231.00849  20749616.80049
  20992414.855 7  -2341615.367 7  -1777434.63349  20992413.24149
  21391242.097 6   -956813.191 6   -730117.73849  21391239.15149
  36566065.433 6   -632831.828 6                
 20  5 16  0  7  3.9990000  0  9G03G04G08G14G16G26G27G31S22         -0.000254122
  24021077.472 4   -682759.398 4   -519829.76647  24021077.46047
  22295922.925 5  -2279389.496 5  -1731105.59446  22295921.17146
  23314903.769 1  -2352646.789 1   -358407.48045  23314923.98345
  21586363.151 6   -216081.855 6   -164666.23447  21586359.68747
  20263370.144 6  -1259721.305 6   -957085.94548  20263366.08548
  20749236.534 6   -736081.551 6   -562789.10249  20749236.62849
  20991214.050 7  -2347923.047 7  -1782349.71149  20991213.10549
  21390749.886 6   -959399.012 6   -732132.66849  21390747.02649
  36565391.276 6   -636382.859 6                
 20  5 16  0  7  4.9990000  0  9G03G04G08G14G16G26G27G31S22         -0.000256332
  24020711.542 4   -684678.984 4   -521325.54747  24020712.11247
  22294754.526 5  -2285530.234 5  -1735890.58246  22294752.64746
  23313535.690 1  -2359835.344 1   -364008.90645  23313556.43745
  21586254.456 6   -216654.734 6   -165112.62547  21586251.01547
  20262724.698 6  -1263112.289 6   -959728.27048  20262720.76548
  20748856.019 6   -738081.176 6   -564347.25049  20748855.67549
  20990013.839 6  -2354230.441 6  -1787264.57049  20990012.78849
  21390257.948 6   -961984.781 6   -734147.55949  21390254.30849
  36564718.589 6   -639933.898 6                
 20  5 16  0  7  5.9990000  0  9G03G04G08G14G16G26G27G31S22         -0.000258543
  24020346.401 4   -686598.539 4   -522821.29747  24020347.07747
  22293586.237 5  -2291670.840 5  -1740675.47746  22293583.97246
  23312166.651 1  -2367023.949 1   -369610.40645  23312188.54245
  21586145.386 6   -217227.465 6   -165558.90247  21586141.87447
  20262079.589 6  -1266503.152 6   -962370.50048  20262075.51948
  20748475.370 6   -740080.867 6   -565905.46149  20748475.21449
  20988813.808 6  -2360537.605 6  -1792179.24249  20988812.44449
  21389766.081 6   -964570.582 6   -736162.46549  21389762.40549
  36564040.464 6   -643485.430 6                
 20  5 16  0  7  6.9990000  0  9G03G04G08G14G16G26G27G31S22         -0.000260754
  24019981.073 4   -688518.164 4   -524317.10547  24019981.46847
  22292418.151 5  -2297811.336 5  -1745460.27346  22292415.83946
  23310798.261 1  -2374212.707 1   -375212.05545  23310820.80445
  21586036.089 6   -217800.090 6   -166005.10547  21586033.04647
  20261434.308 6  -1269893.914 6   -965012.64848  20261430.23048
  20748094.667 6   -742080.688 6   -567463.75849  20748094.69849
  20987613.753 6  -2366844.578 6  -1797093.76649  20987612.41349
  21389273.792 6   -967156.414 6   -738177.40249  21389270.54249
  36563370.886 6   -647036.977 6                
 20  5 16  0  7  7.9990000  0  9G03G04G08G14G16G26G27G31S22         -0.000262964
  24019616.112 3   -690437.902 3   -525813.01647  24019616.44047
  22291249.409 5  -2303951.766 5  -1750245.03146  22291247.29246
  23309429.878 1  -2381401.648 1   -380813.84045  23309452.37045
  21585926.870 6   -218372.648 6   -166451.25847  21585924.18747
  20260789.323 6  -1273284.645 6   -967654.77748  20260785.32348
  20747714.050 6   -744080.715 6   -569022.22749  20747714.29249
  20986413.440 6  -2373151.449 6  -1802008.21549  20986412.44049
  21388781.925 6   -969742.383 6   -740192.44149  21388778.61249
  36562687.651 6   -650588.945 6                
 20  5 16  0  7  8.9990000  0  9G03G04G08G14G16G26G27G31S22         -0.000265175
  24019250.261 3   -692357.805 3   -527309.05547  24019250.86647
  22290080.737 5  -2310092.137 5  -1755029.72346  22290078.64446
  23308062.511 1  -2388590.832 1   -386415.76245  23308084.74145
  21585817.839 6   -218945.215 6   -166897.41847  21585815.06247
  20260143.745 6  -1276675.391 6   -970296.91848  20260140.10148
  20747333.237 6   -746080.969 6   -570580.86749  20747333.37049
  20985213.323 6  -2379458.207 6  -1806922.56649  20985212.01949
  21388289.464 6   -972328.488 6   -742207.59449  21388286.26549
  36562013.261 6   -654141.492 6                
 20  5 16  0  7  9.9990000  0  9G03G04G08G14G16G26G27G31S22         -0.000267387
  24018884.808 4   -694277.555 4   -528804.96947  24018885.71447
  22288912.269 5  -2316232.301 5  -1759814.26646  22288910.80046
  23306694.862 1  -2395779.953 1   -392017.70345  23306715.92145
  21585709.487 6   -219517.504 6   -167343.35247  21585706.06247
  20259498.784 6  -1280065.891 6   -972938.86748  20259494.60848
  20746952.808 6   -748081.211 6   -572139.50049  20746953.13649
  20984012.769 6  -2385764.648 6  -1811836.67649  20984012.05449
  21387797.565 6   -974914.492 6   -744222.65649  21387794.05449
  36561335.526 6   -657693.816 6                
 20  5 16  0  7 10.9990000  0  9G03G04G08G14G16G26G27G31S22         -0.000269598
  24018519.878 4   -696197.238 4   -530300.82447  24018520.15147
  22287743.878 5  -2322372.102 5  -1764598.53946  22287742.22246
  23305327.667 1  -2402969.016 1   -397619.57045  23305348.54645
  21585600.331 6   -220089.512 6   -167789.07847  21585597.15147
  20258853.667 6  -1283456.117 6   -975580.60548  20258849.63248
  20746572.230 6   -750081.375 6   -573698.06649  20746572.01549
  20982813.300 6  -2392070.711 6  -1816750.49249  20982811.92949
  21387305.136 6   -977500.395 6   -746237.65249  21387301.96049
  36560658.105 6   -661246.496 6                
 20  5 16  0  7 11.9990000  0  9G03G04G08G14G16G26G27G31S22         -0.000271809
  24018154.987 4   -698116.984 4   -531796.73047  24018154.70247
  22286575.831 5  -2328511.828 5  -1769382.75446  22286573.83946
  23303958.339 1  -2410158.281 1   -403221.59845  23303980.49145
  21585491.847 6   -220661.406 6   -168234.70747  21585488.17947
  20258208.339 6  -1286846.281 6   -978222.29348  20258204.49948
  20746191.823 6   -752081.715 6   -575256.77349  20746191.56949
  20981613.253 6  -2398376.586 6  -1821664.15649  20981611.89049
  21386813.003 6   -980086.344 6   -748252.68049  21386809.70649
  36559985.480 6   -664799.441 6                
 20  5 16  0  7 12.9990000  0  9G03G04G08G14G16G26G27G31S22         -0.000274021
  24017788.698 4   -700036.859 4   -533292.73847  24017789.39447
  22285406.894 5  -2334651.473 5  -1774166.89146  22285405.14446
  23302590.401 1  -2417347.680 1   -408823.73445  23302612.18345
  21585383.003 6   -221233.285 6   -168680.33647  21585379.56547
  20257562.964 6  -1290236.422 6   -980863.96148  20257559.42148
  20745811.058 6   -754082.234 6   -576815.62549  20745811.09349
  20980413.339 6  -2404682.371 6  -1826577.75049  20980412.31549
  21386321.230 6   -982672.422 6   -750267.80549  21386317.74949
  36559307.636 6   -668352.883 6                
 20  5 16  0  7 13.9990000  0  9G03G04G08G14G16G26G27G31S22         -0.000276232
  24017424.550 4   -701956.602 4   -534788.62547  24017424.12847
  22284239.355 5  -2340790.848 5  -1778950.81646  22284236.83546
  23301222.206 1  -2424537.090 1   -414425.85245  23301244.63245
  21585274.128 6   -221804.887 6   -169125.74247  21585271.12447
  20256918.440 6  -1293626.285 6   -983505.41048  20256914.70648
  20745430.269 6   -756082.730 6   -578374.44949  20745430.40549
  20979213.230 6  -2410987.770 6  -1831491.05549  20979212.35549
  21385829.386 6   -985258.379 6   -752282.82849  21385825.53449
  36558629.292 6   -671906.461 6                
 20  5 16  0  7 14.9990000  0  9G03G04G08G14G16G26G27G31S22         -0.000278444
  24017058.355 4   -703876.508 4   -536284.64547  24017058.53047
  22283071.097 5  -2346930.211 5  -1783734.74246  22283068.90146
  23299854.761 1  -2431726.660 1   -420028.12145  23299875.96845
  21585165.214 6   -222376.461 6   -169571.12547  21585162.55847
  20256273.378 6  -1297016.180 6   -986146.89148  20256269.44048
  20745049.753 6   -758083.469 6   -579933.46549  20745049.39449
  20978013.409 7  -2417293.117 7  -1836404.30149  20978012.15149
  21385336.612 6   -987844.512 6   -754298.00449  21385333.53049
  36557954.542 6   -675460.313 6                
 20  5 16  0  7 15.9990000  0  9G03G04G08G14G16G26G27G31S22         -0.000280657
  24016692.214 4   -705796.574 4   -537780.78947  24016693.24147
  22281902.862 5  -2353069.578 5  -1788518.65646  22281900.39746
  23298485.378 1  -2438916.488 1   -425630.58245  23298508.05845
  21585057.058 6   -222948.078 6   -170016.53547  21585053.49947
  20255628.058 6  -1300406.090 6   -988788.38348  20255624.40948
  20744668.620 6   -760084.457 6   -581492.67649  20744668.94049
  20976813.940 7  -2423598.379 7  -1841317.50049  20976812.33549
  21384844.933 6   -990430.805 6   -756313.29749  21384841.61649
  36557278.964 6   -679014.664 6                
 20  5 16  0  7 16.9990000  0  9G03G04G08G14G16G26G27G31S22         -0.000282869
  24016327.714 4   -707716.602 4   -539276.91447  24016327.73347
  22280734.675 5  -2359208.703 5  -1793302.38346  22280732.12446
  23297116.847 1  -2446106.301 1   -431233.03945  23297139.41745
  21584948.019 6   -223519.414 6   -170461.73047  21584944.85547
  20254982.808 6  -1303795.793 6   -991429.70348  20254979.38648
  20744288.097 6   -762085.438 6   -583051.88349  20744287.76149
  20975613.933 6  -2429903.313 6  -1846230.43049  20975612.24149
  21384352.472 6   -993017.023 6   -758328.53149  21384349.08549
  36556600.573 6   -682569.016 6                
 20  5 16  0  7 17.9990000  0  9G03G04G08G14G16G26G27G31S22         -0.000285082
  24015961.659 3   -709636.559 3   -540772.98447  24015962.37847
  22279565.683 5  -2365347.590 5  -1798085.93446  22279564.08946
  23295749.433 1  -2453296.230 1   -436835.61745  23295771.39745
  21584839.651 6   -224090.582 6   -170906.79347  21584836.38647
  20254337.980 6  -1307185.305 6   -994070.88348  20254334.45248
  20743906.925 6   -764086.457 6   -584611.12149  20743907.37449
  20974414.487 7  -2436207.980 7  -1851143.15249  20974412.94449
  21383860.355 6   -995603.172 6   -760343.71549  21383857.39049
  36555927.276 6   -686123.629 6                
 20  5 16  0  7 18.9990000  0  9G03G04G08G14G16G26G27G31S22         -0.000287294
  24015596.331 4   -711556.469 4   -542269.02047  24015597.37047
  22278397.581 5  -2371486.266 5  -1802869.32846  22278395.48746
  23294381.612 1  -2460486.160 1   -442438.14145  23294403.26145
  21584731.050 6   -224661.527 6   -171351.69147  21584727.70247
  20253692.925 6  -1310574.633 6   -996711.92248  20253689.32748
  20743526.605 6   -766087.500 6   -586170.37949  20743526.49949
  20973214.605 6  -2442512.355 6  -1856055.65649  20973213.41349
  21383368.284 6   -998189.332 6   -762358.90249  21383364.99949
  36555250.636 6   -689678.246 6                
 20  5 16  0  7 19.9990000  0  9G03G04G08G14G16G26G27G31S22         -0.000289507
  24015231.487 4   -713476.238 4   -543764.94547  24015231.77647
  22277230.128 5  -2377624.609 5  -1807652.46146  22277227.29646
  23293013.573 1  -2467675.949 1   -448040.57445  23293034.80845
  21584622.659 6   -225232.172 6   -171796.35247  21584619.23747
  20253047.995 6  -1313963.668 6   -999352.73048  20253044.32348
  20743145.683 6   -768088.488 6   -587729.58649  20743145.66749
  20972014.831 6  -2448816.348 6  -1860967.85549  20972013.49149
  21382876.597 6  -1000775.316 6   -764373.96149  21382873.10849
  36554573.136 6   -693232.988 6                
 20  5 16  0  7 20.9990000  0  9G03G04G08G14G16G26G27G31S22         -0.000291719
  24014866.183 4   -715396.078 4   -545260.93047  24014866.21047
  22276061.519 5  -2383762.840 5  -1812435.48846  22276059.61646
  23291645.526 1  -2474865.969 1   -453643.19145  23291667.10845
  21584513.589 6   -225802.691 6   -172240.91847  21584510.21447
  20252403.198 6  -1317352.586 6  -1001993.44148  20252399.48348
  20742764.667 6   -770089.609 6   -589288.90649  20742764.78849
  20970815.448 6  -2455120.145 6  -1865879.90649  20970814.16749
  21382384.370 6  -1003361.348 6   -766389.05149  21382380.64449
  36553897.901 6   -696788.098 6                
 20  5 16  0  7 21.9990000  0  9G03G04G08G14G16G26G27G31S22         -0.000293934
  24014500.190 4   -717315.785 4   -546756.81347  24014500.73047
  22274893.495 5  -2389900.816 5  -1817218.33246  22274891.55046
  23290277.815 1  -2482055.969 1   -459245.78145  23290298.77245
  21584405.097 6   -226372.984 6   -172685.29347  21584401.89047
  20251758.183 6  -1320741.309 6  -1004634.00448  20251754.29648
  20742383.628 6   -772090.750 6   -590848.23849  20742383.95649
  20969615.644 6  -2461423.637 6  -1870791.71949  20969614.62849
  21381892.386 6  -1005947.328 6   -768404.10249  21381888.39449
  36553221.558 6   -700343.156 6                
 20  5 16  0  7 22.9990000  0  9G03G04G08G14G16G26G27G31S22         -0.000296146
  24014135.269 3   -719235.605 3   -548252.77747  24014135.42947
  22273725.831 5  -2396038.680 5  -1822001.08246  22273723.55446
  23288909.581 1  -2489245.996 1   -464848.40245  23288930.55045
  21584296.448 6   -226943.152 6   -173129.58247  21584293.69447
  20251113.776 6  -1324129.938 6  -1007274.49648  20251110.02648
  20742002.964 6   -774091.984 6   -592407.64549  20742003.43349
  20968416.167 6  -2467726.926 6  -1875703.36749  20968415.02249
  21381400.347 6  -1008533.328 6   -770419.16449  21381396.49149
  36552543.995 6   -703899.063 6                
 20  5 16  0  7 23.9990000  0  9G03G04G08G14G16G26G27G31S22         -0.000298359
  24013769.144 3   -721155.398 3   -549748.72747  24013770.16347
  22272558.019 5  -2402176.352 5  -1826783.67646  22272555.70246
  23287540.558 1  -2496436.180 1   -470451.13345  23287562.14445
  21584187.769 6   -227513.176 6   -173573.75847  21584185.19047
  20250468.628 6  -1327518.402 6  -1009914.85948  20250464.82748
  20741622.550 6   -776093.301 6   -593967.11349  20741622.18349
  20967217.128 6  -2474029.965 6  -1880614.82849  20967215.87849
  21380908.003 6  -1011119.332 6   -772434.23449  21380904.48749
  36551867.761 6   -707454.824 6                
 20  5 16  0  7 24.9990000  0  9G03G04G08G14G16G26G27G31S22         -0.000300573
  24013404.065 3   -723075.184 3   -551244.65647  24013404.62847
  22271390.128 5  -2408313.805 5  -1831566.10946  22271387.74946
  23286172.519 1  -2503626.383 1   -476053.88745  23286193.98745
  21584079.839 6   -228083.012 6   -174017.78947  21584076.74547
  20249824.144 6  -1330906.707 6  -1012555.09448  20249820.37048
  20741241.190 6   -778094.688 6   -595526.63349  20741241.42149
  20966017.776 7  -2480332.754 7  -1885526.09049  20966016.19849
  21380415.620 6  -1013705.313 6   -774449.28549  21380412.25349
  36551191.276 6   -711011.207 6                
 20  5 16  0  7 25.9990000  0  9G03G04G08G14G16G26G27G31S22         -0.000302786
  24013038.909 3   -724994.949 3   -552740.57447  24013039.47647
  22270221.815 5  -2414451.125 5  -1836348.44546  22270219.73346
  23284804.128 1  -2510816.703 1   -481656.71545  23284825.68345
  21583971.394 6   -228652.680 6   -174461.68447  21583968.51947
  20249179.214 6  -1334294.887 6  -1015195.23448  20249175.61648
  20740860.394 6   -780096.152 6   -597086.21949  20740860.38249
  20964818.011 6  -2486635.309 6  -1890437.17249  20964816.93349
  21379923.690 6  -1016291.320 6   -776464.35549  21379920.27249
  36550512.120 6   -714567.590 6                
 20  5 16  0  7 26.9990000  0  9G03G04G08G14G16G26G27G31S22         -0.000305000
  24012674.136 3   -726914.699 3   -554236.48047  24012674.60147
  22269053.730 5  -2420588.211 5  -1841130.58246  22269051.89046
  23283435.034 1  -2518006.965 1   -487259.49645  23283457.24145
  21583863.065 6   -229222.137 6   -174905.42247  21583859.66747
  20248534.722 6  -1337682.879 6  -1017835.23048  20248530.67148
  20740479.628 6   -782097.648 6   -598645.82849  20740480.00749
  20963618.730 6  -2492937.539 6  -1895348.00049  20963617.31249
  21379431.519 6  -1018877.262 6   -778479.37949  21379427.90949
  36549836.230 6   -718124.039 6                
 20  5 16  0  7 27.9990000  0  9G03G04G08G14G16G26G27G31S22         -0.000307213
  24012308.737 3   -728834.371 3   -555732.32447  24012309.02247
  22267886.230 5  -2426725.035 5  -1845912.51646  22267884.51146
  23282066.706 1  -2525197.266 1   -492862.33645  23282089.20645
  21583754.948 6   -229791.344 6   -175348.95747  21583751.67547
  20247890.042 6  -1341070.621 6  -1020475.02748  20247885.64448
  20740098.339 6   -784099.121 6   -600205.41849  20740098.82349
  20962419.503 6  -2499239.473 6  -1900258.59849  20962418.23749
  21378939.472 6  -1021463.113 6   -780494.33249  21378936.13249
  36549159.401 6   -721680.840 6                
 20  5 16  0  7 28.9990000  0  9G03G04G08G14G16G26G27G31S22         -0.000309427
  24011943.409 3   -730753.996 3   -557228.12947  24011944.23747
  22266718.683 5  -2432861.691 5  -1850694.32446  22266716.74146
  23280698.034 1  -2532387.645 1   -498465.25045  23280720.61245
  21583646.753 6   -230360.398 6   -175792.37147  21583643.54647
  20247245.378 6  -1344458.223 6  -1023114.71548  20247241.76948
  20739717.980 6   -786100.699 6   -601765.09449  20739717.69049
  20961219.995 6  -2505541.164 6  -1905169.00049  20961219.43349
  21378447.409 6  -1024048.969 6   -782509.28149  21378443.85849
  36548485.370 6   -725237.348 6                
 20  5 16  0  7 29.9990000  0  9G03G04G08G14G16G26G27G31S22         -0.000311642
  24011578.401 3   -732673.621 3   -558723.93847  24011579.24947
  22265550.815 5  -2438998.125 5  -1855475.95746  22265548.77246
  23279330.253 1  -2539578.016 1   -504068.14845  23279352.18745
  21583538.206 6   -230929.246 6   -176235.63347  21583535.13247
  20246600.503 6  -1347845.652 6  -1025754.27348  20246596.78448
  20739336.636 6   -788102.309 6   -603324.78549  20739337.28049
  20960020.730 6  -2511842.574 6  -1910079.19549  20960019.68349
  21377954.933 6  -1026634.805 6   -784524.21949  21377951.53849
  36547804.776 6   -728794.387 6                
 20  5 16  0  7 30.9990000  0  9G03G04G08G14G16G26G27G31S22         -0.000313856
  24011212.933 3   -734593.336 3   -560219.81647  24011213.94047
  22264383.308 5  -2445134.480 5  -1860257.54346  22264381.09346
  23277962.331 1  -2546768.594 1   -509671.20745  23277984.48345
  21583430.089 6   -231498.031 6   -176678.84047  21583426.96047
  20245956.347 6  -1351233.047 6  -1028393.80548  20245952.25348
  20738955.972 6   -790104.078 6   -604884.60949  20738956.07749
  20958822.034 6  -2518143.816 6  -1914989.25049  20958820.86249
  21377463.159 6  -1029220.719 6   -786539.21549  21377459.71449
  36547127.823 6   -732351.418 6                
 20  5 16  0  7 31.9990000  0  9G03G04G08G14G16G26G27G31S22         -0.000316071
  24010847.503 3   -736512.984 3   -561715.64547  24010848.40147
  22263215.300 5  -2451270.590 5  -1865038.92646  22263213.78846
  23276593.730 1  -2553959.129 1   -515274.19545  23276616.02645
  21583321.401 6   -232066.586 6   -177121.87547  21583318.82347
  20245311.464 6  -1354620.203 6  -1031033.15248  20245307.63648
  20738575.425 6   -792105.871 6   -606444.44949  20738575.28049
  20957622.901 6  -2524444.754 6  -1919899.07449  20957621.78049
  21376971.175 6  -1031806.563 6   -788554.16049  21376967.62849
  36546455.901 6   -735908.816 6                
 20  5 16  0  7 32.9990000  0  9G03G04G08G14G16G26G27G31S22         -0.000318285
  24010482.456 4   -738432.777 4   -563211.60247  24010483.60147
  22262047.534 5  -2457406.645 5  -1869820.27046  22262045.97246
  23275224.448 1  -2561149.840 1   -520877.35545  23275248.17145
  21583213.355 6   -232635.105 6   -177564.87947  21583210.87847
  20244666.690 6  -1358007.363 6  -1033672.50048  20244663.43348
  20738193.909 6   -794107.852 6   -608004.43849  20738194.12049
  20956423.909 6  -2530745.578 6  -1924808.80549  20956422.70649
  21376478.862 6  -1034392.520 6   -790569.19149  21376475.35549
  36545778.495 6   -739466.613 6                
 20  5 16  0  7 33.9990000  0  9G03G04G08G14G16G26G27G31S22         -0.000320499
  24010116.495 3   -740352.574 3   -564707.55147  24010117.93347
  22260879.839 5  -2463542.563 5  -1874601.50446  22260878.46846
  23273856.276 1  -2568340.738 1   -526480.66845  23273879.60145
  21583105.065 6   -233203.516 6   -178007.80147  21583103.19047
  20244022.198 6  -1361394.406 6  -1036311.75048  20244018.33548
  20737813.214 6   -796109.973 6   -609564.53149  20737813.33149
  20955225.323 6  -2537046.188 6  -1929718.36749  20955224.18349
  21375987.081 6  -1036978.543 6   -792584.27749  21375983.62449
  36545100.495 6   -743024.531 6                
 20  5 16  0  7 34.9990000  0  9G03G04G08G14G16G26G27G31S22         -0.000322714
  24009751.151 3   -742272.281 3   -566203.41847  24009752.94447
  22259712.605 5  -2469678.230 5  -1879382.53946  22259710.89446
  23272486.917 1  -2575531.578 1   -532083.90645  23272511.30445
  21582997.370 6   -233771.652 6   -178450.50047  21582994.48047
  20243377.714 6  -1364781.227 6  -1038950.82848  20243374.34348
  20737432.644 6   -798112.090 6   -611124.62549  20737432.33949
  20954026.120 6  -2543346.488 6  -1934627.69949  20954025.03449
  21375495.198 6  -1039564.461 6   -794599.27749  21375491.33549
  36544425.167 6   -746582.992 6                
 20  5 16  0  7 35.9990000  0  9G03G04G08G14G16G26G27G31S22         -0.000324928
  24009385.714 3   -744192.250 3   -567699.50047  24009387.62047
  22258545.276 5  -2475813.883 5  -1884163.56346  22258543.47646
  23271118.581 1  -2582722.723 1   -537687.41445  23271142.91345
  21582889.026 6   -234339.813 6   -178893.22747  21582886.49947
  20242733.073 6  -1368168.105 6  -1041589.95348  20242729.71048
  20737051.198 6   -800114.457 6   -612684.91049  20737050.94449
  20952826.925 6  -2549646.738 6  -1939536.98449  20952825.76549
  21375002.933 6  -1042150.582 6   -796614.44149  21374999.06249
  36543742.339 6   -750141.289 6                
 20  5 16  0  7 36.9990000  0  9G03G04G08G14G16G26G27G31S22         -0.000327145
  24009019.526 3   -746112.086 3   -569195.48047  24009022.36247
  22257376.940 5  -2481949.285 5  -1888944.38747  22257375.45247
  23269749.769 1  -2589913.809 1   -543290.85945  23269774.44045
  21582780.644 6   -234907.781 6   -179335.80147  21582778.32747
  20242088.573 6  -1371554.719 6  -1044228.87548  20242085.53048
  20736670.159 6   -802116.824 6   -614245.19949  20736670.13249
  20951628.362 6  -2555946.633 6  -1944445.98849  20951627.16749
  21374510.308 6  -1044736.621 6   -798629.53549  21374506.70649
  36543066.339 6   -753700.336 6                
 20  5 16  0  7 37.9990000  0  9G03G04G08G14G16G26G27G31S22         -0.000329359
  24008654.542 2   -748031.926 2   -570691.46147  24008657.16747
  22256210.144 5  -2488084.551 5  -1893725.12146  22256208.12446
  23268381.495 1  -2597105.098 1   -548894.43445  23268405.97245
  21582672.503 6   -235475.586 6   -179778.25047  21582670.12847
  20241444.175 6  -1374941.238 6  -1046867.72348  20241440.74548
  20736289.003 6   -804119.301 6   -615805.57449  20736289.15949
  20950429.058 6  -2562246.332 6  -1949354.84849  20950428.46449
  21374018.550 6  -1047322.660 6   -800644.63749  21374014.64749
  36542388.901 6   -757258.980 6                
 20  5 16  0  7 38.9990000  0  9G03G04G08G14G16G26G27G31S22         -0.000331575
  24008289.605 2   -749951.801 2   -572187.46947  24008291.59747
  22255041.987 5  -2494219.629 5  -1898505.71147  22255040.60147
  23267012.120 1  -2604296.375 1   -554497.98045  23267037.59345
  21582564.753 6   -236043.203 6   -180220.54747  21582561.76547
  20240799.690 6  -1378327.605 6  -1049506.44548  20240796.32348
  20735908.347 6   -806121.828 6   -617365.98049  20735907.94449
  20949230.464 6  -2568545.754 6  -1954263.48849  20949229.73349
  21373526.112 6  -1049908.676 6   -802659.71549  21373522.44449
  36541713.651 6   -760818.133 6                
 20  5 16  0  7 39.9990000  0  9G03G04G08G14G16G26G27G31S22         -0.000333790
  24007924.401 2   -751871.730 2   -573683.52047  24007926.16347
  22253875.042 5  -2500354.535 5  -1903286.15646  22253873.44846
  23265643.558 1  -2611487.766 1   -560101.68845  23265669.19845
  21582456.534 6   -236610.730 6   -180662.77047  21582454.21447
  20240155.487 6  -1381713.871 6  -1052145.09848  20240151.87048
  20735526.558 6   -808124.508 6   -618926.51649  20735526.75349
  20948032.042 6  -2574845.004 6  -1959172.00049  20948030.96049
  21373034.323 6  -1052494.789 6   -804674.86749  21373030.46849
  36541034.495 6   -764377.164 6                
 20  5 16  0  7 40.9990000  0  9G03G04G08G14G16G26G27G31S22         -0.000336006
  24007557.909 2   -753791.625 2   -575179.54347  24007561.05047
  22252707.323 5  -2506489.324 5  -1908066.51246  22252705.94846
  23264275.815 1  -2618679.203 1   -565705.43445  23264300.69045
  21582348.675 6   -237178.086 6   -181104.86747  21582346.53047
  20239510.964 6  -1385099.992 6  -1054783.63348  20239507.41348
  20735145.511 6   -810127.270 6   -620487.10549  20735146.08949
  20946833.245 6  -2581144.020 6  -1964080.31649  20946832.39049
  21372542.144 6  -1055080.871 6   -806689.99649  21372538.70249
  36540357.183 6   -767936.750 6                
 20  5 16  0  7 41.9990000  0  9G03G04G08G14G16G26G27G31S22         -0.000338223
  24007193.565 2   -755711.477 2   -576675.53147  24007196.15147
  22251539.636 5  -2512623.859 5  -1912846.66446  22251538.61246
  23262906.980 1  -2625870.730 1   -571309.24645  23262931.84345
  21582240.776 6   -237745.258 6   -181546.82447  21582238.33947
  20238866.901 6  -1388485.945 6  -1057422.05148  20238863.40548
  20734764.847 6   -812130.063 6   -622047.72349  20734764.88649
  20945634.448 6  -2587442.727 6  -1968988.40249  20945633.83549
  21372050.292 6  -1057666.934 6   -808705.11349  21372046.44849
  36539679.917 6   -771496.395 6                
 20  5 16  0  7 42.9990000  0  9G03G04G08G14G16G26G27G31S22         -0.000340439
  24006828.667 1   -757631.285 1   -578171.50447  24006830.85847
  22250373.136 5  -2518758.172 5  -1917626.64546  22250371.43746
  23261538.558 1  -2633062.191 1   -576912.96545  23261563.92945
  21582133.144 6   -238312.164 6   -181988.57847  21582130.60147
  20238222.503 6  -1391871.672 6  -1060060.27348  20238219.10548
  20734383.331 6   -814132.840 6   -623608.32849  20734383.28449
  20944436.237 6  -2593741.109 6  -1973896.23049  20944435.26549
  21371557.980 6  -1060252.898 6   -810720.15249  21371554.39049
  36539004.776 6   -775056.016 6                
 20  5 16  0  7 43.9990000  0  9G03G04G08G14G16G26G27G31S22         -0.000342655
  24006463.933 2   -759551.059 2   -579667.43847  24006465.52247
  22249205.722 5  -2524892.246 5  -1922406.43447  22249203.90147
  23260170.237 1  -2640253.730 1   -582516.77045  23260195.19845
  21582024.917 6   -238878.891 6   -182430.18447  21582022.94847
  20237578.089 6  -1395257.223 6  -1062698.36748  20237574.75348
  20734002.628 6   -816135.691 6   -625168.98849  20734002.23749
  20943237.675 6  -2600039.242 6  -1978803.86749  20943236.85549
  21371066.065 6  -1062838.840 6   -812735.17249  21371062.39749
  36538323.480 6   -778616.383 6                
 20  5 16  0  7 44.9990000  0  9G03G04G08G14G16G26G27G31S22         -0.000344870
  24006098.003 2   -761470.813 2   -581163.35947  24006100.39447
  22248038.636 5  -2531026.125 5  -1927186.07847  22248036.73047
  23258801.800 1  -2647445.258 1   -588120.52345  23258826.56245
  21581916.870 6   -239445.406 6   -182871.62547  21581915.06247
  20236934.558 6  -1398642.582 6  -1065336.30948  20236930.69048
  20733621.190 6   -818138.566 6   -626729.67249  20733621.36249
  20942039.230 6  -2606337.055 6  -1983711.25449  20942038.28849
  21370573.886 6  -1065424.730 6   -814750.15249  21370569.99149
  36537649.714 6   -782176.352 6                
 20  5 16  0  7 45.9990000  0  9G03G04G08G14G16G26G27G31S22         -0.000347086
  24005732.956 2   -763390.605 2   -582659.29747  24005734.94847
  22246871.542 6  -2537159.879 6  -1931965.63347  22246869.50747
  23257433.472 1  -2654637.059 1   -593724.53145  23257458.51545
  21581809.815 6   -240011.828 6   -183312.99647  21581806.95647
  20236289.526 6  -1402027.891 6  -1067974.21148  20236286.19848
  20733240.151 6   -820141.602 6   -628290.48049  20733239.85849
  20940840.667 6  -2612634.723 6  -1988618.52349  20940840.16349
  21370081.901 6  -1068010.688 6   -816765.18849  21370077.88249
  36536966.745 6   -785737.145 6                
 20  5 16  0  7 46.9990000  0  9G03G04G08G14G16G26G27G31S22         -0.000349304
  24005368.120 2   -765310.406 2   -584155.25447  24005369.81947
  22245704.019 6  -2543293.445 6  -1936745.03946  22245702.25746
  23256064.565 1  -2661828.820 1   -599328.52345  23256089.58945
  21581701.581 6   -240578.113 6   -183754.25447  21581699.33147
  20235645.612 6  -1405413.043 6  -1070611.99248  20235641.76148
  20732858.831 6   -822144.730 6   -629851.35549  20732858.99949
  20939642.378 6  -2618932.156 6  -1993525.61749  20939641.83949
  21369589.972 6  -1070596.660 6   -818780.23449  21369585.87849
  36536291.214 6   -789297.813 6                
 20  5 16  0  7 47.9990000  0  9G03G04G08G14G16G26G27G31S22         -0.000351521
  24005002.503 2   -767230.113 2   -585651.14147  24005004.44847
  22244537.206 6  -2549426.754 6  -1941524.24246  22244534.95646
  23254696.323 1  -2669020.551 1   -604932.46545  23254721.29645
  21581593.667 6   -241144.113 6   -184195.29347  21581592.12047
  20235001.323 6  -1408797.938 6  -1073249.57448  20234998.09348
  20732477.901 6   -824147.813 6   -631412.20349  20732477.71849
  20938444.230 6  -2625229.227 6  -1998432.42649  20938443.60549
  21369097.870 6  -1073182.512 6   -820795.18849  21369093.79249
  36535612.401 6   -792858.727 6                
 20  5 16  0  7 48.9990000  0  9G03G04G08G14G16G26G27G31S22         -0.000353737
  24004636.980 2   -769149.813 2   -587147.02347  24004638.99547
  22243369.878 6  -2555559.855 6  -1946303.29347  22243368.00747
  23253328.409 1  -2676212.273 1   -610536.37945  23253352.63645
  21581486.394 6   -241709.938 6   -184636.19947  21581483.90947
  20234357.269 6  -1412182.680 6  -1075887.03548  20234354.13248
  20732096.519 6   -826150.957 6   -632973.09449  20732096.28049
  20937246.222 6  -2631526.020 6  -2003339.02049  20937245.24549
  21368605.526 6  -1075768.355 6   -822810.12949  21368601.19849
  36534939.151 6   -796420.035 6                
 20  5 16  0  7 49.9990000  0  9G03G04G08G14G16G26G27G31S22         -0.000355953
  24004272.120 2   -771069.621 2   -588642.98847  24004273.96847
  22242202.550 6  -2561692.852 6  -1951082.24646  22242200.74946
  23251959.237 1  -2683404.301 1   -616140.59445  23251984.03045
  21581378.636 6   -242275.676 6   -185077.02747  21581375.94047
  20233713.456 6  -1415567.352 6  -1078524.43848  20233710.11648
  20731715.065 6   -828154.246 6   -634534.10249  20731714.95249
  20936047.511 6  -2637822.648 6  -2008245.48449  20936047.44049
  21368113.620 6  -1078354.273 6   -824825.12549  21368109.57349
  36534258.105 6   -799981.410 6                
 20  5 16  0  7 50.9990000  0  9G03G04G08G14G16G26G27G31S22         -0.000358170
  24003907.230 2   -772989.402 2   -590138.93047  24003908.80047
  22241035.980 5  -2567825.699 5  -1955861.07846  22241034.25746
  23250591.222 1  -2690596.305 1   -621744.76645  23250615.93345
  21581271.308 6   -242841.273 6   -185517.76247  21581268.52647
  20233069.128 6  -1418951.898 6  -1081161.75048  20233066.10148
  20731334.073 6   -830157.664 6   -636095.19949  20731333.96049
  20934849.753 6  -2644119.066 6  -2013151.78149  20934848.96449
  21367621.503 6  -1080940.215 6   -826840.14149  21367617.43349
  36533579.589 6   -803543.406 6                
 20  5 16  0  7 51.9990000  0  9G03G04G08G14G16G26G27G31S22         -0.000360388
  24003540.901 2   -774909.184 2   -591634.86747  24003543.53047
  22239868.925 6  -2573958.332 6  -1960639.74647  22239866.94847
  23249221.909 1  -2697788.406 1   -627348.98445  23249246.73345
  21581163.644 6   -243406.723 6   -185958.36747  21581160.53847
  20232425.206 6  -1422336.313 6  -1083798.96148  20232422.01148
  20730952.589 6   -832161.137 6   -637656.35249  20730952.84749
  20933651.425 6  -2650415.215 6  -2018057.87149  20933650.61249
  21367129.698 6  -1083526.129 6   -828855.14849  21367125.66749
  36532901.964 6   -807105.023 6                
 20  5 16  0  7 52.9990000  0  9G03G04G08G14G16G26G27G31S22         -0.000362604
  24003175.964 2   -776828.980 2   -593130.80947  24003178.18747
  22238701.847 6  -2580090.828 6  -1965418.32047  22238700.12847
  23247854.784 1  -2704980.543 1   -632953.25445  23247878.57745
  21581055.815 6   -243971.973 6   -186398.82847  21581053.10147
  20231781.347 6  -1425720.555 6  -1086436.02748  20231777.99548
  20730571.730 6   -834164.672 6   -639217.54749  20730571.59749
  20932453.534 6  -2656711.121 6  -2022963.76649  20932453.03849
  21366637.331 6  -1086112.039 6   -830870.14149  21366633.58149
  36532224.808 6   -810667.313 6                
 20  5 16  0  7 53.9990000  0  9G03G04G08G14G16G26G27G31S22         -0.000364822
  24002811.190 2   -778748.652 2   -594626.66047  24002813.22247
  22237534.722 6  -2586223.016 6  -1970196.64847  22237532.87847
  23246484.972 1  -2712172.734 1   -638557.54745  23246509.97245
  21580948.425 6   -244537.004 6   -186839.10547  21580945.82747
  20231137.300 6  -1429104.586 6  -1089072.93848  20231134.22248
  20730190.253 6   -836168.234 6   -640778.75849  20730190.28449
  20931255.190 6  -2663006.684 6  -2027869.40249  20931254.87849
  21366145.370 6  -1088697.887 6   -832885.08649  21366141.17949
  36531547.073 6   -814229.527 6                
 20  5 16  0  7 54.9990000  0  9G03G04G08G14G16G26G27G31S22         -0.000367039
  24002445.573 2   -780668.477 2   -596122.62947  24002447.91347
  22236367.855 6  -2592355.117 6  -1974974.91847  22236366.32347
  23245116.339 1  -2719364.996 1   -644161.89545  23245141.30445
  21580840.894 6   -245101.953 6   -187279.33247  21580837.92947
  20230492.987 6  -1432488.555 6  -1091709.78948  20230490.04248
  20729809.433 6   -838171.930 6   -642340.08249  20729808.69849
  20930057.659 6  -2669302.102 6  -2032774.91849  20930057.10149
  21365653.190 6  -1091283.789 6   -834900.07449  21365649.29649
  36530870.886 6   -817792.207 6                
 20  5 16  0  7 55.9990000  0  9G03G04G08G14G16G26G27G31S22         -0.000369257
  24002080.011 3   -782588.270 3   -597618.58247  24002082.35847
  22235200.831 6  -2598487.000 6  -1979753.00846  22235199.28846
  23243747.714 1  -2726557.293 1   -649766.28945  23243772.55845
  21580733.519 6   -245666.699 6   -187719.40247  21580730.38647
  20229849.261 6  -1435872.348 6  -1094346.51648  20229846.39448
  20729427.878 6   -840175.672 6   -643901.44149  20729427.70649
  20928859.230 6  -2675597.230 6  -2037680.21949  20928859.18749
  21365160.987 6  -1093869.656 6   -836915.03949  21365156.85149
  36530186.198 6   -821354.914 6                
 20  5 16  0  7 56.9990000  0  9G03G04G08G14G16G26G27G31S22         -0.000371475
  24001714.378 3   -784508.156 3   -599114.60947  24001717.37447
  22234034.339 6  -2604618.863 6  -1984531.08647  22234032.50347
  23242379.034 1  -2733749.805 1   -655370.83645  23242403.67945
  21580625.558 6   -246231.445 6   -188159.46547  21580622.67547
  20229205.292 6  -1439256.145 6  -1096983.23848  20229202.06248
  20729046.511 6   -842179.648 6   -645462.98849  20729046.29249
  20927661.378 6  -2681892.258 6  -2042585.43849  20927661.11249
  21364668.940 6  -1096455.660 6   -838930.10549  21364665.08149
  36529511.011 6   -824918.031 6                
 20  5 16  0  7 57.9990000  0  9G03G04G08G14G16G26G27G31S22         -0.000373693
  24001349.370 3   -786427.996 3   -600610.58647  24001352.42947
  22232867.300 6  -2610750.469 6  -1989308.95347  22232865.87047
  23241010.894 1  -2740942.297 1   -660975.38745  23241035.09745
  21580518.050 6   -246795.926 6   -188599.31347  21580515.55847
  20228561.636 6  -1442639.723 6  -1099619.79348  20228558.32748
  20728665.128 6   -844183.625 6   -647024.52749  20728664.89449
  20926463.761 6  -2688186.965 6  -2047490.40249  20926463.76549
  21364176.589 6  -1099041.625 6   -840945.14549  21364173.01149
  36528834.011 6   -828481.598 6                
 20  5 16  0  7 58.9990000  0  9G03G04G08G14G16G26G27G31S22         -0.000375910
  24000984.120 3   -788347.859 3   -602106.58647  24000986.81547
  22231700.628 6  -2616881.930 6  -1994086.71547  22231699.22647
  23239642.448 1  -2748134.965 1   -666580.04745  23239666.47245
  21580410.855 6   -247360.305 6   -189039.08647  21580408.17947
  20227917.722 6  -1446023.168 6  -1102256.24248  20227914.43748
  20728283.394 6   -846187.707 6   -648586.14849  20728283.48749
  20925265.519 6  -2694481.449 6  -2052395.19549  20925265.49149
  21363684.909 6  -1101627.559 6   -842960.16049  21363681.31549
  36528156.683 6   -832044.918 6                
 20  5 16  0  7 59.9990000  0  9G03G04G08G14G16G26G27G31S22         -0.000378130
  24000619.276 3   -790267.789 3   -603602.63747  24000621.22647
  22230533.784 6  -2623013.246 6  -1998864.36347  22230532.46447
  23238271.386 1  -2755327.637 1   -672184.73845  23238297.55445
  21580303.370 6   -247924.523 6   -189478.74247  21580301.01147
  20227274.003 6  -1449406.508 6  -1104892.61748  20227270.55848
  20727902.472 6   -848191.895 6   -650147.85249  20727902.04249
  20924067.940 6  -2700775.695 6  -2057299.79749  20924067.61649
  21363192.964 6  -1104213.555 6   -844975.22349  21363188.51949
  36527477.526 6   -835609.063 6                
 20  5 16  0  8  0.9990000  0  9G03G04G08G14G16G26G27G31S22         -0.000380348
  24000254.503 3   -792187.625 3   -605098.61347  24000256.22647
  22229367.206 6  -2629144.309 6  -2003641.81647  22229365.72647
  23236903.495 1  -2762520.344 1   -677789.45345  23236928.70245
  21580195.917 6   -248488.555 6   -189918.25047  21580193.46847
  20226630.136 6  -1452789.668 6  -1107528.84048  20226626.84348
  20727520.815 6   -850196.129 6   -651709.59049  20727520.75349
  20922870.089 6  -2707069.680 6  -2062204.20349  20922870.18349
  21362700.831 6  -1106799.508 6   -846990.25449  21362696.85849
  36526800.636 6   -839172.895 6                
 20  5 16  0  8  1.9990000  0  9G03G04G08G14G16G26G27G31S22         -0.000382566
  23999888.440 3   -794107.570 3   -606594.66847  23999890.74547
  22228200.019 6  -2635275.254 6  -2008419.17647  22228198.58147
  23235534.605 1  -2769713.191 1   -683394.25445  23235560.39045
  21580088.315 6   -249052.477 6   -190357.67247  21580086.22647
  20225986.683 6  -1456172.730 6  -1110165.00048  20225983.08548
  20727139.300 6   -852200.488 6   -653271.43049  20727139.23749
  20921672.433 6  -2713363.465 6  -2067108.45349  20921672.31249
  21362208.448 6  -1109385.504 6   -849005.31649  21362204.91349
  36526124.417 6   -842737.227 6                
 20  5 16  0  8  2.9990000  0  9G03G04G08G14G16G26G27G31S22         -0.000384785
  23999523.089 3   -796027.465 3   -608090.69147  23999525.50347
  22227033.769 6  -2641405.980 6  -2013196.36347  22227031.93347
  23234165.487 1  -2776906.020 1   -688999.04745  23234191.87445
  21579981.800 6   -249616.203 6   -190796.93847  21579979.19047
  20225342.620 6  -1459555.617 6  -1112801.01648  20225339.51148
  20726758.065 6   -854204.883 6   -654833.29349  20726757.95649
  20920474.565 6  -2719656.949 6  -2072012.47349  20920474.73049
  21361716.386 6  -1111971.445 6   -851020.33649  21361712.68749
  36525442.980 6   -846301.750 6                
 20  5 16  0  8  3.9990000  0  9G03G04G08G14G16G26G27G31S22         -0.000387003
  23999157.776 3   -797947.242 3   -609586.62147  23999160.11647
  22225867.198 6  -2647536.395 6  -2017973.30947  22225865.72247
  23232796.964 1  -2784098.859 1   -694603.84445  23232823.31945
  21579873.995 6   -250179.660 6   -191235.98847  21579872.16747
  20224698.800 6  -1462938.227 6  -1115436.81648  20224695.64448
  20726376.667 6   -856209.219 6   -656395.11749  20726376.52649
  20919277.105 6  -2725950.055 6  -2076916.19149  20919277.19049
  21361224.308 6  -1114557.273 6   -853035.27349  21361220.86649
  36524762.183 6   -849866.230 6                
 20  5 16  0  8  4.9990000  0  9G03G04G08G14G16G26G27G31S22         -0.000389223
  23998792.183 4   -799866.930 4   -611082.48047  23998794.55847
  22224700.464 5  -2653666.613 5  -2022750.10547  22224698.67947
  23231426.690 1  -2791291.746 1   -700208.67645  23231454.37445
  21579767.222 6   -250742.847 6   -191674.84147  21579764.78047
  20224055.253 6  -1466320.645 6  -1118072.46948  20224052.17948
  20725995.284 6   -858213.617 6   -657956.98449  20725995.19849
  20918079.503 6  -2732242.875 6  -2081819.68849  20918079.69049
  21360732.120 6  -1117143.035 6   -855050.14849  21360728.47249
  36524089.073 6   -853431.129 6                
 20  5 16  0  8  5.9990000  0  9G03G04G08G14G16G26G27G31S22         -0.000391441
  23998426.628 3   -801786.641 3   -612578.35947  23998429.58947
  22223534.198 6  -2659796.605 6  -2027526.72347  22223532.08947
  23230058.730 1  -2798484.617 1   -705813.56645  23230085.75345
  21579660.292 6   -251305.938 6   -192113.61347  21579657.44047
  20223411.495 6  -1469702.902 6  -1120708.00048  20223408.33948
  20725613.690 6   -860218.070 6   -659518.90249  20725613.50349
  20916882.394 6  -2738535.461 6  -2086723.00049  20916882.51149
  21360240.136 6  -1119728.816 6   -857065.03949  21360236.40949
  36523406.683 6   -856995.992 6                
 20  5 16  0  8  6.9990000  0  9G03G04G08G14G16G26G27G31S22         -0.000393661
  23998062.433 3   -803706.375 3   -614074.25847  23998063.90547
  22222367.839 5  -2665926.453 5  -2032303.22347  22222365.77647
  23228689.659 1  -2805677.641 1   -711418.49245  23228717.14445
  21579553.011 6   -251868.824 6   -192552.23047  21579550.51547
  20222767.964 6  -1473085.066 6  -1123343.45348  20222765.09748
  20725232.472 6   -862222.629 6   -661080.88749  20725232.08549
  20915685.269 6  -2744827.789 6  -2091626.11749  20915685.11249
  21359747.933 6  -1122314.578 6   -859079.92649  21359744.34349
  36522731.917 6   -860561.199 6                
 20  5 16  0  8  7.9990000  0  9G03G04G08G14G16G26G27G31S22         -0.000395880
  23997696.112 3   -805626.215 3   -615570.23847  23997698.33947
  22221201.605 5  -2672056.160 5  -2037079.62147  22221199.45247
  23227320.995 1  -2812870.871 1   -717023.64845  23227348.17945
  21579445.847 6   -252431.660 6   -192990.80547  21579443.00347
  20222124.706 6  -1476467.141 6  -1125978.83648  20222121.18748
  20724850.706 6   -864227.320 6   -662642.98449  20724850.58149
  20914487.784 6  -2751119.949 6  -2096529.10249  20914487.72649
  21359255.987 6  -1124900.453 6   -861094.89149  21359252.35549
  36522052.855 6   -864126.574 6                
 20  5 16  0  8  8.9990000  0  9G03G04G08G14G16G26G27G31S22         -0.000398100
  23997331.034 4   -807545.996 4   -617066.18047  23997333.16347
  22220034.769 5  -2678185.691 5  -2041855.88747  22220033.13647
  23225952.628 1  -2820063.988 1   -722628.70345  23225979.45645
  21579338.972 6   -252994.320 6   -193429.25047  21579336.12447
  20221481.073 6  -1479849.043 6  -1128614.08648  20221477.59348
  20724469.683 6   -866232.074 6   -664205.13749  20724469.21049
  20913290.495 6  -2757411.855 6  -2101431.87949  20913290.40549
  21358763.909 6  -1127486.238 6   -863109.78949  21358760.38249
  36521375.386 6   -867692.012 6                
 20  5 16  0  8  9.9990000  0  9G03G04G08G14G16G26G27G31S22         -0.000400318
  23996966.190 3   -809465.879 3   -618562.18847  23996967.70647
  22218868.456 5  -2684315.078 5  -2046632.03947  22218866.73347
  23224583.026 1  -2827257.258 1   -728233.80145  23224610.44045
  21579232.019 6   -253556.852 6   -193867.58247  21579228.92947
  20220837.269 6  -1483230.840 6  -1131249.26248  20220834.24548
  20724087.940 6   -868236.961 6   -665767.38349  20724087.90549
  20912093.261 6  -2763703.539 6  -2106334.49249  20912093.34349
  21358272.245 6  -1130072.129 6   -865124.77349  21358268.30449
  36520694.917 6   -871257.832 6                
 20  5 16  0  8 10.9990000  0  9G03G04G08G14G16G26G27G31S22         -0.000402540
  23996600.534 4   -811385.715 4   -620058.16447  23996602.53447
  22217702.690 6  -2690444.297 6  -2051408.05947  22217700.24547
  23223213.987 1  -2834450.613 1   -733839.01645  23223241.74945
  21579125.105 6   -254119.215 6   -194305.79347  21579122.12847
  20220193.987 6  -1486612.512 6  -1133884.33248  20220190.39048
  20723706.472 6   -870241.930 6   -667329.69549  20723705.89049
  20910895.698 6  -2769994.980 6  -2111236.91849  20910895.89449
  21357780.315 6  -1132657.988 6   -867139.73049  21357776.35149
  36520020.026 6   -874823.742 6                
 20  5 16  0  8 11.9990000  0  9G03G04G08G14G16G26G27G31S22         -0.000404758
  23996234.776 4   -813305.426 4   -621554.03947  23996237.14747
  22216536.050 6  -2696573.215 6  -2056183.82847  22216533.98347
  23221845.980 1  -2841643.910 1   -739444.15645  23221872.86245
  21579018.190 6   -254681.328 6   -194743.80547  21579015.46447
  20219550.065 6  -1489993.922 6  -1136519.19948  20219547.10148
  20723324.870 6   -872246.867 6   -668891.98849  20723324.73049
  20909698.417 6  -2776286.066 6  -2116139.06649  20909698.66749
  21357287.909 6  -1135243.738 6   -869154.59449  21357284.04249
  36519341.323 6   -878389.910 6                
 20  5 16  0  8 12.9990000  0  9G03G04G08G14G16G26G27G31S22         -0.000406979
  23995869.917 4   -815225.180 4   -623049.94547  23995871.71047
  22215369.862 6  -2702701.938 6  -2060959.45347  22215367.65547
  23220476.456 1  -2848837.230 1   -745049.34445  23220503.63245
  21578911.347 6   -255243.254 6   -195181.66447  21578908.12847
  20218906.862 6  -1493375.191 6  -1139153.95748  20218903.71448
  20722943.542 6   -874251.848 6   -670454.30949  20722943.28449
  20908501.690 6  -2782576.855 6  -2121040.98449  20908501.69049
  21356795.839 6  -1137829.484 6   -871169.46149  21356792.06949
  36518657.605 6   -881956.199 6                
 20  5 16  0  8 13.9990000  0  9G03G04G08G14G16G26G27G31S22         -0.000409199
  23995504.472 4   -817144.922 4   -624545.84447  23995506.19847
  22214204.019 6  -2708830.480 6  -2065734.94947  22214201.99947
  23219108.636 1  -2856030.676 1   -750654.64545  23219135.28445
  21578804.190 6   -255805.020 6   -195619.40247  21578801.44847
  20218263.526 6  -1496756.305 6  -1141788.59048  20218260.49148
  20722561.612 6   -876256.938 6   -672016.71149  20722561.39749
  20907304.831 6  -2788867.449 6  -2125942.74249  20907304.54649
  21356303.972 6  -1140415.203 6   -873184.31349  21356300.24949
  36517981.933 6   -885522.652 6                
 20  5 16  0  8 14.9990000  0  9G03G04G08G14G16G26G27G31S22         -0.000411419
  23995138.886 4   -819064.613 4   -626041.70747  23995140.67947
  22213037.581 6  -2714958.820 6  -2070510.27347  22213035.43347
  23217738.808 1  -2863224.172 1   -756259.98045  23217766.09745
  21578697.519 6   -256366.605 6   -196057.00047  21578694.62447
  20217620.292 6  -1500137.266 6  -1144423.10948  20217616.69448
  20722180.089 6   -878262.074 6   -673579.16449  20722180.15149
  20906107.698 6  -2795157.738 6  -2130844.26649  20906107.60849
  21355811.917 6  -1143000.922 6   -875199.15649  21355808.27249
  36517303.839 6   -889089.203 6                
 20  5 16  0  8 15.9990000  0  9G03G04G08G14G16G26G27G31S22         -0.000413639
  23994774.362 5   -820984.480 5   -627537.69147  23994775.15947
  22211871.464 6  -2721087.074 6  -2075285.53147  22211869.38647
  23216369.581 1  -2870417.832 1   -761865.40645  23216397.39745
  21578590.519 6   -256928.148 6   -196494.56647  21578587.46447
  20216977.081 6  -1503518.191 6  -1147057.59848  20216973.48748
  20721798.503 6   -880267.414 6   -675141.77049  20721799.05849
  20904910.769 6  -2801447.918 6  -2135745.70749  20904910.67549
  21355319.769 6  -1145586.730 6   -877214.07849  21355316.43749
  36516625.573 6   -892656.289 6                
 20  5 16  0  8 16.9990000  0  9G03G04G08G14G16G26G27G31S22         -0.000415861
  23994408.862 4   -822904.254 4   -629033.62147  23994409.95647
  22210704.909 6  -2727215.125 6  -2080060.63747  22210703.35547
  23215000.144 1  -2877611.445 1   -767470.81645  23215028.13645
  21578483.511 6   -257489.473 6   -196931.96947  21578481.05847
  20216333.565 6  -1506898.926 6  -1149691.93848  20216330.11648
  20721416.909 6   -882272.754 6   -676704.36749  20721416.71049
  20903713.495 6  -2807737.773 6  -2140646.89549  20903713.48049
  21354827.690 6  -1148172.484 6   -879228.94949  21354823.93749
  36515940.011 6   -896223.379 6                
 20  5 16  0  8 17.9990000  0  9G03G04G08G14G16G26G27G31S22         -0.000418081
  23994042.948 4   -824824.051 4   -630529.56347  23994044.55847
  22209539.589 6  -2733342.965 6  -2084835.57847  22209537.20247
  23213630.987 1  -2884805.125 1   -773076.28145  23213659.56945
  21578377.386 6   -258050.605 6   -197369.21547  21578374.32347
  20215690.300 6  -1510279.480 6  -1152326.13748  20215686.81248
  20721035.378 6   -884278.172 6   -678267.03149  20721035.26549
  20902516.940 6  -2814027.363 6  -2145547.87549  20902516.97649
  21354335.651 6  -1150758.219 6   -881243.80949  21354331.98349
  36515266.620 6   -899790.590 6                
 20  5 16  0  8 18.9990000  0  9G03G04G08G14G16G26G27G31S22         -0.000420301
  23993677.425 4   -826743.742 4   -632025.42247  23993678.64047
  22208372.956 6  -2739470.508 6  -2089610.28147  22208370.82347
  23212263.058 1  -2891998.859 1   -778681.81345  23212291.05045
  21578270.519 6   -258611.531 6   -197806.30547  21578266.90147
  20215047.284 6  -1513659.832 6  -1154960.18048  20215043.68348
  20720654.073 6   -886283.578 6   -679829.68849  20720653.76949
  20901320.198 6  -2820316.637 6  -2150448.60549  20901320.14049
  21353843.440 6  -1153343.867 6   -883258.59849  21353840.16349
  36514584.620 6   -903358.090 6                
 20  5 16  0  8 19.9990000  0  9G03G04G08G14G16G26G27G31S22         -0.000422523
  23993311.980 4   -828663.516 4   -633521.34847  23993313.13247
  22207207.480 6  -2745597.977 6  -2094384.93847  22207205.36247
  23210894.151 1  -2899192.656 1   -784287.32845  23210921.79245
  21578162.995 6   -259172.336 6   -198243.30147  21578160.34747
  20214403.495 6  -1517040.109 6  -1157594.15648  20214400.38248
  20720272.167 6   -888289.141 6   -681392.46949  20720272.03049
  20900123.472 6  -2826605.711 6  -2155349.18449  20900123.22649
  21353351.323 6  -1155929.590 6   -885273.44549  21353347.95249
  36513909.683 6   -906925.801 6                
 20  5 16  0  8 20.9990000  0  9G03G04G08G14G16G26G27G31S22         -0.000424744
  23992946.620 4   -830583.371 4   -635017.33647  23992948.01947
  22206041.222 6  -2751725.340 6  -2099159.50447  22206039.07747
  23209524.706 1  -2906386.609 1   -789893.05945  23209552.64045
  21578056.675 6   -259733.082 6   -198680.23847  21578053.83547
  20213760.401 6  -1520420.328 6  -1160228.09448  20213757.14748
  20719890.534 6   -890294.871 6   -682955.37149  20719890.22649
  20898926.308 6  -2832894.617 6  -2160249.63349  20898926.55849
  21352859.456 6  -1158515.379 6   -887288.34849  21352856.14049
  36513227.605 6   -910493.707 6                
 20  5 16  0  8 21.9990000  0  9G03G04G08G14G16G26G27G31S22         -0.000426966
  23992580.917 4   -832503.238 4   -636513.33646  23992582.25746
  22204875.308 6  -2757852.504 6  -2103933.91447  22204873.37847
  23208156.308 1  -2913580.664 1   -795498.85245  23208184.06545
  21577950.534 6   -260293.633 6   -199117.03547  21577947.50747
  20213117.190 6  -1523800.359 6  -1162861.88348  20213113.94048
  20719509.190 6   -892300.641 6   -684518.32049  20719508.72649
  20897730.081 6  -2839183.281 6  -2165149.89149  20897729.79649
  21352367.058 6  -1161101.129 6   -889303.21949  21352363.71449
  36512548.026 6   -914062.051 6                
 20  5 16  0  8 22.9990000  0  9G03G04G08G14G16G26G27G31S22         -0.000429186
  23992215.956 4   -834422.984 4   -638009.23847  23992216.85547
  22203709.565 6  -2763979.359 6  -2108708.09447  22203707.42547
  23206787.073 1  -2920774.684 1   -801104.57445  23206814.83145
  21577843.323 6   -260853.934 6   -199553.63347  21577840.13647
  20212474.034 6  -1527180.168 6  -1165495.50048  20212470.88648
  20719127.042 6   -894306.414 6   -686081.25849  20719127.21049
  20896533.026 6  -2845471.559 6  -2170049.84849  20896533.37049
  21351875.300 6  -1163686.789 6   -891318.02349  21351871.52649
  36511870.761 6   -917630.281 6                
 20  5 16  0  8 23.9990000  0  9G03G04G08G14G16G26G27G31S22         -0.000431408
  23991850.753 4   -836342.691 4   -639505.10547  23991851.96847
  22202543.605 6  -2770106.016 6  -2113482.11347  22202541.31947
  23205416.901 1  -2927968.676 1   -806710.27345  23205445.83545
  21577737.026 6   -261414.039 6   -199990.07847  21577733.90547
  20211831.284 6  -1530559.813 6  -1168128.99248  20211827.59748
  20718745.659 6   -896312.227 6   -687644.23049  20718745.25349
  20895336.769 6  -2851759.582 6  -2174949.60549  20895336.52249
  21351383.237 6  -1166272.426 6   -893332.80549  21351379.80049
  36511189.933 6   -921198.691 6                
 20  5 16  0  8 24.9990000  0  9G03G04G08G14G16G26G27G31S22         -0.000433630
  23991484.769 4   -838262.430 4   -641001.00447  23991486.14747
  22201377.690 6  -2776232.508 6  -2118256.00447  22201375.43747
  23204048.542 1  -2935162.789 1   -812315.98445  23204077.18345
  21577630.315 6   -261974.008 6   -200426.41847  21577627.57347
  20211187.980 6  -1533939.324 6  -1170762.37948  20211184.37848
  20718363.933 6   -898318.125 6   -689207.26649  20718363.35849
  20894140.190 6  -2858047.367 6  -2179849.17649  20894140.28849
  21350891.222 6  -1168858.051 6   -895347.57449  21350887.46849
  36510510.558 6   -924767.465 6                
 20  5 16  0  8 25.9990000  0  9G03G04G08G14G16G26G27G31S22         -0.000435852
  23991119.745 4   -840182.277 4   -642496.97747  23991121.02647
  22200211.651 6  -2782358.887 6  -2123029.80147  22200210.12047
  23202679.073 1  -2942357.039 1   -817921.91045  23202708.35845
  21577523.964 6   -262533.910 6   -200862.70747  21577521.22247
  20210544.730 6  -1537318.762 6  -1173395.70748  20210541.50748
  20717982.136 6   -900324.203 6   -690770.44149  20717981.67949
  20892943.581 6  -2864334.973 6  -2184748.60949  20892943.83949
  21350398.808 6  -1171443.742 6   -897362.40249  21350395.65549
  36509834.386 6   -928336.348 6                
 20  5 16  0  8 26.9990000  0  9G03G04G08G14G16G26G27G31S22         -0.000438074
  23990754.097 4   -842102.008 4   -643992.86347  23990755.57747
  22199045.909 6  -2788484.977 6  -2127803.37947  22199043.81247
  23201310.909 1  -2949551.188 1   -823527.77745  23201338.96045
  21577417.019 6   -263093.492 6   -201298.74247  21577414.60547
  20209901.878 6  -1540697.949 6  -1176028.84848  20209898.19848
  20717600.245 6   -902330.234 6   -692333.58249  20717600.05849
  20891747.315 6  -2870622.223 6  -2189647.76649  20891747.43349
  21349907.183 6  -1174029.340 6   -899377.16049  21349903.67149
  36509153.870 6   -931905.543 6                
 20  5 16  0  8 27.9990000  0  9G03G04G08G14G16G26G27G31S22         -0.000440296
  23990389.394 4   -844021.703 4   -645488.72347  23990389.99547
  22197880.972 6  -2794610.879 6  -2132576.80147  22197878.28447
  23199941.347 1  -2956745.500 1   -829133.68845  23199970.22245
  21577310.651 6   -263652.961 6   -201734.69547  21577308.14047
  20209258.690 6  -1544077.008 6  -1178661.87548  20209255.28048
  20717218.425 6   -904336.359 6   -693896.79749  20717218.50349
  20890550.855 6  -2876909.242 6  -2194546.73849  20890551.08949
  21349415.284 6  -1176614.926 6   -901391.89849  21349411.77249
  36508472.183 6   -935475.016 6                
 20  5 16  0  8 28.9990000  0  9G03G04G08G14G16G26G27G31S22         -0.000442518
  23990024.276 4   -845941.555 4   -646984.72746  23990024.90546
  22196715.042 6  -2800736.723 6  -2137350.18847  22196712.90547
  23198571.925 1  -2963939.973 1   -834739.77345  23198601.32745
  21577204.206 6   -264212.391 6   -202170.62147  21577202.12447
  20208616.175 6  -1547456.031 6  -1181294.87548  20208612.06948
  20716836.901 6   -906342.672 6   -695460.16449  20716836.48049
  20889354.425 6  -2883196.090 6  -2199445.57849  20889355.13649
  21348923.151 6  -1179200.625 6   -903406.73449  21348919.83549
  36507795.308 6   -939044.984 6                
 20  5 16  0  8 29.9990000  0  9G03G04G08G14G16G26G27G31S22         -0.000444740
  23989658.526 4   -847861.441 4   -648480.74246  23989659.83146
  22195549.526 6  -2806862.371 6  -2142123.42647  22195546.94847
  23197204.089 1  -2971134.359 1   -840345.81645  23197231.78845
  21577097.933 6   -264771.668 6   -202606.43047  21577095.11647
  20207972.620 6  -1550834.910 6  -1183927.76248  20207969.29248
  20716455.003 6   -908349.082 6   -697023.59449  20716454.59749
  20888158.425 6  -2889482.727 6  -2204344.25849  20888158.28849
  21348430.706 6  -1181786.352 6   -905421.58649  21348427.91349
  36507112.933 6   -942615.258 6                
 20  5 16  0  8 30.9990000  0  9G03G04G08G14G16G26G27G31S22         -0.000446962
  23989293.800 4   -849781.238 4   -649976.68446  23989294.43746
  22194383.886 6  -2812987.785 6  -2146896.47347  22194380.98047
  23195834.503 1  -2978328.891 1   -845952.03945  23195863.14445
  21576990.909 6   -265330.688 6   -203042.02347  21576989.03447
  20207329.925 6  -1554213.570 6  -1186560.49248  20207326.15948
  20716073.276 6   -910355.484 6   -698587.02749  20716072.99549
  20886962.050 6  -2895769.008 6  -2209242.65649  20886961.94449
  21347939.034 6  -1184371.969 6   -907436.35249  21347935.79649
  36506436.511 6   -946185.434 6                
 20  5 16  0  8 31.9990000  0  9G03G04G08G14G16G26G27G31S22         -0.000449186
  23988928.253 4   -851701.012 4   -651472.61347  23988929.17947
  22193218.081 6  -2819112.996 6  -2151669.37147  22193215.12047
  23194465.105 1  -2985523.430 1   -851558.25444  23194493.27244
  21576885.323 6   -265889.559 6   -203477.51247  21576882.19847
  20206687.089 6  -1557592.082 6  -1189193.10548  20206683.22248
  20715691.253 6   -912361.957 6   -700150.51649  20715691.35149
  20885766.261 6  -2902055.043 6  -2214140.87149  20885766.22649
  21347446.847 6  -1186957.605 6   -909451.13349  21347443.62049
  36505756.323 6   -949756.160 6                
 20  5 16  0  8 32.9990000  0  9G03G04G08G14G16G26G27G31S22         -0.000451408
  23988563.105 4   -853620.895 4   -652968.61347  23988563.89047
  22192052.722 6  -2825238.086 6  -2156442.16047  22192049.74147
  23193094.284 1  -2992718.113 1                
  21576778.737 6   -266448.316 6   -203912.90247  21576776.08947
  20206044.120 6  -1560970.543 6  -1191825.67248  20206040.62848
  20715309.323 6   -914368.602 6   -701714.13349  20715309.06549
  20884569.706 6  -2908340.898 6  -2219038.94549  20884569.66349
  21346954.339 6  -1189543.277 6   -911465.94949  21346951.39449
  36505074.714 6   -953326.641 6                
 20  5 16  0  8 33.9990000  0  9G03G04G08G14G16G26G27G31S22         -0.000453630
  23988198.003 4   -855540.691 4   -654464.56347  23988198.83947
  22190887.065 6  -2831362.922 6  -2161214.76647  22190883.87047
  23191726.026 1  -2999912.789 1                
  21576672.448 6   -267006.879 6   -204348.14147  21576669.64747
  20205401.339 6  -1564348.773 6  -1194458.06348  20205397.79248
  20714927.456 6   -916375.219 6   -703277.73049  20714927.44449
  20883373.401 6  -2914626.426 6  -2223936.76649  20883373.65949
  21346462.800 6  -1192128.871 6   -913480.69549  21346459.35149
  36504397.292 5   -956897.301 5                
 20  5 16  0  8 34.9990000  0  9G03G04G08G14G16G26G27G31S22         -0.000455854
  23987831.980 4   -857460.449 4   -655960.48047  23987833.27247
  22189722.019 6  -2837487.516 6  -2165987.17647  22189718.78447
  23190356.901 1  -3007107.465 1                
  21576566.409 6   -267565.211 6   -204783.21147  21576563.59747
  20204758.495 6  -1567726.809 6  -1197090.29348  20204754.71048
  20714545.495 6   -918381.883 6   -704841.36749  20714545.95649
  20882177.503 6  -2920911.648 6  -2228834.34049  20882177.82749
  21345970.730 6  -1194714.418 6   -915495.41449  21345967.52249
  36503719.245 6   -960468.129 6                
 20  5 16  0  8 35.9990000  0  9G03G04G08G14G16G26G27G31S22         -0.000458076
  23987466.487 4   -859380.301 4   -657456.47347  23987467.98747
  22188556.105 6  -2843612.047 6  -2170759.53947  22188553.42547
  23188987.706 1  -3014302.293 1                
  21576460.245 6   -268123.516 6   -205218.25447  21576457.55847
  20204115.612 6  -1571104.805 6  -1199722.50448  20204112.09748
  20714163.784 6   -920388.730 6   -706405.14849  20714163.51549
  20880981.300 6  -2927196.730 6  -2233731.80149  20880981.73349
  21345478.776 6  -1197300.059 6   -917510.19949  21345475.01549
  36503036.167 6   -964039.285 6                
 20  5 16  0  8 36.9990000  0  9G03G04G08G14G16G26G27G31S22         -0.000460300
  23987101.151 3   -861300.090 3   -658952.41447  23987102.56947
  22187391.230 6  -2849736.285 6  -2175531.68047  22187387.95247
  23187619.511 1  -3021497.184 1                
  21576353.620 6   -268681.520 6   -205653.06347  21576351.19847
  20203473.128 6  -1574482.582 6  -1202354.53548  20203469.19048
  20713781.917 6   -922395.574 6   -707968.92649  20713781.69849
  20879785.339 6  -2933481.461 6  -2238628.99649  20879785.67149
  21344987.042 6  -1199885.617 6   -919524.92249  21344983.50349
  36502357.042 6   -967610.621 6                
 20  5 16  0  8 37.9990000  0  9G03G04G08G14G16G26G27G31S22         -0.000462524
  23986735.847 4   -863219.875 4   -660448.35947  23986737.23747
  22186225.456 6  -2855860.371 6  -2180303.69147  22186222.51947
  23186249.651 1  -3028692.004 1                
  21576247.565 6   -269239.414 6   -206087.78947  21576245.10147
  20202829.831 6  -1577860.207 6  -1204986.45348  20202826.34748
  20713400.144 6   -924402.516 6   -709532.76649  20713399.92149
  20878589.714 6  -2939765.938 6  -2243525.98849  20878589.90949
  21344495.480 6  -1202471.184 6   -921539.65649  21344491.55049
  36501678.448 6   -971182.148 6                
 20  5 16  0  8 38.9990000  0  9G03G04G08G14G16G26G27G31S22         -0.000464748
  23986371.480 4   -865139.590 4   -661944.24247  23986372.21047
  22185060.214 6  -2861984.160 6  -2185075.47347  22185056.83947
  23184880.737 1  -3035886.871 1                
  21576141.315 6   -269797.047 6   -206522.30147  21576138.70647
  20202187.206 6  -1581237.617 6  -1207618.19948  20202184.06548
  20713018.198 6   -926409.438 6   -711096.59849  20713017.67149
  20877393.690 6  -2946050.082 6  -2248422.72749  20877393.94849
  21344002.917 6  -1205056.641 6   -923554.29749  21343999.53449
  36500994.667 6   -974754.035 6                
 20  5 16  0  8 39.9990000  0  9G03G04G08G14G16G26G27G31S22         -0.000466972
  23986005.542 4   -867059.305 4   -663440.12947  23986007.34747
  22183895.003 6  -2868107.781 6  -2189847.12947  22183891.60847
  23183511.784 1  -3043081.762 1                
  21576035.425 6   -270354.535 6   -206956.71547  21576032.67947
  20201544.737 6  -1584614.875 6  -1210249.83648  20201541.17948
  20712636.073 6   -928416.422 6   -712660.48449  20712636.01949
  20876197.878 6  -2952334.000 6  -2253319.28949  20876198.06249
  21343510.862 6  -1207642.117 6   -925568.95749  21343507.55449
  36500319.089 6   -978325.734 6                
 20  5 16  0  8 40.9990000  0  9G03G04G08G14G16G26G27G31S22         -0.000469194
  23985640.534 4   -868979.012 4   -664936.00846  23985641.96846
  22182729.784 6  -2874231.176 6  -2194618.60547  22182726.51147
  23182142.433 1  -3050276.746 1                
  21575929.355 6   -270911.832 6   -207390.96947  21575926.73047
  20200902.253 6  -1587991.973 6  -1212881.33648  20200898.49148
  20712254.394 6   -930423.477 6   -714224.42249  20712253.97249
  20875002.347 6  -2958617.617 6  -2258215.61749  20875002.41749
  21343019.159 6  -1210227.543 6   -927583.57449  21343015.81249
  36499641.698 6   -981897.984 6                
 20  5 16  0  8 41.9990000  0  9G03G04G08G14G16G26G27G31S22         -0.000471418
  23985274.886 4   -870898.777 4   -666431.92647  23985276.26547
  22181564.776 6  -2880354.457 6  -2199389.99647  22181561.36247
  23180773.042 1  -3057471.879 1                
  21575823.276 6   -271469.020 6   -207825.14147  21575820.83947
  20200259.362 6  -1591368.965 6  -1215512.75848  20200255.74948
  20711872.112 6   -932430.664 6   -715788.46549  20711871.96049
  20873806.605 6  -2964901.031 6  -2263111.78549  20873807.07349
  21342526.886 6  -1212813.023 6   -929598.23049  21342523.48049
  36498958.730 6   -985470.203 6                
 20  5 16  0  8 42.9990000  0  9G03G04G08G14G16G26G27G31S22         -0.000473644
  23984909.940 4   -872818.426 4   -667927.75847  23984911.35847
  22180399.370 6  -2886477.414 6  -2204161.12947  22180396.04647
  23179404.339 1  -3064666.906 1                
  21575717.409 6   -272025.922 6   -208259.09447  21575714.78447
  20199617.261 6  -1594745.711 6  -1218143.99248  20199612.83948
  20711490.690 6   -934437.809 6   -717352.47749  20711489.76149
  20872610.956 6  -2971184.070 6  -2268007.66049  20872611.30849
  21342035.276 6  -1215398.367 6   -931612.78949  21342031.60549
  36498279.011 6   -989042.980 6                
 20  5 16  0  8 43.9990000  0  9G03G04G08G14G16G26G27G31S22         -0.000475868
  23984545.042 4   -874738.109 4   -669423.62147  23984545.96047
  22179234.519 6  -2892600.266 6  -2208932.18847  22179231.27647
  23178035.550 1  -3071861.996 1                
  21575611.276 6   -272582.766 6   -208693.00447  21575608.83547
  20198974.128 6  -1598122.383 6  -1220775.16448  20198970.37448
  20711108.112 6   -936445.133 6   -718916.62549  20711108.02249
  20871415.542 6  -2977466.969 6  -2272903.43049  20871415.56249
  21341543.026 6  -1217983.805 6   -933627.41449  21341539.85549
  36497598.745 6   -992616.074 6                
 20  5 16  0  8 44.9990000  0  9G03G04G08G14G16G26G27G31S22         -0.000478092
  23984179.792 4   -876657.848 4   -670919.52347  23984180.81547
  22178069.167 6  -2898722.922 6  -2213703.08247  22178066.06947
  23176666.261 1  -3079057.227 1                
  21575505.433 6   -273139.438 6   -209126.77047  21575502.55447
  20198331.956 6  -1601498.922 6  -1223406.23448  20198328.04648
  20710726.558 6   -938452.477 6   -720480.79349  20710726.02649
  20870219.894 6  -2983749.578 6  -2277798.96949  20870220.03849
  21341051.065 6  -1220569.211 6   -935642.01649  21341047.46849
  36496918.026 6   -996189.219 6                
 20  5 16  0  8 45.9990000  0  8G03G04G08G14G16G26G27G31            -0.000480316
  23983814.487 4   -878577.602 4   -672415.44947  23983815.66347
  22176904.355 6  -2904845.398 6  -2218473.84447  22176901.17547
  23175296.565 1  -3086252.574 1                
  21575399.605 6   -273695.957 6   -209560.41847  21575396.84347
  20197689.339 6  -1604875.301 6  -1226037.18448  20197685.37848
  20710344.167 6   -940459.934 6   -722045.04349  20710344.35849
  20869024.315 6  -2990031.930 6  -2282694.30949  20869024.36249
  21340559.206 6  -1223154.621 6   -937656.63349  21340555.73349
 20  5 16  0  8 46.9990000  0  8G03G04G08G14G16G26G27G31            -0.000482542
  23983449.862 4   -880497.336 4   -673911.35247  23983450.28847
  22175739.151 6  -2910967.703 6  -2223244.47747  22175735.91747
  23173928.065 1  -3093447.793 1                
  21575293.472 6   -274252.313 6   -209993.93847  21575291.00347
  20197047.073 6  -1608251.559 6  -1228668.03148  20197043.29648
  20709961.987 6   -942467.484 6   -723609.36749  20709962.14449
  20867828.800 6  -2996314.031 6  -2287589.45349  20867828.66749
  21340067.065 6  -1225740.043 6   -939671.23849  21340063.66749
 20  5 16  0  8 47.9990000  0  8G03G04G08G14G16G26G27G31            -0.000484766
  23983083.292 4   -882417.055 4   -675407.24647  23983084.79647
  22174573.964 6  -2917089.760 6  -2228014.90747  22174571.00347
  23172557.839 1  -3100643.184 1                
  21575187.901 6   -274808.465 6   -210427.30947  21575185.34747
  20196404.651 6  -1611627.633 6  -1231298.74248  20196400.78848
  20709580.370 6   -944475.082 6   -725173.73049  20709580.12049
  20866633.605 6  -3002595.852 6  -2292484.38349  20866633.55049
  21339574.792 6  -1228325.410 6   -941685.81649  21339571.45649
 20  5 16  0  8 48.9990000  0  8G03G04G08G14G16G26G27G31            -0.000487007
  23982718.159 4   -884336.816 4   -676903.16447  23982719.61247
  22173409.347 6  -2923211.695 6  -2232785.24647  22173406.19047
  23171188.70611                                
  21575082.269 6   -275364.496 6   -210860.58247  21575079.44847
  20195762.323 6  -1615003.590 6  -1233929.35948  20195758.14048
  20709198.058 6   -946482.762 6   -726738.16049  20709197.86249
  20865438.276 6  -3008877.449 6  -2297379.14149  20865437.83549
  21339083.401 6  -1230910.801 6   -943700.41049  21339079.79249
 20  5 16  0  8 49.9990000  0  8G03G04G08G14G16G26G27G31            -0.000489233
  23982354.011 4   -886256.598 4   -678399.10947  23982353.83547
  22172244.323 6  -2929333.461 6  -2237555.45347  22172241.30847
  23169819.339 1  -3115034.168 1                
  21574975.995 6   -275920.410 6   -211293.76647  21574973.66347
  20195119.698 6  -1618379.426 6  -1236559.87548  20195116.17948
  20708815.800 6   -948490.586 6   -728302.69549  20708815.86649
  20864242.745 6  -3015158.836 6  -2302273.72749  20864243.04649
  21338590.761 6  -1233496.215 6   -945715.02049  21338587.58949
 20  5 16  0  8 50.9990000  0  8G03G04G08G14G16G26G27G31            -0.000491442
  23981988.542 4   -888176.355 4   -679895.03546  23981988.32746
  22171079.105 6  -2935455.004 6  -2242325.48447  22171076.23347
  23168449.503 1  -3122229.727 1                
  21574870.542 6   -276476.129 6   -211726.79747  21574868.21847
  20194477.323 6  -1621755.094 6  -1239190.27048  20194473.30848
  20708433.925 6   -950498.441 6   -729867.26649  20708433.85849
  20863047.628 6  -3021439.926 6  -2307168.08249  20863047.47649
  21338098.737 6  -1236081.598 6   -947729.60549  21338095.67949
