     2.10           OBSERVATION DATA    GPS(GPS)            RINEX VERSION / TYPE
cnvtToRINEX 3.07.0  convertToRINEX OPR  19-May-20 12:31 UTC PGM / RUN BY / DATE 
----------------------------------------------------------- COMMENT             
GBA0                                                        MARKER NAME         
GBA0                                                        MARKER NUMBER       
GNSS Observer       Trimble                                 OBSERVER / AGENCY   
0440102809          5700                2.32                REC # / TYPE / VERS 
                    TRM39105.00                             ANT # / TYPE        
 -3050766.1906  4927694.1432  2654117.1216                  APPROX POSITION XYZ 
        0.0000        0.0000        0.0000                  ANTENNA: DELTA H/E/N
     1     1     0                                          WAVELENGTH FACT L1/2
     4    C1    L1    L2    P2                              # / TYPES OF OBSERV 
  2020     5    16     5     5   52.0000000     GPS         TIME OF FIRST OBS   
  2020     5    16     6    20   49.0000000     GPS         TIME OF LAST OBS    
     0                                                      RCV CLOCK OFFS APPL 
    18                                                      LEAP SECONDS        
    10                                                      # OF SATELLITES     
   G01  4498  4498  4498  4498                              PRN / # OF OBS      
   G03  3597  3561  3574  3574                              PRN / # OF OBS      
   G07  4498  4498  4498  4498                              PRN / # OF OBS      
   G08  3005  2889  1688  1688                              PRN / # OF OBS      
   G11  3730  3643  2595  2595                              PRN / # OF OBS      
   G17  3634  3573  3579  3579                              PRN / # OF OBS      
   G19   221   181    23    23                              PRN / # OF OBS      
   G22  4498  4498  4498  4498                              PRN / # OF OBS      
   G28  4498  4498  4347  4347                              PRN / # OF OBS      
   G30  4498  4498  4498  4498                              PRN / # OF OBS      
CARRIER PHASE MEASUREMENTS: PHASE SHIFTS REMOVED            COMMENT             
                                                            END OF HEADER       
 20  5 16  5  5 52.0000000  0  6G01G07G11G22G28G30                   0.000240425
  20153882.98417    -50769.75017    -19117.15259  20153883.01259
  20888878.67216    -37355.96916    -13942.95359  20888876.41859
  21028646.65615    -13360.02315     -4077.19157  21028643.19557
  22863487.14816    -71511.45716    -25397.41058  22863484.61358
  24017580.30515    -51412.49615                
  21823559.55516    -29117.27716    -11200.81159  21823559.53559
 20  5 16  5  5 53.0000000  0  6G01G07G11G22G28G30                   0.000238157
  20153248.492 7    -54103.063 7    -21714.54349  20153249.06649
  20888349.336 6    -40139.121 6    -16111.63749  20888346.02049
  21028316.516 6    -15095.316 6     -5429.39147  21028312.45347
  22862485.414 6    -76773.340 6    -29497.58647  22862483.29347
  24016428.961 5    -57461.324 5     -2957.53257  24016424.27357
  21822655.047 6    -33874.266 6    -14907.51649  21822654.45349
 20  5 16  5  5 54.0000000  0  6G01G07G11G22G28G30                   0.000235884
  20152613.859 7    -57438.191 7    -24313.35249  20152614.17249
  20887818.805 6    -42924.125 6    -18281.77049  20887816.56349
  21027985.781 5    -16832.789 5     -6783.27047  21027982.30547
  22861483.852 6    -82037.438 6    -33599.48047  22861481.63347
  24015277.344 5    -63512.789 5                
  21821749.281 6    -38633.148 6    -18615.75849  21821748.68049
 20  5 16  5  5 55.0000000  0  6G01G07G11G22G28G30                   0.000233614
  20151978.680 7    -60775.082 7    -26913.52749  20151979.48849
  20887289.055 6    -45710.926 6    -20453.30949  20887285.97349
  21027654.992 6    -18572.434 6     -8138.83647  21027651.10547
  22860481.906 6    -87303.617 6    -37702.99247  22860479.71147
  24014125.797 5    -69566.762 5                
  21820843.078 6    -43393.863 6    -22325.41849  21820842.59849
 20  5 16  5  5 56.0000000  0  6G01G07G11G22G28G30                   0.000231342
  20151343.789 7    -64113.512 7    -29514.90249  20151344.19549
  20886758.164 6    -48499.320 6    -22626.08249  20886755.62549
  21027323.656 5    -20313.945 5     -9495.86347  21027319.52047
  22859479.469 6    -92571.727 6    -41808.00847  22859476.97347
  24012972.656 5    -75623.043 5                
  21819936.906 6    -48156.195 6    -26036.33649  21819936.66049
 20  5 16  5  5 57.0000000  0  6G01G07G11G22G28G30                   0.000229071
  20150708.078 7    -67453.449 7    -32117.44549  20150708.27349
  20886227.383 7    -51289.258 7    -24800.06649  20886224.94549
  21026991.609 6    -22057.324 6    -10854.33647  21026988.14547
  22858476.609 6    -97841.660 6    -45914.45747  22858474.07447
  24011819.719 5    -81681.605 5                
  21819030.461 6    -52920.145 6    -29748.50049  21819029.94149
 20  5 16  5  5 58.0000000  0  6G01G07G11G22G28G30                   0.000226795
  20150072.242 7    -70794.805 7    -34721.09849  20150072.71149
  20885696.305 6    -54080.629 6    -26975.15249  20885693.65249
  21026659.750 6    -23802.457 6    -12214.18047  21026655.46547
  22857473.320 6   -103113.348 6    -50022.25447  22857471.10247
  24010666.336 5    -87742.336 5                
  21818123.617 6    -57685.547 6    -33461.79349  21818122.84849
 20  5 16  5  5 59.0000000  0  6G01G07G11G22G28G30                   0.000224520
  20149435.875 7    -74137.379 7    -37325.69949  20149436.39149
  20885164.844 6    -56873.270 6    -29151.23849  20885162.19549
  21026326.961 5    -25549.203 5    -13575.28147  21026323.35247
  22856469.609 6   -108386.621 6    -54131.30147  22856467.25847
  24009512.406 5    -93805.113 5                
  21817216.414 6    -62452.234 6    -37176.10249  21817215.73849
 20  5 16  5  6  0.0000000  0  6G01G07G11G22G28G30                   0.000222242
  20148799.852 7    -77481.078 7    -39931.18449  20148800.15249
  20884633.438 6    -59667.074 6    -31328.23049  20884630.35549
  21025994.273 5    -27297.457 5    -14937.55947  21025990.48047
  22855466.094 6   -113661.391 6    -58241.51247  22855463.55947
  24008358.938 5    -99869.734 5                
  21816309.352 6    -67220.152 6    -40891.35949  21816308.28549
 20  5 16  5  6  1.0000000  0  6G01G07G11G22G28G30                   0.000219967
  20148163.500 7    -80825.773 7    -42537.43849  20148163.62949
  20884101.859 6    -62461.914 6    -33506.02749  20884098.68449
  21025661.570 6    -29047.043 6    -16300.87547  21025657.53147
  22854462.016 6   -118937.465 6    -62352.73047  22854459.42647
  24007204.688 5   -105936.141 5                
  21815401.773 6    -71989.105 6    -44607.43049  21815400.80149
 20  5 16  5  6  2.0000000  0  6G01G07G11G22G28G30                   0.000217688
  20147526.953 7    -84171.570 7    -45144.55549  20147527.26249
  20883569.406 7    -65257.887 7    -35684.71549  20883566.69949
  21025328.531 6    -30798.113 6    -17665.35247  21025324.71947
  22853457.398 6   -124215.031 6    -66465.12547  22853454.86747
  24006049.297 5   -112004.430 5                
  21814494.117 6    -76759.262 6    -48324.43449  21814493.07849
 20  5 16  5  6  3.0000000  0  6G01G07G11G22G28G30                   0.000215420
  20146889.641 7    -87518.301 7    -47752.39549  20146890.60549
  20883036.813 7    -68054.867 7    -37864.17649  20883034.36749
  21024995.266 6    -32550.488 6    -19030.83247  21024991.23847
  22852453.000 6   -129493.840 6    -70578.48047  22852450.35947
  24004894.508 5   -118074.441 5                
  21813586.086 6    -81530.441 6    -52042.23449  21813585.12949
 20  5 16  5  6  4.0000000  0  6G01G07G11G22G28G30                   0.000213139
  20146252.477 7    -90865.738 7    -50360.78549  20146253.19549
  20882504.852 6    -70852.586 6    -40044.21549  20882502.15649
  21024661.242 6    -34303.934 6    -20397.16047  21024657.81347
  22851448.563 6   -134773.770 6    -74692.71547  22851445.88747
  24003739.516 5   -124145.934 5                
  21812678.063 6    -86302.402 6    -55760.64849  21812677.07849
 20  5 16  5  6  5.0000000  0  6G01G07G11G22G28G30                   0.000210857
  20145615.680 7    -94213.980 7    -52969.80949  20145616.14149
  20881972.125 7    -73651.113 7    -42224.89149  20881969.34449
  21024326.930 6    -36058.539 6    -21764.38747  21024323.46947
  22850443.188 6   -140054.816 6    -78807.81647  22850440.75447
  24002583.531 5   -130218.992 5                
  21811769.922 6    -91075.227 6    -59479.73049  21811768.41049
 20  5 16  5  6  6.0000000  0  6G01G07G11G22G28G30                   0.000208576
  20144978.320 7    -97562.863 7    -55579.32849  20144978.80149
  20881439.445 6    -76450.344 6    -44406.10949  20881436.75449
  21023992.945 6    -37814.141 6    -23132.38747  21023989.79747
  22849438.414 6   -145336.840 6    -82923.68447  22849435.75847
  24001427.445 5   -136293.480 5                
  21810861.492 6    -95848.777 6    -63199.37949  21810860.33649
 20  5 16  5  6  7.0000000  0  6G01G07G11G22G28G30                   0.000206280
  20144341.063 7   -100912.250 7    -58189.24249  20144341.89549
  20880906.813 6    -79250.094 6    -46587.73449  20880903.62949
  21023658.703 6    -39570.633 6    -24501.08247  21023655.49247
  22848433.156 6   -150619.738 6    -87040.23047  22848430.30947
  24000271.117 5   -142369.230 5                
  21809953.156 6   -100622.898 6    -66919.47749  21809951.73049
 20  5 16  5  6  8.0000000  0  6G01G07G11G22G28G30                   0.000203997
  20143703.313 7   -104262.109 7    -60799.52049  20143704.25049
  20880374.156 6    -82050.371 6    -48769.77349  20880370.96949
  21023324.438 6    -41327.957 6    -25870.43447  21023320.92247
  22847427.281 6   -155903.441 6    -91157.39547  22847424.95747
  23999114.453 5   -148446.254 5                
  21809044.883 6   -105397.590 6    -70640.01649  21809043.34049
 20  5 16  5  6  9.0000000  0  6G01G07G11G22G28G30                   0.000201710
  20143066.203 7   -107612.398 7    -63410.14149  20143066.44549
  20879840.742 6    -84851.113 6    -50952.17649  20879838.10249
  21022989.836 6    -43086.063 6    -27240.37947  21022986.53947
  22846422.250 6   -161187.949 6    -95275.18847  22846419.33647
  23997958.047 5   -154524.438 5                
  21808136.148 6   -110172.785 6    -74360.95349  21808134.59849
 20  5 16  5  6 10.0000000  0  6G01G07G11G22G28G30                   0.000199427
  20142428.406 7   -110963.070 7    -66021.04749  20142428.83249
  20879307.570 6    -87652.313 6    -53134.92249  20879304.83249
  21022655.414 6    -44844.930 6    -28610.93047  21022651.63347
  22845416.766 6   -166473.191 6    -99393.55947  22845413.36347
  23996801.180 5   -160603.840 5                
  21807227.313 6   -114948.418 6    -78082.22749  21807225.93449
 20  5 16  5  6 11.0000000  0  6G01G07G11G22G28G30                   0.000197140
  20141790.859 7   -114314.023 7    -68632.18849  20141791.22349
  20878774.758 6    -90453.797 6    -55317.89849  20878771.75049
  21022320.641 6    -46604.453 6    -29981.98847  21022316.85947
  22844410.719 6   -171759.051 6   -103512.41047  22844407.51647
  23995643.914 5   -166684.246 5                
  21806317.836 6   -119724.418 6    -81803.78949  21806316.76649
 20  5 16  5  6 12.0000000  0  6G01G07G11G22G28G30                   0.000194855
  20141152.914 7   -117665.320 7    -71243.58649  20141153.42249
  20878241.539 7    -93255.664 7    -57501.17249  20878238.76649
  21021985.336 6    -48364.695 6    -31353.60247  21021981.84847
  22843404.578 6   -177045.605 6   -107631.80547  22843401.57447
  23994486.875 5   -172765.805 5                
  21805409.336 6   -124500.836 6    -85525.67249  21805408.35549
 20  5 16  5  6 13.0000000  0  6G01G07G11G22G28G30                   0.000192568
  20140515.258 7   -121016.711 7    -73855.06349  20140515.75049
  20877708.148 7    -96057.688 7    -59684.56649  20877705.66449
  21021650.867 6    -50125.355 6    -32725.54747  21021647.32847
  22842398.234 6   -182332.602 6   -111751.54347  22842395.81647
  23993329.148 5   -178848.227 5                
  21804500.359 6   -129277.434 6    -89247.69949  21804499.32449
 20  5 16  5  6 14.0000000  0  6G01G07G11G22G28G30                   0.000190279
  20139877.602 7   -124368.281 7    -76466.67249  20139877.97749
  20877175.281 7    -98859.914 7    -61868.11749  20877172.18449
  21021315.047 6    -51886.582 6    -34097.92247  21021311.43847
  22841392.461 6   -187620.133 6   -115871.69547  22841389.69547
  23992171.750 5   -184931.598 5                
  21803591.375 6   -134054.277 6    -92969.91449  21803590.18449
 20  5 16  5  6 15.0000000  0  6G01G07G11G22G28G30                   0.000188004
  20139239.898 7   -127719.996 7    -79078.39849  20139240.53949
  20876641.547 7   -101662.324 7    -64051.81649  20876638.84449
  21020979.461 6    -53648.305 6    -35470.69147  21020976.44147
  22840386.250 6   -192908.125 6   -119992.21147  22840383.16447
  23991013.844 5   -191015.875 5                
  21802682.039 6   -138831.336 6    -96692.30149  21802681.32849
 20  5 16  5  6 16.0000000  0  6G01G07G11G22G28G30                   0.000185715
  20138601.898 7   -131071.840 7    -81690.23049  20138602.55949
  20876108.484 7   -104464.914 7    -66235.65249  20876105.37949
  21020644.320 6    -55410.555 6    -36843.87947  21020641.10547
  22839379.883 6   -198196.660 6   -124113.15247  22839377.11747
  23989855.305 4   -197101.066 4                
  21801773.219 6   -143608.598 6   -100414.84449  21801772.40649
 20  5 16  5  6 17.0000000  0  6G01G07G11G22G28G30                   0.000183414
  20137964.031 7   -134423.809 7    -84302.15249  20137964.65649
  20875575.352 7   -107267.668 7    -68419.61749  20875572.13349
  21020308.797 5    -57173.273 5    -38217.41847  21020305.65647
  22838373.461 6   -203485.609 6   -128234.39847  22838370.61747
  23988697.938 5   -203187.176 5                
  21800864.234 6   -148386.082 6   -104137.56349  21800862.98449
 20  5 16  5  6 18.0000000  0  6G01G07G11G22G28G30                   0.000181124
  20137325.844 7   -137776.012 7    -86914.26249  20137326.62549
  20875041.586 7   -110070.660 7    -70603.77349  20875038.54349
  21019973.414 5    -58936.586 5    -39591.42647  21019970.04347
  22837366.977 5   -208775.207 5   -132356.16447  22837363.71147
  23987539.141 5   -209274.262 5                
  21799955.141 6   -153163.855 6   -107860.50449  21799953.94949
 20  5 16  5  6 19.0000000  0  6G01G07G11G22G28G30                   0.000178835
  20136688.070 7   -141128.031 7    -89526.23049  20136688.78149
  20874508.383 6   -112873.563 6    -72787.85249  20874505.24649
  21019638.023 6    -60700.117 6    -40965.60547  21019634.56647
  22836360.188 6   -214064.902 6   -136478.01247  22836357.58647
  23986380.570 5   -215361.938 5                
  21799045.344 6   -157941.520 6   -111583.35949  21799044.80149
 20  5 16  5  6 20.0000000  0  6G01G07G11G22G28G30                   0.000176544
  20136050.188 7   -144479.883 7    -92138.06649  20136051.12949
  20873974.758 6   -115676.316 6    -74971.81349  20873972.00449
  21019302.664 5    -62463.809 5    -42339.91047  21019299.31347
  22835353.586 6   -219354.824 6   -140600.02347  22835350.69947
  23985222.133 5   -221450.234 5                
  21798136.359 6   -162719.105 6   -115306.15249  21798135.53149
 20  5 16  5  6 21.0000000  0  6G01G07G11G22G28G30                   0.000174253
  20135412.656 7   -147831.699 7    -94749.87149  20135413.40249
  20873441.836 6   -118479.047 6    -77155.75849  20873438.35549
  21018966.859 6    -64227.824 6    -43714.46947  21018963.30147
  22834346.539 6   -224644.992 6   -144722.23447  22834343.70347
  23984063.758 5   -227539.227 5                
  21797227.477 6   -167496.695 6   -119028.95349  21797226.23849
 20  5 16  5  6 22.0000000  0  6G01G07G11G22G28G30                   0.000171963
  20134775.016 7   -151183.492 7    -97361.65649  20134775.57049
  20872908.031 6   -121281.824 6    -79339.74249  20872905.13349
  21018631.164 6    -65992.199 6    -45089.31347  21018627.42247
  22833340.383 6   -229935.563 6   -148844.75847  22833337.07047
  23982904.289 5   -233629.035 5                
  21796317.867 6   -172274.367 6   -122751.81649  21796317.32049
 20  5 16  5  6 23.0000000  0  6G01G07G11G22G28G30                   0.000169670
  20134136.922 7   -154535.027 7    -99973.23849  20134137.54349
  20872375.063 6   -124084.375 6    -81523.55549  20872372.13349
  21018295.227 6    -67756.684 6    -46464.23447  21018291.64847
  22832333.273 6   -235226.203 6   -152967.33247  22832330.43847
  23981745.344 5   -239719.301 5                
  21795409.180 6   -177051.844 6   -126474.52749  21795408.11349
 20  5 16  5  6 24.0000000  0  6G01G07G11G22G28G30                   0.000167379
  20133499.328 7   -157886.398 7   -102584.69549  20133499.95749
  20871841.664 6   -126886.785 6    -83707.25449  20871838.93049
  21017959.352 5    -69521.348 5    -47839.30147  21017956.14547
  22831326.516 6   -240517.023 6   -157090.04747  22831323.52747
  23980586.492 5   -245810.207 5                
  21794500.031 6   -181829.254 6   -130197.18849  21794499.21549
 20  5 16  5  6 25.0000000  0  6G01G07G11G22G28G30                   0.000165087
  20132861.258 7   -161237.648 7   -105196.05949  20132862.10549
  20871308.461 6   -129689.133 6    -85890.89549  20871305.39549
  21017624.164 6    -71286.270 6    -49214.56647  21017620.04347
  22830319.930 6   -245808.074 6   -161212.94147  22830316.67647
  23979427.961 5   -251901.746 5                
  21793590.867 6   -186606.598 6   -133919.80149  21793590.24249
 20  5 16  5  6 26.0000000  0  6G01G07G11G22G28G30                   0.000162794
  20132223.727 7   -164588.793 7   -107807.34849  20132224.75449
  20870775.063 6   -132491.406 6    -88074.48849  20870772.02349
  21017287.477 6    -73051.457 6    -50590.03547  21017284.09047
  22829312.953 6   -251099.379 6   -165336.04347  22829309.89147
  23978267.984 4   -257993.961 4                
  21792681.609 6   -191383.922 6   -137642.39149  21792681.17649
 20  5 16  5  6 27.0000000  0  6G01G07G11G22G28G30                   0.000160501
  20131586.188 7   -167939.715 7   -110418.45749  20131586.48849
  20870241.828 7   -135293.516 7    -90257.94949  20870239.21149
  21016951.898 6    -74816.777 6    -51965.60547  21016948.11347
  22828305.648 6   -256390.777 6   -169459.21147  22828302.96147
  23977109.203 4   -264086.715 4                
  21791772.758 6   -196161.094 6   -141364.85949  21791772.19549
 20  5 16  5  6 28.0000000  0  6G01G07G11G22G28G30                   0.000158209
  20130948.750 7   -171290.469 7   -113029.43049  20130949.27749
  20869708.484 6   -138095.449 6    -92441.27749  20869705.69149
  21016615.781 6    -76582.297 6    -53341.34447  21016612.09447
  22827299.117 6   -261682.355 6   -173582.51247  22827295.79347
  23975949.805 4   -270180.082 4                
  21790863.125 6   -200938.180 6   -145087.27049  21790862.95749
 20  5 16  5  6 29.0000000  0  6G01G07G11G22G28G30                   0.000155916
  20130311.273 7   -174641.031 7   -115640.25849  20130311.55149
  20869175.727 6   -140897.285 6    -94624.52749  20869172.99649
  21016279.719 6    -78348.004 6    -54717.21947  21016276.27047
  22826292.234 6   -266974.141 6   -177705.98047  22826289.16447
  23974789.648 4   -276274.047 4                
  21789954.445 6   -205715.141 6   -148809.57849  21789953.98049
 20  5 16  5  6 30.0000000  0  6G01G07G11G22G28G30                   0.000153622
  20129673.625 7   -177991.410 7   -118250.94149  20129673.99649
  20868642.438 6   -143698.938 6    -96807.63349  20868639.77049
  21015943.813 6    -80113.883 6    -56093.22747  21015940.12947
  22825284.945 6   -272266.027 6   -181829.52747  22825282.07447
  23973629.000 3   -282368.582 3                
  21789045.469 6   -210491.988 6   -152531.78949  21789045.08249
 20  5 16  5  6 31.0000000  0  6G01G07G11G22G28G30                   0.000151329
  20129036.094 7   -181341.492 7   -120861.39549  20129036.64849
  20868109.453 6   -146500.352 6    -98990.55949  20868106.61349
  21015607.961 6    -81879.820 6    -57469.28947  21015604.21147
  22824278.078 6   -277557.992 6   -185953.13747  22824274.66847
  23972470.063 4   -288463.609 4                
  21788136.500 6   -215268.613 6   -156253.83249  21788136.20749
 20  5 16  5  6 32.0000000  0  6G01G07G11G22G28G30                   0.000149050
  20128398.438 7   -184691.117 7   -123471.49249  20128399.00849
  20867576.117 6   -149301.359 6   -101173.16449  20867573.28149
  21015271.813 6    -83645.684 6    -58845.28547  21015267.99647
  22823270.867 6   -282849.859 6   -190076.67247  22823268.13347
  23971310.641 4   -294558.973 4                
  21787227.695 6   -220044.895 6   -159975.61349  21787227.28149
 20  5 16  5  6 33.0000000  0  6G01G07G11G22G28G30                   0.000146755
  20127760.813 7   -188040.422 7   -126081.34049  20127761.50449
  20867043.367 7   -152102.051 7   -103355.52049  20867040.56649
  21014935.844 6    -85411.559 6    -60221.28947  21014931.96547
  22822263.453 6   -288141.750 6   -194200.22347  22822260.46947
  23970150.328 4   -300654.746 4                
  21786318.617 6   -224820.855 6   -163697.14549  21786318.25449
 20  5 16  5  6 34.0000000  0  6G01G07G11G22G28G30                   0.000144461
  20127123.906 7   -191389.391 7   -128690.93049  20127124.29349
  20866510.461 7   -154902.457 7   -105537.66449  20866507.52349
  21014599.945 6    -87177.488 6    -61597.34847  21014595.79747
  22821256.852 6   -293433.625 6   -198323.75847  22821254.19547
  23968989.945 4   -306750.973 4                
  21785409.688 6   -229596.598 6   -167418.50449  21785409.81649
 20  5 16  5  6 35.0000000  0  6G01G07G11G22G28G30                   0.000142166
  20126486.633 7   -194737.980 7   -131300.22349  20126487.14549
  20865977.750 7   -157702.543 7   -107719.54749  20865974.61749
  21014264.016 6    -88943.418 6    -62973.39847  21014260.00047
  22820249.430 6   -298725.516 6   -202447.30547  22820247.32447
  23967830.086 4   -312847.586 4                
  21784500.516 6   -234372.035 6   -171139.63349  21784501.18049
 20  5 16  5  6 36.0000000  0  6G01G07G11G22G28G30                   0.000139872
  20125849.406 7   -198086.297 7   -133909.30549  20125850.16849
  20865444.883 6   -160502.398 6   -109901.24649  20865442.24249
  21013927.516 6    -90709.430 6    -64349.51247  21013924.06647
  22819242.844 6   -304017.445 6   -206570.88747  22819240.38747
  23966669.961 4   -318944.684 4                
  21783591.961 6   -239147.273 6   -174860.59849  21783592.17249
 20  5 16  5  6 37.0000000  0  6G01G07G11G22G28G30                   0.000137577
  20125212.383 7   -201434.238 7   -136518.09049  20125212.84449
  20864911.734 6   -163301.891 6   -112082.68449  20864908.86749
  21013592.039 6    -92475.453 6    -65725.63747  21013587.81347
  22818235.281 6   -309309.371 6   -210694.46147  22818232.83647
  23965509.359 4   -325042.250 4                
  21782683.734 6   -243922.203 6   -178581.32049  21782683.78949
 20  5 16  5  6 38.0000000  0  6G01G07G11G22G28G30                   0.000135281
  20124575.359 7   -204781.867 7   -139126.62949  20124575.70749
  20864379.523 6   -166101.121 6   -114263.91849  20864376.46149
  21013255.609 6    -94241.496 6    -67101.77347  21013251.64147
  22817229.117 6   -314601.277 6   -214818.03147  22817225.69147
  23964349.000 4   -331140.176 4                
  21781775.117 6   -248696.902 6   -182301.86749  21781774.94949
 20  5 16  5  6 39.0000000  0  6G01G07G11G22G28G30                   0.000132986
  20123938.477 7   -208129.086 7   -141734.84849  20123938.97749
  20863846.781 6   -168899.992 6   -116444.85949  20863844.00849
  21012919.695 6    -96007.508 6    -68477.88347  21012915.74647
  22816222.023 6   -319893.199 6   -218941.60247  22816218.44947
  23963188.922 4   -337238.508 4                
  21780866.320 6   -253471.246 6   -186022.13349  21780866.64549
 20  5 16  5  6 40.0000000  0  6G01G07G11G22G28G30                   0.000130690
  20123301.266 7   -211475.902 7   -144342.75849  20123301.84849
  20863314.375 6   -171698.477 6   -118625.50449  20863311.22749
  21012583.766 6    -97773.508 6    -69853.98447  21012579.87947
  22815214.633 6   -325184.996 6   -223065.08247  22815211.71147
  23962027.781 4   -343337.199 4                
  21779957.898 6   -258245.281 6   -189742.16449  21779958.24649
 20  5 16  5  6 41.0000000  0  6G01G07G11G22G28G30                   0.000128393
  20122664.719 7   -214822.250 7   -146950.29749  20122665.19549
  20862781.961 6   -174496.543 6   -120805.81349  20862778.61349
  21012247.539 6    -99539.387 6    -71229.98847  21012243.46147
  22814207.656 6   -330476.699 6   -227188.48847  22814204.67647
  23960867.602 4   -349436.199 4                
  21779049.492 6   -263018.902 6   -193461.87149  21779049.82049
 20  5 16  5  6 42.0000000  0  6G01G07G11G22G28G30                   0.000126097
  20122028.188 7   -218168.254 7   -149557.57849  20122028.73849
  20862249.398 7   -177294.336 7   -122985.91449  20862246.55949
  21011911.188 6   -101305.277 6    -72606.01647  21011907.47347
  22813200.219 6   -335768.414 6   -231311.89847  22813198.01647
  23959707.156 4   -355535.656 4                
  21778141.227 6   -267792.285 6   -197181.38749  21778141.07849
 20  5 16  5  6 43.0000000  0  6G01G07G11G22G28G30                   0.000123800
  20121391.211 7   -221513.926 7   -152164.59049  20121391.83249
  20861717.289 7   -180091.809 7   -125165.76249  20861714.11349
  21011575.164 6   -103071.238 6    -73982.09847  21011571.48447
  22812193.828 6   -341060.121 6   -235435.30547  22812190.92247
  23958546.586 4   -361635.504 4                
  21777232.695 6   -272565.363 6   -200900.66849  21777233.09449
 20  5 16  5  6 44.0000000  0  6G01G07G11G22G28G30                   0.000121506
  20120754.891 7   -224859.281 7   -154771.36349  20120755.14149
  20861184.945 6   -182888.988 6   -127345.37949  20861181.73449
  21011238.891 6   -104837.207 6    -75358.17647  21011235.54747
  22811186.453 6   -346351.852 6   -239558.73047  22811183.84847
  23957385.680 4   -367735.797 4                
  21776324.242 6   -277338.203 6   -204619.76649  21776324.78149
 20  5 16  5  6 45.0000000  0  6G01G07G11G22G28G30                   0.000119207
  20120118.422 7   -228204.168 7   -157377.77049  20120118.91849
  20860652.813 7   -185685.754 7   -129524.68449  20860649.64549
  21010903.375 6   -106603.102 6    -76734.19547  21010899.62947
  22810179.609 6   -351643.492 6   -243682.09047  22810176.91047
  23956224.453 4   -373836.418 4                
  21775416.172 6   -282110.684 6   -208338.57849  21775416.70349
 20  5 16  5  6 46.0000000  0  6G01G07G11G22G28G30                   0.000116911
  20119481.734 7   -231548.629 7   -159983.84449  20119482.16849
  20860120.930 7   -188482.145 7   -131703.69149  20860117.32849
  21010567.398 6   -108368.906 6    -78110.14847  21010563.39547
  22809173.000 6   -356935.035 6   -247805.37547  22809169.91447
  23955063.750 5   -379937.422 5                
  21774508.242 6   -286882.785 6   -212057.10249  21774508.26249
 20  5 16  5  6 47.0000000  0  6G01G07G11G22G28G30                   0.000114614
  20118845.289 7   -234892.711 7   -162589.62549  20118845.79749
  20859588.719 7   -191278.191 7   -133882.43049  20859585.46149
  21010230.914 6   -110134.738 6    -79486.12147  21010227.77747
  22808165.703 6   -362226.520 6   -251928.60547  22808163.12947
  23953902.516 5   -386038.750 5                
  21773599.883 6   -291654.602 6   -215775.40249  21773600.44149
 20  5 16  5  6 48.0000000  0  6G01G07G11G22G28G30                   0.000112316
  20118209.383 7   -238236.289 7   -165195.00449  20118209.54349
  20859056.789 7   -194073.777 7   -136060.81649  20859053.85249
  21009895.453 6   -111900.430 6    -80861.99247  21009891.32847
  22807158.906 6   -367517.898 6   -256051.75847  22807156.44547
  23952741.570 5   -392140.387 5                
  21772692.117 6   -296426.008 6   -219493.38349  21772692.36349
 20  5 16  5  6 49.0000000  0  6G01G07G11G22G28G30                   0.000110020
  20117572.977 7   -241579.566 7   -167800.15249  20117573.37149
  20858524.719 7   -196869.090 7   -138238.98849  20858521.76249
  21009559.625 6   -113666.168 6    -82237.88347  21009555.29347
  22806152.563 6   -372809.289 6   -260174.91447  22806149.72347
  23951580.172 4   -398242.484 4                
  21771784.734 6   -301197.141 6   -223211.14849  21771784.36749
 20  5 16  5  6 50.0000000  0  6G01G07G11G22G28G30                   0.000107721
  20116936.945 7   -244922.402 7   -170404.96549  20116937.22349
  20857992.703 7   -199664.004 7   -140416.83649  20857990.13349
  21009223.313 6   -115431.863 6    -83613.75447  21009219.40247
  22805145.109 6   -378100.590 6   -264297.99647  22805142.27047
  23950419.250 5   -404344.938 5                
  21770876.117 6   -305967.906 6   -226928.62549  21770876.58249
 20  5 16  5  6 51.0000000  0  6G01G07G11G22G28G30                   0.000105425
  20116300.922 7   -248264.793 7   -173009.43049  20116301.03549
  20857460.938 7   -202458.535 7   -142594.39149  20857458.53549
  21008887.438 6   -117197.422 6    -84989.51647  21008883.27047
  22804138.125 6   -383391.777 6   -268421.00447  22804135.60547
  23949258.242 5   -410447.672 5                
  21769968.328 6   -310738.328 6   -230645.84049  21769968.41849
 20  5 16  5  6 52.0000000  0  6G01G07G11G22G28G30                   0.000103127
  20115664.977 7   -251606.746 7   -175613.54349  20115665.55949
  20856929.406 6   -205252.621 6   -144771.60949  20856926.64549
  21008551.813 6   -118962.949 6    -86365.25847  21008547.39847
  22803131.789 6   -388682.887 6   -272543.94547  22803128.79747
  23948096.695 5   -416550.766 5                
  21769060.922 6   -315508.359 6   -234362.75449  21769060.90249
 20  5 16  5  6 53.0000000  0  6G01G07G11G22G28G30                   0.000100828
  20115029.172 7   -254948.273 7   -178217.33649  20115029.34049
  20856397.563 6   -208046.375 6   -146948.56649  20856394.54749
  21008215.375 6   -120728.410 6    -87740.94147  21008211.41847
  22802124.859 6   -393973.934 6   -276666.84847  22802121.98847
  23946935.383 5   -422654.219 5                
  21768152.898 6   -320278.059 6   -238079.40249  21768153.15649
 20  5 16  5  6 54.0000000  0  6G01G07G11G22G28G30                   0.000098530
  20114393.133 7   -258289.285 7   -180820.71949  20114393.39849
  20855866.117 6   -210839.625 6   -149125.12149  20855863.17249
  21007879.852 6   -122493.738 6    -89116.52347  21007875.21547
  22801117.945 6   -399264.773 6   -280789.58647  22801114.87147
  23945773.984 5   -428757.883 5                
  21767245.320 6   -325047.301 6   -241795.68849  21767245.44549
 20  5 16  5  6 55.0000000  0  6G01G07G11G22G28G30                   0.000096233
  20113757.492 7   -261629.793 7   -183423.71149  20113757.69149
  20855334.891 6   -213632.402 6   -151301.31649  20855331.78949
  21007544.250 6   -124258.910 6    -90491.98447  21007539.46947
  22800111.344 6   -404555.465 6   -284912.19547  22800108.31647
  23944612.125 5   -434861.859 5                
  21766337.727 6   -329816.109 6   -245511.64549  21766337.82049
 20  5 16  5  6 56.0000000  0  6G01G07G11G22G28G30                   0.000093935
  20113121.602 7   -264969.863 7   -186026.36349  20113122.07849
  20854803.430 6   -216424.793 6   -153477.20749  20854800.78949
  21007207.906 6   -126024.012 6    -91867.39847  21007203.34447
  22799104.422 6   -409846.094 6   -289034.75847  22799101.40647
  23943450.945 4   -440966.160 4                
  21765430.820 6   -334584.555 6   -249227.31349  21765430.54349
 20  5 16  5  6 57.0000000  0  6G01G07G11G22G28G30                   0.000091637
  20112486.453 7   -268309.297 7   -188628.52349  20112486.80549
  20854272.070 6   -219216.586 6   -155652.63349  20854269.55549
  21006871.977 6   -127788.852 6    -93242.59047  21006868.00847
  22798097.516 6   -415136.387 6   -293157.07047  22798095.03547
  23942289.242 4   -447070.578 4                
  21764523.273 6   -339352.438 6   -252942.54749  21764523.25449
 20  5 16  5  6 58.0000000  0  6G01G07G11G22G28G30                   0.000089338
  20111851.133 7   -271648.344 7   -191230.37549  20111851.09049
  20853740.594 6   -222008.023 6   -157827.77749  20853738.19549
  21006535.867 6   -129553.664 6    -94617.77047  21006532.27347
  22797090.883 6   -420426.672 6   -297279.37147  22797088.50447
  23941127.766 4   -453175.375 4                
  21763616.086 6   -344120.023 6   -256657.55149  21763615.89849
 20  5 16  5  6 59.0000000  0  6G01G07G11G22G28G30                   0.000087038
  20111215.906 7   -274986.906 7   -193831.84849  20111216.19149
  20853209.828 6   -224799.035 6   -160002.59049  20853206.98049
  21006200.445 6   -131318.371 6    -95992.86347  21006196.43847
  22796084.023 6   -425716.805 6   -301401.54347  22796081.34447
  23939966.063 4   -459280.477 4                
  21762708.977 6   -348887.184 6   -260372.21949  21762708.82049
 20  5 16  5  7  0.0000000  0  6G01G07G11G22G28G30                   0.000084726
  20110580.727 7   -278324.961 7   -196432.93849  20110580.50049
  20852679.180 6   -227589.531 6   -162177.00449  20852675.99649
  21005864.695 6   -133082.934 6    -97367.84847  21005860.55547
  22795077.578 6   -431006.750 6   -305523.57847  22795074.75847
  23938803.414 4   -465385.832 4                
  21761802.422 6   -353653.902 6   -264086.55149  21761801.25449
 20  5 16  5  7  1.0000000  0  6G01G07G11G22G28G30                   0.000082428
  20109945.602 7   -281662.543 7   -199033.65249  20109945.52749
  20852147.969 6   -230379.633 6   -164351.11749  20852144.85249
  21005529.359 6   -134847.395 6    -98742.75047  21005525.14547
  22794071.242 6   -436296.613 6   -309645.55147  22794068.30147
  23937642.039 4   -471491.500 4                
  21760895.000 6   -358420.223 6   -267800.56649  21760894.69949
 20  5 16  5  7  2.0000000  0  6G01G07G11G22G28G30                   0.000080143
  20109310.367 7   -284999.539 7   -201633.90649  20109310.53549
  20851617.234 7   -233169.188 7   -166524.78949  20851614.44949
  21005193.250 6   -136611.629 6   -100117.47347  21005189.19547
  22793063.805 6   -441586.184 6   -313767.28947  22793061.77047
  23936479.922 5   -477597.352 5                
  21759988.102 6   -363186.023 6   -271514.17649  21759987.45749
 20  5 16  5  7  3.0000000  0  6G01G07G11G22G28G30                   0.000077843
  20108675.648 7   -288336.070 7   -204233.80149  20108675.98849
  20851086.352 7   -235958.320 7   -168698.14549  20851083.18049
  21004857.461 6   -138375.742 6   -101492.10547  21004853.36347
  22792057.672 6   -446875.645 6   -317888.94947  22792055.12547
  23935318.344 5   -483703.512 5                
  21759081.523 6   -367951.445 6   -275227.49249  21759080.89149
 20  5 16  5  7  4.0000000  0  6G01G07G11G22G28G30                   0.000075529
  20108040.641 7   -291672.137 7   -206833.33249  20108040.98049
  20850555.227 6   -238747.051 6   -170871.18449  20850552.58649
  21004521.313 6   -140139.789 6   -102866.68847  21004517.82847
  22791051.133 6   -452165.012 6   -322010.53547  22791048.60947
  23934156.570 5   -489809.957 5                
  21758174.617 6   -372716.492 6   -278940.52049  21758174.14549
 20  5 16  5  7  5.0000000  0  6G01G07G11G22G28G30                   0.000073231
  20107405.969 7   -295007.633 7   -209432.42249  20107406.27349
  20850025.266 6   -241535.180 6   -173043.75449  20850022.16849
  21004186.688 6   -141903.641 6   -104241.12147  21004182.58247
  22790044.875 6   -457454.129 6   -326131.93047  22790042.05547
  23932994.570 5   -495916.590 5                
  21757267.555 6   -377481.012 6   -282653.13749  21757267.33649
 20  5 16  5  7  6.0000000  0  6G01G07G11G22G28G30                   0.000070930
  20106771.141 7   -298342.633 7   -212031.11749  20106771.27749
  20849494.398 6   -244322.930 6   -175216.02349  20849491.94149
  21003850.375 6   -143667.336 6   -105615.44147  21003846.67647
  22789038.453 6   -462743.102 6   -330253.20347  22789035.27747
  23931832.672 5   -502023.520 5                
  21756361.320 6   -382245.121 6   -286365.43049  21756360.56349
 20  5 16  5  7  7.0000000  0  6G01G07G11G22G28G30                   0.000068632
  20106136.695 7   -301677.109 7   -214629.41049  20106137.14549
  20848964.070 6   -247110.148 6   -177387.88349  20848961.72749
  21003515.016 6   -145430.875 6   -106989.64547  21003511.23047
  22788031.859 6   -468031.883 6   -334374.32847  22788029.15647
  23930670.398 5   -508130.684 5                
  21755454.570 6   -387008.746 6   -290077.34049  21755454.23049
 20  5 16  5  7  8.0000000  0  6G01G07G11G22G28G30                   0.000066332
  20105501.961 7   -305011.016 7   -217227.26649  20105502.35949
  20848433.883 6   -249896.848 6   -179559.33649  20848431.64149
  21003179.391 6   -147194.242 6   -108363.69547  21003175.31347
  22787025.422 6   -473320.434 6   -338495.27347  22787022.98847
  23929508.336 5   -514238.063 5                
  21754548.188 6   -391771.891 6   -293788.87949  21754547.84049
 20  5 16  5  7  9.0000000  0  6G01G07G11G22G28G30                   0.000064034
  20104868.234 7   -308344.570 7   -219824.83649  20104867.80149
  20847903.445 6   -252683.238 6   -181730.55549  20847900.55949
  21002843.867 6   -148957.613 6   -109737.74247  21002839.84447
  22786018.680 6   -478608.992 6   -342616.22747  22786015.95347
  23928346.625 5   -520345.887 5                
  21753642.203 6   -396534.758 6   -297500.20749  21753641.36349
 20  5 16  5  7 10.0000000  0  6G01G07G11G22G28G30                   0.000061733
  20104233.672 7   -311677.551 7   -222421.96149  20104233.64549
  20847373.758 6   -255469.105 6   -183901.35949  20847370.67649
  21002508.297 6   -150720.750 6   -111111.60547  21002504.16847
  22785012.953 6   -483897.289 6   -346736.98447  22785010.23847
  23927183.758 5   -526453.867 5                
  21752736.039 6   -401297.094 6   -301211.12549  21752735.04349
 20  5 16  5  7 11.0000000  0  6G01G07G11G22G28G30                   0.000059433
  20103599.680 7   -315009.875 7   -225018.57849  20103599.60549
  20846843.742 6   -258254.340 6   -186071.66849  20846840.75049
  21002172.602 6   -152483.633 6   -112485.28947  21002168.39547
  22784006.359 6   -489185.297 6   -350857.50047  22784003.67247
  23926021.625 5   -532561.953 5                
  21751829.711 6   -406058.910 6   -304921.62549  21751829.10549
 20  5 16  5  7 12.0000000  0  6G01G07G11G22G28G30                   0.000057133
  20102965.844 7   -318341.801 7   -227614.88349  20102965.53949
  20846313.773 6   -261039.227 6   -188241.71149  20846310.91449
  21001838.094 6   -154246.473 6   -113858.93047  21001833.34447
  22783000.078 6   -494473.223 6   -354977.96547  22782997.76247
  23924858.867 5   -538670.461 5                
  21750923.156 6   -410820.348 6   -308631.83249  21750922.52349
 20  5 16  5  7 13.0000000  0  6G01G07G11G22G28G30                   0.000054832
  20102331.672 7   -321673.238 7   -230210.81649  20102331.43849
  20845783.406 6   -263823.652 6   -190411.39849  20845780.57049
  21001501.820 6   -156009.199 6   -115232.48447  21001497.82047
  22781994.141 6   -499761.035 6   -359098.33647  22781991.32047
  23923697.289 5   -544779.188 5                
  21750017.531 6   -415581.379 6   -312341.72749  21750016.72749
 20  5 16  5  7 14.0000000  0  6G01G07G11G22G28G30                   0.000052532
  20101697.922 7   -325004.117 7   -232806.30949  20101697.73049
  20845254.398 6   -266607.594 6   -192580.70349  20845250.93049
  21001166.297 6   -157771.730 6   -116605.88747  21001162.77747
  22780987.461 6   -505048.633 6   -363218.54747  22780985.35947
  23922534.664 5   -550888.168 5                
  21749111.219 6   -420341.930 6   -316051.25449  21749110.89149
 20  5 16  5  7 15.0000000  0  6G01G07G11G22G28G30                   0.000050232
  20101063.922 7   -328334.551 7   -235401.44949  20101063.57849
  20844724.336 6   -269391.082 6   -194749.64849  20844721.69949
  21000831.156 6   -159534.168 6   -117979.21147  21000827.35947
  22779981.664 6   -510336.094 6   -367338.64147  22779978.73847
  23921371.992 5   -556997.414 5                
  21748205.516 6   -425102.078 6   -319760.46549  21748205.00849
 20  5 16  5  7 16.0000000  0  6G01G07G11G22G28G30                   0.000047932
  20100430.305 7   -331664.410 7   -237996.14549  20100430.17249
  20844194.734 6   -272174.055 6   -196918.20349  20844191.93849
  21000495.805 6   -161296.418 6   -119352.39147  21000491.66047
  22778975.141 6   -515623.348 6   -371458.58647  22778972.48847
  23920209.078 5   -563106.910 5                
  21747299.922 6   -429861.762 6   -323469.30949  21747299.08249
 20  5 16  5  7 17.0000000  0  6G01G07G11G22G28G30                   0.000045631
  20099796.922 7   -334993.801 7   -240590.47749  20099796.64849
  20843665.234 6   -274956.590 6   -199086.40649  20843662.30149
  21000160.180 6   -163058.559 6   -120725.49247  21000156.39547
  22777969.094 6   -520910.445 6   -375578.39847  22777965.99247
  23919046.695 5   -569216.676 5                
  21746394.633 6   -434621.031 6   -327177.83249  21746393.68849
 20  5 16  5  7 18.0000000  0  6G01G07G11G22G28G30                   0.000043331
  20099163.359 7   -338322.695 7   -243184.41849  20099163.26249
  20843136.266 6   -277738.660 6   -201254.25849  20843132.66049
  20999824.695 6   -164820.563 6   -122098.47747  20999820.98847
  22776963.133 6   -526197.398 6   -379698.10547  22776960.29347
  23917883.727 6   -575326.730 6                
  21745489.313 6   -439379.891 6   -330886.03549  21745487.89149
 20  5 16  5  7 19.0000000  0  6G01G07G11G22G28G30                   0.000041029
  20098530.141 7   -341650.895 7   -245777.81649  20098529.98049
  20842606.695 6   -280520.105 6   -203421.61749  20842603.66849
  20999489.781 6   -166582.270 6   -123471.23447  20999486.62147
  22775957.141 6   -531483.988 6   -383817.52347  22775954.04747
  23916721.219 5   -581436.840 5                
  21744583.578 6   -444138.109 6   -334593.73449  21744582.68849
 20  5 16  5  7 20.0000000  0  6G01G07G11G22G28G30                   0.000038729
  20097896.977 7   -344978.586 7   -248370.82049  20097896.69549
  20842077.250 6   -283301.074 6   -205588.61349  20842074.50049
  20999154.797 6   -168343.805 6   -124843.86347  20999150.85247
  22774951.125 6   -536770.457 6   -387936.84847  22774948.62147
  23915557.914 6   -587547.238 6                
  21743678.305 6   -448895.906 6   -338301.10949  21743677.02349
 20  5 16  5  7 21.0000000  0  6G01G07G11G22G28G30                   0.000036428
  20097263.641 7   -348305.934 7   -250963.56349  20097263.44949
  20841548.656 6   -286081.691 6   -207755.32849  20841545.30149
  20998819.023 6   -170105.348 6   -126216.49247  20998815.57447
  22773945.195 6   -542056.863 6   -392056.12147  22773942.35547
  23914395.508 6   -593658.051 6                
  21742773.180 6   -453653.387 6   -342008.23849  21742771.68049
 20  5 16  5  7 22.0000000  0  6G01G07G11G22G28G30                   0.000034128
  20096630.734 7   -351632.723 7   -253555.86749  20096630.40249
  20841019.133 7   -288861.863 7   -209921.69549  20841016.18049
  20998484.094 6   -171866.742 6   -127589.00447  20998480.72747
  22772939.398 6   -547343.086 6   -396175.26647  22772936.43447
  23913232.875 5   -599769.082 5                
  21741867.703 6   -458410.430 6   -345715.02349  21741866.65649
 20  5 16  5  7 23.0000000  0  6G01G07G11G22G28G30                   0.000031826
  20095997.477 7   -354959.043 7   -256147.80149  20095997.60949
  20840490.781 7   -291641.570 7   -212087.70349  20840487.15249
  20998148.633 6   -173628.039 6   -128961.43847  20998145.69947
  22771933.313 6   -552629.172 6   -400294.28947  22771930.37947
  23912069.867 6   -605880.414 6                
  21740962.172 6   -463167.063 6   -349421.49649  21740961.10249
 20  5 16  5  7 24.0000000  0  6G01G07G11G22G28G30                   0.000029526
  20095364.789 7   -358284.715 7   -258739.23049  20095364.65249
  20839961.953 7   -294420.672 7   -214253.23849  20839958.93049
  20997813.461 6   -175389.023 6   -130333.63747  20997810.35247
  22770927.719 6   -557914.934 6   -404413.07047  22770924.89547
  23910907.102 5   -611991.844 5                
  21740057.563 6   -467923.098 6   -353127.50049  21740056.58649
 20  5 16  5  7 25.0000000  0  6G01G07G11G22G28G30                   0.000027224
  20094732.008 7   -361609.848 7   -261330.25449  20094731.68449
  20839432.680 7   -297199.262 7   -216418.37149  20839429.58649
  20997478.250 6   -177149.895 6   -131705.74647  20997474.82047
  22769921.781 6   -563200.527 6   -408531.71547  22769919.00447
  23909744.094 6   -618103.527 6                
  21739152.109 6   -472678.676 6   -356833.14149  21739151.61749
 20  5 16  5  7 26.0000000  0  6G01G07G11G22G28G30                   0.000024923
  20094099.328 7   -364934.359 7   -263920.77349  20094099.52049
  20838904.258 7   -299977.281 7   -218583.05549  20838901.16449
  20997143.891 6   -178910.461 6   -133077.61347  20997140.05947
  22768916.133 6   -568485.801 6   -412650.10547  22768912.92647
  23908580.688 6   -624215.363 6                
  21738247.609 6   -477433.715 6   -360538.36749  21738246.54349
 20  5 16  5  7 27.0000000  0  6G01G07G11G22G28G30                   0.000022623
  20093466.570 7   -368258.367 7   -266510.91049  20093466.30149
  20838375.547 7   -302754.852 7   -220747.39849  20838372.76249
  20996808.617 6   -180670.910 6   -134449.39547  20996805.32447
  22767910.469 6   -573770.941 6   -416768.38747  22767907.39547
  23907417.969 6   -630327.445 6                
  21737343.055 6   -482188.313 6   -364243.24649  21737341.89149
 20  5 16  5  7 28.0000000  0  6G01G07G11G22G28G30                   0.000020321
  20092833.945 7   -371581.871 7   -269100.65249  20092833.95749
  20837847.336 7   -305531.930 7   -222911.36349  20837843.97749
  20996473.047 6   -182431.215 6   -135821.05547  20996470.27047
  22766904.320 6   -579055.906 6   -420886.53947  22766901.43047
  23906255.117 6   -636439.785 6                
  21736438.039 6   -486942.465 6   -367947.78149  21736437.20749
 20  5 16  5  7 29.0000000  0  6G01G07G11G22G28G30                   0.000018021
  20092201.695 7   -374904.766 7   -271689.92249  20092201.85549
  20837318.773 7   -308308.465 7   -225074.90249  20837315.73049
  20996138.500 6   -184191.297 6   -137192.54747  20996135.11747
  22765898.883 6   -584340.617 6   -425004.50047  22765895.72747
  23905091.016 5   -642552.320 5                
  21735533.453 6   -491696.082 6   -371651.90249  21735532.43449
 20  5 16  5  7 30.0000000  0  6G01G07G11G22G28G30                   0.000015726
  20091569.609 7   -378227.059 7   -274278.72349  20091569.57849
  20836790.492 7   -311084.422 7   -227237.97749  20836787.71149
  20995804.188 6   -185951.133 6   -138563.84047  20995800.53547
  22764892.867 6   -589625.035 6   -429122.22347  22764889.94947
  23903928.586 5   -648664.988 5                
  21734628.820 6   -496449.188 6   -375355.61749  21734628.02049
 20  5 16  5  7 31.0000000  0  6G01G07G11G22G28G30                   0.000013426
  20090937.375 7   -381548.727 7   -276867.03549  20090937.16849
  20836262.398 7   -313859.809 7   -229400.62149  20836259.31649
  20995469.227 6   -187710.723 6   -139934.95747  20995465.53547
  22763887.625 6   -594909.203 6   -433239.75847  22763884.77347
  23902765.141 5   -654777.820 5                
  21733724.516 6   -501201.707 6   -379058.87949  21733723.77749
 20  5 16  5  7 32.0000000  0  6G01G07G11G22G28G30                   0.000011124
  20090305.391 7   -384869.934 7   -279454.98449  20090305.37149
  20835734.570 7   -316634.750 7   -231562.91049  20835731.06649
  20995134.266 6   -189470.227 6   -141305.99247  20995131.07847
  22762882.102 6   -600193.203 6   -437357.16047  22762879.35247
  23901602.461 5   -660890.980 5                
  21732819.703 6   -505953.855 6   -382761.85549  21732819.34449
 20  5 16  5  7 33.0000000  0  6G01G07G11G22G28G30                   0.000008821
  20089673.703 7   -388190.598 7   -282042.52049  20089673.48849
  20835206.109 7   -319409.176 7   -233724.80149  20835203.21549
  20994799.141 6   -191229.512 6   -142676.86347  20994795.78147
  22761877.031 6   -605477.023 6   -441474.42647  22761873.61347
  23900438.711 6   -667004.309 6                
  21731915.508 6   -510705.516 6   -386464.44949  21731914.85549
 20  5 16  5  7 34.0000000  0  6G01G07G11G22G28G30                   0.000006521
  20089041.656 7   -391510.645 7   -284629.57049  20089041.85249
  20834678.781 7   -322183.051 7   -235886.27049  20834675.21149
  20994465.289 6   -192988.586 6   -144047.57847  20994461.42647
  22760871.313 6   -610760.578 6   -445591.47747  22760867.94947
  23899275.688 6   -673117.813 6                
  21731011.680 6   -515456.629 6   -390166.61749  21731011.00049
 20  5 16  5  7 35.0000000  0  6G01G07G11G22G28G30                   0.000004219
  20088410.148 7   -394830.066 7   -287216.13349  20088410.35949
  20834150.852 7   -324956.348 7   -238047.28949  20834147.85249
  20994130.180 6   -194747.402 6   -145418.08647  20994126.59047
  22759866.563 6   -616043.809 6   -449708.27347  22759862.62547
  23898112.125 5   -679231.457 5                
  21730107.555 6   -520207.188 6   -393868.35549  21730107.17649
 20  5 16  5  7 36.0000000  0  6G01G07G11G22G28G30                   0.000001917
  20087778.844 7   -398148.941 7   -289802.26649  20087778.66049
  20833623.063 7   -327729.113 7   -240207.89149  20833620.04349
  20993795.461 6   -196506.027 6   -146788.44147  20993791.90247
  22758860.609 6   -621326.855 6   -453824.93847  22758857.62147
  23896949.219 5   -685345.316 5                
  21729204.227 6   -524957.277 6   -397569.72749  21729203.14149
 20  5 16  5  7 37.0000000  0  6G01G07G11G22G28G30                  -0.000000385
  20087147.195 7   -401467.281 7   -292387.98849  20087147.18449
  20833095.773 7   -330501.445 7   -242368.14549  20833092.84049
  20993460.750 6   -198264.512 6   -148158.68847  20993457.25447
  22757855.031 6   -626609.727 6   -457941.46147  22757852.46147
  23895785.156 5   -691459.430 5                
  21728300.047 6   -529706.922 6   -401270.74249  21728299.21949
 20  5 16  5  7 38.0000000  0  6G01G07G11G22G28G30                  -0.000002687
  20086515.750 7   -404785.102 7   -294973.30549  20086515.91449
  20832568.297 7   -333273.242 7   -244527.98849  20832565.26249
  20993125.563 6   -200022.832 6   -149528.80547  20993122.93447
  22756850.344 6   -631892.391 6   -462057.82847  22756847.00447
  23894621.508 5   -697573.781 5                
  21727396.070 6   -534456.090 6   -404971.39849  21727395.37549
 20  5 16  5  7 39.0000000  0  6G01G07G11G22G28G30                  -0.000004990
  20085884.484 7   -408102.309 7   -297558.14549  20085884.41449
  20832040.703 7   -336044.488 7   -246687.39849  20832037.66049
  20992791.711 6   -201780.895 6   -150898.73047  20992788.23847
  22755845.445 6   -637174.797 6   -466173.99247  22755841.95747
  23893457.766 5   -703688.277 5                
  21726492.227 6   -539204.723 6   -408671.62949  21726491.65249
 20  5 16  5  7 40.0000000  0  6G01G07G11G22G28G30                  -0.000007292
  20085253.266 7   -411418.918 7   -300142.52049  20085253.46149
  20831513.414 7   -338815.180 7   -248846.37549  20831510.47749
  20992456.766 6   -203538.742 6   -152268.46947  20992453.87547
  22754839.523 6   -642456.938 6   -470289.94147  22754836.77047
  23892293.898 6   -709802.930 6                
  21725588.906 6   -543952.809 6   -412371.43449  21725588.33249
 20  5 16  5  7 41.0000000  0  6G01G07G11G22G28G30                  -0.000009594
  20084622.492 7   -414734.957 7   -302726.44149  20084622.55149
  20830985.891 6   -341585.301 6   -251004.91049  20830982.96949
  20992122.703 6   -205296.359 6   -153638.03947  20992119.15247
  22753834.148 6   -647738.840 6   -474405.70747  22753831.28547
  23891130.000 6   -715917.781 6                
  21724685.828 6   -548700.391 6   -416070.85949  21724684.46149
 20  5 16  5  7 42.0000000  0  6G01G07G11G22G28G30                  -0.000011896
  20083991.766 7   -418050.371 7   -305309.88749  20083991.33649
  20830459.219 7   -344354.871 7   -253163.02349  20830456.71149
  20991788.180 6   -207053.761 6   -155007.44947  20991784.81347
  22752830.125 6   -653020.461 6   -478521.25847  22752825.98047
  23889967.125 5   -722032.781 5                
  21723782.109 6   -553447.441 6   -419769.85949  21723781.23449
 20  5 16  5  7 43.0000000  0  6G01G07G11G22G28G30                  -0.000014198
  20083360.820 7   -421365.367 7   -307892.99649  20083360.69949
  20829932.203 7   -347124.051 7   -255320.82449  20829929.11349
  20991453.914 6   -208811.090 6   -156376.79347  20991450.52747
  22751824.703 6   -658302.008 6   -482636.74647  22751821.31647
  23888803.320 5   -728148.152 5                
  21722878.820 6   -558194.148 6   -423468.59849  21722877.62549
 20  5 16  5  7 44.0000000  0  6G01G07G11G22G28G30                  -0.000016500
  20082729.859 7   -424679.832 7   -310475.69549  20082729.68849
  20829405.617 7   -349892.766 7   -257478.26249  20829402.69549
  20991118.742 6   -210568.246 6   -157746.00047  20991115.89547
  22750819.969 6   -663583.355 6   -486752.08247  22750816.23047
  23887639.461 6   -734263.730 6                
  21721975.766 6   -562940.367 6   -427166.94949  21721974.85549
 20  5 16  5  7 45.0000000  0  6G01G07G11G22G28G30                  -0.000018805
  20082099.422 7   -427993.711 7   -313057.94149  20082099.02349
  20828878.680 6   -352660.910 6   -259635.26649  20828875.69949
  20990785.219 6   -212325.191 6   -159115.05547  20990782.06647
  22749814.508 6   -668864.465 6   -490867.23847  22749811.24247
  23886475.555 5   -740379.520 5                
  21721072.820 6   -567686.082 6   -430864.90649  21721071.75449
 20  5 16  5  7 46.0000000  0  6G01G07G11G22G28G30                  -0.000021107
  20081469.258 7   -431307.184 7   -315639.86349  20081468.83249
  20828351.906 6   -355428.707 6   -261791.98449  20828349.16049
  20990450.836 6   -214082.113 6   -160484.09447  20990447.21547
  22748809.906 6   -674145.520 6   -494982.35247  22748806.59047
  23885311.719 5   -746495.637 5                
  21720169.703 6   -572431.473 6   -434562.61349  21720168.62149
 20  5 16  5  7 47.0000000  0  6G01G07G11G22G28G30                  -0.000023411
  20080838.773 7   -434620.113 7   -318221.37149  20080838.69949
  20827825.320 6   -358195.965 6   -263948.29749  20827822.75049
  20990116.414 6   -215838.828 6   -161852.96147  20990113.15247
  22747805.023 6   -679426.348 6   -499097.28947  22747800.98847
  23884148.516 5   -752611.980 5                
  21719266.844 6   -577176.379 6   -438259.94949  21719265.80549
 20  5 16  5  7 48.0000000  0  6G01G07G11G22G28G30                  -0.000025713
  20080208.445 7   -437932.414 7   -320802.38749  20080207.97749
  20827298.664 6   -360962.668 6   -266104.17649  20827296.04349
  20989782.125 6   -217595.320 6   -163221.64847  20989779.17247
  22746799.656 6   -684706.887 6   -503211.99647  22746796.20747
  23882984.188 5   -758728.469 5                
  21718364.031 6   -581920.727 6   -441956.84449  21718362.71949
 20  5 16  5  7 49.0000000  0  6G01G07G11G22G28G30                  -0.000028015
  20079578.273 7   -441244.086 7   -323382.91449  20079577.86749
  20826772.742 6   -363728.793 6   -268259.60249  20826769.82849
  20989447.742 6   -219351.551 6   -164590.13747  20989444.89547
  22745795.281 6   -689987.137 6   -507326.47347  22745791.62947
  23881819.984 6   -764845.141 6                
  21717461.031 6   -586664.508 6   -445653.29349  21717460.46949
 20  5 16  5  7 50.0000000  0  7G01G03G07G11G22G28G30               -0.000030319
  20078948.359 7   -444555.102 7   -325962.92249  20078947.77349
  23559252.16411   -173419.45711    -90378.03956  23559248.33256
  20826246.102 6   -366494.289 6   -270414.53549  20826243.74649
  20989113.117 6   -221107.484 6   -165958.40647  20989110.13347
  22744790.086 6   -695267.094 6   -511440.72747  22744786.62947
  23880656.211 6   -770961.891 6                
  21716558.375 6   -591407.730 6   -449349.31349  21716557.67249
 20  5 16  5  7 51.0000000  0  7G01G03G07G11G22G28G30               -0.000032623
  20078318.289 7   -447865.566 7   -328542.50849  20078318.13349
  23558038.844 2   -179794.629 2    -95345.69146  23558034.70346
  20825719.625 6   -369259.223 6   -272569.02749  20825717.82049
  20988779.555 6   -222863.191 6   -167326.49247  20988776.72347
  22743785.813 6   -700546.758 6   -515554.74647  22743782.15647
  23879492.141 5   -777078.820 5                
  21715656.188 6   -596150.402 6   -453044.90249  21715654.80149
 20  5 16  5  7 52.0000000  0  7G01G03G07G11G22G28G30               -0.000034925
  20077688.094 7   -451175.477 7   -331121.66049  20077687.82049
  23556825.844 2   -186169.938 2   -100313.46546  23556821.96546
  20825193.852 6   -372023.680 6   -274723.14849  20825191.41449
  20988445.297 6   -224618.758 6   -168694.47347  20988442.78947
  22742781.289 6   -705826.242 6   -519668.63347  22742777.59447
  23878327.547 5   -783195.969 5                
  21714753.406 6   -600892.629 6   -456740.14549  21714752.25449
 20  5 16  5  7 53.0000000  0  7G01G03G07G11G22G28G30               -0.000037228
  20077058.242 7   -454484.781 7   -333700.33649  20077058.00049
  23555613.594 1   -192545.336 1   -105281.32846  23555608.41046
  20824667.883 6   -374787.602 6   -276876.85949  20824665.34849
  20988111.563 6   -226374.102 6   -170062.26647  20988108.40647
  22741776.453 6   -711105.469 6   -523782.30947  22741772.53547
  23877163.180 5   -789313.332 5    -13372.78157  23877158.42657
  21713850.992 6   -605634.316 6   -460434.96549  21713850.24649
 20  5 16  5  7 54.0000000  0  7G01G03G07G11G22G28G30               -0.000039532
  20076428.844 7   -457793.465 7   -336278.53549  20076428.27349
  23554401.430 1   -198920.645 1   -110249.09846  23554395.45346
  20824142.086 6   -377550.914 6   -279030.09049  20824139.72349
  20987777.102 6   -228129.156 6   -171429.83647  20987774.51647
  22740772.516 6   -716384.402 6   -527895.75847  22740768.12947
  23875999.305 5   -795430.781 5                
  21712948.703 6   -610375.438 6   -464129.34449  21712947.91449
 20  5 16  5  7 55.0000000  0  7G01G03G07G11G22G28G30               -0.000041836
  20075799.563 7   -461101.719 7   -338856.39549  20075799.16849
  23553187.219 1   -205296.262 1   -115217.08646  23553182.74646
  20823616.258 6   -380313.844 6   -281183.01649  20823613.65649
  20987443.336 6   -229884.195 6   -172797.39547  20987440.40247
  22739767.680 6   -721663.242 6   -532009.14147  22739763.95747
  23874835.461 5   -801548.621 5                
  21712047.172 6   -615116.203 6   -467823.44549  21712045.99249
 20  5 16  5  7 56.0000000  0  7G01G03G07G11G22G28G30               -0.000044138
  20075169.969 7   -464409.367 7   -341433.78149  20075169.64549
  23551972.922 1   -211671.859 1   -120185.07446  23551969.45346
  20823090.992 6   -383076.191 6   -283335.50049  20823087.97749
  20987109.039 6   -231638.930 6   -174164.71947  20987106.22347
  22738763.047 6   -726941.793 6   -536122.29747  22738759.42647
  23873670.906 5   -807666.602 5                
  21711144.430 6   -619856.434 6   -471517.13749  21711143.95749
 20  5 16  5  7 57.0000000  0  7G01G03G07G11G22G28G30               -0.000046442
  20074540.406 7   -467716.336 7   -344010.64149  20074540.32049
  23550759.602 1   -218047.449 1   -125153.04746  23550756.18046
  20822565.047 6   -385837.918 6   -285487.49649  20822562.91449
  20986775.359 6   -233393.438 6   -175531.87147  20986772.75847
  22737758.984 6   -732220.066 6   -540235.23447  22737754.88747
  23872507.461 5   -813784.641 5                
  21710243.016 6   -624596.051 6   -475210.34849  21710241.97349
 20  5 16  5  7 58.0000000  0  7G01G03G07G11G22G28G30               -0.000048746
  20073911.680 7   -471022.691 7   -346587.02049  20073911.15649
  23549546.703 1   -224423.113 1   -130121.05546  23549542.62546
  20822039.969 6   -388599.102 6   -287639.07849  20822037.32849
  20986441.188 6   -235147.656 6   -176898.78547  20986438.94947
  22736754.680 6   -737498.012 6   -544347.91847  22736750.41047
  23871343.406 5   -819902.875 5                
  21709341.648 6   -629335.133 6   -478903.14149  21709340.21149
 20  5 16  5  7 59.0000000  0  7G01G03G07G11G22G28G30               -0.000051050
  20073282.375 7   -474328.496 7   -349162.97749  20073282.15649
  23548334.242 1   -230798.730 1   -135089.08646  23548329.41046
  20821514.398 6   -391359.723 6   -289790.21149  20821511.89849
  20986108.016 6   -236901.680 6   -178265.55147  20986105.41447
  22735750.117 6   -742775.742 6   -548460.44147  22735746.42647
  23870178.891 5   -826021.266 5                
  21708439.703 6   -634073.723 6   -482595.55149  21708438.39549
 20  5 16  5  8  0.0000000  0  7G01G03G07G11G22G28G30               -0.000053352
  20072653.609 7   -477633.688 7   -351738.44149  20072653.38349
  23547119.383 1   -237174.547 1   -140057.26645  23547116.27345
  20820989.281 6   -394119.793 6   -291940.91849  20820986.79349
  20985774.000 6   -238655.504 6   -179632.16847  20985771.77347
  22734746.156 6   -748053.215 6   -552572.75047  22734741.96947
  23869014.633 5   -832139.891 5                
  21707537.695 6   -638811.777 6   -486287.55149  21707537.00849
 20  5 16  5  8  1.0000000  0  7G01G03G07G11G22G28G30               -0.000055656
  20072024.648 7   -480938.410 7   -354313.55149  20072024.59049
  23545904.266 1   -243550.504 1   -145025.54345  23545902.91045
  20820463.930 6   -396879.430 6   -294091.28549  20820461.84049
  20985440.289 6   -240409.195 6   -180998.68847  20985438.30947
  22733741.727 6   -753330.531 6   -556684.94147  22733737.97347
  23867849.836 5   -838258.734 5                
  21706636.367 6   -643549.418 6   -489979.21949  21706635.16849
 20  5 16  5  8  2.0000000  0  7G01G03G07G11G22G28G30               -0.000057961
  20071395.867 7   -484242.629 7   -356888.27049  20071395.41849
  23544689.609 1   -249926.527 1   -149993.89145  23544689.94945
  20819939.258 6   -399638.605 6   -296241.28549  20819937.12949
  20985106.828 6   -242162.758 6   -182365.09847  20985104.53547
  22732737.469 6   -758607.703 6   -560797.03147  22732733.53147
  23866685.445 5   -844377.891 5                
  21705734.711 6   -648286.605 6   -493670.53149  21705733.57449
 20  5 16  5  8  3.0000000  0  7G01G03G07G11G22G28G30               -0.000060265
  20070766.891 7   -487546.164 7   -359462.45349  20070767.20349
  23543476.508 1   -256302.496 1   -154962.18445  23543476.23845
  20819414.047 6   -402397.141 6   -298390.79349  20819411.69549
  20984772.711 6   -243916.031 6   -183731.28147  20984770.46547
  22731733.375 6   -763884.488 6   -564908.80147  22731729.10947
  23865520.555 5   -850497.098 5                
  21704833.391 6   -653023.199 6   -497361.37549  21704832.37949
 20  5 16  5  8  4.0000000  0  7G01G03G07G11G22G28G30               -0.000062569
  20070138.617 7   -490849.152 7   -362036.21149  20070138.23449
  23542262.727 1   -262678.598 1   -159930.55545  23542262.93445
  20818889.234 6   -405155.148 6   -300539.89549  20818886.91849
  20984439.297 6   -245669.094 6   -185097.30147  20984437.22347
  22730729.609 6   -769161.090 6   -569020.43447  22730725.21547
  23864356.594 5   -856616.500 5                
  21703932.672 6   -657759.316 6   -501051.85549  21703931.03949
 20  5 16  5  8  5.0000000  0  7G01G03G07G11G22G28G30               -0.000064884
  20069510.289 7   -494151.516 7   -364609.48049  20069510.27049
  23541049.32811                   -164898.96155  23541049.84855
  20818364.445 6   -407912.609 6   -302688.56649  20818362.36349
  20984105.789 6   -247421.914 6   -186463.13747  20984103.72747
  22729725.383 6   -774437.398 6   -573131.84447  22729721.12147
  23863192.117 5   -862736.113 5                
  21703031.250 6   -662494.895 6   -504741.92249  21703029.70749
 20  5 16  5  8  6.0000000  0  7G01G03G07G11G22G28G30               -0.000067188
  20068881.664 7   -497453.121 7   -367182.16449  20068881.76649
  23539835.79711                   -169867.25055  23539836.70355
  20817840.383 6   -410669.328 6   -304836.66049  20817837.49249
  20983772.523 6   -249174.344 6   -187828.67647  20983769.92647
  22728721.180 6   -779713.270 6   -577242.91847  22728717.55147
  23862027.625 5   -868855.695 5    -21953.88957  23862016.77757
  21702129.773 6   -667229.734 6   -508431.41049  21702128.81349
 20  5 16  5  8  7.0000000  0  7G01G03G07G11G22G28G30               -0.000069492
  20068253.367 7   -500754.273 7   -369754.48849  20068253.41449
  23538621.086 1   -281806.918 1   -174835.68445  23538623.38345
  20817315.414 6   -413425.648 6   -306984.44149  20817313.23049
  20983439.047 6   -250926.672 6   -189194.12147  20983436.65647
  22727717.086 6   -784988.996 6   -581353.86747  22727713.16447
  23860862.563 5   -874975.609 5    -26722.63757  23860853.98457
  21701229.594 6   -671964.188 6   -512120.59849  21701228.11749
 20  5 16  5  8  8.0000000  0  7G01G03G07G11G22G28G30               -0.000071796
  20067625.250 7   -504054.867 7   -372326.38349  20067625.28949
  23537407.30511                   -179804.15255  23537410.29355
  20816790.656 6   -416181.457 6   -309131.82049  20816788.41449
  20983105.414 6   -252678.855 6   -190559.45747  20983102.94147
  22726713.273 6   -790264.566 6   -585464.69947  22726709.33247
  23859697.508 5   -881095.719 5                
  21700327.969 6   -676698.203 6   -515809.44549  21700327.02349
 20  5 16  5  8  9.0000000  0  6G01G07G11G22G28G30                  -0.000074102
  20066997.680 7   -507354.887 7   -374897.82449  20066997.15249
  20816266.336 6   -418936.684 6   -311278.75049  20816264.64849
  20982771.852 6   -254430.777 6   -191924.59047  20982770.08247
  22725709.398 6   -795539.832 6   -589575.30147  22725705.23047
  23858533.023 5   -887216.008 5                
  21699428.281 6   -681431.672 6   -519497.85549  21699426.86749
 20  5 16  5  8 10.0000000  0  6G01G07G11G22G28G30                  -0.000076405
  20066369.820 7   -510654.207 7   -377468.72349  20066369.46149
  20815742.328 6   -421691.293 6   -313425.19949  20815740.18849
  20982439.094 6   -256182.406 6   -193289.48847  20982436.67647
  22724705.766 6   -800814.758 6   -593685.62547  22724701.80947
  23857368.883 5   -893336.352 5                
  21698527.234 6   -686164.523 6   -523185.79349  21698525.84449
 20  5 16  5  8 11.0000000  0  6G01G07G11G22G28G30                  -0.000078709
  20065741.539 7   -513952.934 7   -380039.15649  20065742.18449
  20815217.969 6   -424445.328 6   -315571.20749  20815216.02349
  20982105.789 6   -257933.809 6   -194654.21947  20982103.35947
  22723701.961 6   -806089.430 6   -597795.75847  22723697.88747
  23856203.711 5   -899456.875 5                
  21697626.258 6   -690896.824 6   -526873.29749  21697625.05549
 20  5 16  5  8 12.0000000  0  6G01G07G11G22G28G30                  -0.000081015
  20065114.414 7   -517250.891 7   -382608.99249  20065114.17649
  20814694.547 6   -427198.668 6   -317716.66849  20814692.19549
  20981771.773 6   -259684.816 6   -196018.63747  20981769.92647
  22722698.602 6   -811363.676 6   -601905.55547  22722694.33647
  23855039.109 5   -905577.422 5                
  21696726.063 6   -695628.473 6   -530560.30149  21696724.54749
 20  5 16  5  8 13.0000000  0  6G01G07G11G22G28G30                  -0.000083319
  20064487.055 7   -520548.445 7   -385178.51649  20064487.01249
  20814170.656 6   -429951.602 6   -319861.82049  20814168.45349
  20981438.867 6   -261435.777 6   -197383.03547  20981436.78147
  22721695.016 6   -816637.836 6   -606015.28947  22721690.46947
  23853874.500 5   -911698.297 5                
  21695825.695 6   -700359.750 6   -534247.01649  21695824.34049
 20  5 16  5  8 14.0000000  0  6G01G07G11G22G28G30                  -0.000085623
  20063859.820 7   -523845.422 7   -387747.59049  20063859.84849
  20813646.906 6   -432704.012 6   -322006.55549  20813644.88349
  20981106.016 6   -263186.527 6   -198747.24647  20981103.44547
  22720690.977 6   -821911.730 6   -610124.81347  22720687.01647
  23852709.445 5   -917819.371 5                
  21694925.750 6   -705090.516 6   -537933.31649  21694924.07049
 20  5 16  5  8 15.0000000  0  6G01G07G11G22G28G30                  -0.000087927
  20063232.617 7   -527141.680 7   -390316.10249  20063232.48049
  20813123.375 6   -435455.742 6   -324150.76649  20813120.87549
  20980772.617 6   -264936.938 6   -200111.20347  20980770.49247
  22719687.664 6   -827185.277 6   -614234.07047  22719683.44947
  23851545.148 5   -923940.480 5                
  21694025.719 6   -709820.637 6   -541619.13749  21694024.16049
 20  5 16  5  8 16.0000000  0  6G01G07G11G22G28G30                  -0.000090231
  20062605.336 7   -530437.332 7   -392884.14849  20062605.25449
  20812599.664 6   -438206.945 6   -326294.56649  20812597.41449
  20980440.117 6   -266687.148 6   -201474.99647  20980437.90647
  22718684.016 6   -832458.563 6   -618343.12547  22718680.24647
  23850380.219 5   -930061.793 5                
  21693125.563 6   -714550.230 6   -545304.52749  21693123.75849
 20  5 16  5  8 17.0000000  0  6G01G07G11G22G28G30                  -0.000092535
  20061978.148 7   -533732.359 7   -395451.69949  20061978.14149
  20812076.789 6   -440957.523 6   -328437.87149  20812074.34049
  20980106.797 6   -268437.051 6   -202838.55947  20980104.25847
  22717680.617 6   -837731.535 6   -622451.93047  22717676.60547
  23849214.797 5   -936183.199 5                
  21692225.539 6   -719279.227 6   -548989.46949  21692224.07449
 20  5 16  5  8 18.0000000  0  6G01G07G11G22G28G30                  -0.000094841
  20061351.414 7   -537026.738 7   -398018.74649  20061351.34849
  20811552.961 6   -443707.527 6   -330580.73449  20811550.84849
  20979773.117 6   -270186.711 6   -204201.92647  20979771.57847
  22716677.500 6   -843004.223 6   -626560.51647  22716673.19147
  23848049.820 5   -942304.770 5                
  21691326.266 6   -724007.695 6   -552673.98849  21691324.50849
 20  5 16  5  8 19.0000000  0  6G01G07G11G22G28G30                  -0.000097145
  20060724.414 7   -540320.566 7   -400585.36749  20060724.75849
  20811029.523 6   -446456.973 6   -332723.15649  20811027.72749
  20979441.266 6   -271936.184 6   -205565.15247  20979439.07047
  22715674.406 6   -848276.629 6   -630668.87947  22715669.93447
  23846884.852 5   -948426.520 5                
  21690426.398 6   -728735.629 6   -556358.09049  21690424.49649
 20  5 16  5  8 20.0000000  0  6G01G07G11G22G28G30                  -0.000099449
  20060097.797 7   -543613.664 7   -403151.41449  20060097.90249
  20810506.773 6   -449205.754 6   -334865.06649  20810504.43449
  20979108.188 6   -273685.285 6   -206928.09047  20979105.66847
  22714671.273 6   -853548.680 6   -634776.97347  22714666.93047
  23845719.703 5   -954548.324 5                
  21689526.945 6   -733462.910 6   -560041.69149  21689525.01649
 20  5 16  5  8 21.0000000  0  6G01G07G11G22G28G30                  -0.000101755
  20059471.031 7   -546906.285 7   -405717.09849  20059471.35949
  20809984.086 6   -451954.105 6   -337006.64149  20809981.35249
  20978775.320 6   -275434.258 6   -208290.93047  20978773.35947
  22713668.039 6   -858820.566 6   -638884.93047  22713662.96947
  23844554.828 5   -960670.391 5                
  21688627.508 6   -738189.797 6   -563724.98449  21688625.48049
 20  5 16  5  8 22.0000000  0  6G01G07G11G22G28G30                  -0.000104059
  20058844.742 7   -550198.258 7   -408282.27349  20058844.72349
  20809460.836 6   -454701.836 6   -339147.73049  20809458.78549
  20978442.195 6   -277182.992 6   -209653.58247  20978440.20747
  22712665.164 6   -864092.152 6   -642992.65647  22712660.31347
  23843389.930 5   -966792.602 5                
  21687727.930 6   -742916.094 6   -567407.81649  21687726.33249
 20  5 16  5  8 23.0000000  0  6G01G07G11G22G28G30                  -0.000106363
  20058218.195 7   -553489.484 7   -410846.85949  20058218.32849
  20808937.914 6   -457448.852 6   -341288.27049  20808936.04749
  20978109.492 6   -278931.313 6   -211015.90647  20978107.37547
  22711661.680 6   -869363.313 6   -647100.05147  22711656.94147
  23842225.531 5   -972914.813 5                
  21686828.352 6   -747641.680 6   -571090.09449  21686826.94949
 20  5 16  5  8 24.0000000  0  6G01G07G11G22G28G30                  -0.000108667
  20057592.305 7   -556780.273 7   -413411.11349  20057592.18049
  20808415.766 6   -460195.496 6   -343428.50849  20808413.38749
  20977777.203 6   -280679.570 6   -212378.18847  20977775.20747
  22710658.180 6   -874634.379 6   -651207.37147  22710654.48847
  23841060.188 5   -979037.324 5                
  21685929.789 6   -752366.922 6   -574772.10549  21685927.80549
 20  5 16  5  8 25.0000000  0  6G01G07G11G22G28G30                  -0.000110973
  20056966.430 7   -560070.629 7   -415975.02349  20056966.35549
  20807892.453 6   -462941.730 6   -345568.43049  20807890.88349
  20977444.789 6   -282427.789 6   -213740.43047  20977442.01247
  22709655.352 6   -879905.305 6   -655314.58247  22709650.98847
  23839895.023 5   -985160.199 5                
  21685029.977 6   -757091.816 6   -578453.84849  21685028.91449
 20  5 16  5  8 26.0000000  0  6G01G07G11G22G28G30                  -0.000113277
  20056339.945 7   -563360.223 7   -418538.34849  20056340.04749
  20807370.195 6   -465687.250 6   -347707.79749  20807368.37149
  20977112.453 6   -284175.574 6   -215102.34047  20977109.77047
  22708652.563 6   -885175.836 6   -659421.49247  22708648.05547
  23838729.766 5   -991283.090 5                
  21684131.211 6   -761815.980 6   -582135.01249  21684129.57849
 20  5 16  5  8 27.0000000  0  6G01G07G11G22G28G30                  -0.000115583
  20055714.023 7   -566649.238 7   -421101.21549  20055714.10949
  20806847.875 6   -468432.230 6   -349846.74249  20806845.87549
  20976779.969 6   -285923.176 6   -216464.11347  20976777.01247
  22707649.297 6   -890446.125 6   -663528.21147  22707645.39547
  23837564.602 5   -997406.141 5    -63934.00456  23837559.39856
  21683232.461 6   -766539.648 6   -585815.79349  21683230.96949
 20  5 16  5  8 28.0000000  0  6G01G07G11G22G28G30                  -0.000117887
  20055088.266 7   -569937.703 7   -423663.65649  20055088.15249
  20806326.086 6   -471176.707 6   -351985.29749  20806323.72349
  20976446.891 6   -287670.594 6   -217825.73847  20976444.51647
  22706646.750 6   -895716.160 6   -667634.73047  22706642.38747
  23836399.844 5  -1003529.395 5    -68705.37546  23836395.14846
  21682333.430 6   -771262.840 6   -589496.19149  21682331.84849
 20  5 16  5  8 29.0000000  0  6G01G07G11G22G28G30                  -0.000120193
  20054462.383 7   -573225.660 7   -426225.69549  20054462.66849
  20805803.773 6   -473920.711 6   -354123.48449  20805801.53149
  20976114.484 6   -289417.898 6   -219187.27347  20976111.74247
  22705643.516 6   -900986.070 6   -671741.14847  22705639.35947
  23835234.023 5  -1009652.906 5    -73476.95746  23835229.76646
  21681435.250 6   -775985.563 6   -593176.24249  21681433.10549
 20  5 16  5  8 30.0000000  0  6G01G07G11G22G28G30                  -0.000122498
  20053837.086 7   -576513.043 7   -428787.29749  20053837.62549
  20805281.445 6   -476664.203 6   -356261.27349  20805279.37949
  20975782.141 6   -291164.984 6   -220548.64147  20975779.32847
  22704641.266 6   -906255.707 6   -675847.36347  22704636.75447
  23834068.992 5  -1015776.633 5    -78248.69946  23834064.60946
  21680536.359 6   -780707.805 6   -596855.91849  21680534.79349
 20  5 16  5  8 31.0000000  0  6G01G07G11G22G28G30                  -0.000124804
  20053211.773 7   -579799.703 7   -431348.32849  20053212.12149
  20804759.758 6   -479406.996 6   -358398.51249  20804757.28949
  20975449.375 6   -292911.703 6   -221909.71147  20975447.27747
  22703638.406 6   -911524.949 6   -679953.25447  22703633.87547
  23832903.695 5  -1021900.379 5    -83020.44946  23832899.39146
  21679637.875 6   -785429.375 6   -600535.06349  21679636.59449
 20  5 16  5  8 32.0000000  0  6G01G07G11G22G28G30                  -0.000127110
  20052586.539 7   -583085.773 7   -433908.90649  20052586.94549
  20804237.383 6   -482149.258 6   -360535.34049  20804235.69949
  20975116.734 6   -294658.188 6   -223270.62147  20975114.89847
  22702635.391 6   -916793.953 6   -684058.96947  22702631.07047
  23831738.234 5  -1028024.320 5    -87792.34446  23831734.20346
  21678739.305 6   -790150.449 6   -604213.82449  21678738.08649
 20  5 16  5  8 33.0000000  0  6G01G07G11G22G28G30                  -0.000129414
  20051961.156 7   -586371.121 7   -436468.92249  20051961.52349
  20803715.930 6   -484890.813 6   -362671.61349  20803714.41849
  20974784.570 6   -296404.410 6   -224631.31647  20974782.84847
  22701632.609 6   -922062.563 6   -688164.38347  22701628.81647
  23830572.484 5  -1034148.316 5    -92564.27346  23830568.64146
  21677841.086 6   -794870.863 6   -607892.07049  21677839.81349
 20  5 16  5  8 34.0000000  0  6G01G07G11G22G28G30                  -0.000131720
  20051336.055 7   -589655.809 7   -439028.41449  20051336.62949
  20803194.227 6   -487631.734 6   -364807.39549  20803192.59849
  20974452.570 6   -298150.262 6   -225991.71147  20974450.48847
  22700630.289 6   -927330.832 6   -692269.52747  22700626.30947
  23829407.469 5  -1040272.379 5    -97336.25446  23829403.43846
  21676942.898 6   -799590.637 6   -611569.82049  21676941.68449
 20  5 16  5  8 35.0000000  0  6G01G07G11G22G28G30                  -0.000134024
  20050710.992 7   -592939.949 7   -441587.48449  20050711.18449
  20802672.453 6   -490372.195 6   -366942.82049  20802671.17649
  20974120.563 6   -299895.957 6   -227351.99647  20974118.23047
  22699627.773 6   -932598.871 6   -696374.48847  22699623.29747
  23828242.172 5  -1046396.688 5   -102108.44146  23828238.29746
  21676044.883 6   -804309.949 6   -615247.20349  21676044.05149
 20  5 16  5  8 36.0000000  0  6G01G07G11G22G28G30                  -0.000136330
  20050086.453 7   -596223.332 7   -444145.96149  20050086.63349
  20802151.680 6   -493111.934 6   -369077.67649  20802149.64849
  20973788.602 6   -301641.289 6   -228711.99647  20973786.52747
  22698625.563 6   -937866.531 6   -700479.16047  22698621.18847
  23827076.711 5  -1052520.992 5   -106880.63346  23827072.81346
  21675146.852 6   -809028.594 6   -618924.07049  21675145.83649
 20  5 16  5  8 37.0000000  0  6G01G07G11G22G28G30                  -0.000138636
  20049461.727 7   -599506.043 7   -446703.91849  20049461.76649
  20801630.219 6   -495851.012 6   -371212.02049  20801628.11749
  20973456.625 6   -303386.285 6   -230071.73847  20973453.68047
  22697623.211 6   -943133.809 6   -704583.53147  22697618.66047
  23825911.234 5  -1058645.398 5   -111652.89146  23825907.57046
  21674249.109 6   -813746.613 6   -622600.44549  21674248.19549
 20  5 16  5  8 38.0000000  0  6G01G07G11G22G28G30                  -0.000140940
  20048836.953 7   -602788.203 7   -449261.44949  20048837.60549
  20801109.117 6   -498589.586 6   -373345.98049  20801107.23449
  20973124.164 6   -305131.094 6   -231431.32847  20973122.02347
  22696621.195 6   -948400.875 6   -708687.73847  22696616.09047
  23824745.359 5  -1064770.020 5   -116425.31646  23824742.37946
  21673351.188 6   -818464.129 6   -626276.43449  21673350.33649
 20  5 16  5  8 39.0000000  0  6G01G07G11G22G28G30                  -0.000143246
  20048212.742 7   -606069.691 7   -451818.45349  20048213.03949
  20800588.156 6   -501327.523 6   -375479.43449  20800586.26249
  20972792.570 6   -306875.605 6   -232790.68047  20972789.91447
  22695618.867 6   -953667.570 6   -712791.65247  22695613.71947
  23823579.758 5  -1070894.691 5   -121197.79346  23823576.67246
  21672453.703 6   -823181.043 6   -629951.95349  21672452.79349
 20  5 16  5  8 40.0000000  0  6G01G07G11G22G28G30                  -0.000145552
  20047588.219 7   -609350.480 7   -454374.91049  20047588.87549
  20800067.359 6   -504064.828 6   -377612.40249  20800065.68449
  20972460.648 6   -308619.793 6   -234149.78947  20972458.05947
  22694616.734 6   -958933.953 6   -716895.32447  22694611.75447
  23822414.430 5  -1077019.453 5   -125970.33646  23822411.02046
  21671556.094 6   -827897.359 6   -633627.00449  21671555.37149
 20  5 16  5  8 41.0000000  0  6G01G07G11G22G28G30                  -0.000147856
  20046964.109 7   -612630.848 7   -456931.04349  20046964.50049
  20799546.242 6   -506801.719 6   -379745.04349  20799544.45349
  20972128.867 6   -310363.938 6   -235508.87147  20972125.99247
  22693614.219 6   -964200.215 6   -720998.90247  22693609.35947
  23821248.781 5  -1083144.543 5   -130743.13746  23821245.68046
  21670658.898 6   -832613.258 6   -637301.73849  21670657.89549
 20  5 16  5  8 42.0000000  0  6G01G07G11G22G28G30                  -0.000150162
  20046339.930 7   -615910.660 7   -459486.74249  20046340.16449
  20799025.461 6   -509538.113 6   -381877.29749  20799023.68049
  20971797.109 6   -312107.891 6   -236867.80147  20971794.37547
  22692612.391 6   -969466.258 6   -725102.30147  22692607.96147
  23820082.953 5  -1089269.824 5   -135516.09046  23820079.92246
  21669761.406 6   -837328.723 6   -640976.12949  21669760.59049
 20  5 16  5  8 43.0000000  0  6G01G07G11G22G28G30                  -0.000152468
  20045716.125 7   -619189.609 7   -462041.77049  20045716.40649
  20798505.242 6   -512273.668 6   -384008.89549  20798503.51249
  20971465.188 6   -313851.352 6   -238226.33247  20971462.53947
  22691610.469 6   -974731.734 6   -729205.27047  22691605.90247
  23818917.695 5  -1095395.027 5   -140288.98446  23818914.51646
  21668863.883 6   -842043.336 6   -644649.85249  21668863.41049
 20  5 16  5  8 44.0000000  0  6G01G07G11G22G28G30                  -0.000154772
  20045092.273 7   -622467.828 7   -464596.22349  20045092.51249
  20797984.711 6   -515008.535 6   -386139.95749  20797982.57849
  20971133.891 6   -315594.477 6   -239584.62147  20971131.05147
  22690608.320 6   -979996.816 6   -733307.93047  22690604.00447
  23817752.320 5  -1101520.266 5   -145061.90246  23817748.68046
  21667967.031 6   -846757.336 6   -648323.10249  21667966.34449
 20  5 16  5  8 45.0000000  0  6G01G07G11G22G28G30                  -0.000157078
  20044468.594 7   -625745.531 7   -467150.28149  20044468.84849
  20797464.508 6   -517742.930 6   -388270.66049  20797462.62949
  20970801.945 6   -317337.422 6   -240942.76647  20970799.25047
  22689606.563 6   -985261.734 6   -737410.46547  22689601.80547
  23816586.641 5  -1107645.742 5   -149834.99646  23816583.34046
  21667069.844 6   -851470.836 6   -651995.95749  21667069.62949
 20  5 16  5  8 46.0000000  0  6G01G07G11G22G28G30                  -0.000159384
  20043844.898 7   -629022.430 7   -469703.70749  20043845.21949
  20796944.125 6   -520476.563 6   -390400.77049  20796942.41849
  20970470.734 6   -319079.961 6   -242300.58647  20970467.37947
  22688605.047 6   -990526.195 6   -741512.63347  22688600.16447
  23815420.969 5  -1113771.160 5   -154608.05146  23815417.92246
  21666173.172 6   -856183.617 6   -655668.25449  21666172.80549
 20  5 16  5  8 47.0000000  0  6G01G07G11G22G28G30                  -0.000161690
  20043221.547 7   -632298.750 7   -472256.68849  20043221.98049
  20796423.797 6   -523209.660 6   -392530.45749  20796422.46149
  20970138.523 6   -320822.289 6   -243658.24647  20970135.57447
  22687602.938 6   -995790.379 6   -745614.60247  22687598.34847
  23814255.195 5  -1119896.785 5   -159381.26246  23814252.23846
  21665276.922 6   -860895.895 6   -659340.15649  21665276.51649
 20  5 16  5  8 48.0000000  0  6G01G07G11G22G28G30                  -0.000163994
  20042598.219 7   -635574.434 7   -474809.16849  20042598.32849
  20795904.000 6   -525942.188 6   -394659.69549  20795902.31649
  20969807.414 6   -322564.355 6   -245015.68447  20969804.11347
  22686601.148 6  -1001054.250 6   -749716.31647  22686596.91047
  23813089.797 5  -1126022.520 5   -164154.55946  23813086.32446
  21664379.453 6   -865607.594 6   -663011.60549  21664379.59449
 20  5 16  5  8 49.0000000  0  6G01G07G11G22G28G30                  -0.000166300
  20041974.680 7   -638849.586 7   -477361.23049  20041975.05149
  20795384.242 6   -528674.176 6   -396788.51249  20795382.48449
  20969475.727 6   -324306.242 6   -246373.00447  20969472.66047
  22685599.570 6  -1006317.926 6   -753817.87947  22685595.32847
  23811923.883 5  -1132148.527 5   -168928.07046  23811920.93846
  21663482.961 6   -870318.832 6   -666682.70349  21663483.00449
 20  5 16  5  8 50.0000000  0  6G01G07G11G22G28G30                  -0.000168606
  20041352.070 7   -642124.035 7   -479912.75849  20041352.20349
  20794864.414 6   -531405.547 6   -398916.85549  20794862.81649
  20969144.336 6   -326047.816 6   -247730.08247  20969141.24647
  22684598.172 6  -1011581.219 6   -757919.14847  22684594.00847
  23810757.922 5  -1138274.547 5   -173701.58246  23810755.15646
  21662586.336 6   -875029.430 6   -670353.29349  21662586.77749
 20  5 16  5  8 51.0000000  0  6G01G07G11G22G28G30                  -0.000170912
  20040728.969 7   -645397.914 7   -482463.82849  20040729.27749
  20794344.523 6   -534136.363 6   -401044.76649  20794343.59849
  20968812.773 6   -327789.199 6   -249087.00447  20968809.48447
  22683596.727 6  -1016844.273 6   -762020.22347  22683592.07047
  23809592.133 5  -1144400.789 5   -178475.28146  23809589.48846
  21661690.688 6   -879739.504 6   -674023.49249  21661690.30549
 20  5 16  5  8 52.0000000  0  6G01G07G11G22G28G30                  -0.000173218
  20040105.898 7   -648671.113 7   -485014.37949  20040106.58249
  20793825.148 6   -536866.535 6   -403172.16849  20793823.64549
  20968481.469 6   -329530.230 6   -250443.65247  20968478.40647
  22682594.742 6  -1022106.957 6   -766121.02047  22682590.67647
  23808426.320 5  -1150527.059 5   -183249.00046  23808423.64846
  21660793.977 6   -884448.965 6   -677693.19949  21660793.59449
 20  5 16  5  8 53.0000000  0  6G01G07G11G22G28G30                  -0.000175522
  20039483.070 7   -651943.824 7   -487564.54349  20039483.36349
  20793305.898 6   -539596.281 6   -405299.25049  20793304.08649
  20968150.547 6   -331271.195 6   -251800.25847  20968147.12947
  22681593.414 6  -1027369.551 6   -770221.73847  22681589.52747
  23807261.039 5  -1156653.645 5   -188022.97346  23807257.82046
  21659898.070 6   -889158.012 6   -681362.58649  21659897.91449
 20  5 16  5  8 54.0000000  0  6G01G07G11G22G28G30                  -0.000177828
  20038860.195 7   -655215.785 7   -490114.12149  20038860.98849
  20792786.625 6   -542325.297 6   -407425.75449  20792785.28949
  20967819.266 6   -333011.734 6   -253156.52047  20967815.44147
  22680592.258 6  -1032631.625 6   -774322.05147  22680588.45347
  23806095.094 5  -1162780.230 5   -192796.91846  23806091.94546
  21659002.523 6   -893866.363 6   -685031.43449  21659002.42649
 20  5 16  5  8 55.0000000  0  6G01G07G11G22G28G30                  -0.000180134
  20038237.867 7   -658487.172 7   -492663.25049  20038238.31349
  20792267.094 6   -545053.797 6   -409551.85949  20792265.64549
  20967487.781 6   -334752.102 6   -254512.65247  20967484.46947
  22679590.883 6  -1037893.512 6   -778422.22747  22679587.14847
  23804929.039 5  -1168907.016 5   -197571.03546  23804926.07046
  21658105.992 6   -898574.203 6   -688699.87949  21658106.30549
 20  5 16  5  8 56.0000000  0  6G01G07G11G22G28G30                  -0.000182440
  20037615.234 7   -661757.926 7   -495211.89149  20037616.09449
  20791747.914 6   -547781.695 6   -411677.49649  20791746.57849
  20967156.914 6   -336492.211 6   -255868.57847  20967153.30947
  22678589.500 6  -1043155.082 6   -782522.14547  22678585.95747
  23803762.742 5  -1175033.922 5   -202345.24646  23803760.33246
  21657210.172 6   -903281.500 6   -692367.89149  21657210.43849
 20  5 16  5  8 57.0000000  0  6G01G07G11G22G28G30                  -0.000184746
  20036993.016 7   -665028.082 7   -497760.06649  20036993.52749
  20791229.078 6   -550509.043 6   -413802.70349  20791227.94549
  20966826.078 6   -338232.078 6   -257224.32447  20966822.10247
  22677588.336 6  -1048416.383 6   -786621.85547  22677585.13747
  23802597.453 5  -1181161.012 5   -207119.61346  23802594.04346
  21656314.859 6   -907988.234 6   -696035.48049  21656314.49649
 20  5 16  5  8 58.0000000  0  6G01G07G11G22G28G30                  -0.000187052
  20036370.719 7   -668297.656 7   -500307.79349  20036371.61349
  20790710.133 6   -553235.836 6   -415927.47749  20790708.70349
  20966494.805 6   -339971.730 6   -258579.89147  20966490.91447
  22676587.461 6  -1053677.426 6   -790721.37947  22676583.56647
  23801431.148 5  -1187288.227 5   -211894.06646  23801428.36746
  21655419.453 6   -912694.441 6   -699702.65649  21655419.01649
 20  5 16  5  8 59.0000000  0  6G01G07G11G22G28G30                  -0.000189358
  20035748.961 7   -671566.504 7   -502854.94549  20035749.33249
  20790191.555 6   -555961.953 6   -418051.72749  20790190.01249
  20966164.203 6   -341711.043 6   -259935.20747  20966160.03947
  22675586.109 6  -1058938.078 6   -794820.58247  22675582.77047
  23800264.992 5  -1193415.504 5   -216668.57446  23800262.02046
  21654523.820 6   -917400.004 6   -703369.33249  21654523.67649
 20  5 16  5  9  0.0000000  0  6G01G07G11G22G28G30                  -0.000191664
  20035127.117 7   -674834.648 7   -505401.55549  20035127.73449
  20789672.563 6   -558687.414 6   -420175.46549  20789670.95349
  20965832.859 6   -343450.012 6   -261290.25447  20965829.07847
  22674584.852 6  -1064198.332 6   -798919.47747  22674581.92647
  23799098.672 5  -1199542.852 5   -221443.14546  23799096.31346
  21653628.617 6   -922104.938 6   -707035.51249  21653628.47349
 20  5 16  5  9  1.0000000  0  6G01G07G11G22G28G30                  -0.000193970
  20034505.227 7   -678102.191 7   -507947.68849  20034505.87949
  20789154.336 6   -561412.320 6   -422298.76249  20789152.48849
  20965501.984 6   -345188.785 6   -262645.14147  20965498.21547
  22673584.172 6  -1069458.348 6   -803018.19547  22673580.86747
  23797933.164 5  -1205670.379 5   -226217.83646  23797930.58646
  21652733.453 6   -926809.355 6   -710701.28949  21652733.20349
 20  5 16  5  9  2.0000000  0  6G01G07G11G22G28G30                  -0.000196276
  20033883.219 7   -681369.004 7   -510493.25449  20033884.10549
  20788635.688 6   -564136.527 6   -424421.53149  20788634.04349
  20965171.273 6   -346927.180 6   -263999.73447  20965166.90647
  22672583.320 6  -1074717.938 6   -807116.57447  22672579.88347
  23796766.859 5  -1211797.914 5   -230992.53146  23796764.67246
  21651838.570 6   -931513.063 6   -714366.51249  21651838.25449
 20  5 16  5  9  3.0000000  0  6G01G07G11G22G28G30                  -0.000198582
  20033261.852 7   -684635.293 7   -513038.41849  20033262.57849
  20788117.125 6   -566860.238 6   -426543.90649  20788116.23449
  20964840.656 6   -348665.398 6   -265354.19147  20964836.54347
  22671582.016 6  -1079977.336 6   -811214.79747  22671579.15647
  23795600.828 5  -1217925.688 5   -235767.40246  23795598.40246
  21650943.445 6   -936216.301 6   -718031.37549  21650943.25049
 20  5 16  5  9  4.0000000  0  6G01G07G11G22G28G30                  -0.000200888
  20032640.531 7   -687900.980 7   -515583.10249  20032641.10549
  20787598.883 6   -569583.398 6   -428665.84849  20787597.65249
  20964510.078 6   -350403.371 6   -266708.45747  20964505.58647
  22670581.523 6  -1085236.406 6   -815312.78147  22670578.92647
  23794434.281 5  -1224053.609 5   -240542.40646  23794432.21946
  21650048.539 6   -940918.988 6   -721695.80949  21650048.18449
 20  5 16  5  9  5.0000000  0  6G01G07G11G22G28G30                  -0.000203194
  20032019.398 7   -691165.945 7   -518127.23049  20032019.79749
  20787080.602 6   -572305.887 6   -430787.27349  20787079.67649
  20964178.813 6   -352141.039 6   -268062.48847  20964174.62547
  22669580.734 6  -1090495.160 6   -819410.50847  22669578.16847
  23793268.367 5  -1230181.586 5   -245317.44546  23793266.28546
  21649153.742 6   -945621.066 6   -725359.76649  21649153.53949
 20  5 16  5  9  6.0000000  0  6G01G07G11G22G28G30                  -0.000205500
  20031397.930 7   -694430.461 7   -520671.01649  20031398.37549
  20786563.109 6   -575027.957 6   -432908.36749  20786561.62549
  20963848.484 6   -353878.613 6   -269416.44147  20963844.12547
  22668579.930 6  -1095753.734 6   -823508.09847  22668577.32047
  23792102.148 5  -1236309.840 5   -250092.71946  23792099.80946
  21648258.656 6   -950322.734 6   -729023.40649  21648258.60249
 20  5 16  5  9  7.0000000  0  6G01G07G11G22G28G30                  -0.000207806
  20030776.680 7   -697694.254 7   -523214.22749  20030777.55949
  20786045.383 6   -577749.352 6   -435028.93049  20786043.69549
  20963517.758 6   -355615.855 6   -270770.13747  20963513.56647
  22667579.227 6  -1101011.941 6   -827605.40247  22667576.52747
  23790935.656 5  -1242438.176 5   -254868.05546  23790933.52346
  21647364.609 6   -955023.750 6   -732686.53149  21647364.02349
 20  5 16  5  9  8.0000000  0  6G01G07G11G22G28G30                  -0.000210112
  20030155.891 7   -700957.324 7   -525756.87949  20030156.32049
  20785527.375 6   -580470.066 6   -437148.97349  20785526.41449
  20963187.594 6   -357352.719 6   -272123.53547  20963182.56347
  22666578.633 6  -1106269.727 6   -831702.37547  22666576.10247
  23789770.781 5  -1248566.496 5   -259643.35946  23789767.12546
  21646470.227 6   -959724.086 6   -736349.12949  21646470.19149
 20  5 16  5  9  9.0000000  0  6G01G07G11G22G28G30                  -0.000212418
  20029535.016 7   -704219.719 7   -528299.01249  20029535.97749
  20785009.813 6   -583190.152 6   -439268.51649  20785008.52049
  20962857.180 6   -359089.262 6   -273476.69147  20962852.13347
  22665578.461 6  -1111527.180 6   -835799.09447  22665575.67247
  23788603.852 5  -1254694.945 5   -264418.79346  23788601.08246
  21645575.594 6   -964423.801 6   -740011.24249  21645575.37949
 20  5 16  5  9 10.0000000  0  6G01G07G11G22G28G30                  -0.000214724
  20028914.609 7   -707481.457 7   -530840.61749  20028915.08249
  20784492.273 6   -585909.613 6   -441387.58249  20784491.02349
  20962526.734 6   -360825.566 6   -274829.65247  20962522.15647
  22664578.070 6  -1116784.301 6   -839895.55147  22664575.16447
  23787437.563 5  -1260823.477 5   -269194.27346  23787434.68446
  21644681.656 6   -969122.973 6   -743672.94549  21644681.23449
 20  5 16  5  9 11.0000000  0  6G01G07G11G22G28G30                  -0.000217030
  20028293.922 7   -710742.695 7   -533381.84449  20028294.27349
  20783975.188 6   -588628.609 6   -443506.27349  20783973.32449
  20962196.102 6   -362561.711 6   -276182.50047  20962191.83247
  22663578.063 6  -1122041.250 6   -843991.87147  22663575.21147
  23786271.008 5  -1266952.258 5   -273969.94146  23786268.97346
  21643787.398 6   -973821.676 6   -747334.27349  21643787.13349
 20  5 16  5  9 12.0000000  0  6G01G07G11G22G28G30                  -0.000219336
  20027673.133 7   -714003.375 7   -535922.63349  20027673.98049
  20783457.609 6   -591347.090 6   -445624.57449  20783456.21549
  20961865.797 6   -364297.684 6   -277535.21147  20961861.27347
  22662577.609 6  -1127297.980 6   -848088.01647  22662574.57447
  23785105.305 5  -1273081.266 5   -278745.78546  23785102.54346
  21642893.398 6   -978519.883 6   -750995.21549  21642893.10549
 20  5 16  5  9 13.0000000  0  6G01G07G11G22G28G30                  -0.000221642
  20027052.789 7   -717263.461 7   -538462.95349  20027053.28549
  20782940.336 6   -594065.039 6   -447742.45749  20782938.68049
  20961535.719 6   -366033.461 6   -278887.77047  20961530.96947
  22661577.031 6  -1132554.430 6   -852183.94947  22661574.10247
  23783939.227 5  -1279210.469 5   -283521.79346  23783936.16446
  21641999.641 6   -983217.559 6   -754655.74249  21641999.49649
 20  5 16  5  9 14.0000000  0  6G01G07G11G22G28G30                  -0.000223936
  20026432.492 7   -720522.777 7   -541002.68449  20026433.03149
  20782423.070 6   -596782.219 6   -449859.74249  20782421.87549
  20961205.352 6   -367768.793 6   -280239.97747  20961200.76647
  22660576.781 6  -1137810.406 6   -856279.52047  22660574.27047
  23782772.797 5  -1285339.590 5   -288297.72346  23782769.96146
  21641105.758 6   -987914.500 6   -758315.69549  21641105.23849
 20  5 16  5  9 15.0000000  0  6G01G07G11G22G28G30                  -0.000226242
  20025812.813 7   -723781.488 7   -543541.93849  20025813.36349
  20781906.141 6   -599498.871 6   -451976.61749  20781904.75049
  20960875.406 6   -369503.922 6   -281592.02347  20960870.48447
  22659576.742 6  -1143066.137 6   -860374.88747  22659574.35247
  23781606.313 5  -1291468.898 5   -293073.80546  23781603.50446
  21640211.773 6   -992610.930 6   -761975.25849  21640211.88749
 20  5 16  5  9 16.0000000  0  6G01G07G11G22G28G30                  -0.000228548
  20025192.367 7   -727039.473 7   -546080.62949  20025193.13749
  20781389.898 6   -602214.797 6   -454092.92649  20781388.06649
  20960544.641 6   -371238.676 6   -282943.77347  20960540.50847
  22658576.438 6  -1148321.434 6   -864469.93447  22658573.76247
  23780438.711 5  -1297598.223 5   -297849.89146  23780437.25046
  21639318.523 6   -997306.676 6   -765634.28549  21639318.41449
 20  5 16  5  9 17.0000000  0  6G01G07G11G22G28G30                  -0.000230854
  20024572.375 7   -730296.793 7   -548618.80149  20024573.40249
  20780872.891 6   -604930.133 6   -456208.77349  20780871.16449
  20960214.797 6   -372973.164 6   -284295.32847  20960210.79347
  22657576.578 6  -1153576.414 6   -868564.72347  22657573.82847
  23779272.414 5  -1303727.664 5   -302626.09446  23779270.76246
  21638425.008 6  -1002001.836 6   -769292.85249  21638424.52749
 20  5 16  5  9 18.0000000  0  6G01G07G11G22G28G30                  -0.000233160
  20023953.070 7   -733553.535 7   -551156.52349  20023953.54349
  20780356.570 6   -607644.934 6   -458324.20349  20780354.51249
  20959884.930 6   -374707.422 6   -285646.70747  20959879.98847
  22656577.063 6  -1158831.129 6   -872659.30947  22656574.07847
  23778106.148 5  -1309857.285 5   -307402.44146  23778103.97746
  21637531.320 6  -1006696.473 6   -772951.00849  21637531.42249
 20  5 16  5  9 19.0000000  0  6G01G07G11G22G28G30                  -0.000235466
  20023333.422 7   -736809.508 7   -553693.64149  20023333.92649
  20779840.164 6   -610359.004 6   -460439.05949  20779838.48449
  20959554.852 6   -376441.309 6   -286997.79747  20959550.32847
  22655577.031 6  -1164085.422 6   -876753.56647  22655574.32047
  23776939.688 5  -1315986.910 5   -312178.78146  23776937.66046
  21636638.438 6  -1011390.410 6   -776608.61749  21636637.98049
 20  5 16  5  9 20.0000000  0  6G01G07G11G22G28G30                  -0.000237772
  20022714.000 7   -740064.773 7   -556230.21549  20022714.53949
  20779323.555 6   -613072.402 6   -462553.39549  20779321.83249
  20959224.961 6   -378174.867 6   -288348.61747  20959220.36347
  22654577.289 6  -1169339.324 6   -880847.51647  22654574.43847
  23775773.102 5  -1322116.586 5   -316955.14146  23775771.04746
  21635745.297 6  -1016083.727 6   -780265.75449  21635744.97749
 20  5 16  5  9 21.0000000  0  6G01G07G11G22G28G30                  -0.000240078
  20022094.078 7   -743319.469 7   -558766.34049  20022095.34449
  20778807.578 6   -615785.258 6   -464667.31349  20778805.93849
  20958895.086 6   -379908.180 6   -289699.24647  20958890.67247
  22653577.414 6  -1174592.977 6   -884941.27047  22653574.64147
  23774606.117 5  -1328246.453 5   -321731.66046  23774604.73446
  21634852.750 6  -1020776.480 6   -783922.44549  21634852.05149
 20  5 16  5  9 22.0000000  0  6G01G07G11G22G28G30                  -0.000242382
  20021475.414 7   -746573.473 7   -561301.92649  20021475.98049
  20778291.313 6   -618497.496 6   -466780.74649  20778289.22349
  20958565.750 6   -381641.227 6   -291049.67647  20958560.87947
  22652578.188 6  -1179846.281 6   -889034.75847  22652575.27347
  23773439.945 5  -1334376.375 5   -326508.22346  23773438.32846
  21633960.063 6  -1025468.641 6   -787578.67649  21633959.09849
 20  5 16  5  9 23.0000000  0  6G01G07G11G22G28G30                  -0.000244690
  20020856.258 7   -749826.828 7   -563837.01249  20020856.74249
  20777775.688 6   -621209.098 6   -468893.68049  20777773.86749
  20958235.836 6   -383373.949 6   -292399.84847  20958230.85947
  22651577.656 6  -1185099.227 6   -893127.96147  22651575.80547
  23772273.578 5  -1340506.410 5   -331284.87546  23772271.77046
  21633067.313 6  -1030160.188 6   -791234.41849  21633066.77049
 20  5 16  5  9 24.0000000  0  6G01G07G11G22G28G30                  -0.000246994
  20020237.016 7   -753079.387 7   -566371.47749  20020237.91049
  20777259.820 6   -623919.973 6   -471006.05549  20777257.96949
  20957905.695 6   -385106.301 6   -293749.73047  20957901.01647
  22650578.391 6  -1190351.727 6   -897220.82047  22650576.39547
  23771107.313 5  -1346636.426 5   -336061.50846  23771105.21146
  21632174.281 6  -1034851.035 6   -794889.63349  21632173.75849
 20  5 16  5  9 25.0000000  0  6G01G07G11G22G28G30                  -0.000249300
  20019618.172 7   -756331.359 7   -568905.47749  20019618.82449
  20776744.125 6   -626630.277 6   -473117.97749  20776742.21949
  20957576.477 6   -386838.391 6   -295099.41447  20957571.48047
  22649579.141 6  -1195603.945 6   -901313.45747  22649576.61347
  23769940.055 5  -1352766.594 5   -340838.27746  23769938.75846
  21631282.023 6  -1039541.324 6   -798544.40649  21631281.51249
 20  5 16  5  9 26.0000000  0  6G01G07G11G22G28G30                  -0.000251606
  20019000.063 7   -759582.559 7   -571438.88349  20019000.52049
  20776228.406 6   -629339.855 6   -475229.33649  20776226.21549
  20957247.031 6   -388570.102 6   -296448.79747  20957241.80547
  22648579.125 6  -1200855.730 6   -905405.75447  22648577.04747
  23768773.180 5  -1358896.746 5   -345615.01646  23768772.43846
  21630389.234 6  -1044230.898 6   -802198.62149  21630388.88749
 20  5 16  5  9 27.0000000  0  6G01G07G11G22G28G30                  -0.000253914
  20018381.219 7   -762833.176 7   -573971.82849  20018381.71949
  20775712.594 6   -632048.879 6   -477340.26649  20775710.78949
  20956917.617 6   -390301.609 6   -297798.01647  20956912.28947
  22647580.414 6  -1206107.262 6   -909497.86347  22647577.66847
  23767606.844 5  -1365027.098 5   -350391.91046  23767605.59046
  21629497.234 6  -1048919.992 6   -805852.47349  21629496.56349
 20  5 16  5  9 28.0000000  0  6G01G07G11G22G28G30                  -0.000256220
  20017763.211 7   -766083.027 7   -576504.18449  20017763.68049
  20775197.516 6   -634757.184 6   -479450.64149  20775195.39849
  20956588.117 6   -392032.742 6   -299146.96147  20956582.85547
  22646581.063 6  -1211358.363 6   -913589.62547  22646578.50447
  23766440.273 5  -1371157.422 5   -355168.79346  23766439.30546
  21628604.719 6  -1053608.363 6   -809505.74649  21628604.31649
 20  5 16  5  9 29.0000000  0  6G01G07G11G22G28G30                  -0.000258526
  20017144.516 7   -769332.316 7   -579036.10249  20017145.11349
  20774682.055 6   -637464.973 6   -481560.60249  20774680.61349
  20956258.063 6   -393763.652 6   -300495.72747  20956253.41047
  22645581.906 6  -1216609.211 6   -917681.19147  22645578.99647
  23765274.008 5  -1377287.969 5   -359945.84846  23765272.75046
  21627712.891 6  -1058296.230 6   -813158.62949  21627712.21949
 20  5 16  5  9 30.0000000  0  6G01G07G11G22G28G30                  -0.000260832
  20016526.008 7   -772580.910 7   -581567.47349  20016527.15249
  20774167.289 6   -640172.090 6   -483670.04749  20774165.24649
  20955929.156 6   -395494.238 6   -301844.23047  20955923.91447
  22644583.180 6  -1221859.668 6   -921772.45747  22644580.69947
  23764107.188 5  -1383418.512 5   -364722.89546  23764105.93446
  21626821.969 6  -1062983.426 6   -816810.98849  21626820.53549
 20  5 16  5  9 31.0000000  0  6G01G07G11G22G28G30                  -0.000263138
  20015908.414 7   -775828.816 7   -584098.30149  20015908.89149
  20773652.258 6   -642878.582 6   -485779.00449  20773650.21949
  20955599.844 6   -397224.535 6   -303192.51247  20955594.62147
  22643583.547 6  -1227109.762 6   -925863.43847  22643581.48047
  23762940.758 5  -1389549.207 5   -369500.06346  23762939.75846
  21625929.273 6  -1067670.055 6   -820462.91449  21625928.70349
 20  5 16  5  9 32.0000000  0  6G01G07G11G22G28G30                  -0.000265444
  20015290.078 7   -779076.180 7   -586628.71949  20015291.09449
  20773137.125 6   -645584.555 6   -487887.55549  20773135.30149
  20955270.328 6   -398954.652 6   -304540.64547  20955265.85547
  22642584.664 6  -1232359.637 6   -929954.25047  22642582.29747
  23761774.188 5  -1395680.059 5   -374277.34046  23761772.83646
  21625037.742 6  -1072356.160 6   -824114.42649  21625037.12949
 20  5 16  5  9 33.0000000  0  6G01G07G11G22G28G30                  -0.000267750
  20014672.367 7   -782322.898 7   -589158.62549  20014673.07849
  20772622.422 6   -648289.922 6   -489995.63349  20772620.47349
  20954941.508 6   -400684.492 6   -305888.57447  20954936.23847
  22641586.000 6  -1237609.176 6   -934044.80547  22641583.29347
  23760607.500 5  -1401811.051 5   -379054.73446  23760606.02346
  21624145.930 6  -1077041.691 6   -827765.48449  21624145.19149
 20  5 16  5  9 34.0000000  0  6G01G07G11G22G28G30                  -0.000270056
  20014055.070 7   -785569.063 7   -591688.10949  20014055.33649
  20772107.781 6   -650994.797 6   -492103.32849  20772105.60249
  20954611.578 6   -402414.125 6   -307236.33247  20954607.13747
  22640586.477 6  -1242858.496 6   -938135.18847  22640584.17647
  23759440.180 4  -1407942.234 4   -383832.27346  23759439.42246
  21623254.141 6  -1081726.719 6   -831416.15649  21623254.06349
 20  5 16  5  9 35.0000000  0  6G01G07G11G22G28G30                  -0.000272362
  20013437.203 7   -788814.457 7   -594216.98049  20013437.61349
  20771593.383 6   -653698.934 6   -494210.44549  20771591.14849
  20954283.523 6   -404143.391 6   -308583.81647  20954278.21947
  22639587.586 6  -1248107.410 6   -942225.25047  22639585.58247
  23758274.000 5  -1414073.434 5   -388609.82046  23758272.39846
  21622362.906 6  -1086411.063 6   -835066.29349  21622362.15649
 20  5 16  5  9 36.0000000  0  6G01G07G11G22G28G30                  -0.000274670
  20012820.023 7   -792059.250 7   -596745.39849  20012820.17249
  20771078.578 6   -656402.484 6   -496317.10549  20771076.37549
  20953953.961 6   -405872.402 6   -309931.10947  20953948.71547
  22638589.156 6  -1253356.004 6   -946315.06347  22638586.98447
  23757106.898 5  -1420204.770 5   -393387.50446  23757106.08246
  21621471.617 6  -1091094.832 6   -838715.98849  21621471.19149
 20  5 16  5  9 37.0000000  0  7G01G03G07G11G22G28G30               -0.000276976
  20012202.438 7   -795303.375 7   -599273.28949  20012202.59049
  23429417.97713    -16609.87513                
  20770564.414 6   -659105.445 6   -498423.31349  20770562.04749
  20953625.461 6   -407601.148 6   -311278.18447  20953620.43047
  22637590.414 6  -1258604.273 6   -950404.62547  22637588.14547
  23755940.352 5  -1426336.199 5   -398165.26646  23755939.09846
  21620580.758 6  -1095778.031 6   -842365.23849  21620580.22349
 20  5 16  5  9 38.0000000  0  7G01G03G07G11G22G28G30               -0.000279280
  20011585.406 7   -798546.844 7   -601800.66849  20011585.62149
  23428202.023 2    -22986.043 2                
  20770050.188 6   -661807.789 6   -500529.03149  20770047.74249
  20953296.344 6   -409329.582 6   -312625.01247  20953290.91847
  22636591.375 6  -1263852.168 6   -954493.88747  22636589.52047
  23754773.695 5  -1432467.723 5   -402943.08646  23754772.08646
  21619689.586 6  -1100460.582 6   -846013.97749  21619689.21549
 20  5 16  5  9 39.0000000  0  7G01G03G07G11G22G28G30               -0.000281588
  20010968.172 7   -801789.723 7   -604327.58649  20010968.47349
  23426988.703 2    -29362.199 2                
  20769535.969 6   -664509.578 6   -502634.33249  20769533.77049
  20952967.414 6   -411057.813 6   -313971.67647  20952962.07847
  22635593.078 6  -1269099.832 6   -958582.96947  22635590.60947
  23753606.930 4  -1438599.426 4   -407721.02746  23753605.38346
  21618798.695 6  -1105142.637 6   -849662.32849  21618797.96149
 20  5 16  5  9 40.0000000  0  7G01G03G07G11G22G28G30               -0.000283892
  20010350.813 7   -805031.973 7   -606854.01649  20010351.40249
  23425773.984 1    -35738.426 1                
  20769021.938 6   -667210.781 6   -504739.16449  20769019.82049
  20952638.727 6   -412785.805 6   -315318.16047  20952633.52747
  22634594.172 6  -1274347.172 6   -962671.80947  22634591.96147
  23752439.188 4  -1444731.262 4   -412499.07446  23752438.41446
  21617907.930 6  -1109824.137 6   -853310.25049  21617907.39849
 20  5 16  5  9 41.0000000  0  7G01G03G07G11G22G28G30               -0.000286198
  20009734.445 7   -808273.563 7   -609379.93049  20009734.66849
  23424559.711 1    -42114.586 1                
  20768507.711 6   -669911.336 6   -506843.49249  20768505.61349
  20952309.367 6   -414513.449 6   -316664.37147  20952304.37547
  22633595.844 6  -1279594.176 6   -966760.38747  22633593.43447
  23751273.383 4  -1450863.148 4   -417277.14846  23751271.77746
  21617017.234 6  -1114504.996 6   -856957.67649  21617016.32849
 20  5 16  5  9 42.0000000  0  7G01G03G07G11G22G28G30               -0.000288506
  20009117.523 7   -811514.625 7   -611905.43849  20009118.05549
  23423346.211 1    -48490.828 1                
  20767993.922 6   -672611.457 6   -508947.49649  20767992.24249
  20951981.102 6   -416241.023 6   -318010.54347  20951976.00447
  22632597.945 6  -1284840.977 6   -970848.80547  22632595.34447
  23750105.945 4  -1456995.332 4   -422055.49246  23750104.80146
  21616126.414 6  -1119185.449 6   -860604.78149  21616125.72749
 20  5 16  5  9 43.0000000  0  7G01G03G07G11G22G28G30               -0.000290812
  20008500.945 7   -814754.957 7   -614430.37149  20008501.34049
  23422134.461 2    -54866.949 2   -200671.69956  23422132.62556
  20767480.914 6   -675310.852 6   -511050.91449  20767478.32849
  20951652.594 6   -417968.199 6   -319356.39547  20951647.08247
  22631599.266 6  -1290087.383 6   -974936.91847  22631596.77747
  23748939.234 4  -1463127.504 4   -426833.78946  23748938.01246
  21615235.820 6  -1123865.191 6   -864251.33249  21615235.46949
 20  5 16  5  9 44.0000000  0  8G01G03G07G11G17G22G28G30            -0.000293119
  20007884.453 7   -817994.621 7   -616954.77749  20007884.80549
  23420920.766 2    -61243.039 2   -205640.05146  23420919.29746
  20766967.383 6   -678009.625 6   -513153.85949  20766965.09049
  20951323.344 6   -419695.066 6   -320702.00047  20951318.50447
  24058030.80511   -190281.83611   -115612.32856  24058027.31356
  22630601.227 6  -1295333.391 6   -979024.71147  22630598.77347
  23747771.578 4  -1469259.770 4   -431612.18046  23747770.58646
  21614345.477 6  -1128544.293 6   -867897.39549  21614344.76249
 20  5 16  5  9 45.0000000  0  8G01G03G07G11G17G22G28G30            -0.000295425
  20007267.859 7   -821233.617 7   -619478.67249  20007268.75449
  23419707.422 1    -67619.125 1   -210608.42246  23419706.14846
  20766453.602 6   -680707.777 6   -515256.31649  20766451.86349
  20950995.297 6   -421421.664 6   -322047.39147  20950989.89547
  24057057.891 1   -195393.113 1   -119595.12146  24057054.20746
  22629602.969 6  -1300579.059 6   -983112.24647  22629600.49247
  23746604.609 4  -1475392.145 4   -436390.66846  23746603.68846
  21613455.094 6  -1133222.859 6   -871543.03149  21613454.85549
 20  5 16  5  9 46.0000000  0  8G01G03G07G11G17G22G28G30            -0.000297733
  20006651.750 7   -824472.035 7   -622002.11349  20006652.62149
  23418494.664 1    -73995.289 1   -215576.82846  23418493.00846
  20765940.227 6   -683405.391 6   -517358.35249  20765937.94949
  20950666.297 6   -423148.055 6   -323392.63347  20950661.06647
  24056085.938 1   -200504.336 1   -123577.90246  24056081.71946
  22628604.719 6  -1305824.477 6   -987199.58247  22628602.12147
  23745436.953 4  -1481524.676 4   -441169.27046  23745437.06346
  21612564.875 6  -1137900.863 6   -875188.22749  21612564.52349
 20  5 16  5  9 47.0000000  0  8G01G03G07G11G17G22G28G30            -0.000300051
  20006035.727 7   -827709.688 7   -624524.95749  20006036.09449
  23417281.477 2    -80371.184 2   -220545.06346  23417279.46946
  20765426.773 6   -686102.266 6   -519459.80549  20765424.66849
  20950338.148 6   -424874.035 6   -324737.56347  20950333.09847
  24055113.77311                   -127560.46956  24055109.10256
  22627606.609 6  -1311069.426 6   -991286.55547  22627603.91047
  23744271.047 4  -1487657.207 4   -445947.87946  23744269.93046
  21611675.039 6  -1142578.168 6   -878832.87949  21611674.30149
 20  5 16  5  9 48.0000000  0  8G01G03G07G11G17G22G28G30            -0.000302357
  20005419.594 7   -830946.703 7   -627047.31349  20005419.63349
  23416067.641 1    -86747.168 1   -225513.36746  23416066.02746
  20764913.953 6   -688798.594 6   -521560.84849  20764911.42649
  20950009.375 6   -426599.734 6   -326082.25847  20950004.53147
  24054139.91411                   -131542.91056  24054136.86356
  22626608.617 6  -1316314.094 6   -995373.30947  22626606.13347
  23743103.805 4  -1493789.857 4   -450726.56446  23743103.21546
  21610785.047 6  -1147254.879 6   -882477.06649  21610784.32049
 20  5 16  5  9 49.0000000  0  8G01G03G07G11G17G22G28G30            -0.000304663
  20004804.008 7   -834183.137 7   -629569.20749  20004804.28149
  23414854.094 1    -93123.156 1   -230481.66446  23414852.76246
  20764400.672 6   -691494.320 6   -523661.41449  20764398.84049
  20949681.336 6   -428325.262 6   -327426.82847  20949676.00047
  24053166.594 1                   -135525.37546  24053163.95346
  22625610.461 6  -1321558.512 6   -999459.87147  22625608.14547
  23741936.242 4  -1499922.719 4   -455505.38746  23741936.34446
  21609894.820 6  -1151931.098 6   -886120.87949  21609894.32449
 20  5 16  5  9 50.0000000  0  8G01G03G07G11G17G22G28G30            -0.000306961
  20004188.250 7   -837418.883 7   -632090.56649  20004188.74249
  23413639.430 1    -99499.078 1   -235449.90246  23413639.59046
  20763888.070 6   -694189.422 6   -525761.49249  20763885.88749
  20949352.891 6   -430050.445 6   -328771.12547  20949347.76647
  24052193.24211   -220947.50411   -139507.61356  24052191.49656
  22624612.859 6  -1326802.508 6  -1003546.09847  22624610.20747
  23740769.445 4  -1506055.621 4   -460284.27746  23740769.17646
  21609005.359 6  -1156606.660 6   -889764.18049  21609004.82049
 20  5 16  5  9 51.0000000  0  8G01G03G07G11G17G22G28G30            -0.000309267
  20003572.148 7   -840654.051 7   -634611.48049  20003572.81649
  23412426.570 1   -105875.059 1   -240418.19146  23412426.21946
  20763375.000 6   -696884.008 6   -527861.17249  20763373.19549
  20949025.047 6   -431775.438 6   -330115.27047  20949020.00047
  24051220.234 1   -226058.168 1   -143489.92646  24051218.93046
  22623614.828 6  -1332046.297 6  -1007632.16847  22623612.36347
  23739602.641 4  -1512188.719 4   -465063.31346  23739602.06346
  21608116.094 6  -1161281.746 6   -893407.09849  21608115.45749
 20  5 16  5  9 52.0000000  0  8G01G03G07G11G17G22G28G30            -0.000311575
  20002956.984 7   -843888.422 7   -637131.77349  20002957.19149
  23411213.961 1   -112250.914 1   -245386.37146  23411213.23046
  20762862.438 6   -699577.832 6   -529960.25849  20762860.78949
  20948696.297 6   -433500.000 6   -331459.09047  20948691.39847
  24050248.281 1   -231168.414 1   -147471.93846  24050246.05546
  22622617.438 6  -1337289.594 6  -1011717.85247  22622614.26247
  23738435.609 4  -1518321.734 4   -469842.31346  23738435.02346
  21607226.523 6  -1165956.098 6   -897049.45349  21607226.25449
 20  5 16  5  9 53.0000000  0  8G01G03G07G11G17G22G28G30            -0.000313881
  20002341.516 7   -847122.086 7   -639651.51249  20002341.99249
  23409999.430 1   -118626.664 1   -250354.48446  23409999.78546
  20762349.938 6   -702270.953 6   -532058.78949  20762348.11349
  20948368.820 6   -435224.223 6   -332802.63747  20948363.52747
  24049276.305 1   -236278.570 1   -151453.87546  24049273.72746
  22621619.531 6  -1342532.469 6  -1015803.20747  22621616.65647
  23737267.766 4  -1524454.840 4   -474621.39546  23737267.46946
  21606336.914 6  -1170629.742 6   -900691.25449  21606336.90249
 20  5 16  5  9 54.0000000  0  8G01G03G07G11G17G22G28G30            -0.000316189
  20001726.109 7   -850355.266 7   -642170.86749  20001726.77049
  23408786.672 1   -125002.477 1   -255322.66446  23408786.59446
  20761837.219 6   -704963.676 6   -534157.01649  20761835.30549
  20948040.531 6   -436948.344 6   -334146.10547  20948035.12547
  24048303.727 1   -241388.699 1   -155435.80146  24048301.53146
  22620621.961 6  -1347775.211 6  -1019888.46147  22620619.05547
  23736100.750 4  -1530588.172 4   -479400.59846  23736100.69546
  21605447.430 6  -1175303.016 6   -904332.77349  21605447.44549
 20  5 16  5  9 55.0000000  0  8G01G03G07G11G17G22G28G30            -0.000318495
  20001111.484 7   -853587.598 7   -644689.56649  20001112.03149
  23407574.539 1   -131378.129 1   -260290.72746  23407573.25446
  20761325.016 6   -707655.570 6   -536254.59449  20761323.21949
  20947712.430 6   -438672.008 6   -335489.21147  20947707.40247
  24047331.109 1   -246498.613 1   -159417.57446  24047328.48046
  22619624.422 6  -1353017.445 6  -1023973.32447  22619621.53547
  23734934.180 4  -1536721.496 4   -484179.82046  23734933.62946
  21604558.648 6  -1179975.453 6   -907973.63749  21604558.38349
 20  5 16  5  9 56.0000000  0  8G01G03G07G11G17G22G28G30            -0.000320803
  20000496.320 7   -856819.441 7   -647207.88749  20000496.37949
  23406361.813 1   -137753.926 1   -265258.83246  23406360.39146
  20760813.438 6   -710347.016 6   -538351.82449  20760810.80949
  20947384.648 6   -440395.523 6   -336832.21547  20947379.77347
  24046359.328 1   -251608.559 1   -163399.33246  24046356.44546
  22618626.711 6  -1358259.457 6  -1028058.01647  22618624.25847
  23733766.477 4  -1542855.008 4   -488959.16046  23733766.68446
  21603669.750 6  -1184647.477 6   -911614.16449  21603669.59449
 20  5 16  5  9 57.0000000  0  8G01G03G07G11G17G22G28G30            -0.000323109
  19999881.398 7   -860050.664 7   -649725.72349  19999881.88749
  23405146.750 1   -144129.711 1   -270226.96546  23405147.09046
  20760300.992 6   -713037.914 6   -540448.62549  20760298.92649
  20947056.570 6   -442118.820 6   -338175.03547  20947051.93047
  24045386.977 1   -256718.426 1   -167381.05146  24045383.82046
  22617629.125 6  -1363501.211 6  -1032142.49647  22617626.29747
  23732599.172 4  -1548988.688 4   -493738.61746  23732599.41846
  21602780.695 6  -1189318.973 6   -915254.28949  21602780.66049
 20  5 16  5  9 58.0000000  0  8G01G03G07G11G17G22G28G30            -0.000325417
  19999266.594 6   -863281.184 6   -652243.01249  19999266.82049
  23403934.727 1   -150505.375 1   -275195.03546  23403933.28546
  20759789.023 6   -715728.125 6   -542544.89549  20759786.98449
  20946728.398 6   -443841.746 6   -339517.57447  20946723.51247
  24044413.852 1   -261828.117 1   -171362.60246  24044410.96546
  22616631.867 6  -1368742.574 6  -1036226.68047  22616628.94147
  23731432.320 4  -1555122.457 4   -498518.16846  23731432.47346
  21601891.430 6  -1193989.758 6   -918893.86349  21601891.47749
 20  5 16  5  9 59.0000000  0  8G01G03G07G11G17G22G28G30            -0.000327723
  19998651.727 6   -866510.891 6   -654759.66049  19998652.14149
  23402721.016 1   -156880.934 1   -280163.00046  23402720.22346
  20759277.344 6   -718417.578 6   -544640.57049  20759275.46149
  20946401.203 6   -445564.293 6   -340859.82447  20946396.23447
  24043442.563 1   -266937.547 1   -175343.95746  24043438.62546
  22615634.328 6  -1373983.461 6  -1040310.48047  22615631.32047
  23730264.367 4  -1561256.090 4   -503297.64146  23730265.31346
  21601002.992 6  -1198659.820 6   -922532.87149  21601003.30549
 20  5 16  5 10  0.0000000  0  8G01G03G07G11G17G22G28G30            -0.000330029
  19998037.461 6   -869739.961 6   -657275.82449  19998038.04349
  23401509.313 1   -163256.430 1   -285130.93046  23401507.12146
  20758765.453 6   -721106.398 6   -546735.75849  20758763.32849
  20946073.281 6   -447286.527 6   -342201.82847  20946068.33247
  24042470.945 1   -272046.836 1   -179325.21146  24042466.74646
  22614637.008 6  -1379224.000 6  -1044394.01247  22614634.40647
  23729097.055 4  -1567389.871 4   -508077.23446  23729098.05546
  21600114.664 6  -1203329.313 6   -926171.44149  21600114.26249
 20  5 16  5 10  1.0000000  0  8G01G03G07G11G17G22G28G30            -0.000332336
  19997423.219 6   -872968.316 6   -659791.42649  19997423.55949
  23400295.617 1   -169631.875 1   -290098.81346  23400294.14546
  20758254.000 6   -723794.602 6   -548830.46149  20758252.28549
  20945745.703 6   -449008.484 6   -343543.60947  20945740.91447
  24041498.359 1   -277155.941 1   -183306.34446  24041494.35546
  22613640.000 6  -1384464.176 6  -1048477.27047  22613637.25047
  23727929.398 3  -1573523.762 3   -512856.89146  23727930.55546
  21599226.289 6  -1207998.160 6   -929809.51249  21599225.48849
 20  5 16  5 10  2.0000000  0  8G01G03G07G11G17G22G28G30            -0.000334642
  19996809.125 6   -876196.117 6   -662306.59449  19996809.52049
  23399081.023 1   -176007.375 1   -295066.73846  23399080.62146
  20757742.398 6   -726482.293 6   -550924.76249  20757740.44949
  20945417.961 6   -450730.219 6   -344885.23047  20945413.18047
  24040524.695 1   -282265.094 1   -187287.50046  24040521.68446
  22612643.031 6  -1389704.125 6  -1052560.34847  22612640.11347
  23726762.523 3  -1579657.824 3   -517636.68846  23726763.28146
  21598337.789 6  -1212666.547 6   -933447.22349  21598337.51649
 20  5 16  5 10  3.0000000  0  8G01G03G07G11G17G22G28G30            -0.000336950
  19996195.000 6   -879423.328 6   -664821.31349  19996194.86749
  23397866.578 1   -182382.855 1   -300034.62946  23397867.67246
  20757231.039 6   -729169.387 6   -553018.60249  20757228.96549
  20945090.070 6   -452451.707 6   -346226.64847  20945086.13747
  24039551.641 1   -287374.082 1   -191268.52746  24039548.96146
  22611645.977 6  -1394943.746 6  -1056643.17247  22611642.85547
  23725595.789 3  -1585791.988 3   -522416.56346  23725596.13746
  21597449.461 6  -1217334.305 6   -937084.43849  21597449.11749
 20  5 16  5 10  4.0000000  0  8G01G03G07G11G17G22G28G30            -0.000339258
  19995580.922 6   -882649.809 6   -667335.46149  19995580.87949
  23396654.398 1   -188758.258 1   -305002.45746  23396654.45746
  20756719.969 6   -731855.828 6   -555111.93849  20756717.89549
  20944762.852 6   -454172.891 6   -347567.83247  20944758.45347
  24038579.406 1   -292482.895 1   -195249.42646  24038577.22346
  22610649.219 6  -1400182.996 6  -1060725.70747  22610645.83247
  23724428.633 3  -1591926.211 3   -527196.48446  23724429.11746
  21596561.500 6  -1222001.453 6   -940721.17649  21596561.44149
 20  5 16  5 10  5.0000000  0  8G01G03G07G11G17G22G28G30            -0.000341564
  19994967.133 6   -885875.703 6   -669849.14549  19994967.20349
  23395441.039 1   -195133.664 1   -309970.30146  23395441.32446
  20756208.906 6   -734541.691 6   -557204.81649  20756206.84449
  20944435.250 6   -455893.789 6   -348908.78147  20944431.24247
  24037607.719 1   -297591.656 1   -199230.26246  24037604.98846
  22609652.180 6  -1405421.965 6  -1064808.02347  22609648.60947
  23723261.203 4  -1598060.602 4   -531976.51246  23723261.71146
  21595673.242 6  -1226668.047 6   -944357.48449  21595673.05949
 20  5 16  5 10  6.0000000  0  8G01G03G07G11G17G22G28G30            -0.000343870
  19994353.211 6   -889100.836 6   -672362.23449  19994353.69549
  23394227.383 1   -201508.973 1   -314938.07446  23394228.03546
  20755697.609 6   -737226.828 6   -559297.13349  20755695.85949
  20944107.805 6   -457614.371 6   -350249.48447  20944103.68447
  24036636.336 1   -302700.195 1   -203210.94146  24036633.05146
  22608655.391 6  -1410660.469 6  -1068889.96947  22608651.71547
  23722094.141 4  -1604194.969 4   -536756.54346  23722094.62546
  21594785.773 6  -1231333.922 6   -947993.23049  21594785.27049
 20  5 16  5 10  7.0000000  0  8G01G03G07G11G17G22G28G30            -0.000346178
  19993739.344 6   -892325.238 6   -674874.75049  19993740.10949
  23393013.734 1   -207884.168 1   -319905.74646  23393014.53546
  20755186.898 6   -739911.336 6   -561388.95349  20755184.98049
  20943780.367 6   -459334.578 6   -351589.90647  20943776.50047
  24035663.875 1   -307808.625 1   -207191.53146  24035660.50846
  22607658.320 6  -1415898.625 6  -1072971.65247  22607655.14847
  23720926.320 4  -1610329.391 4   -541536.61346  23720927.57446
  21593897.969 6  -1235999.184 6   -951628.50049  21593897.53549
 20  5 16  5 10  8.0000000  0  8G01G03G07G11G17G22G28G30            -0.000348484
  19993126.328 6   -895549.098 6   -677386.84849  19993126.88749
  23391800.594 1   -214259.477 1   -324873.52046  23391802.07846
  20754675.992 6   -742595.281 6   -563480.34849  20754674.33649
  20943453.375 6   -461054.605 6   -352930.18447  20943448.81647
  24034691.367 1   -312916.863 1   -211171.97346  24034688.35246
  22606661.945 6  -1421136.496 6  -1077053.10547  22606658.66847
  23719759.039 3  -1616464.027 3   -546316.85246  23719759.47746
  21593009.711 6  -1240663.934 6   -955263.37149  21593010.03949
 20  5 16  5 10  9.0000000  0  8G01G03G07G11G17G22G28G30            -0.000350792
  19992512.758 6   -898772.277 6   -679898.42249  19992513.24249
  23390586.508 1   -220634.676 1   -329841.19946  23390588.21146
  20754165.688 6   -745278.633 6   -565571.27349  20754164.02749
  20943126.000 6   -462774.320 6   -354270.22347  20943121.35547
  24033719.055 1   -318025.105 1   -215152.43046  24033716.25446
  22605665.000 6  -1426374.031 6  -1081134.30147  22605661.78147
  23718591.297 4  -1622598.727 4   -551097.14846  23718592.18846
  21592122.719 6  -1245328.039 6   -958897.74249  21592122.53949
 20  5 16  5 10 10.0000000  0  8G01G03G07G11G17G22G28G30            -0.000353098
  19991899.523 6   -901994.707 6   -682409.40249  19991900.02049
  23389372.906 1   -227009.754 1   -334808.77346  23389374.95346
  20753655.273 6   -747961.254 6   -567661.62549  20753653.27749
  20942798.539 6   -464493.664 6   -355609.98047  20942794.55547
  24032747.047 1   -323133.098 1   -219132.67646  24032743.49246
  22604668.859 6  -1431611.145 6  -1085215.16447  22604665.41047
  23717424.453 4  -1628733.445 4   -555877.45346  23717424.80546
  21591234.781 6  -1249991.469 6   -962531.58649  21591235.27349
 20  5 16  5 10 11.0000000  0  8G01G03G07G11G17G22G28G30            -0.000355406
  19991286.766 6   -905216.496 6   -684919.88349  19991286.91849
  23388158.789 1   -233384.852 1   -339776.34846  23388162.76646
  20753144.703 6   -750643.277 6   -569751.51649  20753142.72349
  20942471.336 6   -466212.738 6   -356949.52347  20942467.45747
  24031775.063 1   -328240.961 1   -223112.83246  24031771.85546
  22603672.266 6  -1436847.914 6  -1089295.77047  22603668.59047
  23716257.211 4  -1634868.273 4   -560657.82446  23716257.50446
  21590347.680 6  -1254654.320 6   -966164.98449  21590348.17649
 20  5 16  5 10 12.0000000  0  8G01G03G07G11G17G22G28G30            -0.000357714
  19990673.914 6   -908437.672 6   -687429.88749  19990674.13749
  23386945.703 1   -239759.941 1   -344743.96946  23386949.38346
  20752634.625 6   -753324.723 6   -571840.95749  20752632.41849
  20942144.344 6   -467931.598 6   -358288.89547  20942140.19147
  24030803.773 2   -333348.742 2   -227092.92246  24030799.25446
  22602675.344 6  -1442084.418 6  -1093376.16447  22602672.60247
  23715089.031 3  -1641003.238 3   -565438.32846  23715090.47346
  21589460.609 6  -1259316.637 6   -969797.95749  21589460.89149
 20  5 16  5 10 13.0000000  0  8G01G03G07G11G17G22G28G30            -0.000360023
  19990060.836 6   -911658.125 6   -689939.33249  19990060.88349
  23385731.96111   -246134.84411   -349711.41456  23385736.28156
  20752124.664 6   -756005.488 6   -573929.86349  20752122.86349
  20941817.508 6   -469650.090 6   -359627.97347  20941813.27047
  24029832.570 2   -338456.422 2   -231072.91046  24029827.61346
  22601679.352 6  -1447320.480 6  -1097456.21147  22601675.91047
  23713921.711 4  -1647138.219 4   -570218.84846  23713922.89546
  21588573.242 6  -1263978.258 6   -973430.38349  21588573.69949
 20  5 16  5 10 14.0000000  0  8G01G03G07G11G17G22G28G30            -0.000362329
  19989448.766 6   -914877.977 6   -692448.30949  19989448.35549
  23384518.59411                   -354679.05156  23384522.97356
  20751614.227 6   -758685.699 6   -576018.34449  20751612.30949
  20941490.734 6   -471368.383 6   -360966.89847  20941486.60947
  24028859.688 1   -343563.883 1   -235052.74246  24028855.52746
  22600683.125 6  -1452556.281 6  -1101536.05547  22600679.39547
  23712754.109 4  -1653273.387 4   -574999.48446  23712755.52046
  21587686.578 6  -1268639.340 6   -977062.39149  21587686.74649
 20  5 16  5 10 15.0000000  0  8G01G03G07G11G17G22G28G30            -0.000364637
  19988835.516 7   -918097.133 7   -694956.74249  19988835.75049
  23383305.086 1   -258884.777 1   -359646.43446  23383310.16446
  20751104.508 6   -761365.273 6   -578106.32449  20751102.55549
  20941163.938 6   -473086.293 6   -362305.53147  20941159.98847
  24027886.703 1   -348671.348 1   -239032.59846  24027883.30146
  22599686.711 6  -1457791.672 6  -1105615.57847  22599683.35547
  23711586.609 3  -1659408.559 3   -579780.14546  23711587.98446
  21586799.813 6  -1273299.801 6   -980693.91849  21586799.75049
 20  5 16  5 10 16.0000000  0  8G01G03G07G11G17G22G28G30            -0.000366943
  19988223.320 7   -921315.527 7   -697464.57849  19988223.40649
  23382091.91411                   -364613.80156  23382097.10956
  20750594.633 6   -764044.094 6   -580193.71949  20750592.85549
  20940836.820 6   -474803.863 6   -363643.90247  20940833.31647
  24026916.031 2   -353778.426 2   -243012.12546  24026911.41446
  22598690.063 6  -1463026.633 6  -1109694.77047  22598687.11347
  23710418.969 3  -1665543.813 3   -584560.85546  23710420.67646
  21585912.867 6  -1277959.523 6   -984324.87949  21585913.23849
 20  5 16  5 10 17.0000000  0  8G01G03G07G11G17G22G28G30            -0.000369249
  19987610.797 7   -924533.484 7   -699972.08649  19987611.09049
  23380879.266 1   -271634.492 1   -369581.25846  23380884.05146
  20750085.164 6   -766722.508 6   -582280.79349  20750082.94149
  20940509.867 6   -476521.328 6   -364982.19147  20940506.32847
  24025945.477 1   -358885.633 1   -246991.75846  24025939.90646
  22597694.484 6  -1468261.484 6  -1113773.87947  22597690.90247
  23709251.477 4  -1671679.316 4   -589341.77346  23709252.63346
  21585026.031 6  -1282618.867 6   -987955.53549  21585026.84449
 20  5 16  5 10 18.0000000  0  7G01G07G11G17G22G28G30               -0.000371557
  19986998.555 7   -927750.688 7   -702478.99649  19986998.76249
  20749575.148 6   -769400.227 6   -584367.32849  20749573.38749
  20940182.750 6   -478238.430 6   -366320.19947  20940179.09847
  24024972.984 1   -363992.633 1   -250971.23046  24024967.46146
  22596698.578 6  -1473495.895 6  -1117852.64547  22596695.16447
  23708083.984 3  -1677814.875 3   -594122.73046  23708085.60946
  21584139.922 6  -1287277.539 6   -991585.67649  21584140.09049
 20  5 16  5 10 19.0000000  0  7G01G07G11G17G22G28G30               -0.000373865
  19986386.359 7   -930967.270 7   -704985.42649  19986386.87149
  20749065.953 6   -772077.398 6   -586453.44149  20749063.73849
  20939856.820 6   -479955.320 6   -367658.03147  20939852.87947
  24024001.148 1   -369099.586 1   -254950.68846  24023995.82446
  22595701.922 6  -1478730.016 6  -1121931.18447  22595698.94947
  23706915.828 3  -1683950.539 3   -598903.73446  23706917.75446
  21583253.555 6  -1291935.648 6   -995215.37549  21583253.61349
 20  5 16  5 10 20.0000000  0  7G01G07G11G17G22G28G30               -0.000376171
  19985774.680 7   -934183.207 7   -707491.34849  19985775.20749
  20748556.430 6   -774753.969 6   -588539.08249  20748554.59049
  20939529.578 6   -481671.938 6   -368995.65247  20939525.97347
  24023029.516 1   -374206.367 1   -258930.02046  24023023.93046
  22594706.523 6  -1483963.801 6  -1126009.45347  22594703.11347
  23705748.523 3  -1690086.289 3   -603684.85246  23705750.55146
  21582367.336 6  -1296593.172 6   -998844.61349  21582366.96949
 20  5 16  5 10 21.0000000  0  7G01G07G11G17G22G28G30               -0.000378477
  19985162.688 7   -937398.453 7   -709996.73849  19985163.15649
  20748047.258 6   -777429.863 6   -590624.19949  20748045.35549
  20939203.250 6   -483388.188 6   -370332.98847  20939199.61747
  24022056.805 2   -379313.051 2   -262909.25846  24022052.33646
  22593710.359 6  -1489197.199 6  -1130087.41847  22593707.10947
  23704581.375 3  -1696222.156 3   -608466.06646  23704582.75046
  21581480.750 6  -1301250.063 6  -1002473.35949  21581481.50449
 20  5 16  5 10 22.0000000  0  7G01G07G11G17G22G28G30               -0.000380785
  19984550.930 7   -940613.113 7   -712501.66849  19984551.51649
  20747538.297 6   -780105.195 6   -592708.87149  20747535.96549
  20938876.852 6   -485104.242 6   -371670.18447  20938873.25447
  24021084.773 1   -384419.613 1   -266888.40246  24021080.55946
  22592714.789 6  -1494430.301 6  -1134165.16047  22592711.20347
  23703413.813 3  -1702358.105 3   -613247.32046  23703415.38346
  21580594.633 6  -1305906.406 6  -1006101.67649  21580595.21149
 20  5 16  5 10 23.0000000  0  7G01G07G11G17G22G28G30               -0.000383093
  19983939.359 7   -943827.242 7   -715006.18049  19983939.89849
  20747029.273 6   -782780.063 6   -594793.18049  20747026.92649
  20938550.453 6   -486820.137 6   -373007.24247  20938546.62547
  24020113.656 2   -389526.176 2   -270867.54746  24020108.64146
  22591718.836 6  -1499663.223 6  -1138242.77047  22591715.65647
  23702245.055 3  -1708494.305 3   -618028.77346  23702247.73846
  21579708.813 6  -1310562.262 6  -1009729.61349  21579709.28949
 20  5 16  5 10 24.0000000  0  7G01G07G11G17G22G28G30               -0.000385399
  19983327.688 7   -947040.723 7   -717510.18849  19983328.39549
  20746520.156 6   -785454.285 6   -596876.98849  20746518.44149
  20938223.664 6   -488535.762 6   -374344.09847  20938220.41047
  24019142.320 1   -394632.688 1   -274846.65646  24019136.94946
  22590723.055 6  -1504895.797 6  -1142320.10247  22590719.88347
  23701077.586 3  -1714630.609 3   -622810.32045  23701079.92645
  21578823.195 6  -1315217.527 6  -1013357.10249  21578823.00849
 20  5 16  5 10 25.0000000  0  7G01G07G11G17G22G28G30               -0.000387707
  19982716.281 7   -950253.523 7   -720013.67249  19982716.62549
  20746011.719 6   -788127.938 6   -598960.35949  20746009.78949
  20937897.258 6   -490251.098 6   -375680.72347  20937893.66447
  24018171.063 2   -399739.047 2   -278825.67246  24018165.37546
  22589727.422 6  -1510128.035 6  -1146397.17647  22589723.94947
  23699910.461 3  -1720767.027 3   -627591.95745  23699912.37545
  21577937.063 6  -1319872.199 6  -1016984.11349  21577937.43049
 20  5 16  5 10 26.0000000  0  7G01G07G11G17G22G28G30               -0.000390013
  19982104.977 7   -953465.563 7   -722516.56349  19982105.25849
  20745503.039 6   -790800.820 6   -601043.13349  20745501.07849
  20937571.148 6   -491966.020 6   -377017.02347  20937567.59847
  24017200.781 1   -404845.043 1   -282804.37946  24017193.84046
  22588731.508 6  -1515359.785 6  -1150473.86347  22588729.07847
  23698742.555 2  -1726903.445 2   -632373.57445  23698744.06345
  21577051.859 6  -1324526.141 6  -1020610.56349  21577051.89849
 20  5 16  5 10 27.0000000  0  7G01G07G11G17G22G28G30               -0.000392321
  19981494.094 7   -956676.977 7   -725018.96149  19981494.55949
  20744994.242 6   -793473.156 6   -603125.46949  20744992.53949
  20937244.695 6   -493680.699 6   -378353.13347  20937241.18847
  24016228.672 2   -409951.102 2   -286783.11746  24016222.32046
  22587736.258 6  -1520591.242 6  -1154550.32047  22587733.18847
  23697574.875 3  -1733039.977 3   -637155.27345  23697576.24645
  21576165.883 6  -1329179.539 6  -1024236.59049  21576166.50449
 20  5 16  5 10 28.0000000  0  7G01G07G11G17G22G28G30               -0.000394627
  19980882.922 7   -959887.922 7   -727521.00049  19980883.40249
  20744485.375 6   -796145.035 6   -605207.44549  20744483.87549
  20936918.734 6   -495395.309 6   -379689.19147  20936915.19547
  24015257.414 2   -415057.211 2   -290761.88746  24015250.99246
  22586740.656 6  -1525822.578 6  -1158626.68447  22586737.84047
  23696407.227 3  -1739176.789 3   -641937.19945  23696408.37545
  21575280.539 6  -1333832.535 6  -1027862.29749  21575281.15649
 20  5 16  5 10 29.0000000  0  7G01G07G11G17G22G28G30               -0.000396935
  19980272.422 7   -963098.207 7   -730022.51649  19980272.48849
  20743977.484 6   -798816.301 6   -607288.96149  20743975.14549
  20936592.211 6   -497109.602 6   -381025.00447  20936588.60547
  24014287.313 3   -420163.121 3   -294740.50846  24014279.43846
  22585745.258 6  -1531053.543 6  -1162702.75447  22585742.71547
  23695239.594 2  -1745313.672 2   -646719.17645  23695240.92645
  21574395.016 6  -1338484.891 6  -1031487.51649  21574396.11349
 20  5 16  5 10 30.0000000  0  7G01G07G11G17G22G28G30               -0.000399240
  19979661.516 7   -966307.797 7   -732523.49649  19979661.88749
  20743468.961 6   -801486.926 6   -609369.96149  20743467.72749
  20936266.070 6   -498823.586 6   -382360.57847  20936262.28147
  24013314.352 2   -425268.938 2   -298719.06646  24013307.99646
  22584749.648 6  -1536284.133 6  -1166778.54347  22584746.90647
  23694071.656 3  -1751450.617 3   -651501.19545  23694072.98045
  21573509.875 6  -1343136.625 6  -1035112.24249  21573510.84449
 20  5 16  5 10 31.0000000  0  7G01G07G11G17G22G28G30               -0.000401548
  19979050.656 7   -969516.711 7   -735023.94949  19979050.97749
  20742961.352 6   -804156.910 6   -611450.47749  20742959.49649
  20935940.156 6   -500537.262 6   -383695.91447  20935936.09847
  24012343.078 2   -430374.570 2   -302697.49246  24012336.49646
  22583754.891 6  -1541514.344 6  -1170854.03547  22583751.86747
  23692903.406 2  -1757587.613 2   -656283.26245  23692905.77745
  21572624.945 6  -1347787.734 6  -1038736.48049  21572625.58249
 20  5 16  5 10 32.0000000  0  7G01G07G11G17G22G28G30               -0.000403856
  19978439.969 7   -972724.977 7   -737523.89549  19978440.70349
  20742452.922 6   -806826.277 6   -613530.50449  20742451.29349
  20935613.984 6   -502250.680 6   -385031.05147  20935610.54347
  24011370.523 2   -435480.086 2   -306675.82046  24011365.38346
  22582759.602 6  -1546744.227 6  -1174929.27047  22582756.66447
  23691736.219 3  -1763724.781 3   -661065.48445  23691736.94145
  21571740.211 6  -1352438.250 6  -1042360.26249  21571740.68049
 20  5 16  5 10 33.0000000  0  7G01G07G11G17G22G28G30               -0.000406162
  19977829.609 7   -975932.691 7   -740023.41849  19977830.24649
  20741945.555 6   -809495.145 6   -615610.14149  20741943.67249
  20935287.688 6   -503963.906 6   -386366.02347  20935284.32847
  24010398.148 2   -440585.574 2   -310654.14546  24010393.98846
  22581764.172 6  -1551973.883 6  -1179004.32047  22581760.96147
  23690567.961 3  -1769862.082 3   -665847.82445  23690569.59045
  21570855.359 6  -1357088.289 6  -1045983.67649  21570855.67249
 20  5 16  5 10 34.0000000  0  7G01G07G11G17G22G28G30               -0.000408470
  19977219.570 7   -979139.711 7   -742522.39149  19977219.99249
  20741437.531 6   -812163.340 6   -617689.25049  20741435.56349
  20934961.789 6   -505676.813 6   -387700.76247  20934958.19947
  24009426.016 1   -445690.922 1   -314632.35946  24009422.33646
  22580769.047 6  -1557203.152 6  -1183079.07047  22580766.59447
  23689400.047 3  -1775999.559 3   -670630.28945  23689401.56345
  21569970.555 6  -1361737.648 6  -1049606.55149  21569970.87149
 20  5 16  5 10 35.0000000  0  7G01G07G11G17G22G28G30               -0.000410778
  19976609.461 7   -982346.090 7   -745020.87149  19976609.85249
  20740929.867 6   -814830.984 6   -619767.93449  20740927.84049
  20934636.539 6   -507389.465 6   -389035.28947  20934632.48047
  24008454.742 1   -450796.105 1   -318610.42646  24008451.05946
  22579773.805 6  -1562432.082 6  -1187153.55947  22579771.47747
  23688232.000 3  -1782137.039 3   -675412.75045  23688233.38345
  21569086.445 6  -1366386.473 6  -1053229.01249  21569086.50849
 20  5 16  5 10 36.0000000  0  7G01G07G11G17G22G28G30               -0.000413084
  19975999.469 7   -985551.770 7   -747518.79749  19976000.21949
  20740421.805 6   -817497.953 6   -621846.09449  20740420.12149
  20934310.828 6   -509101.758 6   -390369.54747  20934307.00447
  24007482.977 1   -455901.145 1   -322588.38746  24007479.95746
  22578779.086 6  -1567660.621 6  -1191227.75047  22578776.40647
  23687064.227 2  -1788274.613 2   -680195.24245  23687065.31345
  21568201.813 6  -1371034.617 6  -1056850.94149  21568201.87149
 20  5 16  5 10 37.0000000  0  7G01G07G11G17G22G28G30               -0.000415392
  19975389.242 7   -988756.852 7   -750016.27049  19975390.03949
  20739914.820 6   -820164.336 6   -623923.79749  20739912.92249
  20933984.680 6   -510813.859 6   -391703.64847  20933980.90647
  24006511.672 1   -461006.203 1   -326566.35246  24006508.76246
  22577784.180 6  -1572888.926 6  -1195301.75447  22577781.53147
  23685896.219 2  -1794412.352 2   -684977.86345  23685897.24245
  21567316.836 6  -1375682.246 6  -1060472.46549  21567317.64149
 20  5 16  5 10 38.0000000  0  7G01G07G11G17G22G28G30               -0.000417696
  19974779.477 7   -991961.289 7   -752513.23049  19974780.30949
  20739407.516 6   -822830.180 6   -626001.07849  20739406.00849
  20933659.203 6   -512525.711 6   -393037.55947  20933655.27047
  24005541.133 1   -466111.023 1   -330544.12946  24005537.53146
  22576789.609 6  -1578116.871 6  -1199375.47747  22576787.11347
  23684729.242 3  -1800550.195 3   -689760.60245  23684729.56345
  21566432.563 6  -1380329.266 6  -1064093.51649  21566433.69949
 20  5 16  5 10 39.0000000  0  7G01G07G11G17G22G28G30               -0.000420004
  19974169.789 7   -995165.160 7   -755009.75449  19974170.54349
  20738900.406 6   -825495.449 6   -628077.91449  20738898.59849
  20933333.047 6   -514237.316 6   -394371.27347  20933329.47347
  24004568.297 1   -471215.918 1   -334521.97346  24004566.30146
  22575794.258 6  -1583344.551 6  -1203448.98847  22575792.19547
  23683560.430 3  -1806688.230 3   -694543.49245  23683561.46545
  21565548.578 6  -1384975.793 6  -1067714.18849  21565549.51649
 20  5 16  5 10 40.0000000  0  7G01G07G11G17G22G28G30               -0.000422310
  19973560.266 7   -998368.332 7   -757505.73049  19973561.16849
  20738393.789 6   -828160.082 6   -630154.25049  20738391.37149
  20933007.391 6   -515948.672 6   -395704.80147  20933003.84447
  24003597.516 1   -476320.586 1   -338499.63346  24003594.74246
  22574799.898 6  -1588571.859 6  -1207522.21547  22574796.98047
  23682392.828 4  -1812826.316 4   -699326.41445  23682393.29745
  21564664.117 6  -1389621.664 6  -1071334.34849  21564664.77349
 20  5 16  5 10 41.0000000  0  7G01G07G11G17G22G28G30               -0.000424618
  19972950.539 7  -1001570.816 7   -760001.17649  19972952.17249
  20737886.867 6   -830824.063 6   -632230.07449  20737884.53149
  20932682.195 6   -517659.660 6   -397038.03947  20932678.49647
  24002625.938 1   -481425.039 1   -342477.13346  24002623.16446
  22573805.328 6  -1593798.773 6  -1211595.14147  22573802.72747
  23681225.180 4  -1818964.430 4   -704109.34445  23681224.90245
  21563780.570 6  -1394266.887 6  -1074954.00049  21563781.42649
 20  5 16  5 10 42.0000000  0  7G01G07G11G17G22G28G30               -0.000426926
  19972341.367 7  -1004772.637 7   -762496.09849  19972342.60949
  20737379.859 6   -833487.387 6   -634305.39149  20737377.94549
  20932356.531 6   -519370.383 6   -398371.07047  20932352.71547
  24001653.648 1   -486529.578 1   -346454.68446  24001652.08646
  22572810.359 6  -1599025.336 6  -1215667.77747  22572808.09447
  23680056.992 4  -1825102.641 4   -708892.36345  23680057.29345
  21562896.352 6  -1398911.559 6  -1078573.22749  21562897.13749
 20  5 16  5 10 43.0000000  0  7G01G07G11G17G22G28G30               -0.000429234
  19971732.164 7  -1007973.816 7   -764990.52349  19971733.54349
  20736873.430 6   -836150.145 6   -636380.27349  20736871.01249
  20932031.188 6   -521080.801 6   -399703.87147  20932027.59047
  24000683.359 1   -491633.805 1   -350432.00046  24000680.92646
  22571815.891 6  -1604251.594 6  -1219740.18447  22571813.37947
  23678888.367 4  -1831241.008 4   -713675.53545  23678888.80145
  21562012.836 6  -1403555.559 6  -1082191.93049  21562013.55549
 20  5 16  5 10 44.0000000  0  7G01G07G11G17G22G28G30               -0.000431541
  19971123.367 7  -1011174.422 7   -767484.49649  19971124.94549
  20736366.484 6   -838812.387 6   -638454.74249  20736364.70749
  20931705.961 6   -522791.066 6   -401036.54347  20931702.17247
  23999712.258 1   -496738.125 1   -354409.39546  23999709.98446
  22570821.891 6  -1609477.570 6  -1223812.37147  22570819.19947
  23677720.813 3  -1837379.520 3   -718458.79345  23677720.98445
  21561129.086 6  -1408199.117 6  -1085810.28549  21561130.14149
 20  5 16  5 10 45.0000000  0  7G01G07G11G17G22G28G30               -0.000433847
  19970514.398 7  -1014374.313 7   -769977.92249  19970515.00849
  20735860.414 6   -841473.914 6   -640528.65649  20735858.21149
  20931380.055 6   -524500.957 6   -402368.92247  20931376.55547
  23998740.633 1   -501842.156 1   -358386.54746  23998738.71946
  22569826.875 6  -1614703.145 6  -1227884.24647  22569825.31647
  23676552.445 3  -1843518.102 3   -723242.10245  23676552.75045
  21560245.805 6  -1412841.965 6  -1089428.09049  21560246.67249
 20  5 16  5 10 46.0000000  0  7G01G07G11G17G22G28G30               -0.000436155
  19969905.563 7  -1017573.531 7   -772470.81649  19969906.51649
  20735354.188 6   -844134.816 6   -642602.08649  20735351.60249
  20931054.844 6   -526210.574 6   -403701.09047  20931051.61747
  23997769.852 1   -506946.004 1   -362363.57046  23997767.14146
  22568833.922 6  -1619928.336 6  -1231955.83247  22568830.69547
  23675384.047 3  -1849656.707 3   -728025.43845  23675384.40645
  21559362.258 6  -1417484.170 6  -1093045.38749  21559362.79749
 20  5 16  5 10 47.0000000  0  7G01G07G11G17G22G28G30               -0.000438463
  19969296.906 7  -1020772.164 7   -774963.25449  19969297.88749
  20734847.852 6   -846795.203 6   -644675.11749  20734845.46949
  20930729.969 6   -527919.973 6   -405033.08247  20930726.55547
  23996798.070 1   -512049.828 1   -366340.58246  23996796.33646
  22567838.727 6  -1625153.273 6  -1236027.21147  22567836.41447
  23674214.688 3  -1855795.457 3   -732808.83645  23674216.30945
  21558479.148 6  -1422125.902 6  -1096662.32449  21558479.87149
 20  5 16  5 10 48.0000000  0  7G01G07G11G17G22G28G30               -0.000440777
  19968688.445 7  -1023970.164 7   -777455.19949  19968689.62149
  20734341.602 6   -849454.969 6   -646747.66049  20734338.95349
  20930404.406 6   -529629.102 6   -406364.88347  20930401.13747
  23995827.16411   -517153.59811   -370317.57056  23995825.29756
  22566844.773 6  -1630377.902 6  -1240098.35547  22566842.56647
  23673047.422 3  -1861934.395 3   -737592.44145  23673048.02745
  21557595.109 6  -1426767.059 6  -1100278.81649  21557596.69549
 20  5 16  5 10 49.0000000  0  7G01G07G11G17G22G28G30               -0.000443085
  19968079.766 7  -1027167.488 7   -779946.62949  19968080.73049
  20733835.531 6   -852114.117 6   -648819.72749  20733833.09049
  20930079.195 6   -531337.977 6   -407696.46947  20930075.67247
  23994854.04711                   -374294.45356  23994853.98856
  22565850.867 6  -1635602.172 6  -1244169.20747  22565848.19947
  23671879.664 3  -1868073.395 3   -742376.05545  23671879.53145
  21556712.711 6  -1431407.605 6  -1103894.82849  21556713.68049
 20  5 16  5 10 50.0000000  0  7G01G07G11G17G22G28G30               -0.000445393
  19967471.617 7  -1030364.172 7   -782437.54349  19967472.94149
  20733329.594 6   -854772.652 6   -650891.32049  20733327.03149
  20929753.930 6   -533046.543 6   -409027.82047  20929750.87147
  23993882.523 1   -527360.891 1   -378271.28546  23993882.80946
  22564856.172 6  -1640826.078 6  -1248239.78947  22564854.01247
  23670711.859 3  -1874212.535 3   -747159.82445  23670711.51245
  21555829.609 6  -1436047.527 6  -1107510.34049  21555830.75049
 20  5 16  5 10 51.0000000  0  7G01G07G11G17G22G28G30               -0.000447701
  19966863.398 7  -1033560.230 7   -784927.98049  19966864.66049
  20732823.664 6   -857430.625 6   -652962.46149  20732821.24649
  20929428.867 6   -534754.867 6   -410358.98047  20929425.98047
  23992910.52311                   -382247.95356  23992912.79756
  22563862.352 6  -1646049.691 6  -1252310.13747  22563860.35547
  23669543.070 3  -1880351.719 3   -751943.63345  23669543.12945
  21554946.578 6  -1440686.898 6  -1111125.43449  21554947.77349
 20  5 16  5 10 52.0000000  0  7G01G07G11G17G22G28G30               -0.000450008
  19966255.328 7  -1036755.605 7   -787417.89149  19966256.60549
  20732318.141 6   -860087.930 6   -655033.09449  20732315.97749
  20929103.977 6   -536462.898 6   -411689.93047  20929100.66047
  23991938.180 1                   -386224.53146  23991941.03546
  22562868.797 6  -1651272.922 6  -1256380.18847  22562865.95347
  23668375.117 4  -1886491.047 4   -756727.52345  23668374.87145
  21554063.922 6  -1445325.652 6  -1114740.04749  21554065.01649
 20  5 16  5 10 53.0000000  0  6G01G07G11G22G28G30                  -0.000452314
  19965647.344 7  -1039950.258 7   -789907.23449  19965648.35949
  20731812.578 6   -862744.594 6   -657103.22349  20731810.46149
  20928778.734 6   -538170.598 6   -413020.60547  20928775.81647
  22561874.695 6  -1656495.766 6  -1260449.93447  22561871.77047
  23667206.750 4  -1892630.387 4   -761511.40245  23667206.46545
  21553181.320 6  -1449963.719 6  -1118354.12549  21553182.55949
 20  5 16  5 10 54.0000000  0  6G01G07G11G22G28G30                  -0.000454622
  19965039.219 7  -1043144.336 7   -792396.12549  19965040.73449
  20731306.883 6   -865400.680 6   -659172.90649  20731305.39149
  20928453.570 6   -539878.070 6   -414351.09847  20928450.53147
  22560880.781 6  -1661718.336 6  -1264519.47747  22560878.29347
  23666039.266 4  -1898769.898 4   -766295.42645  23666038.42245
  21552298.750 6  -1454601.277 6  -1121967.80949  21552299.85549
 20  5 16  5 10 55.0000000  0  6G01G07G11G22G28G30                  -0.000456930
  19964432.281 7  -1046337.754 7   -794884.50049  19964433.37549
  20730801.695 6   -868056.184 6   -661242.12949  20730799.63349
  20928128.906 6   -541585.246 6   -415681.36347  20928125.89547
  22559887.297 6  -1666940.555 6  -1268588.74248  22559884.23848
  23664870.828 5  -1904909.500 5   -771079.56346  23664870.00446
  21551416.547 6  -1459238.199 6  -1125581.00849  21551417.71549
 20  5 16  5 10 56.0000000  0  7G01G03G07G11G22G28G30               -0.000459236
  19963824.234 7  -1049530.508 7   -797372.35949  19963825.59049
  23333576.32811   -520243.16411                
  20730296.508 6   -870711.051 6   -663310.85249  20730294.24649
  20927804.656 6   -543292.160 6   -417011.42647  20927801.11347
  22558893.289 6  -1672162.426 6  -1272657.72748  22558890.67648
  23663702.141 4  -1911049.234 4   -775863.79346  23663701.31346
  21550534.367 6  -1463874.551 6  -1129193.74649  21550535.64849
 20  5 16  5 10 57.0000000  0  7G01G03G07G11G22G28G30               -0.000461544
  19963216.953 7  -1052722.551 7   -799859.66049  19963218.08249
  23332362.656 1   -526616.844 1                
  20729791.797 6   -873365.277 6   -665379.08249  20729789.07449
  20927479.547 6   -544998.734 6   -418341.23047  20927476.27747
  22557899.422 6  -1677383.902 6  -1276726.40647  22557897.12147
  23662533.352 4  -1917188.949 4   -780647.98446  23662533.09446
  21549651.898 6  -1468510.211 6  -1132805.94949  21549652.47749
 20  5 16  5 10 58.0000000  0  7G01G03G07G11G22G28G30               -0.000463852
  19962609.719 7  -1055913.891 7   -802346.42249  19962610.97349
  23331150.266 1   -532990.508 1                
  20729286.773 6   -876018.809 6   -667446.76649  20729284.62149
  20927154.789 6   -546704.973 6   -419670.76647  20927151.74247
  22556906.570 6  -1682604.969 6  -1280794.77047  22556903.32847
  23661365.336 4  -1923328.719 4   -785432.19545  23661365.24245
  21548769.922 6  -1473145.273 6  -1136417.68449  21548770.69549
 20  5 16  5 10 59.0000000  0  7G01G03G07G11G22G28G30               -0.000466158
  19962002.492 7  -1059104.563 7   -804832.65649  19962003.62549
  23329936.242 1   -539364.117 1                
  20728781.992 6   -878671.723 6   -669513.97749  20728779.31649
  20926829.984 6   -548410.895 6   -421000.06347  20926827.00447
  22555912.734 6  -1687825.672 6  -1284862.85548  22555910.24248
  23660196.898 4  -1929468.590 4   -790216.49645  23660196.77045
  21547888.078 6  -1477779.656 6  -1140028.89149  21547889.28149
 20  5 16  5 11  0.0000000  0  7G01G03G07G11G22G28G30               -0.000468462
  19961395.664 7  -1062294.609 7   -807318.41049  19961396.57849
  23328722.859 1   -545737.660 1                
  20728276.875 6   -881324.035 6   -671580.71949  20728274.36749
  20926505.500 6   -550116.598 6   -422329.18047  20926501.96147
  22554919.383 6  -1693046.055 6  -1288930.68847  22554916.40647
  23659028.984 4  -1935608.563 4   -795000.87545  23659028.26645
  21547006.719 6  -1482413.504 6  -1143639.67249  21547007.32049
 20  5 16  5 11  1.0000000  0  7G01G03G07G11G22G28G30               -0.000470770
  19960788.703 7  -1065484.063 7   -809803.69949  19960789.84849
  23327509.563 1   -552111.340 1   -433162.79356  23327510.21156
  20727772.688 6   -883975.813 6   -673647.03549  20727770.15649
  20926180.969 6   -551822.066 6   -423658.10547  20926178.02747
  22553925.633 6  -1698266.184 6  -1292998.32047  22553923.13347
  23657860.617 4  -1941748.707 4   -799785.41845  23657859.46545
  21546124.594 6  -1487046.801 6  -1147250.03549  21546125.55549
 20  5 16  5 11  2.0000000  0  7G01G03G07G11G22G28G30               -0.000473078
  19960182.250 7  -1068672.762 7   -812288.40249  19960183.13349
  23326296.883 1   -558484.789 1   -438129.08245  23326297.15245
  20727267.852 6   -886626.879 6   -675712.79749  20727265.78149
  20925856.867 6   -553527.156 6   -424986.75447  20925853.36347
  22552932.695 6  -1703485.848 6  -1297065.59047  22552929.89147
  23656691.930 4  -1947888.859 4   -804569.94945  23656691.21945
  21545243.039 6  -1491679.410 6  -1150859.86349  21545244.10249
 20  5 16  5 11  3.0000000  0  7G01G03G07G11G22G28G30               -0.000475386
  19959575.242 7  -1071860.934 7   -814772.68849  19959576.70749
  23325083.859 1   -564858.313 1   -443095.47345  23325084.68045
  20726763.320 6   -889277.453 6   -677778.18449  20726761.17649
  20925531.688 6   -555232.125 6   -426315.30547  20925528.68047
  22551939.531 6  -1708705.277 6  -1301132.68448  22551936.75848
  23655524.031 4  -1954029.254 4   -809354.68445  23655522.32845
  21544361.453 6  -1496311.547 6  -1154469.32449  21544362.42249
 20  5 16  5 11  4.0000000  0  7G01G03G07G11G22G28G30               -0.000477694
  19958968.297 7  -1075048.516 7   -817256.51649  19958970.00849
  23323871.867 1   -571231.910 1   -448061.91845  23323871.57445
  20726259.211 6   -891927.473 6   -679843.13349  20726257.19149
  20925207.813 6   -556936.836 6   -427643.65647  20925204.28147
  22550946.492 6  -1713924.434 6  -1305199.55547  22550943.37947
  23654355.086 4  -1960169.773 4   -814139.48445  23654353.70345
  21543480.727 6  -1500943.129 6  -1158078.35249  21543481.21949
 20  5 16  5 11  5.0000000  0  7G01G03G07G11G22G28G30               -0.000480000
  19958362.281 7  -1078235.480 7   -819739.87149  19958363.48849
  23322658.383 1   -577605.492 1   -453028.37545  23322659.18045
  20725755.297 6   -894576.930 6   -681907.64849  20725752.94549
  20924883.273 6   -558641.336 6   -428971.83647  20924880.00047
  22549953.570 6  -1719143.293 6  -1309266.19147  22549950.46947
  23653186.344 4  -1966310.414 4   -818924.41445  23653185.49245
  21542599.398 6  -1505574.133 6  -1161686.92249  21542600.30149
 20  5 16  5 11  6.0000000  0  7G01G03G07G11G22G28G30               -0.000482307
  19957755.883 7  -1081421.848 7   -822222.75449  19957756.65249
  23321446.953 1   -583979.105 1   -457994.88345  23321445.85945
  20725251.258 6   -897225.852 6   -683971.73449  20725248.99649
  20924558.867 6   -560345.602 6   -430299.82847  20924555.44947
  22548960.273 6  -1724361.883 6  -1313332.62547  22548957.22347
  23652018.047 4  -1972451.254 4   -823709.45345  23652016.83245
  21541717.984 6  -1510204.637 6  -1165295.10949  21541718.89549
 20  5 16  5 11  7.0000000  0  8G01G03G07G08G11G22G28G30            -0.000484615
  19957149.477 7  -1084607.523 7   -824705.10249  19957150.48449
  23320234.250 1   -590352.578 1   -462961.23845  23320233.96145
  20724747.063 6   -899874.082 6   -686035.28549  20724744.93449
  22844777.03111    -75129.42211   -106542.84455  22844786.19155
  20924234.703 6   -562049.578 6   -431627.60547  20924231.39547
  22547966.867 6  -1729580.066 6  -1317398.75048  22547964.56648
  23650850.453 4  -1978592.113 4   -828494.54345  23650848.44145
  21540837.172 6  -1514834.492 6  -1168902.78549  21540837.71549
 20  5 16  5 11  8.0000000  0  8G01G03G07G08G11G22G28G30            -0.000486923
  19956542.984 7  -1087792.453 7   -827186.85949  19956544.47349
  23319021.977 1   -596725.973 1   -467927.45745  23319020.66445
  20724243.563 6   -902521.637 6   -688098.31649  20724241.40249
  22844441.523 1    -76890.594 1   -107915.16045  22844450.88345
  20923910.320 6   -563753.141 6   -432955.05547  20923907.17647
  22546974.445 6  -1734797.793 6  -1321464.51647  22546971.80947
  23649681.211 4  -1984733.000 4   -833279.65645  23649679.86345
  21539956.242 6  -1519463.625 6  -1172509.90649  21539956.62549
 20  5 16  5 11  9.0000000  0  8G01G03G07G08G11G22G28G30            -0.000489231
  19955937.648 7  -1090976.719 7   -829668.11349  19955938.64149
  23317808.180 1   -603099.277 1   -472893.64845  23317807.71945
  20723739.656 6   -905168.570 6   -690160.87149  20723737.75449
  22844106.883 1    -78651.762 1   -109287.51245  22844115.98445
  20923586.164 6   -565456.438 6   -434282.30547  20923583.10547
  22545981.320 6  -1740015.168 6  -1325530.00448  22545978.58248
  23648512.531 4  -1990873.961 4   -838064.82045  23648510.97345
  21539075.281 6  -1524092.180 6  -1176116.57049  21539075.80149
 20  5 16  5 11 10.0000000  0  8G01G03G07G08G11G22G28G30            -0.000491537
  19955331.828 7  -1094160.320 7   -832148.84449  19955332.90249
  23316595.695 1   -609472.605 1   -477859.88745  23316595.09845
  20723236.180 6   -907814.887 6   -692222.93449  20723234.04349
  22843771.609 1    -80412.938 1   -110659.83245  22843780.89845
  20923262.164 6   -567159.469 6   -435609.34447  20923259.19947
  22544989.117 6  -1745232.227 6  -1329595.24648  22544985.97748
  23647343.539 4  -1997014.980 4   -842850.02045  23647342.10245
  21538194.984 6  -1528720.125 6  -1179722.76649  21538195.32049
 20  5 16  5 11 11.0000000  0  8G01G03G07G08G11G22G28G30            -0.000493845
  19954725.992 7  -1097343.211 7   -834629.01649  19954727.21949
  23315382.750 1   -615845.781 1   -482826.03945  23315382.22345
  20722732.742 6   -910460.512 6   -694284.46549  20722730.46949
  22843436.000 1    -82174.223 1   -112032.22745  22843446.21545
  20922938.414 6   -568862.137 6   -436936.10547  20922934.82847
  22543995.859 6  -1750448.852 6  -1333660.14547  22543992.86747
  23646175.180 4  -2003156.070 4   -847635.28145  23646173.69145
  21537313.922 6  -1533347.410 6  -1183328.44149  21537314.96149
 20  5 16  5 11 12.0000000  0  8G01G03G07G08G11G22G28G30            -0.000496153
  19954120.344 7  -1100525.402 7   -837108.64549  19954121.43449
  23314170.328 1   -622218.918 1   -487792.13745  23314169.56345
  20722229.391 6   -913105.500 6   -696345.48849  20722227.44549
  22843101.227 1    -83935.492 1   -113404.62145  22843111.37945
  20922614.250 6   -570564.492 6   -438262.61747  20922610.95347
  22543003.180 6  -1755665.129 6  -1337724.77347  22543000.32047
  23645007.047 4  -2009297.250 4   -852420.63745  23645004.84045
  21536433.391 6  -1537974.059 6  -1186933.62149  21536434.43849
 20  5 16  5 11 13.0000000  0  8G01G03G07G08G11G22G28G30            -0.000498461
  19953515.289 7  -1103707.031 7   -839587.84049  19953515.91449
  23312957.938 1   -628592.043 1   -492758.17645  23312956.77745
  20721726.164 6   -915749.977 6   -698406.12149  20721724.22749
  22842765.539 1    -85696.805 1   -114777.08245  22842776.74645
  20922290.344 6   -572266.648 6   -439588.97347  20922286.96547
  22542011.141 6  -1760881.109 6  -1341789.18048  22542007.81348
  23643838.055 4  -2015438.609 4   -857206.09845  23643836.27045
  21535553.359 6  -1542600.176 6  -1190538.38349  21535554.00049
 20  5 16  5 11 14.0000000  0  8G01G03G07G08G11G22G28G30            -0.000500769
  19952910.063 7  -1106887.977 7   -842066.49649  19952910.59849
  23311746.461 1   -634965.109 1   -497724.20745  23311744.09845
  20721223.422 6   -918393.816 6   -700466.25449  20721221.01249
  22842429.445 1    -87458.316 1   -116149.66845  22842442.02745
  20921966.766 6   -573968.520 6   -440915.10947  20921963.07847
  22541018.609 6  -1766096.730 6  -1345853.29747  22541015.14147
  23642669.000 4  -2021580.008 4   -861991.62145  23642667.46145
  21534672.953 6  -1547225.684 6  -1194142.67649  21534673.28549
 20  5 16  5 11 14.9990000  0  8G01G03G07G08G11G22G28G30             0.000496927
  19952305.534 7  -1110065.094 7   -844542.17249  19952306.42949
  23310534.222 1   -641331.762 1   -502685.24645  23310532.38245
  20720720.948 6   -921034.363 6   -702523.82449  20720718.78049
  22842095.753 1    -89217.898 1   -117520.74645  22842107.30045
  20921642.730 6   -575668.418 6   -442239.70347  20921640.06247
  22540027.128 6  -1771306.773 6  -1349913.07448  22540023.57748
  23641501.347 4  -2027715.383 4   -866772.43445  23641500.03045
  21533794.003 6  -1551845.914 6  -1197742.84849  21533794.58549
 20  5 16  5 11 15.9990000  0  8G01G03G07G08G11G22G28G30             0.000494619
  19951700.230 7  -1113244.703 7   -847019.78949  19951701.42149
  23309320.940 1   -647704.719 1   -507651.19145  23309319.74145
  20720217.276 6   -923676.938 6   -704582.97349  20720215.74549
  22841759.855 1    -90979.406 1   -118893.35245  22841773.01945
  20921319.034 6   -577369.695 6   -443565.37547  20921316.00747
  22539034.558 6  -1776521.699 6  -1353976.64847  22539031.26947
  23640332.948 4  -2033856.926 4   -871558.04345  23640331.22645
  21532913.722 6  -1556470.219 6  -1201346.20349  21532914.53049
 20  5 16  5 11 16.9990000  0  8G01G03G07G08G11G22G28G30             0.000492311
  19951095.167 7  -1116423.777 7   -849496.99649  19951096.43749
  23308107.183 1   -654077.750 1   -512617.16845  23308106.64045
  20719714.722 6   -926318.977 6   -706641.70749  20719712.70649
  22841424.19011                   -120266.05555  22841438.39055
  20920995.644 6   -579070.805 6   -444890.91447  20920992.23747
  22538042.448 6  -1781736.344 6  -1358040.00847  22538038.89747
  23639164.425 4  -2039998.703 4   -876343.80145  23639162.06545
  21532034.386 6  -1561094.000 6  -1204949.15249  21532034.78849
 20  5 16  5 11 17.9990000  0  8G01G03G07G08G11G22G28G30             0.000490004
  19950490.440 7  -1119602.113 7   -851973.62149  19950491.39049
  23306894.628 1   -660450.625 1   -517583.02045  23306893.97245
  20719212.417 6   -928960.375 6   -708699.93849  20719210.52249
  22841088.659 1    -94502.648 1   -121638.75445  22841103.92145
  20920672.058 6   -580771.590 6   -446216.19947  20920669.08947
  22537049.761 6  -1786950.598 6  -1362103.06347  22537047.17147
  23637995.456 4  -2046140.465 4   -881129.57845  23637993.71845
  21531154.089 6  -1565717.066 6  -1208551.54749  21531154.42949
 20  5 16  5 11 18.9990000  0  8G01G03G07G08G11G22G28G30             0.000487698
  19949885.690 7  -1122779.832 7   -854449.77049  19949886.48049
  23305681.464 1   -666823.590 1   -522549.00045  23305681.29645
  20718709.964 6   -931601.184 6   -710757.71149  20718707.89449
  22840752.206 1    -96264.285 1   -123011.47345  22840768.74145
  20920348.644 6   -582472.125 6   -447541.29747  20920345.05447
  22536057.753 6  -1792164.551 6  -1366165.88348  22536054.51548
  23636827.378 4  -2052282.422 4   -885915.54345  23636824.54645
  21530274.534 6  -1570339.629 6  -1212153.53949  21530274.88649
 20  5 16  5 11 19.9990000  0  8G01G03G07G08G11G22G28G30             0.000485388
  19949281.128 7  -1125956.961 7   -856925.46549  19949281.85549
  23304469.175 1   -673196.574 1   -527514.94945  23304468.45245
  20718207.620 6   -934241.426 6   -712815.03949  20718205.78449
  22840416.32311                   -124384.37155  22840434.17955
  20920024.628 6   -584172.426 6   -448866.20747  20920021.29647
  22535065.370 6  -1797378.211 6  -1370228.47348  22535062.25748
  23635658.206 4  -2058424.473 4   -890701.56645  23635656.25745
  21529395.019 6  -1574961.613 6  -1215755.09049  21529395.57749
 20  5 16  5 11 20.9990000  0  8G01G03G07G08G11G22G28G30             0.000483082
  19948676.839 7  -1129133.449 7   -859400.65249  19948677.83549
  23303257.144 1   -679569.438 1   -532480.81645  23303255.65945
  20717704.628 6   -936881.094 6   -714871.92249  20717702.98349
  22840080.96411                   -125757.19955  22840099.13255
  20919700.690 6   -585872.457 6   -450190.90247  20919697.68747
  22534073.628 6  -1802591.520 6  -1374290.78947  22534070.67547
  23634489.198 5  -2064566.656 5   -895487.66845  23634487.20245
  21528515.808 6  -1579583.023 6  -1219356.19149  21528515.93349
 20  5 16  5 11 21.9990000  0  8G01G03G07G08G11G22G28G30             0.000480770
  19948072.112 7  -1132309.328 7   -861875.35949  19948073.10549
  23302044.41711                   -537446.74255  23302043.51955
  20717202.870 6   -939520.152 6   -716928.33249  20717200.60549
  22839745.48711                   -127130.22355  22839763.84355
  20919377.222 6   -587572.238 6   -451515.39547  20919374.18347
  22533081.605 6  -1807804.535 6  -1378352.87547  22533078.55047
  23633320.034 5  -2070709.004 5   -900273.92245  23633318.06945
  21527636.151 6  -1584203.859 6  -1222956.83649  21527636.69049
 20  5 16  5 11 22.9990000  0  8G01G03G07G08G11G22G28G30             0.000478462
  19947468.065 7  -1135484.469 7   -864349.49649  19947468.59349
  23300830.878 1                   -542412.50445  23300831.01545
  20716700.995 6   -942158.547 6   -718984.22349  20716699.25349
  22839408.901 1                   -128503.10945  22839428.31945
  20919054.417 6   -589271.699 6   -452839.65247  20919050.97247
  22532089.214 6  -1813017.121 6  -1382414.62947  22532086.58547
  23632151.605 5  -2076851.324 5   -905060.13745  23632149.19045
  21526756.933 6  -1588824.023 6  -1226556.96549  21526757.76949
 20  5 16  5 11 23.9990000  0  7G01G03G07G11G22G28G30                0.000476154
  19946864.073 7  -1138659.082 7   -866823.22349  19946864.84349
  23299619.183 1                   -547378.41845  23299618.15545
  20716198.925 6   -944796.469 6   -721039.75849  20716196.74149
  20918731.050 6   -590970.988 6   -454163.77347  20918727.55847
  22531097.409 6  -1818229.480 6  -1386476.21147  22531094.71847
  23630983.245 5  -2082993.895 5   -909846.55946  23630980.45246
  21525878.386 6  -1593443.711 6  -1230156.72349  21525878.74549
 20  5 16  5 11 24.9990000  0  7G01G03G07G11G22G28G30                0.000473846
  19946259.784 7  -1141833.133 7   -869296.51249  19946260.81949
  23298407.261 1   -705060.852 1   -552344.24245  23298405.73045
  20715696.831 6   -947433.875 6   -723094.87949  20715695.05049
  20918407.925 6   -592670.137 6   -455487.78547  20918404.05847
  22530106.167 6  -1823441.605 6  -1390537.61348  22530103.14048
  23629814.011 5  -2089136.636 5   -914633.09145  23629811.42145
  21524998.878 6  -1598062.918 6  -1233756.10949  21524999.19049
 20  5 16  5 11 25.9990000  0  7G01G03G07G11G22G28G30                0.000471544
  19945656.081 7  -1145006.453 7   -871769.22749  19945657.03449
  23297194.940 1   -711433.668 1   -557310.05545  23297193.32745
  20715195.378 6   -950070.594 6   -725149.46549  20715193.31249
  20918084.292 6   -594368.895 6   -456811.50447  20918081.08147
  22529114.315 6  -1828653.309 6  -1394598.68448  22529111.31948
  23628644.980 5  -2095279.477 5   -919419.72345  23628642.82345
  21524119.565 6  -1602681.414 6  -1237354.93049  21524120.74549
 20  5 16  5 11 26.9990000  0  7G01G03G07G11G22G28G30                0.000469234
  19945052.370 7  -1148179.242 7   -874241.53149  19945053.37449
  23295982.097 1   -717806.438 1   -562275.80945  23295980.28845
  20714693.534 6   -952706.781 6   -727203.63749  20714691.51549
  20917761.167 6   -596067.453 6   -458135.05947  20917757.90147
  22528122.315 6  -1833864.746 6  -1398659.54347  22528119.70647
  23627476.308 5  -2101422.426 5   -924206.44545  23627473.33945
  21523241.105 6  -1607299.426 6  -1240953.38349  21523241.19049
 20  5 16  5 11 27.9990000  0  7G01G03G07G11G22G28G30                0.000466928
  19944448.542 7  -1151351.445 7   -876713.37949  19944449.48349
  23294768.925 1   -724179.363 1   -567241.74245  23294767.75345
  20714191.894 6   -955342.422 6   -729257.37949  20714189.92549
  20917437.933 6   -597765.836 6   -459458.46947  20917434.73747
  22527130.331 6  -1839075.938 6  -1402720.21547  22527127.79647
  23626307.198 5  -2107565.605 5   -928993.32045  23626304.18745
  21522362.151 6  -1611916.906 6  -1244551.42249  21522363.00749
 20  5 16  5 11 28.9990000  0  8G01G03G07G08G11G22G28G30             0.000464621
  19943845.495 7  -1154523.023 7   -879184.73849  19943846.22249
  23293556.472 1   -730552.191 1   -572207.63345  23293554.70645
  20713690.448 6   -957977.527 6   -731310.71549  20713688.53049
  22837397.37011                                
  20917115.206 6   -599463.961 6   -460781.68447  20917111.28847
  22526139.417 6  -1844286.785 6  -1406780.61347  22526135.67147
  23625138.409 5  -2113708.883 5   -933780.25845  23625135.40945
  21521484.026 6  -1616533.809 6  -1248148.99649  21521484.11649
 20  5 16  5 11 29.9990000  0  8G01G03G07G08G11G22G28G30             0.000462313
  19943241.651 7  -1157693.816 7   -881655.48449  19943242.54649
  23292342.644 1   -736924.820 1   -577173.35245  23292342.63245
  20713189.089 6   -960611.871 6   -733363.44949  20713186.93349
  22837064.065 1                                
  20916791.925 6   -601161.703 6   -462104.59847  20916788.00747
  22525147.456 6  -1849497.176 6  -1410840.65247  22525144.58547
  23623968.737 5  -2119852.129 5   -938567.19945  23623966.07745
  21520605.355 6  -1621149.996 6  -1251746.03149  21520605.74549
 20  5 16  5 11 30.9990000  0  8G01G03G07G08G11G22G28G30             0.000460005
  19942638.417 7  -1160864.098 7   -884125.83649  19942639.54249
  23291128.261 1   -743297.637 1   -582139.15245  23291130.53045
  20712688.269 6   -963245.719 6   -735415.80149  20712685.93349
  22836728.308 1   -117411.910 1                
  20916469.323 6   -602859.273 6   -463427.38347  20916465.27247
  22524155.808 6  -1854707.332 6  -1414900.52047  22524152.68347
  23622800.339 5  -2125995.594 5   -943354.30945  23622796.64445
  21519726.792 6  -1625765.691 6  -1255342.67249  21519727.32349
 20  5 16  5 11 31.9990000  0  8G01G03G07G08G11G22G28G30             0.000457695
  19942035.331 7  -1164033.648 7   -886595.61749  19942036.09749
  23289914.925 1   -749670.285 1   -587104.83245  23289917.60545
  20712186.987 6   -965878.887 6   -737467.62149  20712184.57749
  22836393.378 1   -119174.496 1                
  20916145.542 6   -604556.512 6   -464749.90647  20916142.30047
  22523164.526 6  -1859917.094 6  -1418960.07447  22523161.43347
  23621631.097 5  -2132139.090 5   -948141.46945  23621627.81945
  21518848.917 6  -1630380.742 6  -1258938.82049  21518848.98349
 20  5 16  5 11 32.9990000  0  8G01G03G07G08G11G22G28G30             0.000455387
  19941432.073 7  -1167202.531 7   -889064.87549  19941433.45249
  23288703.784 1   -756042.871 1   -592070.46545  23288704.76145
  20711685.995 6   -968511.445 6   -739518.96149  20711683.79649
  22836057.433 1   -120937.145 1                
  20915822.800 6   -606253.453 6   -466072.19947  20915819.21847
  22522172.933 6  -1865126.469 6  -1423019.32847  22522170.01547
  23620462.198 5  -2138282.645 5   -952928.63745  23620458.86645
  21517970.581 6  -1634995.164 6  -1262534.47349  21517970.82349
 20  5 16  5 11 33.9990000  0  8G01G03G07G08G11G22G28G30             0.000453077
  19940829.464 7  -1170370.719 7   -891533.59449  19940830.49549
  23287491.690 1   -762415.391 1   -597036.05945  23287492.84345
  20711184.698 6   -971143.352 6   -741569.80149  20711183.12049
  22835723.362 1   -122699.883 1                
  20915499.987 6   -607950.063 6   -467394.22747  20915496.26547
  22521182.315 6  -1870335.461 6  -1427078.28147  22521179.03447
  23619293.105 5  -2144426.219 5   -957715.84445  23619289.59745
  21517092.980 6  -1639608.949 6  -1266129.62549  21517093.14049
 20  5 16  5 11 34.9990000  0  8G01G03G07G08G11G22G28G30             0.000450771
  19940227.151 7  -1173538.297 7   -894001.83249  19940227.58149
  23286279.175 1   -768787.914 1   -602001.62945  23286279.80045
  20710684.151 6   -973774.668 6   -743620.18049  20710682.44849
  22835388.472 1   -124462.660 1                
  20915177.214 6   -609646.465 6   -468716.10247  20915173.78447
  22520191.269 6  -1875544.164 6  -1431137.00847  22520187.64747
  23618123.355 5  -2150570.031 5   -962503.23045  23618120.12845
  21516214.901 6  -1644222.176 6  -1269724.34449  21516215.05849
 20  5 16  5 11 35.9990000  0  8G01G03G07G08G11G22G28G30             0.000448462
  19939623.925 7  -1176705.152 7   -896469.50849  19939624.90949
  23285067.526 1   -775160.316 1   -606967.11745  23285067.21045
  20710183.245 6   -976405.352 6   -745670.06349  20710181.85149
  22835053.519 1   -126225.328 1                
  20914854.534 6   -611342.504 6   -470037.68847  20914851.17547
  22519199.987 6  -1880752.441 6  -1435195.41047  22519196.45647
  23616954.581 5  -2156713.836 5   -967290.59045  23616950.95645
  21515337.097 6  -1648834.723 6  -1273318.53549  21515337.43749
 20  5 16  5 11 36.9990000  0  8G01G03G07G08G11G22G28G30             0.000446154
  19939021.675 7  -1179871.598 7   -898936.87549  19939022.32349
  23283854.659 1   -781532.922 1   -611932.76245  23283854.81245
  20709682.659 6   -979035.617 6   -747719.62149  20709681.05849
  22834717.886 1   -127988.449 1                
  20914531.933 6   -613038.504 6   -471359.25447  20914527.96447
  22518209.214 6  -1885960.578 6  -1439253.70347  22518205.33547
  23615785.378 5  -2162857.949 5   -972078.19545  23615782.05045
  21514459.714 6  -1653446.895 6  -1276912.43049  21514459.67949
 20  5 16  5 11 37.9990000  0  8G01G03G07G08G11G22G28G30             0.000443846
  19938419.292 7  -1183037.379 7   -901403.71949  19938419.65949
  23282641.761 1   -787905.449 1   -616898.34845  23282642.14745
  20709182.503 6   -981665.293 6   -749768.71949  20709180.68749
  22834382.339 1   -129751.496 1   -134270.80556  22834381.29256
  20914209.112 6   -614734.227 6   -472680.59447  20914205.89447
  22517217.964 6  -1891168.422 6  -1443311.75847  22517214.40547
  23614615.706 5  -2169002.176 5   -976865.90645  23614612.68745
  21513581.401 6  -1658058.496 6  -1280505.88749  21513581.71049
 20  5 16  5 11 38.9990000  0  8G01G03G07G08G11G22G28G30             0.000441538
  19937816.776 7  -1186202.461 7   -903870.01649  19937817.65549
  23281429.300 1   -794277.875 1   -621863.87145  23281429.56945
  20708682.370 6   -984294.293 6   -751817.28949  20708680.62849
  22834046.847 1   -131514.566 1   -135644.66846  22834045.49546
  20913886.683 6   -616429.633 6   -474001.68847  20913882.89747
  22516227.175 6  -1896375.828 6  -1447369.48047  22516223.03447
  23613447.151 5  -2175146.457 5   -981653.66445  23613443.30445
  21512704.370 6  -1662669.422 6  -1284098.81649  21512704.50349
 20  5 16  5 11 39.9990000  0  8G01G03G07G08G11G22G28G30             0.000439230
  19937214.480 7  -1189366.957 7   -906335.85549  19937215.74149
  23280216.815 1   -800650.340 1   -626829.42645  23280217.49545
  20708182.183 6   -986922.754 6   -753865.44549  20708180.02649
  22833711.940 2   -133277.781 2   -137018.62946  22833710.05046
  20913563.917 6   -618124.820 6   -475322.62147  20913560.22247
  22515236.370 6  -1901582.996 6  -1451427.01647  22515232.23347
  23612277.675 5  -2181290.879 5   -986441.52045  23612273.83945
  21511826.300 6  -1667279.816 6  -1287691.33649  21511827.02649
 20  5 16  5 11 40.9990000  0  8G01G03G07G08G11G22G28G30             0.000436922
  19936612.394 7  -1192530.996 7   -908801.34049  19936613.23349
  23279004.683 1   -807022.973 1   -631795.12145  23279004.42545
  20707682.300 6   -989550.816 6   -755913.28549  20707679.96449
  22833376.480 2   -135041.141 2   -138392.69946  22833374.38646
  20913241.550 6   -619819.910 6   -476643.47347  20913237.77647
  22514245.292 6  -1906789.965 6  -1455484.39147  22514241.59347
  23611107.847 5  -2187435.594 5   -991229.61345  23611104.14045
  21510949.440 6  -1671889.805 6  -1291283.53149  21510950.26949
 20  5 16  5 11 41.9990000  0  8G01G03G07G08G11G22G28G30             0.000434614
  19936010.128 7  -1195694.320 7   -911266.27049  19936011.19849
  23277791.722 1   -813395.445 1   -636760.70345  23277791.75745
  20707182.019 6   -992178.199 6   -757960.59849  20707180.15949
  22833041.464 1   -136804.547 1   -139766.77046  22833039.01946
  20912919.394 6   -621514.691 6   -477964.08247  20912915.28847
  22513254.386 6  -1911996.543 6  -1459541.46147  22513250.66347
  23609939.386 5  -2193580.359 5   -996017.76645  23609935.02245
  21510072.308 6  -1676499.129 6  -1294875.21549  21510072.64749
 20  5 16  5 11 42.9990000  0  8G01G03G07G08G11G22G28G30             0.000432306
  19935408.394 7  -1198856.883 7   -913730.60249  19935410.18749
  23276578.089 1   -819767.762 1   -641726.16845  23276579.12445
  20706682.503 6   -994804.875 6   -760007.35949  20706679.92549
  22832705.784 2   -138567.879 2   -141140.80546  22832703.63646
  20912596.690 6   -623209.082 6   -479284.38747  20912592.99147
  22512264.136 6  -1917202.688 6  -1463598.19547  22512259.96847
  23608770.347 5  -2199725.094 5  -1000805.86745  23608766.17145
  21509195.183 6  -1681107.766 6  -1298466.35249  21509196.07749
 20  5 16  5 11 43.9990000  0  8G01G03G07G08G11G22G28G30             0.000429998
  19934806.792 7  -1202018.789 7   -916194.43049  19934808.50349
  23275365.589 1   -826140.066 1   -646691.60245  23275366.50745
  20706182.644 6   -997430.902 6   -762053.61349  20706180.48349
  22832370.081 2   -140331.238 2   -142514.86346  22832367.95646
  20912274.073 6   -624903.160 6   -480604.44547  20912270.41747
  22511272.823 6  -1922408.430 6  -1467654.61747  22511269.10847
  23607600.612 5  -2205869.922 5  -1005594.03145  23607596.37045
  21508318.331 6  -1685715.766 6  -1302057.00849  21508318.55449
 20  5 16  5 11 44.9990000  0  8G01G03G07G08G11G22G28G30             0.000427691
  19934205.690 7  -1205179.988 7   -918657.70349  19934206.65549
  23274152.675 1   -832512.344 1   -651657.03945  23274154.00345
  20705682.831 6  -1000056.332 6   -764099.40249  20705680.81949
  22832034.269 2   -142094.621 2   -143888.93046  22832032.54646
  20911951.753 6   -626596.938 6   -481924.27347  20911948.39047
  22510282.800 6  -1927613.813 6  -1471710.76247  22510278.78847
  23606430.347 5  -2212014.785 5  -1010382.19945  23606426.42945
  21507441.644 6  -1690323.133 6  -1305647.16049  21507441.89749
 20  5 16  5 11 45.9990000  0  8G01G03G07G08G11G22G28G30             0.000425381
  19933603.917 7  -1208340.594 7   -921120.50849  19933604.85849
  23272939.433 1   -838884.539 1   -656622.35245  23272941.75745
  20705183.089 6  -1002681.156 6   -766144.71549  20705181.26949
  22831699.550 2   -143858.094 2   -145263.07846  22831697.62846
  20911629.769 6   -628290.496 6   -483243.92247  20911625.91347
  22509291.878 6  -1932818.875 6  -1475766.66047  22509288.28847
  23605261.964 5  -2218159.801 5  -1015170.51645  23605257.40145
  21506564.581 6  -1694929.938 6  -1309236.87549  21506564.96849
 20  5 16  5 11 46.9990000  0  8G01G03G07G08G11G22G28G30             0.000423073
  19933002.573 7  -1211500.738 7   -923582.95749  19933003.30449
  23271726.839 1   -845256.855 1   -661587.79745  23271729.51545
  20704683.698 6  -1005305.547 6   -768189.69549  20704681.78449
  22831363.534 2   -145621.789 2   -146637.39846  22831361.57746
  20911307.433 6   -629983.930 6   -484563.48847  20911303.48347
  22508301.831 6  -1938023.770 6  -1479822.42247  22508298.18347
  23604092.315 5  -2224305.055 5  -1019959.02746  23604088.10546
  21505688.112 6  -1699536.316 6  -1312826.25849  21505688.82349
 20  5 16  5 11 47.9990000  0  8G01G03G07G08G11G22G28G30             0.000420765
  19932401.534 7  -1214660.133 7   -926044.82049  19932402.75349
  23270513.620 1   -851629.043 1   -666553.15645  23270516.88245
  20704184.761 6  -1007929.246 6   -770234.13749  20704181.94449
  22831027.698 2   -147385.508 2   -148011.69546  22831026.13646
  20910985.370 6   -631677.035 6   -485882.78547  20910981.66747
  22507311.034 6  -1943228.234 6  -1483877.85247  22507307.59347
  23602923.097 5  -2230450.363 5  -1024747.57846  23602918.93746
  21504811.136 6  -1704142.000 6  -1316415.09449  21504811.93749
 20  5 16  5 11 48.9990000  0  8G01G03G07G08G11G22G28G30             0.000418457
  19931800.331 7  -1217818.816 7   -928506.12949  19931801.71849
  23269299.511 1   -858001.133 1   -671518.40245  23269303.94445
  20703685.503 6  -1010552.277 6   -772278.06349  20703683.10849
  22830693.081 2   -149149.121 2   -149385.92246  22830690.53846
  20910662.808 6   -633369.770 6   -487201.80147  20910659.48347
  22506320.862 6  -1948432.293 6  -1487932.95347  22506316.85147
  23601753.081 5  -2236595.699 5  -1029536.15246  23601749.69846
  21503935.089 6  -1708747.031 6  -1320003.43049  21503936.02649
 20  5 16  5 11 49.9990000  0  8G01G03G07G08G11G22G28G30             0.000416149
  19931199.612 7  -1220976.758 7   -930966.86749  19931200.58949
  23268088.081 1   -864373.180 1   -676483.59445  23268091.34345
  20703186.315 6  -1013174.609 6   -774321.43849  20703184.24149
  22830357.448 3   -150912.758 3   -150760.19946  22830354.86646
  20910341.300 6   -635062.145 6   -488520.54347  20910337.62847
  22505330.472 6  -1953635.910 6  -1491987.71547  22505327.09747
  23600584.230 5  -2242741.043 5  -1034324.73846  23600580.01146
  21503059.136 6  -1713351.375 6  -1323591.23849  21503059.68749
 20  5 16  5 11 50.9990000  0  8G01G03G07G08G11G22G28G30             0.000413841
  19930598.753 7  -1224134.086 7   -933427.12149  19930599.84349
  23266876.901 1   -870745.070 1   -681448.68445  23266878.93345
  20702687.355 6  -1015796.359 6   -776364.35949  20702684.98349
  22830020.792 3   -152676.484 3   -152134.53545  22830019.11245
  20910018.644 6   -636754.301 6   -489839.10247  20910015.37047
  22504340.355 6  -1958839.215 6  -1496042.24247  22504336.96047
  23599414.769 5  -2248886.535 5  -1039113.43446  23599410.73346
  21502182.847 6  -1717955.164 6  -1327178.60549  21502183.92549
 20  5 16  5 11 51.9990000  0  8G01G03G07G08G11G22G28G30             0.000411531
  19929998.058 7  -1227290.777 7   -935886.87949  19929999.14749
  23265664.487 1   -877117.055 1   -686413.87145  23265666.81245
  20702188.815 6  -1018417.527 6   -778406.83249  20702186.62849
  22829686.136 3   -154440.273 3   -153508.93445  22829683.40545
  20909696.331 6   -638446.207 6   -491157.47747  20909693.13647
  22503350.409 6  -1964042.191 6  -1500096.51247  22503346.75747
  23598245.339 5  -2255032.109 5  -1043902.19146  23598241.46046
  21501307.089 6  -1722558.355 6  -1330765.50449  21501307.56549
 20  5 16  5 11 52.9990000  0  8G01G03G07G08G11G22G28G30             0.000409224
  19929397.612 7  -1230446.793 7   -938346.11349  19929398.60149
  23264451.526 1   -883488.914 1   -691378.96945  23264453.85145
  20701690.644 6  -1021038.043 6   -780448.79349  20701687.89749
  22829349.269 2   -156204.086 2   -154883.32045  22829348.21845
  20909375.128 6   -640137.805 6   -492475.59847  20909371.45247
  22502360.308 6  -1969244.801 6  -1504150.49647  22502356.69447
  23597075.480 5  -2261177.777 5  -1048691.02046  23597071.89746
  21500430.987 6  -1727160.949 6  -1334351.94149  21500431.67549
 20  5 16  5 11 53.9990000  0  8G01G03G07G08G11G22G28G30             0.000406916
  19928797.097 7  -1233602.047 7   -940804.74649  19928798.08949
  23263239.519 1   -889860.664 1   -696343.95745  23263241.66745
  20701192.097 6  -1023657.879 6   -782490.22749  20701189.18349
  22829013.769 2   -157967.777 2   -156257.63346  22829012.32746
  20909052.769 6   -641829.023 6   -493793.43047  20909049.27647
  22501370.237 6  -1974446.941 6  -1508204.11347  22501366.95247
  23595906.284 5  -2267323.418 5  -1053479.82846  23595902.31546
  21499555.331 6  -1731762.789 6  -1337937.78549  21499556.24549
 20  5 16  5 11 54.9990000  0  8G01G03G07G08G11G22G28G30             0.000404608
  19928196.784 7  -1236756.707 7   -943262.92649  19928197.32349
  23262026.987 1   -896232.340 1   -701308.93045  23262029.13645
  20700693.534 6  -1026277.145 6   -784531.21149  20700690.56949
  22828678.058 2   -159731.602 2   -157632.05545  22828676.92145
  20908731.534 6   -643520.016 6   -495111.08247  20908727.49547
  22500380.128 6  -1979648.793 6  -1512257.50047  22500377.17947
  23594736.573 5  -2273469.211 5  -1058268.75046  23594732.74146
  21498680.175 6  -1736364.121 6  -1341523.24649  21498680.55049
 20  5 16  5 11 55.9990000  0  8G01G03G07G08G11G22G28G30             0.000402300
  19927596.526 7  -1239910.910 7   -945720.74649  19927597.64049
  23260815.081 1   -902604.180 1   -706274.00845  23260816.17545
  20700195.464 6  -1028895.992 6   -786571.87549  20700192.61649
  22828342.034 3   -161495.684 3   -159006.67246  22828341.24146
  20908410.081 6   -645210.926 6   -496428.67247  20908406.06247
  22499390.151 6  -1984850.465 6  -1516310.75047  22499387.10847
  23593567.605 5  -2279615.277 5  -1063057.87946  23593563.27246
  21497804.144 6  -1740965.008 6  -1345108.34849  21497804.67149
 20  5 16  5 11 56.9990000  0  8G01G03G07G08G11G22G28G30             0.000399992
  19926996.214 7  -1243064.281 7   -948177.91849  19926997.60849
  23259602.269 1   -908975.863 1   -711238.97345  23259604.35845
  20699696.933 6  -1031514.066 6   -788611.93449  20699694.31949
  22828006.558 3   -163259.641 3   -160381.19146  22828005.48346
  20908088.073 6   -646901.383 6   -497745.91447  20908084.58947
  22498401.026 6  -1990051.660 6  -1520363.62947  22498397.07747
  23592398.237 5  -2285761.320 5  -1067847.00446  23592393.19046
  21496929.308 6  -1745565.164 6  -1348692.88349  21496928.92149
 20  5 16  5 11 57.9990000  0  8G01G03G07G08G11G22G28G30             0.000397682
  19926396.597 7  -1246217.152 7   -950634.70349  19926397.64449
  23258388.909 1   -915347.578 1   -716203.94945  23258391.33545
  20699198.589 6  -1034131.668 6   -790651.62149  20699195.93349
  22827671.620 2   -165023.773 2   -161755.83646  22827670.26146
  20907766.503 6   -648591.730 6   -499063.06647  20907762.54247
  22497411.089 6  -1995252.617 6  -1524416.32447  22497407.61247
  23591228.253 5  -2291907.527 5  -1072636.25846  23591224.11646
  21496053.347 6  -1750164.840 6  -1352277.04749  21496053.99149
 20  5 16  5 11 58.9990000  0  8G01G03G07G08G11G22G28G30             0.000395374
  19925796.620 7  -1249369.379 7   -953090.98849  19925797.81549
  23257177.753 1   -921719.328 1   -721168.94945  23257178.69045
  20698701.026 6  -1036748.680 6   -792690.84849  20698698.05049
  22827336.261 2   -166787.988 2   -163130.54746  22827334.57346
  20907444.948 6   -650281.805 6   -500380.01247  20907440.92547
  22496421.433 6  -2000453.250 6  -1528468.76247  22496418.37047
  23590058.667 5  -2298053.863 5  -1077425.61346  23590054.62446
  21495178.714 6  -1754763.918 6  -1355860.74249  21495179.10149
 20  5 16  5 11 59.9990000  0  8G01G03G07G08G11G22G28G30             0.000393066
  19925196.862 7  -1252520.918 7   -955546.73049  19925197.69849
  23255965.706 1   -928090.887 1   -726133.79745  23255966.40145
  20698203.230 6  -1039365.051 6   -794729.58249  20698200.21049
  22827000.370 2   -168552.230 2   -164505.25846  22826998.89746
  20907123.386 6   -651971.563 6   -501696.70347  20907119.35147
  22495431.948 6  -2005653.480 6  -1532520.89147  22495428.54247
  23588889.003 5  -2304200.250 5  -1082215.01246  23588884.83546
  21494303.378 6  -1759362.336 6  -1359443.92249  21494303.89749
 20  5 16  5 12  0.9990000  0  8G01G03G07G08G11G22G28G30             0.000390759
  19924597.409 7  -1255671.781 7   -958001.94949  19924598.69049
  23254752.933 1   -934462.410 1   -731098.60545  23254753.94445
  20697705.464 6  -1041980.766 6   -796767.80149  20697702.45649
  22826664.589 3   -170316.500 3   -165880.02045  22826663.05045
  20906801.886 6   -653661.031 6   -503013.16447  20906798.11647
  22494442.151 6  -2010853.336 6  -1536572.72747  22494438.73747
  23587719.136 5  -2310346.703 5  -1087004.44946  23587714.84346
  21493428.401 6  -1763960.148 6  -1363026.63749  21493429.00749
 20  5 16  5 12  1.9990000  0  8G01G03G07G08G11G22G28G30             0.000388451
  19923997.784 7  -1258821.934 7   -960456.61749  19923999.26949
  23253540.378 1   -940833.852 1   -736063.34445  23253541.58145
  20697207.698 6  -1044595.832 6   -798805.52349  20697204.67949
  22826328.136 2   -172080.715 2   -167254.73845  22826327.23745
  20906480.230 6   -655350.176 6   -504329.38347  20906476.62847
  22493453.253 6  -2016052.816 6  -1540624.27047  22493449.46447
  23586549.917 5  -2316493.234 5  -1091793.95346  23586545.28446
  21492553.722 6  -1768557.301 6  -1366608.83649  21492553.96849
 20  5 16  5 12  2.9990000  0  8G01G03G07G08G11G22G28G30             0.000386141
  19923398.425 7  -1261971.520 7   -962910.84049  19923399.48049
  23252327.737 1   -947205.355 1   -741028.13345  23252328.95245
  20696709.839 6  -1047210.363 6   -800842.82049  20696706.82349
  22825992.956 2   -173845.035 2   -168629.52346  22825991.50346
  20906159.214 6   -657039.121 6   -505645.44147  20906155.32747
  22492463.409 6  -2021251.996 6  -1544675.57447  22492460.01547
  23585379.573 5  -2322639.906 5  -1096583.55946  23585375.92146
  21491678.605 6  -1773153.980 6  -1370190.66049  21491679.23049
 20  5 16  5 12  3.9990000  0  8G01G03G07G08G11G22G28G30             0.000383833
  19922799.198 7  -1265120.559 7   -965364.63749  19922800.44049
  23251114.878 1   -953576.910 1   -745992.98845  23251116.78845
  20696212.573 6  -1049824.395 6   -802879.72749  20696209.66749
  22825656.847 3   -175609.609 3   -170004.52346  22825655.62446
  20905837.769 6   -658727.887 6   -506961.37147  20905833.58147
  22491474.190 6  -2026450.938 6  -1548726.69147  22491471.12847
  23584210.550 5  -2328786.785 5  -1101373.32846  23584206.64446
  21490804.573 6  -1777750.090 6  -1373772.04749  21490804.83549
 20  5 16  5 12  4.9990000  0  8G01G03G07G08G11G22G28G30             0.000381525
  19922200.222 7  -1268268.996 7   -967817.96549  19922201.30849
  23249903.011 1   -959948.457 1   -750957.86345  23249904.08945
  20695715.331 6  -1052437.852 6   -804916.19549  20695712.19849
  22825322.159 3   -177374.199 3   -171379.50846  22825320.20646
  20905516.214 6   -660416.434 6   -508277.12547  20905512.88647
  22490485.089 6  -2031649.586 6  -1552777.58647  22490481.67147
  23583040.253 5  -2334933.836 5  -1106163.23846  23583036.59746
  21489929.753 6  -1782345.680 6  -1377353.02349  21489930.40149
 20  5 16  5 12  5.9990000  0  8G01G03G07G08G11G22G28G30             0.000379215
  19921601.417 7  -1271416.848 7   -970270.83249  19921602.58549
  23248691.097 1   -966320.031 1   -755922.71545  23248691.67145
  20695218.292 6  -1055050.777 6   -806952.24249  20695215.10149
  22824986.175 3   -179138.914 3   -172754.60946  22824984.13246
  20905194.995 6   -662104.785 6   -509592.71947  20905191.20247
  22489495.769 6  -2036847.930 6  -1556828.25047  22489492.29247
  23581870.542 5  -2341081.027 5  -1110953.25446  23581866.85846
  21489055.034 6  -1786940.723 6  -1380933.57849  21489055.86249
 20  5 16  5 12  6.9990000  0  8G01G03G07G08G11G22G28G30             0.000376907
  19921002.245 7  -1274564.074 7   -972723.22349  19921003.25349
  23247478.425 1   -972691.543 1   -760887.50845  23247479.17945
  20694721.183 6  -1057663.090 6   -808987.80949  20694718.29249
  22824649.355 2   -180903.680 2   -174129.74246  22824648.19046
  20904874.019 6   -663792.844 6   -510908.09447  20904869.89047
  22488506.269 6  -2042045.969 6  -1560878.66847  22488503.11647
  23580701.409 5  -2347228.305 5  -1115743.34846  23580696.65546
  21488181.128 5  -1791535.199 5  -1384513.69149  21488181.64049
 20  5 16  5 12  7.9990000  0  8G01G03G07G08G11G22G28G30             0.000374599
  19920403.519 7  -1277710.449 7   -975174.94149  19920404.67549
  23246265.612 1   -979062.797 1   -765852.10545  23246266.91345
  20694224.386 6  -1060274.625 6   -811022.77349  20694221.35849
  22824314.730 3   -182668.328 3   -175504.81346  22824312.28446
  20904552.855 6   -665480.445 6   -512223.10547  20904548.97247
  22487517.292 6  -2047243.438 6  -1564928.64147  22487514.16347
  23579531.323 5  -2353375.480 5  -1120533.34846  23579527.12446
  21487307.175 6  -1796128.848 6  -1388093.16448  21487307.35548
 20  5 16  5 12  8.9990000  0  8G01G03G07G08G11G22G28G30             0.000372292
  19919804.605 7  -1280856.363 7   -977626.30149  19919805.84749
  23245053.542 1   -985434.215 1   -770816.83245  23245054.53845
  20693727.573 6  -1062885.727 6   -813057.40249  20693724.16349
  22823977.761 3   -184433.219 3   -176880.06346  22823977.05046
  20904231.753 6   -667167.969 6   -513538.06347  20904228.07347
  22486527.933 6  -2052440.754 6  -1568978.49247  22486525.15947
  23578361.831 5  -2359522.980 5  -1125323.60946  23578357.31946
  21486433.105 6  -1800722.129 6  -1391672.33649  21486433.54249
 20  5 16  5 12  9.9990000  0  8G01G03G07G08G11G22G28G30             0.000369982
  19919206.355 7  -1284001.656 7   -980077.18449  19919207.59349
  23243840.573 1   -991805.668 1   -775781.58645  23243841.65145
  20693230.425 6  -1065496.270 6   -815091.59049  20693227.35849
  22823641.878 3   -186198.203 3   -178255.37146  22823641.23746
  20903910.800 6   -668855.266 6   -514852.83647  20903907.05847
  22485539.542 6  -2057637.770 6  -1573028.12147  22485536.39047
  23577191.722 5  -2365670.598 5  -1130113.97346  23577187.58546
  21485559.331 5  -1805314.816 5  -1395251.05149  21485559.14449
 20  5 16  5 12 10.9990000  0  8G01G03G07G08G11G22G28G30             0.000367674
  19918608.034 7  -1287146.090 7   -982527.39149  19918608.96849
  23242629.120 1   -998176.781 1   -780746.10945  23242629.48345
  20692734.089 6  -1068105.973 6   -817125.13349  20692730.87449
  22823306.206 3   -187962.977 3   -179630.51646  22823305.33946
  20903589.878 6   -670542.055 6   -516167.22747  20903585.60547
  22484550.784 6  -2062834.188 6  -1577077.27747  22484547.58947
  23576021.940 5  -2371818.078 5  -1134904.21946  23576017.74146
  21484685.019 6  -1809906.684 6  -1398829.12548  21484685.64748
 20  5 16  5 12 11.9990000  0  8G01G03G07G08G11G22G28G30             0.000365366
  19918009.839 7  -1290289.922 7   -984977.13749  19918010.69049
  23241416.628 1  -1004547.914 1   -785710.62145  23241416.89045
  20692237.331 6  -1070715.168 6   -819158.27049  20692234.05049
  22822970.323 3   -189727.898 3   -181005.77346  22822969.89046
  20903268.933 6   -672228.652 6   -517481.44947  20903265.31947
  22483561.206 6  -2068030.355 6  -1581126.23847  22483558.87047
  23574851.519 5  -2377965.738 5  -1139694.60246  23574847.46446
  21483811.675 6  -1814498.023 6  -1402406.78949  21483811.88249
 20  5 16  5 12 12.9990000  0  8G01G03G07G08G11G22G28G30             0.000363058
  19917411.558 7  -1293433.109 7   -987426.37149  19917412.75349
  23240203.792 1  -1010919.039 1   -790675.13345  23240204.60145
  20691741.034 6  -1073323.703 6   -821190.89549  20691738.11249
  22822635.550 3   -191492.824 3   -182381.04346  22822634.17546
  20902948.190 6   -673914.977 6   -518795.46547  20902944.14047
  22482572.605 6  -2073226.145 6  -1585174.90247  22482569.76547
  23573682.198 5  -2384113.500 5  -1144485.06646  23573677.77646
  21482937.800 6  -1819088.758 6  -1405983.98449  21482938.68749
 20  5 16  5 12 13.9990000  0  8G01G03G07G08G11G22G28G30             0.000360748
  19916813.667 7  -1296575.629 7   -989875.09049  19916814.85549
  23238990.526 1  -1017290.090 1   -795639.59045  23238992.14445
  20691244.675 6  -1075931.645 6   -823223.05949  20691241.26949
  22822299.980 3   -193257.836 3   -183756.37546  22822298.64046
  20902627.128 6   -675600.984 6   -520109.24247  20902623.24147
  22481584.214 6  -2078421.566 6  -1589223.28547  22481581.60847
  23572512.112 5  -2390261.289 5  -1149275.54746  23572508.25746
  21482064.589 6  -1823678.863 6  -1409560.69149  21482065.15549
 20  5 16  5 12 14.9990000  0  8G01G03G07G08G11G22G28G30             0.000358440
  19916215.636 7  -1299717.598 7   -992323.37949  19916216.61649
  23237780.308 1  -1023661.176 1   -800604.07445  23237779.74145
  20690748.761 6  -1078539.074 6   -825254.82049  20690745.64049
  22821963.761 3   -195022.945 3   -185131.78146  22821962.71846
  20902305.980 6   -677286.844 6   -521422.90247  20902302.48047
  22480595.605 6  -2083616.746 6  -1593271.48047  22480592.75747
  23571342.355 5  -2396409.324 5  -1154066.21946  23571337.96846
  21481191.183 6  -1828268.461 6  -1413137.00049  21481191.96449
 20  5 16  5 12 15.9990000  0  8G01G03G07G08G11G22G28G30             0.000356131
  19915617.589 7  -1302859.020 7   -994771.23849  19915618.94049
  23236568.409 1  -1030032.328 1   -805568.58245  23236567.08145
  20690252.276 6  -1081146.000 6   -827286.19149  20690249.94849
  22821628.159 3   -196788.234 3   -186507.33646  22821626.50746
  20901985.386 6   -678972.527 6   -522736.42647  20901981.80847
  22479607.284 6  -2088811.656 6  -1597319.45347  22479604.46847
  23570172.167 5  -2402557.531 5  -1158857.01646  23570168.42946
  21480317.886 6  -1832857.574 6  -1416712.93449  21480318.70249
 20  5 16  5 12 16.9990000  0  8G01G03G07G08G11G22G28G30             0.000353823
  19915020.440 7  -1305999.781 7   -997218.58649  19915021.53849
  23235354.784 1  -1036403.438 1   -810533.04345  23235355.02645
  20689756.565 6  -1083752.289 6   -829317.07449  20689753.71049
  22821292.636 3   -198553.578 3   -187882.94146  22821290.90946
  20901664.495 6   -680657.902 6   -524049.70347  20901661.14747
  22478618.761 6  -2094006.219 6  -1601367.16847  22478615.75347
  23569002.526 5  -2408705.820 5  -1163647.91446  23568997.90946
  21479444.323 5  -1837446.070 5  -1420288.38749  21479445.41349
 20  5 16  5 12 17.9990000  0  8G01G03G07G08G11G22G28G30             0.000351515
  19914422.831 7  -1309139.980 7   -999665.49649  19914423.68749
  23234142.440 1  -1042774.516 1   -815497.52345  23234142.75745
  20689260.706 6  -1086358.051 6   -831347.53549  20689257.73349
  22820955.706 4   -200319.074 4   -189258.67246  22820954.90146
  20901344.370 6   -682343.113 6   -525362.85547  20901340.51947
  22477629.925 6  -2099200.500 6  -1605414.66447  22477626.99547
  23567832.198 5  -2414854.297 5  -1168438.94946  23567827.77246
  21478571.667 6  -1842034.039 6  -1423863.42249  21478572.61249
 20  5 16  5 12 18.9990000  0  8G01G03G07G08G11G22G28G30             0.000349205
  19913825.175 7  -1312279.527 7  -1002111.89849  19913826.08949
  23232929.651 1  -1049145.621 1   -820462.03545  23232930.04645
  20688764.917 6  -1088963.246 6   -833377.55549  20688761.99149
  22820619.558 4   -202084.586 4   -190634.39846  22820619.23046
  20901023.620 6   -684028.070 6   -526675.80947  20901020.34747
  22476642.261 6  -2104394.473 6  -1609461.91847  22476638.96847
  23566662.167 5  -2421002.891 5  -1173230.05146  23566658.12846
  21477698.425 5  -1846621.387 5  -1427437.98449  21477698.75749
 20  5 16  5 12 19.9990000  0  8G01G03G07G08G11G22G28G30             0.000346897
  19913227.730 7  -1315418.449 7  -1004557.81349  19913228.70249
  23231717.698 1  -1055516.680 1   -825426.45345  23231718.31245
  20688269.151 6  -1091567.828 6   -835407.10249  20688266.51549
  22820283.831 4   -203850.188 4   -192010.18446  22820283.54246
  20900702.433 6   -685712.738 6   -527988.53547  20900699.20647
  22475653.503 6  -2109588.090 6  -1613508.88347  22475650.71847
  23565492.323 5  -2427151.566 5  -1178021.22346  23565488.54246
  21476825.386 5  -1851208.184 5  -1431012.10549  21476826.17549
 20  5 16  5 12 20.9990000  0  8G01G03G07G08G11G22G28G30             0.000344589
  19912630.878 7  -1318556.746 7  -1007003.24249  19912631.70249
  23230506.308 1  -1061887.758 1   -830390.88345  23230505.48345
  20687773.589 6  -1094171.840 6   -837436.20349  20687770.76549
  22819947.870 3   -205615.895 3   -193386.05946  22819947.57746
  20900382.292 6   -687397.184 6   -529301.09047  20900378.83147
  22474665.550 6  -2114781.406 6  -1617555.62147  22474662.10147
  23564322.081 5  -2433300.391 5  -1182812.49646  23564318.15946
  21475952.605 6  -1855794.414 6  -1434585.79349  21475953.75349
 20  5 16  5 12 21.9990000  0  8G01G03G07G08G11G22G28G30             0.000342279
  19912033.433 7  -1321694.328 7  -1009448.10549  19912034.75749
  23229293.378 1  -1068258.695 1   -835355.26245  23229293.10145
  20687278.440 6  -1096775.188 6   -839464.78949  20687275.53849
  22819612.659 3   -207381.555 3   -194761.89146  22819611.73346
  20900061.605 6   -689081.270 6   -530613.37147  20900058.10847
  22473676.745 6  -2119974.273 6  -1621602.01247  22473674.16747
  23563151.948 5  -2439449.227 5  -1187603.78546  23563148.06546
  21475080.386 6  -1860379.988 6  -1438158.96949  21475081.08149
 20  5 16  5 12 22.9990000  0  8G01G03G07G08G11G22G28G30             0.000339970
  19911436.730 7  -1324831.270 7  -1011892.47749  19911437.90149
  23228080.698 1  -1074629.605 1   -840319.60945  23228080.58945
  20686783.065 6  -1099377.930 6   -841492.89849  20686780.04649
  22819276.542 3   -209147.254 3   -196137.75446  22819275.57746
  20899741.440 6   -690765.133 6   -531925.47347  20899737.87447
  22472689.167 6  -2125166.828 6  -1625648.16047  22472686.28047
  23561981.706 5  -2445598.191 5  -1192395.19546  23561978.10546
  21474208.011 6  -1864964.938 6  -1441731.65649  21474208.44849
 20  5 16  5 12 23.9990000  0  8G01G03G07G08G11G22G28G30             0.000337662
  19910840.026 7  -1327967.555 7  -1014336.33649  19910840.92549
  23226868.651 1  -1081000.395 1   -845283.86345  23226867.97645
  20686287.886 6  -1101980.055 6   -843520.53149  20686285.36649
  22818940.300 3   -210912.961 3   -197513.64546  22818939.91346
  20899420.636 6   -692448.641 6   -533237.30547  20899417.33547
  22471701.128 6  -2130358.984 6  -1629693.98047  22471698.07347
  23560812.292 6  -2451747.227 6  -1197186.64846  23560808.01546
  21473335.448 6  -1869549.266 6  -1445303.85949  21473336.56549
 20  5 16  5 12 24.9990000  0  8G01G03G07G08G11G22G28G30             0.000335354
  19910243.409 7  -1331103.082 7  -1016779.60549  19910244.32349
  23225657.417 1  -1087371.086 1   -850248.05145  23225656.15545
  20685792.995 6  -1104581.480 6   -845547.61349  20685790.26549
  22818603.550 3   -212678.699 3   -198889.55146  22818604.09346
  20899100.792 6   -694131.879 6   -534548.91447  20899097.21847
  22470713.448 6  -2135550.727 6  -1633739.49647  22470710.22247
  23559641.964 6  -2457896.254 6  -1201978.11746  23559637.78046
  21472463.378 6  -1874132.934 6  -1448875.54749  21472464.33549
 20  5 16  5 12 25.9990000  0  8G01G03G07G08G11G22G28G30             0.000333044
  19909646.331 7  -1334237.891 7  -1019222.31649  19909647.28049
  23224444.644 1  -1093741.582 1   -855212.08245  23224443.45245
  20685298.378 6  -1107182.211 6   -847574.15649  20685295.15549
  22818267.175 4   -214444.371 4   -200265.41046  22818267.98746
  20898780.612 6   -695814.668 6   -535860.18047  20898777.30447
  22469725.839 6  -2140742.008 6  -1637784.65647  22469722.69847
  23558471.925 6  -2464045.297 6  -1206769.57846  23558467.96846
  21471590.980 6  -1878715.902 6  -1452446.68849  21471591.81549
 20  5 16  5 12 26.9990000  0  8G01G03G07G08G11G22G28G30             0.000330736
  19909050.261 7  -1337371.973 7  -1021664.46149  19909051.42149
  23223232.855 1  -1100112.035 1   -860176.04745  23223231.35545
  20684803.628 6  -1109782.293 6   -849600.19549  20684800.43749
  22817930.940 3   -216210.051 3   -201641.26246  22817932.64046
  20898460.269 6   -697497.168 6   -537171.21947  20898456.94447
  22468736.964 6  -2145932.891 6  -1641829.50047  22468734.34747
  23557301.495 5  -2470194.371 5  -1211561.06346  23557298.17946
  21470719.011 6  -1883298.207 6  -1456017.31348  21470719.62848
 20  5 16  5 12 27.9990000  0  8G01G03G07G08G11G22G28G30             0.000328428
  19908453.901 7  -1340505.539 7  -1024106.19549  19908455.09349
  23222021.198 1  -1106482.484 1   -865140.00445  23222018.79645
  20684308.089 6  -1112381.887 6   -851625.84849  20684306.04249
  22817595.761 4   -217975.855 4   -203017.20746  22817596.48346
  20898140.198 6   -699179.512 6   -538482.14147  20898137.17547
  22467749.605 6  -2151123.543 6  -1645874.16047  22467746.85847
  23556131.519 6  -2476343.652 6  -1216352.69946  23556127.50746
  21469847.456 6  -1887880.023 6  -1459587.55949  21469847.66749
 20  5 16  5 12 28.9990000  0  8G01G03G07G08G11G22G28G30             0.000326118
  19907857.269 7  -1343638.539 7  -1026547.49649  19907858.62849
  23220809.058 1  -1112853.129 1   -870104.16045  23220806.73345
  20683813.526 6  -1114980.941 6   -853651.08249  20683811.21849
  22817260.261 3   -219741.852 3   -204393.32046  22817261.14746
  20897820.175 6   -700861.695 6   -539792.93847  20897816.92547
  22466762.323 6  -2156313.902 6  -1649918.59847  22466758.83547
  23554960.823 5  -2482493.102 5  -1221144.47746  23554957.85146
  21468975.698 6  -1892461.340 6  -1463157.41049  21468976.46449
 20  5 16  5 12 29.9990000  0  8G01G03G07G08G11G22G28G30             0.000323811
  19907261.675 7  -1346770.891 7  -1028988.29349  19907262.74949
  23219597.331 1  -1119223.547 1   -875068.11745  23219594.31545
  20683319.019 6  -1117579.387 6   -855675.83649  20683316.90549
  22816923.230 3   -221507.859 3   -205769.41846  22816925.30846
  20897500.019 6   -702543.566 6   -541103.49247  20897497.14447
  22465774.440 6  -2161503.949 6  -1653962.78547  22465771.74147
  23553791.073 5  -2488642.680 5  -1225936.36346  23553787.40946
  21468103.792 6  -1897042.039 6  -1466726.78949  21468104.56949
 20  5 16  5 12 30.9990000  0  8G01G03G07G08G11G22G28G30             0.000321501
  19906665.636 7  -1349902.586 7  -1031428.57449  19906666.78049
  23218385.503 1  -1125593.977 1   -880032.08645  23218382.06245
  20682824.901 6  -1120177.219 6   -857700.12549  20682822.73049
  22816587.245 3   -223273.906 3   -207145.56646  22816589.15146
  20897180.190 6   -704225.152 6   -542413.81647  20897176.96847
  22464786.831 6  -2166693.605 6  -1658006.66847  22464783.96847
  23552620.284 5  -2494792.293 5  -1230728.26646  23552617.10546
  21467232.659 6  -1901622.102 6  -1470295.66849  21467233.18349
 20  5 16  5 12 31.9990000  0  8G01G03G07G08G11G22G28G30             0.000319193
  19906069.690 7  -1353033.656 7  -1033868.37549  19906070.97249
  23217173.550 1  -1131964.414 1   -884996.07445  23217169.76545
  20682330.487 6  -1122774.488 6   -859723.97349  20682328.33149
  22816252.480 3   -225040.047 3   -208521.77746  22816253.66346
  20896860.448 6   -705906.547 6   -543723.98847  20896857.04647
  22463799.433 6  -2171882.977 6  -1662050.33247  22463796.39447
  23551450.464 5  -2500942.105 5  -1235520.32446  23551447.14046
  21466361.542 6  -1906201.641 6  -1473864.13748  21466361.55848
 20  5 16  5 12 32.9990000  0  8G01G03G07G08G11G22G28G30             0.000316883
  19905473.870 7  -1356164.098 7  -1036307.68049  19905475.27649
  23215960.409 1  -1138334.832 1   -889960.03545  23215957.64445
  20681836.276 6  -1125371.152 6   -861747.35949  20681834.20249
  22815916.230 4   -226806.277 4   -209898.07046  22815917.60146
  20896539.980 6   -707587.645 6   -545033.93847  20896537.12047
  22462811.706 6  -2177071.977 6  -1666093.69947  22462808.57347
  23550279.917 5  -2507091.980 5  -1240312.44946  23550276.95646
  21465489.847 6  -1910780.566 6  -1477432.13348  21465490.32348
 20  5 16  5 12 33.9990000  0  8G01G03G07G08G11G22G28G30             0.000314575
  19904878.714 7  -1359293.777 7  -1038746.39149  19904879.46449
  23214747.925 1  -1144705.012 1   -894923.78145  23214745.23745
  20681342.534 6  -1127967.113 6   -863770.18449  20681340.19049
  22815579.120 3   -228572.426 3   -211274.31346  22815581.66746
  20896220.370 6   -709268.379 6   -546343.60947  20896216.93747
  22461824.151 6  -2182260.539 6  -1670136.73847  22461821.19847
  23549110.800 5  -2513241.859 5  -1245104.56346  23549106.37446
  21464618.487 6  -1915358.805 6  -1480999.59448  21464619.00348
 20  5 16  5 12 34.9990000  0  8G01G03G07G08G11G22G28G30             0.000312267
  19904283.370 7  -1362422.781 7  -1041184.57849  19904284.31249
  23213536.940 1  -1151075.117 1   -899887.47745  23213533.01145
  20680848.511 6  -1130562.430 6   -865792.51249  20680846.72249
  22815243.456 3   -230338.625 3   -212650.58646  22815245.73746
  20895900.503 6   -710948.820 6   -547653.04347  20895897.44047
  22460836.784 6  -2187448.695 6  -1674179.46147  22460833.60547
  23547939.425 5  -2519391.785 5  -1249896.71146  23547936.23746
  21463747.862 6  -1919936.387 6  -1484566.53948  21463747.55448
 20  5 16  5 12 35.9990000  0  8G01G03G07G08G11G22G28G30             0.000309958
  19903688.159 7  -1365551.078 7  -1043622.20749  19903689.43749
  23212326.394 1  -1157445.164 1   -904851.14845  23212320.89445
  20680354.722 6  -1133157.090 6   -867814.32849  20680352.55449
  22814906.964 3   -232104.797 3   -214026.82846  22814910.33946
  20895580.901 6   -712628.922 6   -548962.21147  20895577.58547
  22459849.987 6  -2192636.457 6  -1678221.87947  22459846.55847
  23546769.386 5  -2525541.777 5  -1254688.90646  23546765.67146
  21462876.237 6  -1924513.340 6  -1488133.00048  21462876.69848
 20  5 16  5 12 36.9990000  0  8G01G03G07G08G11G22G28G30             0.000307650
  19903092.933 7  -1368678.715 7  -1046059.32449  19903093.87849
  23211114.722 1  -1163815.219 1   -909814.84045  23211108.39445
  20679861.386 6  -1135751.109 6   -869835.64149  20679859.20649
  22814570.683 3   -233870.969 3   -215403.04746  22814574.10546
  20895261.245 6   -714308.762 6   -550271.16847  20895258.03047
  22458862.464 6  -2197823.844 6  -1682263.99247  22458859.24147
  23545599.300 5  -2531691.836 5  -1259481.15646  23545595.69446
  21462006.339 6  -1929089.633 6  -1491698.94149  21462005.18349
 20  5 16  5 12 37.9990000  0  8G01G03G07G08G11G22G28G30             0.000305340
  19902497.901 7  -1371805.793 7  -1048496.00449  19902499.01949
  23209902.550 1  -1170185.117 1   -914778.38345  23209896.60145
  20679368.089 6  -1138344.613 6   -871856.56349  20679365.48749
  22814234.573 3   -235637.273 3   -216779.40646  22814238.16346
  20894941.526 6   -715988.371 6   -551579.95347  20894938.43347
  22457875.511 6  -2203010.965 6  -1686305.89847  22457872.62047
  23544428.269 5  -2537842.051 5  -1264273.53146  23544425.30446
  21461135.230 6  -1933665.422 6  -1495264.48849  21461134.57349
 20  5 16  5 12 38.9990000  0  8G01G03G07G08G11G22G28G30             0.000303032
  19901902.878 7  -1374932.391 7  -1050932.31649  19901903.67549
  23208690.355 1  -1176555.281 1   -919742.16045  23208684.37045
  20678874.276 6  -1140937.699 6   -873877.15249  20678872.18749
  22813898.058 2   -237403.840 2   -218155.95746  22813902.17146
  20894621.605 6   -717667.918 6   -552888.69147  20894618.62447
  22456888.636 6  -2208197.895 6  -1690347.66447  22456885.21047
  23543258.003 5  -2543992.535 5  -1269066.12146  23543255.06546
  21460264.480 6  -1938240.801 6  -1498829.71949  21460264.01149
 20  5 16  5 12 39.9990000  0  8G01G03G07G08G11G22G28G30             0.000300722
  19901308.097 7  -1378058.320 7  -1053368.11349  19901309.08149
  23207479.026 1  -1182925.363 1   -924705.85245  23207471.65545
  20678380.644 6  -1143530.148 6   -875897.23849  20678378.72649
  22813561.480 3   -239170.395 3   -219532.48846  22813566.11646
  20894302.042 6   -719347.164 6   -554197.19547  20894299.32347
  22455901.565 6  -2213384.473 6  -1694389.14847  22455898.48047
  23542087.519 5  -2550143.152 5  -1273858.80546  23542084.83146
  21459393.948 6  -1942815.551 6  -1502394.46149  21459393.51149
 20  5 16  5 12 40.9990000  0  8G01G03G07G08G11G22G28G30             0.000298414
  19900713.136 7  -1381183.773 7  -1055803.53149  19900714.47249
  23206268.105 1  -1189295.535 1   -929669.60545  23206259.96045
  20677887.800 6  -1146122.141 6   -877916.97349  20677885.65549
  22813224.940 2   -240937.230 2   -220909.23446  22813229.93346
  20893982.925 6   -721026.297 6   -555505.61747  20893979.95247
  22454914.097 6  -2218570.867 6  -1698430.49647  22454910.92947
  23540917.214 5  -2556293.961 5  -1278651.66046  23540914.03046
  21458523.394 6  -1947389.859 6  -1505958.85949  21458522.65949
 20  5 16  5 12 41.9990000  0  8G01G03G07G08G11G22G28G30             0.000296104
  19900118.784 7  -1384308.488 7  -1058238.37149  19900119.62449
  23205055.683 1  -1195665.563 1   -934633.22345  23205047.86245
  20677394.526 6  -1148713.461 6   -879936.18849  20677392.47649
  22812889.370 2   -242704.012 2   -222285.92646  22812893.44046
  20893663.300 6   -722705.094 6   -556813.77747  20893660.03847
  22453927.503 6  -2223756.809 6  -1702471.47747  22453924.21447
  23539746.565 5  -2562444.793 5  -1283444.51246  23539743.49546
  21457653.042 6  -1951963.500 6  -1509522.73449  21457652.65149
 20  5 16  5 12 42.9990000  0  8G01G03G07G08G11G22G28G30             0.000293797
  19899524.245 7  -1387432.516 7  -1060672.68049  19899525.26149
  23203843.331 1  -1202035.527 1   -939596.78145  23203836.10145
  20676901.409 6  -1151304.145 6   -881954.90249  20676899.41349
  22812552.605 2   -244470.758 2   -223662.61345  22812557.89445
  20893344.058 6   -724383.570 6   -558121.68447  20893341.14047
  22452940.761 6  -2228942.367 6  -1706512.17247  22452937.07747
  23538576.503 5  -2568595.691 5  -1288237.42246  23538573.15546
  21456782.901 6  -1956536.477 6  -1513086.09049  21456782.27249
 20  5 16  5 12 43.9990000  0  8G01G03G07G08G11G22G28G30             0.000291487
  19898929.839 7  -1390555.883 7  -1063106.47349  19898930.96049
  23202631.769 1  -1208405.426 1   -944560.37145  23202624.14745
  20676408.675 6  -1153894.227 6   -883973.14849  20676406.81249
  22812216.284 2   -246237.574 2   -225039.37145  22812221.55845
  20893024.519 6   -726061.777 6   -559429.37947  20893021.77647
  22451954.347 6  -2234127.586 6  -1710552.60547  22451950.56947
  23537405.456 5  -2574746.684 5  -1293030.39846  23537402.46846
  21455913.362 6  -1961108.859 6  -1516648.99249  21455912.26549
 20  5 16  5 12 44.9990000  0  8G01G03G07G08G11G22G28G30             0.000289177
  19898335.792 7  -1393678.668 7  -1065539.80949  19898336.74149
  23201418.519 1  -1214775.332 1   -949523.93045  23201411.39745
  20675915.722 6  -1156483.730 6   -885990.93849  20675914.13249
  22811879.940 2   -248004.516 2   -226416.24645  22811885.45245
  20892705.776 6   -727739.754 6   -560736.89147  20892702.38647
  22450967.612 6  -2239312.484 6  -1714592.79347  22450964.08547
  23536235.058 5  -2580897.793 5  -1297823.47746  23536232.47246
  21455042.917 6  -1965680.672 6  -1520211.44949  21455041.93749
 20  5 16  5 12 45.9990000  0  8G01G03G07G08G11G22G28G30             0.000286869
  19897741.480 7  -1396800.828 7  -1067972.66449  19897742.55049
  23200206.620 1  -1221145.188 1   -954487.44545  23200199.48345
  20675423.073 6  -1159072.660 6   -888008.28949  20675421.34349
  22811543.362 2   -249771.527 2   -227793.12945  22811549.10845
  20892385.698 6   -729417.488 6   -562044.21147  20892382.87047
  22449981.214 6  -2244497.066 6  -1718632.73047  22449977.47247
  23535064.909 5  -2587049.047 5  -1302616.66046  23535061.92946
  21454173.487 6  -1970251.926 6  -1523773.46549  21454172.20649
 20  5 16  5 12 46.9990000  0  8G01G03G07G08G11G22G28G30             0.000284561
  19897147.362 7  -1399922.234 7  -1070404.93049  19897148.72249
  23198993.987 1  -1227514.922 1   -959450.86745  23198987.30845
  20674930.183 6  -1161660.875 6   -890025.08249  20674928.52249
  22811207.339 2   -251538.445 2   -229169.94145  22811212.92545
  20892066.784 6   -731094.859 6   -563351.25447  20892063.69447
  22448994.534 6  -2249681.172 6  -1722672.30147  22448990.88247
  23533894.925 5  -2593200.281 5  -1307409.83246  23533891.30846
  21453303.698 6  -1974822.484 6  -1527334.94149  21453302.35549
 20  5 16  5 12 47.9990000  0  8G01G03G07G08G11G22G28G30             0.000282251
  19896553.862 7  -1403042.945 7  -1072836.64849  19896554.50349
  23197782.964 1  -1233884.527 1   -964414.20345  23197775.10545
  20674438.698 6  -1164248.445 6   -892041.36749  20674436.37049
  22810870.925 2   -253305.434 2   -230546.81345  22810877.15545
  20891747.550 6   -732771.906 6   -564658.03547  20891744.77247
  22448008.597 6  -2254864.902 6  -1726711.57047  22448004.37847
  23532724.237 5  -2599351.582 5  -1312203.04746  23532720.93746
  21452433.839 6  -1979392.359 6  -1530895.88749  21452432.57749
 20  5 16  5 12 48.9990000  0  8G01G03G07G08G11G22G28G30             0.000279942
  19895959.972 7  -1406162.969 7  -1075267.83649  19895960.87449
  23196571.292 1  -1240254.027 1   -969377.45345  23196563.19045
  20673946.253 6  -1166835.391 6   -894057.17649  20673943.70249
  22810534.206 2   -255072.391 2   -231923.68045  22810540.89045
  20891428.542 6   -734448.691 6   -565964.62147  20891425.67547
  22447021.651 6  -2260048.227 6  -1730750.52047  22447017.42147
  23531553.597 5  -2605502.906 5  -1316996.28546  23531550.60846
  21451564.675 6  -1983961.625 6  -1534456.35549  21451563.10149
 20  5 16  5 12 49.9990000  0  8G01G03G07G08G11G22G28G30             0.000277634
  19895366.620 7  -1409282.535 7  -1077698.66849  19895367.39449
  23195359.464 1  -1246623.680 1   -974340.79345  23195350.89045
  20673454.019 6  -1169421.902 6   -896072.63349  20673451.55849
  22810198.433 2   -256839.645 2   -233300.75046  22810204.55446
  20891109.308 6   -736125.320 6   -567271.09447  20891106.28047
  22446035.440 6  -2265231.398 6  -1734789.34847  22446031.37047
  23530382.480 5  -2611654.551 5  -1321789.77746  23530379.85846
  21450694.980 6  -1988530.461 6  -1538016.48849  21450693.59749
 20  5 16  5 12 50.9990000  0  8G01G03G07G08G11G22G28G30             0.000275324
  19894773.058 7  -1412401.406 7  -1080128.95749  19894774.24949
  23194147.409 1  -1252993.273 1   -979304.10945  23194138.83545
  20672961.683 6  -1172007.770 6   -898087.60249  20672959.55449
  22809862.761 2   -258606.813 2   -234677.76245  22809868.46045
  20890790.323 6   -737801.672 6   -568577.34447  20890787.48347
  22445049.565 6  -2270414.156 6  -1738827.85947  22445045.16347
  23529211.901 5  -2617806.246 5  -1326583.30547  23529209.01947
  21449825.370 6  -1993098.656 6  -1541576.11749  21449824.11649
 20  5 16  5 12 51.9990000  0  8G01G03G07G08G11G22G28G30             0.000273016
  19894179.628 7  -1415519.672 7  -1082558.77349  19894180.33949
  23192935.081 1  -1259362.844 1   -984267.41445  23192927.26945
  20672469.776 6  -1174593.055 6   -900102.10549  20672467.88249
  22809526.425 2   -260374.164 2   -236054.92645  22809532.28445
  20890471.612 6   -739477.805 6   -569883.41847  20890468.55847
  22444062.870 6  -2275596.625 6  -1742866.14147  22444059.48047
  23528041.253 5  -2623958.066 5  -1331376.93447  23528038.48347
  21448956.667 6  -1997666.301 6  -1545135.32849  21448954.77249
 20  5 16  5 12 52.9990000  0  8G01G03G07G08G11G22G28G30             0.000270706
  19893586.378 7  -1418637.188 7  -1084988.00449  19893587.24949
  23191723.050 1  -1265732.227 1   -989230.55545  23191715.05845
  20671978.058 6  -1177177.625 6   -902116.05949  20671976.17549
  22809190.675 1   -262141.367 1   -237431.95745  22809196.04245
  20890152.636 6   -741153.523 6   -571189.18047  20890149.89047
  22443076.909 6  -2280778.594 6  -1746904.03947  22443073.01947
  23526869.972 5  -2630109.848 5  -1336170.53146  23526868.21446
  21448087.792 6  -2002233.199 6  -1548693.95349  21448085.89749
 20  5 16  5 12 53.9990000  0  8G01G03G07G08G11G22G28G30             0.000268398
  19892993.261 7  -1421754.133 7  -1087416.79749  19892994.20649
  23190510.956 1  -1272101.645 1   -994193.71545  23190503.08145
  20671486.175 6  -1179761.691 6   -904129.61749  20671484.11649
  22808853.745 1   -263908.754 1   -238809.14845  22808859.47245
  20889833.480 6   -742829.109 6   -572494.82847  20889830.77647
  22442091.011 6  -2285960.328 6  -1750941.76247  22442086.72647
  23525699.589 5  -2636261.818 5  -1340964.27246  23525697.45646
  21447218.503 6  -2006799.609 6  -1552252.19549  21447216.77249
 20  5 16  5 12 54.9990000  0  8G01G03G07G08G11G22G28G30             0.000266088
  19892400.190 7  -1424870.473 7  -1089845.11349  19892401.36249
  23189299.456 1  -1278471.055 1   -999156.88745  23189291.05445
  20670994.503 6  -1182345.211 6   -906142.75049  20670992.41749
  22808517.855 1   -265676.266 1   -240186.41445  22808523.34345
  20889514.855 6   -744504.434 6   -573800.27347  20889511.91747
  22441105.050 6  -2291141.702 6  -1754979.19847  22441101.06547
  23524528.948 5  -2642413.965 5  -1345758.15247  23524526.73747
  21446349.284 6  -2011365.469 6  -1555810.00849  21446348.22649
 20  5 16  5 12 55.9990000  0  8G01G03G07G08G11G22G28G30             0.000263779
  19891807.331 7  -1427986.230 7  -1092272.97749  19891808.46049
  23188087.644 1  -1284840.531 1  -1004120.13745  23188079.12445
  20670503.323 6  -1184928.129 6   -908155.41049  20670501.13649
  22808180.925 1   -267443.859 1   -241563.75445  22808186.89045
  20889195.847 6   -746179.551 6   -575105.55147  20889193.09747
  22440118.948 6  -2296322.840 6  -1759016.44947  22440115.24147
  23523358.511 6  -2648566.207 6  -1350552.09447  23523355.80847
  21445480.690 6  -2015930.762 6  -1559367.38749  21445479.18749
 20  5 16  5 12 56.9990000  0  8G01G03G07G08G11G22G28G30             0.000261471
  19891214.605 7  -1431101.281 7  -1094700.28949  19891215.45649
  23186876.409 1  -1291209.793 1  -1009083.19145  23186867.24545
  20670011.940 6  -1187510.438 6   -910167.59849  20670009.97249
  22807844.409 1   -269211.398 1   -242941.08645  22807850.39045
  20888877.706 6   -747854.367 6   -576410.60547  20888874.80047
  22439133.206 6  -2301503.555 6  -1763053.36747  22439129.11247
  23522187.815 6  -2654718.512 6  -1355346.09847  23522185.29647
  21444612.261 6  -2020495.438 6  -1562924.27349  21444610.59349
 20  5 16  5 12 57.9990000  0  8G01G03G07G08G11G22G28G30             0.000259151
  19890621.722 7  -1434215.504 7  -1097126.95749  19890622.57749
  23185664.71411                  -1014046.07055  23185654.96455
  20669520.245 6  -1190091.945 6   -912179.16449  20669518.50749
  22807508.651 1   -270978.859 1   -244318.30545  22807514.24545
  20888558.800 6   -749528.688 6   -577715.26247  20888555.73747
  22438147.323 6  -2306683.727 6  -1767089.86747  22438143.39047
  23521017.112 6  -2660870.746 6  -1360140.04746  23521014.06546
  21443743.722 6  -2025059.297 6  -1566480.53149  21443741.56549
 20  5 16  5 12 58.9990000  0  8G01G03G07G08G11G22G28G30             0.000256842
  19890029.753 7  -1437329.188 7  -1099553.20349  19890030.19449
  23184452.956 1                  -1019009.05545  23184443.32345
  20669029.636 6  -1192672.957 6   -914190.34849  20669027.12049
  22807172.190 1   -272746.461 1   -245695.65245  22807178.06945
  20888240.323 6   -751202.887 6   -579019.83247  20888237.30847
  22437161.659 6  -2311863.656 6  -1771126.17247  22437157.41347
  23519846.690 6  -2667023.133 6  -1364934.11346  23519843.85546
  21442875.714 6  -2029622.668 6  -1570036.40249  21442873.20249
 20  5 16  5 12 59.9990000  0  8G01G03G07G08G11G22G28G30             0.000254534
  19889437.081 7  -1440442.301 7  -1101979.00849  19889437.88649
  23183242.46411                  -1023972.02055  23183231.36655
  20668538.073 6  -1195253.422 6   -916201.09849  20668536.22249
  22806835.870 1   -274514.156 1   -247073.03545  22806841.98345
  20887921.362 6   -752876.863 6   -580324.23847  20887918.66747
  22436176.120 6  -2317043.305 6  -1775162.26647  22436172.14447
  23518675.714 6  -2673175.734 6  -1369728.34447  23518672.67147
  21442006.956 6  -2034185.504 6  -1573591.86349  21442005.40949
 20  5 16  5 13  0.9990000  0  8G01G03G07G08G11G22G28G30             0.000252224
  19888844.542 7  -1443554.633 7  -1104404.20349  19888845.67549
  23182030.57311  -1316686.21911  -1028934.87955  23182019.30055
  20668047.464 6  -1197833.172 6   -918211.29749  20668045.05449
  22806499.730 2   -276281.832 2   -248450.44145  22806504.88245
  20887603.167 6   -754550.488 6   -581628.35547  20887600.42547
  22435190.487 6  -2322222.465 6  -1779197.97747  22435186.42947
  23517504.784 6  -2679328.246 6  -1374522.50846  23517502.07746
  21441139.105 6  -2038747.617 6  -1577146.76249  21441136.97249
 20  5 16  5 13  1.9990000  0  8G01G03G07G08G11G22G28G30             0.000249926
  19888252.862 7  -1446666.262 7  -1106828.84449  19888253.59349
  23180820.245 1  -1323055.066 1  -1033897.55545  23180807.80045
  20667556.862 6  -1200412.270 6   -920220.98049  20667554.15549
  22806163.167 2   -278049.523 2   -249827.91045  22806168.19045
  20887284.784 6   -756223.734 6   -582932.18847  20887281.86247
  22434205.136 6  -2327401.234 6  -1783233.37947  22434200.82747
  23516334.519 6  -2685480.855 6  -1379316.76647  23516331.49147
  21440270.995 6  -2043309.082 6  -1580701.14549  21440268.99549
 20  5 16  5 13  2.9990000  0  8G01G03G07G08G11G22G28G30             0.000247606
  19887660.698 7  -1449777.441 7  -1109253.13749  19887661.30449
  23179608.73011                  -1038860.48855  23179595.51955
  20667066.292 6  -1202990.934 6   -922230.33649  20667063.85849
  22805826.855 1   -279817.355 1   -251205.42645  22805832.44445
  20886966.487 6   -757896.945 6   -584235.98847  20886963.54647
  22433219.987 6  -2332579.813 6  -1787268.63747  22433215.22247
  23515163.128 6  -2691633.723 6  -1384111.20747  23515160.33147
  21439403.378 6  -2047870.109 6  -1584255.19549  21439401.14749
 20  5 16  5 13  3.9990000  0  8G01G03G07G08G11G22G28G30             0.000245296
  19887068.862 7  -1452887.984 7  -1111676.93849  19887069.36249
  23178395.300 1                  -1043823.27045  23178383.49945
  20666575.347 6  -1205569.035 6   -924239.24649  20666572.87849
  22805490.503 2   -281585.363 2   -252583.10245  22805495.55845
  20886648.081 6   -759569.887 6   -585539.58247  20886644.85847
  22432234.261 6  -2337758.086 6  -1791303.65247  22432230.22647
  23513992.956 6  -2697786.715 6  -1388905.74647  23513989.80047
  21438535.292 6  -2052430.594 6  -1587808.81649  21438533.17549
 20  5 16  5 13  4.9990000  0  8G01G03G07G08G11G22G28G30             0.000242987
  19886476.667 7  -1455997.910 7  -1114100.25449  19886477.73749
  23177183.93311                  -1048786.09455  23177171.83955
  20666084.722 6  -1208146.516 6   -926247.67249  20666082.50349
  22805153.058 2   -283353.352 2   -253960.75845  22805159.29245
  20886330.019 6   -761242.566 6   -586842.97347  20886326.99147
  22431248.425 6  -2342936.000 6  -1795338.38747  22431244.83547
  23512821.495 6  -2703939.797 6  -1393700.35247  23512818.61647
  21437667.628 6  -2056990.434 6  -1591361.94549  21437665.74149
 20  5 16  5 13  5.9990000  0  8G01G03G07G08G11G22G28G30             0.000240679
  19885885.112 7  -1459107.195 7  -1116523.07449  19885886.14449
  23175972.60511                  -1053748.84855  23175959.74555
  20665594.815 6  -1210723.457 6   -928255.68049  20665592.10549
  22804817.526 2   -285121.461 2   -255338.46545  22804823.16745
  20886011.081 6   -762915.027 6   -588146.19547  20886008.72647
  22430263.839 6  -2348113.590 6  -1799372.87947  22430259.81947
  23511650.730 6  -2710092.992 6  -1398495.05146  23511647.67546
  21436799.995 6  -2061549.734 6  -1594914.64549  21436797.85549
 20  5 16  5 13  6.9990000  0  8G01G03G07G08G11G22G28G30             0.000238369
  19885293.730 7  -1462215.770 7  -1118945.34849  19885294.56249
  23174759.276 1  -1354899.777 1  -1058711.60545  23174748.23745
  20665104.472 6  -1213299.707 6   -930263.14849  20665101.89449
  22804480.503 2   -286889.484 2   -256716.11745  22804486.55445
  20885693.308 6   -764587.137 6   -589449.13347  20885690.56547
  22429278.526 6  -2353290.777 6  -1803407.05147  22429274.52647
  23510479.480 6  -2716246.250 6  -1403289.79347  23510476.71047
  21435932.855 6  -2066108.348 6  -1598466.81649  21435930.23749
 20  5 16  5 13  7.9990000  0  8G01G03G07G08G11G22G28G30             0.000236071
  19884702.089 7  -1465323.527 7  -1121366.97349  19884702.79649
  23173546.855 1  -1361268.352 1  -1063674.12145  23173536.34345
  20664614.128 6  -1215875.180 6   -932270.01649  20664611.52249
  22804144.284 2   -288657.441 2   -258093.76645  22804149.79645
  20885375.105 6   -766258.789 6   -590751.71947  20885372.30047
  22428293.386 6  -2358467.422 6  -1807440.80547  22428289.28047
  23509309.284 6  -2722399.383 6  -1408084.43047  23509306.04647
  21435065.776 6  -2070666.207 6  -1602018.39149  21435063.03849
 20  5 16  5 13  8.9990000  0  8G01G03G07G08G11G22G28G30             0.000233763
  19884110.886 7  -1468430.727 7  -1123788.16849  19884111.74949
  23172335.495 1  -1367636.922 1  -1068636.66845  23172324.10545
  20664124.690 6  -1218450.109 6   -934276.45349  20664122.21449
  22803808.011 2   -290425.527 2   -259471.50845  22803813.30445
  20885057.276 6   -767930.266 6   -592054.17247  20885053.91747
  22427307.964 6  -2363643.758 6  -1811474.31647  22427304.48047
  23508138.300 6  -2728552.711 6  -1412879.23846  23508135.23346
  21434198.636 6  -2075223.508 6  -1605569.54349  21434195.87049
 20  5 16  5 13  9.9990000  0  8G01G03G07G08G11G22G28G30             0.000231441
  19883519.987 7  -1471537.180 7  -1126208.77749  19883520.93349
  23171120.87011                  -1073599.07855  23171112.58555
  20663634.378 6  -1221024.371 6   -936282.37549  20663631.78849
  22803471.706 2   -292193.582 2   -260849.18845  22803477.17945
  20884738.948 6   -769601.398 6   -593356.34847  20884735.96847
  22426323.128 6  -2368819.707 6  -1815507.52047  22426319.67547
  23506967.651 6  -2734706.043 6  -1417674.03947  23506964.38647
  21433331.253 6  -2079780.133 6  -1609120.16849  21433328.74149
 20  5 16  5 13 10.9990000  0  8G01G03G07G08G11G22G28G30             0.000229132
  19882929.144 7  -1474642.961 7  -1128628.87549  19882929.72649
  23169907.651 1                  -1078561.39545  23169900.30445
  20663144.776 6  -1223598.020 6   -938287.82049  20663142.31249
  22803134.722 2   -293961.699 2   -262226.95345  22803140.83545
  20884421.269 6   -771272.246 6   -594658.30147  20884417.95647
  22425338.394 6  -2373995.262 6  -1819540.41047  22425335.34347
  23505796.401 6  -2740859.465 6  -1422468.91447  23505793.24147
  21432464.323 6  -2084336.156 6  -1612670.32049  21432461.92149
 20  5 16  5 13 11.9990000  0  8G01G03G07G08G11G22G28G30             0.000226824
  19882337.823 7  -1477748.207 7  -1131048.54349  19882338.69049
  23168695.69011                  -1083523.90255  23168688.81255
  20662654.995 6  -1226171.148 6   -940292.85549  20662652.45249
  22802798.292 3   -295729.953 3   -263604.78945  22802804.01145
  20884103.480 6   -772942.891 6   -595960.10547  20884099.95647
  22424353.472 6  -2379170.535 6  -1823573.08647  22424350.19847
  23504625.620 6  -2747013.063 6  -1427263.93447  23504622.62047
  21431597.261 6  -2088891.668 6  -1616220.06649  21431594.69449
 20  5 16  5 13 12.9990000  0  8G01G03G07G08G11G22G28G30             0.000224514
  19881747.034 7  -1480852.785 7  -1133467.68849  19881747.81949
  23167482.45611  -1393110.50811  -1088486.14155  23167476.80855
  20662165.440 6  -1228743.680 6   -942297.43049  20662163.09349
  22802461.980 3   -297498.215 3   -264982.64845  22802467.34345
  20883785.331 6   -774613.254 6   -597261.68847  20883781.99947
  22423369.214 6  -2384345.438 6  -1827605.48047  22423364.98747
  23503454.370 6  -2753166.746 6  -1432059.00846  23503451.46446
  21430730.651 6  -2093446.543 6  -1619769.32049  21430728.33149
 20  5 16  5 13 13.9990000  0  8G01G03G07G08G11G22G28G30             0.000222204
  19881156.894 7  -1483956.695 7  -1135886.31649  19881157.26149
  23166269.59711                  -1093448.39155  23166265.29655
  20661675.706 6  -1231315.555 6   -944301.48849  20661673.51949
  22802126.144 3   -299266.500 3   -266360.56345  22802131.22245
  20883467.776 6   -776283.363 6   -598563.07447  20883464.42547
  22422384.175 6  -2389519.988 6  -1831637.59447  22422380.53847
  23502283.550 6  -2759320.465 6  -1436854.12147  23502280.56947
  21429864.058 6  -2098000.797 6  -1623318.08649  21429861.44849
 20  5 16  5 13 14.9990000  0  8G01G03G07G08G11G22G28G30             0.000219894
  19880566.105 7  -1487059.832 7  -1138304.35249  19880566.81949
  23165057.07311                  -1098410.50855  23165053.76955
  20661186.870 6  -1233886.684 6   -946304.96549  20661184.03849
  22801789.128 3   -301034.738 3   -267738.39545  22801794.53845
  20883150.394 6   -777953.063 6   -599864.14147  20883146.55847
  22421399.230 6  -2394694.027 6  -1835669.30947  22421396.31547
  23501112.495 6  -2765474.184 6  -1441649.22347  23501109.38647
  21428997.550 6  -2102554.324 6  -1626866.29349  21428995.07349
 20  5 16  5 13 15.9990000  0  8G01G03G07G08G11G22G28G30             0.000217587
  19879975.597 7  -1490162.316 7  -1140721.86749  19879976.00749
  23163844.83111                  -1103372.66455  23163841.17555
  20660697.698 6  -1236457.234 6   -948307.99649  20660695.13249
  22801452.440 2   -302803.035 2   -269116.24245  22801458.56945
  20882832.409 6   -779622.488 6   -601164.98447  20882828.83947
  22420415.034 6  -2399867.715 6  -1839700.75447  22420411.51947
  23499941.909 6  -2771627.996 6  -1446444.39847  23499938.52247
  21428131.222 6  -2107107.262 6  -1630414.03549  21428128.67949
 20  5 16  5 13 16.9990000  0  7G01G07G08G11G22G28G30                0.000215277
  19879385.495 7  -1493264.066 7  -1143138.82049  19879386.03049
  20660208.417 6  -1239027.098 6   -950310.48449  20660206.19049
  22801116.300 2   -304571.254 2   -270494.07445  22801121.66345
  20882514.542 6   -781291.582 6   -602465.59047  20882511.00747
  22419430.683 5  -2405040.988 5  -1843731.87547  22419426.96047
  23498770.026 6  -2777781.793 6  -1451239.56646  23498767.30446
  21427264.737 6  -2111659.492 6  -1633961.22749  21427262.45249
 20  5 16  5 13 17.9990000  0  7G01G07G08G11G22G28G30                0.000212967
  19878795.495 7  -1496365.262 7  -1145555.32849  19878795.88249
  20659719.769 6  -1241596.441 6   -952312.57449  20659716.97649
  22800779.683 2   -306339.625 2   -271872.06645  22800785.80045
  20882196.784 6   -782960.465 6   -603766.00847  20882193.92147
  22418446.425 6  -2410213.973 6  -1847762.77047  22418443.06247
  23497599.159 6  -2783935.781 6  -1456034.87546  23497596.58946
  21426398.667 6  -2116211.199 6  -1637508.02049  21426396.54649
 20  5 16  5 13 18.9990000  0  7G01G07G08G11G22G28G30                0.000210659
  19878205.144 7  -1499465.781 7  -1147971.32049  19878205.76949
  20659231.026 6  -1244165.164 6   -954314.18449  20659228.51149
  22800443.550 3   -308108.012 3   -273250.08645  22800449.36645
  20881879.292 6   -784629.070 6   -605066.22747  20881875.97247
  22417461.909 5  -2415386.586 5  -1851793.37547  22417458.85847
  23496427.823 6  -2790089.844 6  -1460830.24647  23496425.32747
  21425532.847 6  -2120762.316 6  -1641054.34449  21425530.49549
 20  5 16  5 13 19.9990000  0  7G01G07G08G11G22G28G30                0.000208349
  19877615.323 7  -1502565.746 7  -1150386.87949  19877616.08549
  20658741.862 6  -1246733.367 6   -956315.38349  20658739.58549
  22800106.105 2   -309876.594 2   -274628.18445  22800112.67545
  20881562.230 6   -786297.508 6   -606366.30947  20881558.27647
  22416476.995 6  -2420558.926 6  -1855823.76647  22416474.55047
  23495256.901 6  -2796244.102 6  -1465625.77047  23495253.81947
  21424666.558 6  -2125312.871 6  -1644600.23449  21424664.56249
 20  5 16  5 13 20.9990000  0  7G01G07G08G11G22G28G30                0.000206039
  19877025.230 7  -1505665.152 7  -1152802.00049  19877026.07749
  20658254.019 6  -1249301.070 6   -958316.19149  20658251.31549
  22799769.862 2   -311645.254 2   -276006.36345  22799776.18345
  20881244.237 6   -787965.734 6   -607666.22347  20881241.32347
  22415493.308 6  -2425731.000 6  -1859853.94947  22415490.32347
  23494085.690 6  -2802398.535 6  -1470421.43447  23494083.14447
  21423800.722 6  -2129862.949 6  -1648145.74649  21423798.73349
 20  5 16  5 13 21.9990000  0  7G01G07G08G11G22G28G30                0.000203730
  19876435.940 7  -1508763.832 7  -1155216.55549  19876436.55449
  20657765.136 6  -1251868.066 6   -960316.44549  20657762.68749
  22799433.409 2   -313413.914 2                
  20880927.167 6   -789633.629 6   -608965.87947  20880923.71447
  22414509.144 5  -2430902.652 5  -1863883.80547  22414506.15147
  23492914.581 6  -2808552.945 6  -1475217.07846  23492911.60546
  21422935.019 6  -2134412.313 6  -1651690.71149  21422932.96049
 20  5 16  5 13 22.9990000  0  7G01G07G08G11G22G28G30                0.000201422
  19875846.230 7  -1511861.973 7  -1157630.68849  19875846.87049
  20657276.487 6  -1254434.586 6   -962316.33249  20657274.39449
  22799096.980 2   -315182.652 2                
  20880610.128 6   -791301.363 6   -610265.41847  20880606.53447
  22413525.339 5  -2436074.016 5  -1867913.43847  22413522.32347
  23491743.612 6  -2814707.578 6  -1480012.88747  23491740.71447
  21422069.339 6  -2138961.211 6  -1655235.30949  21422067.37449
 20  5 16  5 13 23.9990000  0  7G01G07G08G11G22G28G30                0.000199112
  19875256.948 7  -1514959.477 7  -1160044.32449  19875257.39749
  20656788.659 6  -1257000.508 6   -964315.75049  20656786.12049
  22798759.409 2   -316951.516 2                
  20880292.714 6   -792968.848 6   -611564.76647  20880288.79647
  22412541.472 5  -2441245.063 5  -1871942.82447  22412538.48347
  23490572.159 6  -2820862.305 6  -1484808.78146  23490569.58146
  21421203.737 6  -2143509.508 6  -1658779.43449  21421201.96049
 20  5 16  5 13 24.9990000  0  7G01G07G08G11G22G28G30                0.000196802
  19874667.214 7  -1518056.320 7  -1162457.44949  19874668.00749
  20656300.315 6  -1259565.820 6   -966314.69549  20656297.95249
  22798423.659 2   -318720.398 2                
  20879975.792 6   -794636.039 6   -612863.87547  20879972.06547
  22411556.651 5  -2446415.723 5  -1875971.91447  22411554.15147
  23489401.237 6  -2827017.137 6  -1489604.75447  23489398.24147
  21420338.605 6  -2148057.184 6  -1662323.07449  21420336.59349
 20  5 16  5 13 25.9990000  0  7G01G07G08G11G22G28G30                0.000194492
  19874078.206 7  -1521152.371 7  -1164869.96549  19874078.81949
  20655812.167 6  -1262130.363 6   -968313.04749  20655809.76149
  22798087.565 2   -320489.191 2                
  20879658.472 6   -796302.824 6   -614162.67647  20879654.41347
  22410573.401 5  -2451585.871 5  -1880000.59047  22410570.56547
  23488229.831 6  -2833171.883 6  -1494400.66446  23488227.08546
  21419473.183 6  -2152604.090 6  -1665866.12549  21419471.37049
 20  5 16  5 13 26.9990000  0  7G01G07G08G11G22G28G30                0.000192184
  19873489.526 7  -1524247.813 7  -1167281.99249  19873489.92149
  20655324.315 6  -1264694.355 6   -970310.96149  20655321.72649
  22797750.495 2   -322258.113 2                
  20879341.230 6   -797969.410 6   -615461.31347  20879337.56547
  22409589.862 5  -2456755.734 5  -1884029.06347  22409587.04247
  23487058.378 6  -2839326.785 6  -1499196.68847  23487056.02647
  21418608.175 6  -2157150.461 6  -1669408.75449  21418606.17149
 20  5 16  5 13 27.9990000  0  7G01G07G08G11G22G28G30                0.000189875
  19872900.315 7  -1527342.598 7  -1169693.51649  19872900.70249
  20654836.370 6  -1267257.711 6   -972308.38349  20654834.02249
  22797414.409 2   -324026.984 2                
  20879024.214 6   -799635.645 6   -616759.68447  20879020.60847
  22408606.011 5  -2461925.199 5  -1888057.22347  22408603.28447
  23485887.245 6  -2845481.758 6  -1503992.77347  23485884.82347
  21417743.097 6  -2161696.191 6  -1672950.89149  21417741.30849
 20  5 16  5 13 28.9990000  0  7G01G07G08G11G22G28G30                0.000187565
  19872311.784 7  -1530436.715 7  -1172104.51649  19872312.17549
  20654348.628 6  -1269820.465 6   -974305.33249  20654346.34749
  22797077.355 2   -325795.957 2                
  20878707.503 6   -801301.656 6   -618057.87547  20878703.58947
  22407622.050 5  -2467094.285 5  -1892085.07047  22407619.86247
  23484715.964 6  -2851636.789 6  -1508788.91047  23484713.62447
  21416878.503 6  -2166241.293 6  -1676492.52749  21416876.24549
 20  5 16  5 13 29.9990000  0  7G01G07G08G11G22G28G30                0.000185255
  19871723.120 7  -1533530.152 7  -1174514.98849  19871723.51949
  20653861.315 6  -1272382.590 6   -976301.79349  20653858.80849
  22796739.964 2   -327564.918 2                
  20878390.190 6   -802967.371 6   -619355.83247  20878386.77647
  22406638.753 5  -2472263.016 5  -1896112.64847  22406636.31547
  23483544.605 6  -2857791.910 6  -1513585.10247  23483542.17547
  21416013.472 6  -2170785.809 6  -1680033.70749  21416010.87849
 20  5 16  5 13 30.9990000  0  7G01G07G08G11G22G28G30                0.000182945
  19871134.784 7  -1536622.797 7  -1176924.84049  19871134.85549
  20653373.980 6  -1274943.945 6   -978297.65649  20653371.57749
  22796403.386 1   -329333.770 1                
  20878073.159 6   -804632.652 6   -620653.44947  20878069.26547
  22405655.183 5  -2477431.203 5  -1900139.80147  22405652.79647
  23482373.089 6  -2863946.910 6  -1518381.20347  23482370.70647
  21415148.745 6  -2175329.516 6  -1683574.25049  21415146.76149
 20  5 16  5 13 31.9990000  0  7G01G07G08G11G22G28G30                0.000180637
  19870545.933 7  -1539714.863 7  -1179334.24649  19870546.71449
  20652886.386 6  -1277504.762 6   -980293.09449  20652884.06249
  22796065.323 1   -331102.691 1                
  20877756.534 6   -806297.730 6   -621950.91847  20877752.97647
  22404671.706 5  -2482599.109 5  -1904166.73847  22404669.13247
  23481201.612 6  -2870102.141 6  -1523177.48047  23481199.48047
  21414284.058 6  -2179872.719 6  -1687114.41849  21414282.58949
 20  5 16  5 13 32.9990000  0  7G01G07G08G11G22G28G30                0.000178328
  19869957.667 7  -1542806.281 7  -1181743.14149  19869958.23049
  20652399.550 6  -1280064.992 6   -982288.07849  20652397.35849
  22795729.519 1   -332871.734 1                
  20877439.964 6   -807962.551 6   -623248.18047  20877435.91747
  22403688.198 5  -2487766.672 5  -1908193.40247  22403685.80847
  23480030.409 6  -2876257.434 6  -1527973.80947  23480028.44847
  21413419.315 6  -2184415.316 6  -1690654.10249  21413417.80449
 20  5 16  5 13 33.9990000  0  7G01G07G08G11G22G28G30                0.000176018
  19869369.862 7  -1545897.051 7  -1184151.53549  19869370.42949
  20651912.370 6  -1282624.621 6   -984282.59449  20651910.11249
  22795392.120 1   -334640.863 1                
  20877123.206 6   -809627.090 6   -624545.22347  20877118.70647
  22402705.440 5  -2492933.848 5  -1912219.78147  22402702.92547
  23478859.886 6  -2882412.797 6  -1532770.19147  23478857.05047
  21412555.558 6  -2188957.301 6  -1694193.31349  21412553.73349
 20  5 16  5 13 34.9990000  0  7G01G07G08G11G22G28G30                0.000173708
  19868781.581 7  -1548987.145 7  -1186559.39849  19868782.08949
  20651425.190 6  -1285183.582 6   -986276.59449  20651423.06949
  22795056.089 1   -336409.891 1                
  20876806.284 6   -811291.348 6   -625842.04347  20876802.26947
  22401722.190 5  -2498100.660 5  -1916245.86347  22401719.50347
  23477688.026 6  -2888568.242 6  -1537566.64147  23477685.78047
  21411691.323 6  -2193498.656 6  -1697732.03149  21411689.43749
 20  5 16  5 13 35.9990000  0  7G01G07G08G11G22G28G30                0.000171400
  19868193.722 7  -1552076.559 7  -1188966.73449  19868194.35549
  20650938.331 6  -1287741.930 6   -988270.10249  20650936.00749
  22794719.159 1   -338179.020 1                
  20876489.370 6   -812955.281 6   -627138.61747  20876485.80847
  22400739.073 5  -2503267.078 5  -1920271.64847  22400736.55047
  23476516.370 6  -2894723.742 6  -1542363.13347  23476514.27647
  21410827.276 6  -2198039.367 6  -1701270.24649  21410825.41349
 20  5 16  5 13 36.9990000  0  7G01G07G08G11G22G28G30                0.000169090
  19867605.706 7  -1555165.375 7  -1191373.60949  19867606.53849
  20650451.769 6  -1290299.707 6   -990263.18049  20650449.21049
  22794383.042 1   -339948.191 1                
  20876172.683 6   -814619.016 6   -628435.03547  20876168.98347
  22399755.886 5  -2508433.141 5  -1924297.15247  22399753.58147
  23475345.667 6  -2900879.387 6  -1547159.73447  23475343.23047
  21409963.167 6  -2202579.520 6  -1704808.02749  21409961.26949
 20  5 16  5 13 37.9990000  0  7G01G07G08G11G22G28G30                0.000166780
  19867018.308 7  -1558253.559 7  -1193779.98049  19867018.62849
  20649965.034 6  -1292856.930 6   -992255.82449  20649962.89749
  22794046.581 1   -341717.445 1                
  20875855.730 6   -816282.523 6   -629731.28147  20875852.83947
  22398772.636 5  -2513598.867 5  -1928322.39547  22398770.15547
  23474173.870 6  -2907035.137 6  -1551956.43447  23474171.27647
  21409099.487 6  -2207119.082 6  -1708345.35249  21409098.07349
 20  5 16  5 13 38.9990000  0  7G01G07G08G11G22G28G30                0.000164473
  19866431.011 7  -1561341.184 7  -1196185.92649  19866431.09349
  20649478.417 6  -1295413.598 6   -994248.03149  20649476.55449
  22793708.495 1   -343486.914 1                
  20875540.120 6   -817945.785 6   -631027.32847  20875536.07347
  22397790.003 5  -2518764.355 5  -1932347.45347  22397787.18347
  23473001.964 6  -2913191.043 6  -1556753.24247  23472999.99147
  21408235.565 6  -2211658.137 6  -1711882.27049  21408234.00749
 20  5 16  5 13 39.9990000  0  7G01G07G08G11G22G28G30                0.000162163
  19865843.026 7  -1564428.223 7  -1198591.41049  19865843.88649
  20648991.901 6  -1297969.730 6   -996239.82449  20648990.10849
  22793372.081 1   -345256.316 1                
  20875223.300 6   -819608.875 6   -632323.24647  20875219.97247
  22396807.034 5  -2523929.551 5  -1936372.27047  22396804.46847
  23471830.534 6  -2919347.121 6  -1561550.18447  23471828.64447
  21407371.956 6  -2216196.621 6  -1715418.75849  21407370.47249
 20  5 16  5 13 40.9990000  0  7G01G07G08G11G22G28G30                0.000159855
  19865255.894 7  -1567514.582 7  -1200996.36349  19865256.85849
  20648505.573 6  -1300525.254 6   -998231.13749  20648503.40949
  22793035.05811   -347025.91011                
  20874906.565 6   -821271.676 6   -633618.93447  20874903.49947
  22395823.800 5  -2529094.320 5  -1940396.76647  22395821.70647
  23470659.151 6  -2925503.254 6  -1566347.16847  23470657.03047
  21406508.784 6  -2220734.496 6  -1718954.75849  21406507.08149
 20  5 16  5 13 41.9990000  0  7G01G07G08G11G22G28G30                0.000157543
  19864668.550 7  -1570600.211 7  -1203400.75449  19864669.22649
  20648019.620 6  -1303080.059 6  -1000221.89849  20648017.55049
  22792698.237 1   -348795.383 1                
  20874590.284 6   -822934.094 6   -634914.32047  20874587.11647
  22394841.808 5  -2534258.672 5  -1944420.93047  22394839.08147
  23469488.128 6  -2931659.375 6  -1571144.14547  23469485.69847
  21405644.855 6  -2225271.676 6  -1722490.23049  21405643.38649
 20  5 16  5 13 42.9990000  0  7G01G07G08G11G22G28G30                0.000155233
  19864081.409 7  -1573685.348 7  -1205804.76249  19864081.94449
  20647533.401 6  -1305634.453 6  -1002212.33649  20647531.41749
  22792361.901 1   -350565.137 1                
  20874274.245 6   -824596.441 6   -636209.66047  20874270.60847
  22393858.894 5  -2539422.797 5  -1948444.92647  22393856.24947
  23468316.065 6  -2937815.770 6  -1575941.33647  23468313.83547
  21404781.894 6  -2229808.414 6  -1726025.35549  21404779.94449
 20  5 16  5 13 43.9990000  0  7G01G07G08G11G22G28G30                0.000152924
  19863494.605 7  -1576769.813 7  -1208208.23449  19863495.17149
  20647047.503 6  -1308188.211 6  -1004202.27749  20647045.60849
  22792024.987 1   -352334.816 1                
  20873958.300 6   -826258.453 6   -637504.73847  20873954.65547
  22392876.628 5  -2544586.543 5  -1952468.62947  22392874.02647
  23467144.628 6  -2943972.207 6  -1580738.57046  23467142.28446
  21403918.753 6  -2234344.520 6  -1729559.98049  21403917.11649
 20  5 16  5 13 44.9990000  0  7G01G07G08G11G22G28G30                0.000150616
  19862907.722 7  -1579853.602 7  -1210611.19149  19862908.51149
  20646561.730 6  -1310741.328 6  -1006191.71549  20646559.51149
  22791687.409 1   -354104.578 1                
  20873641.105 6   -827920.172 6   -638799.57447  20873638.36647
  22391893.722 5  -2549749.922 5  -1956492.04347  22391891.40947
  23465973.440 6  -2950128.711 6  -1585535.84047  23465971.09347
  21403055.464 6  -2238879.984 6  -1733094.11349  21403053.82749
 20  5 16  5 13 45.9990000  0  7G01G07G08G11G22G28G30                0.000148306
  19862321.011 7  -1582936.547 7  -1213013.48049  19862321.90949
  20646076.050 6  -1313293.652 6  -1008180.53949  20646073.76949
  22791351.183 1   -355874.129 1                
  20873325.511 6   -829581.469 6   -640094.09447  20873322.30047
  22390911.417 5  -2554912.730 5  -1960515.01247  22390909.14047
  23464801.769 6  -2956285.102 6  -1590333.02047  23464799.39747
  21402192.589 6  -2243414.641 6  -1736627.61749  21402190.98049
 20  5 16  5 13 46.9990000  0  7G01G07G08G11G22G28G30                0.000145996
  19861734.745 7  -1586018.973 7  -1215415.37149  19861735.46449
  20645590.331 6  -1315845.492 6  -1010168.98849  20645588.33949
  22791014.167 1   -357643.934 1                
  20873008.761 6   -831242.605 6   -641388.49247  20873005.68347
  22389929.526 5  -2560075.270 5  -1964537.77047  22389926.58147
  23463630.230 6  -2962441.742 6  -1595130.41047  23463627.63647
  21401329.323 6  -2247948.820 6  -1740160.74249  21401327.90549
 20  5 16  5 13 47.9990000  0  7G01G07G08G11G22G28G30                0.000143686
  19861147.948 7  -1589100.699 7  -1217816.71549  19861148.82349
  20645105.081 6  -1318396.672 6  -1012156.91849  20645102.64449
  22790677.784 1   -359413.750 1                
  20872693.370 6   -832903.395 6   -642682.61347  20872689.80847
  22388947.440 5  -2565237.457 5  -1968560.25847  22388944.48347
  23462458.909 6  -2968598.371 6  -1599927.78547  23462456.39447
  21400466.776 6  -2252482.344 6  -1743693.36349  21400464.98349
 20  5 16  5 13 48.9990000  0  7G01G07G08G11G22G28G30                0.000141376
  19860561.722 7  -1592181.723 7  -1220217.51649  19860562.74949
  20644619.487 6  -1320947.180 6  -1014144.33249  20644617.43349
  22790340.136 1   -361183.426 1                
  20872377.417 6   -834563.887 6   -643976.51647  20872374.02247
  22387964.683 5  -2570399.180 5  -1972582.37547  22387961.98047
  23461287.401 6  -2974755.070 6  -1604725.21547  23461284.64447
  21399604.276 6  -2257015.223 6  -1747225.47349  21399602.55449
 20  5 16  5 13 49.9990000  0  7G01G07G08G11G22G28G30                0.000139071
  19859975.487 7  -1595262.234 7  -1222617.91049  19859976.23349
  20644134.323 6  -1323497.230 6  -1016131.38349  20644132.51949
  22790002.99511                                
  20872061.284 6   -836224.266 6   -645270.31647  20872057.83147
  22386982.300 5  -2575560.715 5  -1976604.34847  22386979.56547
  23460114.792 6  -2980911.969 6  -1609522.79747  23460113.26147
  21398741.917 6  -2261547.602 6  -1750757.19949  21398740.46849
 20  5 16  5 13 50.9990000  0  7G01G07G08G11G22G28G30                0.000136761
  19859389.190 7  -1598342.266 7  -1225017.94149  19859390.33549
  20643649.503 6  -1326046.809 6  -1018118.06649  20643647.18749
  22789665.24511                                
  20871745.448 6   -837884.500 6   -646564.01247  20871742.05047
  22386000.112 5  -2580722.027 5  -1980626.15247  22385997.54647
  23458943.636 6  -2987069.145 6  -1614320.59447  23458941.34347
  21397879.589 6  -2266079.547 6  -1754288.58249  21397877.87449
 20  5 16  5 13 51.9990000  0  7G01G07G08G11G22G28G30                0.000134451
  19858803.620 7  -1601421.629 7  -1227417.44149  19858804.06549
  20643163.956 6  -1328595.785 6  -1020104.28949  20643161.65149
  22789328.878 1                                
  20871429.675 6   -839544.480 6   -647857.50447  20871426.35147
  22385017.761 5  -2585882.949 5  -1984647.64847  22385015.89047
  23457771.940 6  -2993226.371 6  -1619118.43847  23457769.46447
  21397017.409 6  -2270610.887 6  -1757819.49649  21397015.33149
 20  5 16  5 13 52.9990000  0  7G01G07G08G11G22G28G30                0.000132141
  19858217.542 7  -1604500.172 7  -1229816.31349  19858218.46449
  20642679.206 6  -1331143.977 6  -1022089.89549  20642677.21849
  22788991.823 1                                
  20871113.706 6   -841203.980 6   -649150.61347  20871110.48047
  22384035.901 5  -2591043.375 5  -1988668.76647  22384034.04247
  23456600.042 5  -2999383.535 5  -1623916.23447  23456598.05847
  21396155.120 6  -2275141.406 6  -1761349.77349  21396152.83949
 20  5 16  5 13 53.9990000  0  7G01G07G08G11G22G28G30                0.000129831
  19857631.980 7  -1607578.066 7  -1232214.66849  19857632.77249
  20642194.636 6  -1333691.563 6  -1024075.02749  20642192.65549
  22788654.565 1                                
  20870797.823 6   -842863.227 6   -650443.53147  20870794.63647
  22383053.940 5  -2596203.383 5  -1992689.54747  22383051.62447
  23455428.308 5  -3005540.766 5  -1628714.07447  23455426.07747
  21395293.347 6  -2279671.348 6  -1764879.60249  21395291.37849
 20  5 16  5 13 54.9990000  0  7G01G07G08G11G22G28G30                0.000127523
  19857046.433 7  -1610655.277 7  -1234612.49649  19857047.06549
  20641710.097 6  -1336238.523 6  -1026059.67649  20641707.69049
  22788317.605 1   -371804.090 1                
  20870481.839 6   -844522.188 6   -651736.23047  20870478.75347
  22382072.386 5  -2601363.043 5  -1996710.05947  22382070.00747
  23454256.331 5  -3011698.082 5  -1633511.98447  23454254.60147
  21394431.144 6  -2284200.648 6  -1768408.93049  21394429.24549
 20  5 16  5 13 55.9990000  0  7G01G07G08G11G22G28G30                0.000125210
  19856460.917 7  -1613731.824 7  -1237009.80549  19856461.64049
  20641225.597 6  -1338784.852 6  -1028043.83649  20641223.40549
  22787981.503 1   -373574.195 1                
  20870166.628 6   -846180.848 6   -653028.69147  20870163.16347
  22381090.503 5  -2606522.305 5  -2000730.25847  22381088.39747
  23453084.472 5  -3017855.441 5  -1638309.92246  23453082.50746
  21393569.620 6  -2288729.301 6  -1771937.75049  21393567.55049
 20  5 16  5 13 56.9990000  0  7G01G07G08G11G22G28G30                0.000122900
  19855875.706 7  -1616807.750 7  -1239406.62549  19855876.03849
  20640740.901 6  -1341330.563 6  -1030027.50449  20640739.19849
  22787644.409 1   -375344.348 1                
  20869850.698 6   -847839.273 6   -654320.98047  20869848.02647
  22380108.847 5  -2611681.215 5  -2004750.19147  22380106.74147
  23451912.776 5  -3024012.867 5  -1643107.91446  23451911.23046
  21392707.956 6  -2293257.387 6  -1775466.13349  21392705.64749
 20  5 16  5 13 57.9990000  0  7G01G07G08G11G22G28G30                0.000120592
  19855290.761 7  -1619882.875 7  -1241802.82849  19855291.16349
  20640256.331 6  -1343875.609 6  -1032010.65649  20640255.08549
  22787309.198 1   -377114.453 1                
  20869535.315 6   -849497.254 6   -655612.91447  20869532.38247
  22379126.917 5  -2616839.629 5  -2008769.72747  22379125.30047
  23450741.097 5  -3030170.289 5  -1647905.91446  23450739.32346
  21391846.573 6  -2297784.699 6  -1778993.91049  21391844.60549
 20  5 16  5 13 58.9990000  0  7G01G07G08G11G22G28G30                0.000118282
  19854705.253 7  -1622957.453 7  -1244198.60249  19854705.92549
  20639772.261 6  -1346420.102 6  -1033993.38349  20639770.41749
  22786973.081 1   -378884.793 1                
  20869220.628 6   -851155.113 6   -656904.74247  20869216.79247
  22378145.659 5  -2621997.777 5  -2012789.07047  22378144.02247
  23449569.417 5  -3036327.902 5  -1652704.05146  23449567.69046
  21390985.112 6  -2302311.559 6  -1782521.34049  21390982.98349
 20  5 16  5 13 59.9990000  0  7G01G07G08G11G22G28G30                0.000115973
  19854120.644 7  -1626031.469 7  -1246593.94149  19854120.76149
  20639288.409 6  -1348964.090 6  -1035975.71149  20639286.51949
  22786636.495 1   -380655.184 1                
  20868904.667 6   -852812.746 6   -658196.40647  20868901.24147
  22377164.464 5  -2627155.684 5  -2016808.21147  22377162.26147
  23448397.800 5  -3042485.691 5  -1657502.33646  23448395.67946
  21390123.565 6  -2306837.867 6  -1786048.33249  21390121.36649
 20  5 16  5 14  0.9990000  0  7G01G07G08G11G22G28G30                0.000113663
  19853535.714 7  -1629104.938 7  -1248988.85549  19853536.48049
  20638804.065 6  -1351507.574 6  -1037957.64849  20638802.48349
  22786299.894 1   -382425.793 1                
  20868589.581 6   -854470.242 6   -659487.96547  20868585.82347
  22376182.401 5  -2632313.270 5  -2020827.10947  22376181.17147
  23447225.831 5  -3048643.641 5  -1662300.74246  23447223.79646
  21389262.362 6  -2311363.648 6  -1789574.91449  21389260.26549
 20  5 16  5 14  1.9990000  0  7G01G07G08G11G22G28G30                0.000111353
  19852950.745 7  -1632177.691 7  -1251383.20749  19852951.57349
  20638319.815 6  -1354050.398 6  -1039939.07049  20638318.50749
  22785964.011 1   -384196.242 1                
  20868273.761 6   -856127.406 6   -660779.26647  20868270.75347
  22375200.956 5  -2637470.477 5  -2024845.71147  22375199.44047
  23446053.745 5  -3054801.648 5  -1667099.19146  23446051.95246
  21388401.503 6  -2315888.785 6  -1793100.98849  21388398.96049
 20  5 16  5 14  2.9990000  0  7G01G07G08G11G22G28G30                0.000109043
  19852366.370 7  -1635249.852 7  -1253777.10249  19852366.90149
  20637836.433 6  -1356592.637 6  -1041920.03549  20637835.02649
  22785626.730 1   -385966.863 1                
  20867958.480 6   -857784.332 6   -662070.37147  20867955.01547
  22374219.808 5  -2642627.328 5  -2028864.04347  22374218.15147
  23444881.808 5  -3060959.750 5  -1671897.71146  23444880.14746
  21387540.519 6  -2320413.352 6  -1796626.62549  21387538.01549
 20  5 16  5 14  3.9990000  0  7G01G07G08G11G22G28G30                0.000106733
  19851781.745 7  -1638321.234 7  -1256170.38749  19851782.69449
  20637352.948 6  -1359134.172 6  -1043900.45349  20637351.05049
  22785290.472 1   -387737.418 1                
  20867643.190 6   -859440.895 6   -663361.19947  20867640.10847
  22373238.526 5  -2647783.703 5  -2032882.00047  22373236.69047
  23443709.659 5  -3067117.840 5  -1676696.22746  23443708.08546
  21386679.526 6  -2324937.188 6  -1800151.69149  21386677.38249
 20  5 16  5 14  4.9990000  0  7G01G07G08G11G22G28G30                0.000104424
  19851197.597 7  -1641392.133 7  -1258563.29749  19851198.11249
  20636869.589 6  -1361675.246 6  -1045880.51249  20636867.83549
  22784953.675 1   -389508.160 1                
  20867327.901 6   -861097.316 6   -664651.93447  20867324.83147
  22372257.167 5  -2652939.902 5  -2036899.80547  22372255.47647
  23442537.823 5  -3073276.176 5  -1681494.93846  23442536.14046
  21385818.808 6  -2329460.594 6  -1803676.43049  21385816.37049
 20  5 16  5 14  5.9990000  0  7G01G07G08G11G22G28G30                0.000102114
  19850613.347 7  -1644462.414 7  -1260955.72349  19850613.76949
  20636385.823 6  -1364215.770 6  -1047860.14849  20636384.37049
  22784616.870 1   -391278.938 1                
  20867013.245 6   -862753.508 6   -665942.47347  20867009.95647
  22371276.292 5  -2658095.742 5  -2040917.34447  22371274.65147
  23441366.065 5  -3079434.621 5  -1686293.72346  23441363.93746
  21384957.948 6  -2333983.391 6  -1807200.69549  21384956.03049
 20  5 16  5 14  6.9990000  0  7G01G07G08G11G22G28G30                0.000099804
  19850029.456 7  -1647531.949 7  -1263347.56649  19850029.92549
  20635902.487 6  -1366755.578 6  -1049839.21949  20635900.71449
  22784279.948 2   -393049.805 2                
  20866697.683 6   -864409.359 6   -667232.74247  20866695.15547
  22370294.573 5  -2663251.113 5  -2044934.52047  22370293.46447
  23440194.089 5  -3085593.082 5  -1691092.51246  23440192.26146
  21384097.464 6  -2338505.480 6  -1810724.39149  21384095.51549
 20  5 16  5 14  7.9990000  0  7G01G07G08G11G22G28G30                0.000097494
  19849445.003 7  -1650601.027 7  -1265739.05549  19849445.74149
  20635419.433 6  -1369294.984 6  -1051817.98449  20635417.74549
  22783943.331 2   -394820.813 2                
  20866382.987 6   -866065.109 6   -668522.94147  20866379.96847
  22369313.659 5  -2668406.332 5  -2048951.57047  22369312.10847
  23439022.745 5  -3091751.758 5  -1695891.47346  23439020.28446
  21383236.612 6  -2343027.172 6  -1814247.78549  21383234.97649
 20  5 16  5 14  8.9990000  0  7G01G07G08G11G22G28G30                0.000095184
  19848861.105 7  -1653669.625 7  -1268130.17249  19848862.12449
  20634935.917 6  -1371833.957 6  -1053796.40649  20634934.54649
  22783605.784 2   -396592.012 2                
  20866067.558 6   -867720.797 6   -669813.08647  20866064.28047
  22368332.605 5  -2673561.336 5  -2052968.46147  22368331.60547
  23437850.136 5  -3097910.730 5  -1700690.67647  23437848.27247
  21382376.550 6  -2347548.438 6  -1817770.84849  21382374.12849
 20  5 16  5 14  9.9990000  0  7G01G07G08G11G22G28G30                0.000092875
  19848277.159 7  -1656737.531 7  -1270520.74249  19848278.16349
  20634453.190 6  -1374372.254 6  -1055774.28949  20634451.72649
  22783267.815 2   -398363.270 2                
  20865752.519 6   -869376.137 6   -671102.96147  20865749.80847
  22367352.276 5  -2678715.930 5  -2056985.03147  22367351.02247
  23436678.519 5  -3104069.738 5  -1705489.91046  23436676.07346
  21381515.925 6  -2352069.020 6  -1821293.38349  21381514.28449
 20  5 16  5 14 10.9990000  0  7G01G07G08G11G22G28G30                0.000090565
  19847693.800 7  -1659804.602 7  -1272910.67649  19847693.90949
  20633970.097 6  -1376909.777 6  -1057751.57849  20633968.35849
  22782930.808 2   -400134.383 2                
  20865437.659 6   -871031.027 6   -672392.48047  20865434.62447
  22366371.151 5  -2683870.008 5  -2061001.19147  22366369.95247
  23435506.925 5  -3110228.684 5  -1710289.09846  23435504.38646
  21380656.628 6  -2356588.805 6  -1824815.29749  21380654.21449
 20  5 16  5 14 11.9990000  0  7G01G07G08G11G22G28G30                0.000088255
  19847109.878 7  -1662870.945 7  -1275300.03149  19847110.44849
  20633487.355 6  -1379446.613 6  -1059728.34049  20633485.70649
  22782593.956 2   -401905.414 2                
  20865122.409 6   -872685.602 6   -673681.76247  20865120.03847
  22365390.284 5  -2689023.617 5  -2065016.98847  22365389.33547
  23434334.183 5  -3116387.586 5  -1715088.25046  23434332.24546
  21379795.980 6  -2361107.938 6  -1828336.69949  21379794.42549
 20  5 16  5 14 12.9990000  0  7G01G07G08G11G22G28G30                0.000085945
  19846526.706 7  -1665936.613 7  -1277688.86749  19846527.46849
  20633004.667 6  -1381982.820 6  -1061704.60949  20633003.27249
  22782256.448 2   -403676.520 2                
  20864808.495 6   -874339.832 6   -674970.77747  20864804.93747
  22364409.464 5  -2694176.813 5  -2069032.46947  22364408.58147
  23433162.995 5  -3122546.566 5  -1719887.45346  23433160.64046
  21378936.362 6  -2365626.383 6  -1831857.57049  21378934.18349
 20  5 16  5 14 13.9990000  0  7G01G07G08G11G22G28G30                0.000083635
  19845943.409 7  -1669001.711 7  -1280077.24649  19845944.06249
  20632522.105 6  -1384518.508 6  -1063680.46549  20632520.84749
  22781919.683 2   -405447.703 2                
  20864493.722 6   -875993.914 6   -676259.67247  20864490.66747
  22363429.300 5  -2699329.738 5  -2073047.73847  22363427.96847
  23431990.753 5  -3128705.703 5  -1724686.78946  23431988.18746
  21378076.276 6  -2370144.340 6  -1835378.05549  21378074.64749
 20  5 16  5 14 14.9990000  0  7G01G07G08G11G22G28G30                0.000081326
  19845360.081 7  -1672066.207 7  -1282465.16849  19845361.03449
  20632039.862 6  -1387053.641 6  -1065655.89149  20632038.18749
  22781583.761 2   -407218.969 2                
  20864178.878 6   -877647.770 6   -677548.39147  20864175.48047
  22362448.862 5  -2704482.348 5  -2077062.75447  22362447.09347
  23430818.480 5  -3134864.973 5  -1729486.22346  23430816.23046
  21377217.089 6  -2374661.711 6  -1838898.09049  21377214.96049
 20  5 16  5 14 15.9990000  0  7G01G07G08G11G22G28G30                0.000079016
  19844776.987 7  -1675130.105 7  -1284852.62549  19844778.05449
  20631557.487 6  -1389588.203 6  -1067630.87949  20631556.06249
  22781247.730 2   -408990.383 2                
  20863864.261 6   -879301.387 6   -678836.92647  20863861.28447
  22361468.425 5  -2709634.617 5  -2081077.51647  22361467.16347
  23429646.644 5  -3141024.371 5  -1734285.75046  23429643.83546
  21376357.886 6  -2379178.531 6  -1842417.68849  21376355.51949
 20  5 16  5 14 16.9990000  0  7G01G07G08G11G22G28G30                0.000076706
  19844194.151 7  -1678193.402 7  -1287239.60949  19844195.15949
  20631075.503 6  -1392122.215 6  -1069605.43449  20631073.84749
  22780909.026 2   -410761.848 2                
  20863549.433 6   -880954.789 6   -680125.29347  20863546.28047
  22360487.651 5  -2714786.605 5  -2085092.05947  22360486.85547
  23428474.495 5  -3147183.902 5  -1739085.38046  23428471.92546
  21375498.440 6  -2383694.793 6  -1845936.85549  21375496.11249
 20  5 16  5 14 17.9990000  0  7G01G07G08G11G22G28G30                0.000074396
  19843611.495 7  -1681256.078 7  -1289626.10549  19843612.19849
  20630593.042 6  -1394655.660 6  -1071579.55149  20630591.46849
  22780572.222 2   -412533.414 2                
  20863235.237 6   -882607.934 6   -681413.46147  20863231.81247
  22359507.355 5  -2719938.234 5  -2089106.31347  22359505.99547
  23427302.581 5  -3153343.594 5  -1743885.13346  23427299.72646
  21374638.948 6  -2388210.480 6  -1849455.57449  21374636.79249
 20  5 16  5 14 18.9990000  0  7G01G07G08G11G22G28G30                0.000072086
  19843028.808 7  -1684318.133 7  -1292012.12549  19843029.41349
  20630111.308 6  -1397188.523 6  -1073553.21949  20630109.71049
  22780235.933 2   -414304.984 2                
  20862920.636 6   -884260.859 6   -682701.46947  20862917.50747
  22358527.347 5  -2725089.539 5  -2093120.32047  22358526.13247
  23426130.487 5  -3159503.359 5  -1748684.95346  23426127.63246
  21373779.511 6  -2392725.566 6  -1852973.82049  21373777.02649
 20  5 16  5 14 19.9990000  0  7G01G07G08G11G22G28G30                0.000069777
  19842446.003 7  -1687379.488 7  -1294397.59449  19842447.31249
  20629629.769 6  -1399720.734 6  -1075526.36349  20629627.87049
  22779898.269 2   -416076.621 2                
  20862605.972 6   -885913.453 6   -683989.20747  20862603.06947
  22357546.784 5  -2730240.426 5  -2097134.00047  22357545.52647
  23424958.058 5  -3165663.148 5  -1753484.78546  23424955.24946
  21372920.214 6  -2397240.008 6  -1856491.56649  21372918.16749
 20  5 16  5 14 20.9990000  0  7G01G07G08G11G22G28G30                0.000067467
  19841864.011 7  -1690440.117 7  -1296782.50449  19841864.83149
  20629147.315 6  -1402252.258 6  -1077498.98049  20629146.19049
  22779561.222 2   -417848.227 2                
  20862291.440 6   -887565.703 6   -685276.67647  20862288.48747
  22356566.878 5  -2735390.863 5  -2101147.32047  22356565.24547
  23423785.534 5  -3171822.945 5  -1758284.62946  23423783.08546
  21372061.644 6  -2401753.750 6  -1860008.77049  21372059.87849
 20  5 16  5 14 21.9990000  0  7G01G07G08G11G22G28G30                0.000065157
  19841281.605 7  -1693499.895 7  -1299166.74249  19841282.54249
  20628666.206 6  -1404782.961 6  -1079470.96149  20628664.51549
  22779225.003 2   -419619.617 2                
  20861977.722 6   -889217.492 6   -686563.77347  20861973.72647
  22355586.761 5  -2740540.699 5  -2105160.18847  22355585.45247
  23422613.698 5  -3177982.633 5  -1763084.38346  23422611.02646
  21371202.972 6  -2406266.676 6  -1863525.33649  21371200.71849
 20  5 16  5 14 22.9990000  0  7G01G07G08G11G22G28G30                0.000062847
  19840699.737 7  -1696559.023 7  -1301550.48049  19840699.97649
  20628184.995 6  -1407313.090 6  -1081442.48849  20628183.31249
  22778886.690 2   -421391.109 2                
  20861663.401 6   -890869.012 6   -687850.66847  20861659.64747
  22354607.190 5  -2745690.234 5  -2109172.80547  22354605.30447
  23421441.940 5  -3184142.445 5  -1767884.24246  23421438.14046
  21370344.448 6  -2410779.035 6  -1867041.46149  21370342.02249
 20  5 16  5 14 23.9990000  0  7G01G07G08G11G22G28G30                0.000060537
  19840117.519 7  -1699617.559 7  -1303933.75849  19840118.24149
  20627703.261 6  -1409842.668 6  -1083413.59449  20627701.64749
  22778549.565 2   -423162.641 2                
  20861348.472 6   -892520.281 6   -689137.37147  20861345.57347
  22353627.417 5  -2750839.406 5  -2113185.14847  22353625.80447
  23420269.073 5  -3190302.336 5  -1772684.15246  23420266.36246
  21369485.940 6  -2415290.801 6  -1870557.12549  21369484.13649
 20  5 16  5 14 24.9990000  0  7G01G07G08G11G22G28G30                0.000058228
  19839535.675 7  -1702675.508 7  -1306316.57449  19839536.17949
  20627222.065 6  -1412371.672 6  -1085384.24249  20627220.74949
  22778212.784 2   -424934.344 2                
  20861034.683 6   -894171.398 6   -690423.96147  20861031.37447
  22352647.659 5  -2755988.285 5  -2117197.25447  22352645.92147
  23419096.894 5  -3196462.395 5  -1777484.20746  23419094.56246
  21368627.011 6  -2419802.020 6  -1874072.36349  21368625.31549
 20  5 16  5 14 25.9990000  0  7G01G07G08G11G22G28G30                0.000055918
  19838953.823 7  -1705732.879 7  -1308698.94149  19838954.08949
  20626740.831 6  -1414900.180 6  -1087354.51649  20626739.33549
  22777875.800 1   -426706.160 1                
  20860720.058 6   -895822.285 6   -691710.36347  20860717.64447
  22351667.565 5  -2761136.875 5  -2121209.14547  22351666.39447
  23417924.690 5  -3202622.617 5  -1782284.37946  23417921.78446
  21367768.698 6  -2424312.715 6  -1877587.19549  21367767.22249
 20  5 16  5 14 26.9990000  0  7G01G07G08G11G22G28G30                0.000053608
  19838372.175 7  -1708789.523 7  -1311080.74649  19838372.84749
  20626259.620 6  -1417427.977 6  -1089324.21949  20626258.48049
  22777538.222 2   -428477.906 2                
  20860406.136 6   -897472.844 6   -692996.51647  20860403.19047
  22350688.042 5  -2766285.008 5  -2125220.68047  22350686.24547
  23416752.690 5  -3208782.836 5  -1787084.55146  23416749.80446
  21366910.472 6  -2428822.707 6  -1881101.47749  21366908.72249
 20  5 16  5 14 27.9990000  0  7G01G07G08G11G22G28G30                0.000051298
  19837790.745 7  -1711845.543 7  -1313462.06349  19837791.07349
  20625778.925 6  -1419955.223 6  -1091293.50849  20625777.70649
  22777200.675 2   -430249.723 2                
  20860091.987 6   -899123.156 6   -694282.48047  20860089.22247
  22349708.823 5  -2771432.813 5  -2129231.94947  22349706.62047
  23415579.855 5  -3214943.176 5  -1791884.81346  23415577.62046
  21366052.362 6  -2433332.137 6  -1884615.30949  21366050.32749
 20  5 16  5 14 28.9990000  0  7G01G07G08G11G22G28G30                0.000048988
  19837209.151 7  -1714900.887 7  -1315842.84449  19837210.05049
  20625298.120 6  -1422481.801 6  -1093262.26649  20625296.73049
  22776862.542 1   -432021.586 1                
  20859777.894 6   -900773.172 6   -695568.20747  20859774.83947
  22348728.847 5  -2776580.180 5  -2133242.88747  22348727.06247
  23414407.261 5  -3221103.551 5  -1796685.10546  23414405.32346
  21365194.573 6  -2437840.875 6  -1888128.61349  21365192.90949
 20  5 16  5 14 29.9990000  0  7G01G07G08G11G22G28G30                0.000046679
  19836627.800 7  -1717955.648 7  -1318223.18049  19836628.77249
  20624817.706 6  -1425007.848 6  -1095230.61349  20624816.03449
  22776525.198 1   -433793.523 1                
  20859464.245 6   -902422.977 6   -696853.77047  20859461.63647
  22347749.730 5  -2781727.250 5  -2137253.59447  22347747.96047
  23413234.761 5  -3227264.098 5  -1801485.52346  23413233.01946
  21364336.730 6  -2442349.121 6  -1891641.53149  21364334.99549
 20  5 16  5 14 30.9990000  0  7G01G07G08G11G22G28G30                0.000044369
  19836046.636 7  -1721009.738 7  -1320602.99249  19836046.98049
  20624336.972 6  -1427533.289 6  -1097198.49249  20624335.71049
  22776187.636 1   -435565.594 1                
  20859150.651 6   -904072.496 6   -698139.10947  20859147.48047
  22346770.253 5  -2786873.969 5  -2141264.02347  22346768.39447
  23412063.136 5  -3233424.707 5  -1806285.99646  23412060.51546
  21363478.495 6  -2446856.723 6  -1895153.94949  21363477.08149
 20  5 16  5 14 31.9990000  0  7G01G07G08G11G22G28G30                0.000042059
  19835465.526 7  -1724063.301 7  -1322982.38749  19835466.26549
  20623856.292 6  -1430058.234 6  -1099165.98449  20623854.80049
  22775851.456 1   -437337.703 1                
  20858836.761 6   -905721.863 6   -699424.32847  20858833.40947
  22345791.097 5  -2792020.414 5  -2145274.23447  22345788.67547
  23410890.370 5  -3239585.480 5  -1811086.59846  23410888.24946
  21362621.120 6  -2451363.809 6  -1898665.96949  21362619.23049
 20  5 16  5 14 32.9990000  0  7G01G07G08G11G22G28G30                0.000039749
  19834884.698 7  -1727116.219 7  -1325361.28949  19834885.39049
  20623376.136 6  -1432582.582 6  -1101133.00849  20623374.46449
  22775514.175 1   -439109.852 1                
  20858522.550 6   -907370.969 6   -700709.35247  20858519.94847
  22344811.550 5  -2797166.512 5  -2149284.18447  22344809.57747
  23409718.761 5  -3245746.379 5  -1815887.29746  23409715.95246
  21361763.667 6  -2455870.320 6  -1902177.53549  21361761.92949
 20  5 16  5 14 33.9990000  0  7G01G07G08G11G22G28G30                0.000037439
  19834303.714 7  -1730168.387 7  -1327739.60549  19834304.44049
  20622895.831 6  -1435106.230 6  -1103099.49249  20622894.06249
  22775176.886 2   -440882.020 2                
  20858208.901 6   -909019.711 6   -701994.08247  20858205.89047
  22343832.034 5  -2802312.109 5  -2153293.74247  22343830.37047
  23408546.355 5  -3251907.273 5  -1820688.00046  23408543.28446
  21360906.433 6  -2460376.105 6  -1905688.54349  21360904.36249
 20  5 16  5 14 34.9990000  0  7G01G07G08G11G22G28G30                0.000035128
  19833723.370 7  -1733220.027 7  -1330117.51249  19833723.84749
  20622415.565 6  -1437629.379 6  -1105065.58249  20622414.26949
  22774839.597 2   -442654.348 2                
  20857895.073 6   -910668.293 6   -703278.68847  20857892.20247
  22342853.495 5  -2807457.473 5  -2157303.12547  22342851.40147
  23407373.784 5  -3258068.320 5  -1825488.80946  23407371.21046
  21360049.050 6  -2464881.387 6  -1909199.14849  21360047.51549
 20  5 16  5 14 35.9990000  0  7G01G07G08G11G22G28G30                0.000032818
  19833142.433 7  -1736271.004 7  -1332494.89549  19833142.89749
  20621935.573 6  -1440151.902 6  -1107031.18449  20621934.12049
  22774502.034 1   -444426.699 1                
  20857581.120 6   -912316.602 6   -704563.08247  20857578.28847
  22341873.808 5  -2812602.473 5  -2161312.20747  22341872.18747
  23406201.472 5  -3264229.473 5  -1830289.70346  23406198.37446
  21359191.651 6  -2469386.051 6  -1912709.27749  21359190.17549
 20  5 16  5 14 36.9990000  0  7G01G07G08G11G22G28G30                0.000030508
  19832562.534 7  -1739321.355 7  -1334871.78949  19832562.81949
  20621455.526 6  -1442673.891 6  -1108996.37149  20621454.40149
  22774165.089 1   -446199.121 1                
  20857267.487 5   -913964.688 5   -705847.30947  20857264.63247
  22340895.597 5  -2817747.125 5  -2165321.03547  22340893.21447
  23405028.823 5  -3270390.758 5  -1835090.70346  23405026.01946
  21358334.597 6  -2473890.152 6  -1916218.96549  21358333.28849
 20  5 16  5 14 37.9990000  0  7G01G07G08G11G22G28G30                0.000028198
  19831982.019 7  -1742371.004 7  -1337248.13749  19831982.46449
  20620975.839 6  -1445195.160 6  -1110960.99249  20620974.52649
  22773828.839 2   -447971.531 2                
  20856953.511 5   -915612.438 5   -707131.27747  20856950.94047
  22339916.042 5  -2822891.340 5  -2169329.50447  22339914.33947
  23403856.230 5  -3276552.027 5  -1839891.69146  23403853.07746
  21357478.034 6  -2478393.535 6  -1919728.09449  21357476.10549
 20  5 16  5 14 38.9990000  0  7G01G07G08G11G22G28G30                0.000025888
  19831401.347 7  -1745419.977 7  -1339623.96149  19831402.08549
  20620496.276 6  -1447715.820 6  -1112925.14849  20620494.89049
  22773491.886 2   -449743.957 2                
  20856639.948 6   -917259.867 6   -708414.99247  20856637.81547
  22338937.378 5  -2828035.125 5  -2173337.64547  22338935.77247
  23402683.433 5  -3282713.367 5  -1844692.73046  23402681.04646
  21356620.987 6  -2482896.320 6  -1923236.75449  21356619.15149
 20  5 16  5 14 39.9990000  0  7G01G07G08G11G22G28G30                0.000023579
  19830821.433 7  -1748468.238 7  -1341999.23049  19830821.86649
  20620016.589 6  -1450235.797 6  -1114888.76649  20620015.24949
  22773155.003 2   -451516.316 2                
  20856326.659 5   -918906.957 5   -709698.43047  20856324.80047
  22337958.698 5  -2833178.512 5  -2177345.48447  22337956.85847
  23401511.315 5  -3288874.699 5  -1849493.77346  23401508.53846
  21355764.409 6  -2487398.395 6  -1926744.87149  21355762.55849
 20  5 16  5 14 40.9990000  0  7G01G07G08G11G22G28G30                0.000021269
  19830241.597 7  -1751515.773 7  -1344373.93449  19830242.22249
  20619536.987 6  -1452755.070 6  -1116851.83249  20619535.90549
  22772816.761 2   -453288.770 2                
  20856014.190 6   -920553.746 6   -710981.64147  20856011.19847
  22336979.855 5  -2838321.438 5  -2181352.96547  22336978.04247
  23400338.972 5  -3295036.051 5  -1854294.84446  23400336.17946
  21354908.019 6  -2491899.809 6  -1930252.47349  21354906.01549
 20  5 16  5 14 41.9990000  0  7G01G07G08G11G22G28G30                0.000018959
  19829661.511 7  -1754562.793 7  -1346748.23049  19829661.77649
  20619058.355 6  -1455273.922 6  -1118814.57849  20619056.29649
  22772479.565 2   -455061.258 2                
  20855700.058 5   -922200.379 5   -712264.73047  20855697.81547
  22336000.636 5  -2843464.133 5  -2185360.25447  22335999.65947
  23399165.769 5  -3301197.633 5  -1859096.08246  23399163.27246
  21354050.972 6  -2496400.746 6  -1933759.69549  21354049.76149
 20  5 16  5 14 42.9990000  0  7G01G07G08G11G22G28G30                0.000016649
  19829081.925 7  -1757609.074 7  -1349121.95749  19829082.30049
  20618579.073 6  -1457792.047 6  -1120776.75849  20618577.35849
  22772142.987 2   -456833.785 2                
  20855386.597 5   -923846.641 5   -713547.53547  20855384.53047
  22335022.589 5  -2848606.363 5  -2189367.18447  22335020.75347
  23397993.761 5  -3307359.188 5  -1863897.29346  23397990.91346
  21353194.558 6  -2500900.961 6  -1937266.35949  21353193.09349
 20  5 16  5 14 43.9990000  0  7G01G07G08G11G22G28G30                0.000014339
  19828502.659 7  -1760654.629 7  -1351495.11749  19828503.39449
  20618099.761 6  -1460309.535 6  -1122738.43849  20618098.47249
  22771804.401 2   -458606.250 2                
  20855073.565 6   -925492.621 6   -714830.12947  20855070.79247
  22334043.675 5  -2853748.125 5  -2193373.75047  22334042.28447
  23396821.792 5  -3313520.773 5  -1868698.52346  23396818.15546
  21352338.503 6  -2505400.520 6  -1940772.51249  21352337.31249
 20  5 16  5 14 44.9990000  0  7G01G07G08G11G22G28G30                0.000012030
  19827923.237 7  -1763699.750 7  -1353867.94149  19827923.59349
  20617620.722 6  -1462826.609 6  -1124699.79749  20617619.03449
  22771468.909 2   -460378.977 2                
  20854760.105 5   -927138.516 5   -716112.64547  20854757.59747
  22333065.519 5  -2858889.785 5  -2197380.23847  22333063.75347
  23395649.026 5  -3319682.645 5  -1873499.98046  23395645.75746
  21351482.769 6  -2509899.664 6  -1944278.34449  21351481.06949
 20  5 16  5 14 45.9990000  0  7G01G07G08G11G22G28G30                0.000009718
  19827343.487 7  -1766744.266 7  -1356240.28949  19827343.92549
  20617142.058 6  -1465343.121 6  -1126660.70749  20617140.59749
  22771130.378 2   -462151.793 2                
  20854448.034 5   -928784.160 5   -717394.96547  20854445.49147
  22332087.511 5  -2864031.090 5  -2201386.44547  22332085.58947
  23394476.542 5  -3325844.645 5  -1878301.53146  23394473.19046
  21350626.487 6  -2514398.234 6  -1947783.71949  21350624.36649
 20  5 16  5 14 46.9990000  0  7G01G07G08G11G22G28G30                0.000007408
  19826764.222 7  -1769788.117 7  -1358612.12149  19826764.85849
  20616663.511 6  -1467859.020 6  -1128621.14549  20616661.69449
  22770792.894 2   -463924.688 2                
  20854134.206 5   -930429.539 5   -718677.07847  20854131.41747
  22331109.011 5  -2869172.012 5  -2205392.35947  22331107.12447
  23393303.620 5  -3332006.707 5  -1883103.13746  23393300.39446
  21349770.331 6  -2518896.195 6  -1951288.62549  21349768.90949
 20  5 16  5 14 47.9990000  0  7G01G07G08G11G22G28G30                0.000005098
  19826185.401 7  -1772831.414 7  -1360983.51649  19826185.64449
  20616184.722 6  -1470374.391 6  -1130581.16849  20616182.63249
  22770455.769 2   -465697.703 2                
  20853820.917 5   -932074.766 5   -719959.06647  20853818.40947
  22330131.136 5  -2874312.656 5  -2209398.05547  22330129.16747
  23392131.933 5  -3338168.938 5  -1887904.87546  23392128.11646
  21348914.589 6  -2523393.617 6  -1954793.10949  21348912.91749
 20  5 16  5 14 48.9990000  0  7G01G07G08G11G22G28G30                0.000002789
  19825606.386 7  -1775874.082 7  -1363354.42649  19825607.10149
  20615706.105 6  -1472889.223 6  -1132540.78549  20615704.32349
  22770118.722 3   -467470.754 3                
  20853508.948 5   -933719.691 5   -721240.83647  20853505.90147
  22329152.706 5  -2879452.906 5  -2213403.44747  22329151.04247
  23390958.769 5  -3344331.309 5  -1892706.71546  23390955.46446
  21348058.722 6  -2527890.473 6  -1958297.15249  21348057.20249
 20  5 16  5 14 49.9990000  0  7G01G07G08G11G22G28G30                0.000000479
  19825027.542 7  -1778916.141 7  -1365724.85949  19825027.66349
  20615227.487 6  -1475403.395 6  -1134499.88349  20615225.71049
  22769782.714 3   -469243.844 3                
  20853196.112 6   -935364.395 6   -722522.41847  20853192.87847
  22328174.800 5  -2884592.854 5  -2217408.60347  22328172.96447
  23389785.745 5  -3350493.723 5  -1897508.58646  23389782.49546
  21347203.190 6  -2532386.742 6  -1961800.75449  21347201.67549
 20  5 16  5 14 50.9990000  0  7G01G07G08G11G22G28G30               -0.000001831
  19824448.667 7  -1781957.398 7  -1368094.67249  19824448.71449
  20614749.042 6  -1477916.867 6  -1136458.43449  20614747.36649
  22769447.526 3   -471016.926 3                
  20852882.745 6   -937008.723 6   -723803.71147  20852879.84347
  22327197.065 5  -2889732.281 5  -2221413.35547  22327195.04647
  23388612.823 5  -3356656.109 5  -1902310.45346  23388610.39446
  21346348.159 6  -2536882.219 6  -1965303.72349  21346346.17149
 20  5 16  5 14 51.9990000  0  7G01G07G08G11G22G28G30               -0.000004141
  19823870.003 7  -1784998.004 7  -1370463.97349  19823870.27649
  20614271.026 6  -1480429.754 6  -1138416.52749  20614269.04649
  22769109.690 4   -472789.883 4                
  20852570.073 5   -938652.766 5   -725084.78147  20852567.05847
  22326218.714 5  -2894871.375 5  -2225417.84447  22326216.88247
  23387440.253 5  -3362818.609 5  -1907112.41046  23387437.27246
  21345492.448 6  -2541377.160 6  -1968806.27349  21345491.41749
 20  5 16  5 14 52.9990000  0  7G01G07G08G11G22G28G30               -0.000006453
  19823291.487 7  -1788038.043 7  -1372832.83249  19823292.19849
  20613793.167 6  -1482942.102 6  -1140374.20749  20613791.10149
  22768771.034 3   -474563.105 3                
  20852256.761 5   -940296.570 5   -726365.68047  20852253.91747
  22325241.245 5  -2900010.145 5  -2229422.08647  22325239.30047
  23386267.745 6  -3368981.227 6  -1911914.46146  23386264.65946
  21344637.151 6  -2545871.496 6  -1972308.34849  21344636.01149
 20  5 16  5 14 53.9990000  0  7G01G07G08G11G22G28G30               -0.000008762
  19822713.011 7  -1791077.500 7  -1375201.24649  19822713.58549
  20613315.230 6  -1485453.934 6  -1142331.47749  20613312.78449
  22768432.620 3   -476336.406 3                
  20851944.292 5   -941940.238 5   -727646.45747  20851941.19447
  22324263.261 5  -2905148.594 5  -2233426.07447  22324261.58547
  23385095.081 5  -3375144.012 5  -1916716.64846  23385091.62446
  21343782.230 6  -2550365.316 6  -1975810.02349  21343780.86649
 20  5 16  5 14 54.9990000  0  7G01G07G08G11G22G28G30               -0.000011072
  19822134.784 7  -1794116.438 7  -1377569.24249  19822135.23349
  20612837.355 6  -1487965.234 6  -1144288.33649  20612835.21049
  22768095.519 3   -478109.852 3                
  20851631.487 6   -943583.730 6   -728927.10947  20851628.89047
  22323285.761 5  -2910286.809 5  -2237429.87947  22323283.36247
  23383922.651 5  -3381307.008 5  -1921518.97346  23383919.13646
  21342926.964 6  -2554858.621 6  -1979311.30949  21342925.68349
 20  5 16  5 14 55.9990000  0  7G01G07G08G11G22G28G30               -0.000013382
  19821557.050 7  -1797154.680 7  -1379936.71149  19821557.12849
  20612359.831 6  -1490475.941 6  -1146244.72749  20612357.42149
  22767758.894 3   -479883.309 3                
  20851318.776 5   -945226.949 5   -730207.54747  20851315.82747
  22322308.136 5  -2915424.625 5  -2241433.36747  22322305.59347
  23382749.808 5  -3387470.051 5  -1926321.34046  23382746.56946
  21342071.909 6  -2559351.332 6  -1982812.12949  21342070.97249
 20  5 16  5 14 56.9990000  0  7G01G07G08G11G22G28G30               -0.000015692
  19820978.925 7  -1800192.328 7  -1382303.69949  19820979.23049
  20611882.230 6  -1492986.059 6  -1148200.66449  20611879.53049
  22767420.112 3   -481656.871 3                
  20851005.855 5   -946869.895 5   -731487.75447  20851003.49147
  22321330.378 5  -2920562.063 5  -2245436.55947  22321328.04247
  23381577.073 5  -3393633.211 5  -1931123.79346  23381573.93346
  21341217.292 6  -2563843.430 6  -1986312.46149  21341215.86249
 20  5 16  5 14 57.9990000  0  7G01G07G08G11G22G28G30               -0.000018003
  19820400.878 7  -1803229.355 7  -1384670.22349  19820401.13649
  20611404.886 6  -1495495.594 6  -1150156.14549  20611402.03449
  22767082.776 3   -483430.492 3                
  20850693.776 6   -948512.621 6   -732767.80947  20850690.39447
  22320352.792 5  -2925699.184 5  -2249439.51647  22320350.45647
  23380403.862 5  -3399796.461 5  -1935926.31646  23380400.62846
  21340362.581 6  -2568334.945 6  -1989812.34449  21340361.42549
 20  5 16  5 14 58.9990000  0  7G01G07G08G11G22G28G30               -0.000020313
  19819822.972 7  -1806265.684 7  -1387036.19149  19819823.28049
  20610926.995 6  -1498004.492 6  -1152111.13349  20610924.63249
  22766745.308 3   -485204.090 3                
  20850380.401 5   -950155.059 5   -734047.63347  20850377.79647
  22319375.151 5  -2930835.906 5  -2253442.16047  22319372.83147
  23379230.722 5  -3405959.781 5  -1940728.90646  23379228.01946
  21339507.909 6  -2572825.777 6  -1993311.69149  21339506.63249
 20  5 16  5 14 59.9990000  0  7G01G07G08G11G22G28G30               -0.000022623
  19819245.480 7  -1809301.297 7  -1389401.60249  19819245.54249
  20610449.448 6  -1500512.723 6  -1154065.60249  20610447.52249
  22766407.878 3   -486977.695 3                
  20850068.065 5   -951797.141 5   -735327.17647  20850065.44047
  22318397.651 5  -2935972.164 5  -2257444.43447  22318395.59347
  23378057.331 5  -3412123.117 5  -1945531.50046  23378055.36246
  21338653.909 6  -2577315.984 6  -1996810.55549  21338652.31549
 20  5 16  5 15  0.9990000  0  7G01G07G08G11G22G28G30               -0.000024933
  19818667.917 7  -1812336.297 7  -1391766.53549  19818668.23049
  20609972.667 6  -1503020.375 6  -1156019.62149  20609970.20649
  22766070.206 3   -488751.375 3                
  20849755.706 5   -953439.020 5   -736606.55947  20849753.18747
  22317420.698 5  -2941108.121 5  -2261446.47747  22317418.40147
  23376885.230 5  -3418286.574 5  -1950334.18046  23376882.40946
  21337799.409 6  -2581805.613 6  -2000308.96549  21337797.79649
 20  5 16  5 15  1.9990000  0  7G01G07G08G11G22G28G30               -0.000027243
  19818090.472 7  -1815370.680 7  -1394130.98449  19818090.80449
  20609495.487 6  -1505527.461 6  -1157973.19549  20609492.95249
  22765732.401 3   -490525.090 3                
  20849443.347 5   -955080.621 5   -737885.73047  20849440.92547
  22316443.675 5  -2946243.699 5  -2265448.22347  22316440.71847
  23375712.558 5  -3424450.094 5  -1955136.92246  23375709.20646
  21336945.245 6  -2586294.621 6  -2003806.89549  21336943.41749
 20  5 16  5 15  2.9990000  0  7G01G07G08G11G22G28G30               -0.000029554
  19817513.136 7  -1818404.281 7  -1396494.83249  19817513.50349
  20609018.644 6  -1508033.801 6  -1159926.18849  20609016.23749
  22765394.722 3   -492298.770 3                
  20849130.667 5   -956721.848 5   -739164.59447  20849128.44847
  22315466.511 5  -2951378.777 5  -2269449.58647  22315463.74547
  23374539.511 5  -3430613.566 5  -1959939.64146  23374536.54246
  21336091.011 6  -2590782.891 6  -2007304.25449  21336089.88649
 20  5 16  5 15  3.9990000  0  7G01G07G08G11G22G28G30               -0.000031864
  19816936.081 7  -1821437.223 7  -1398858.15649  19816936.53849
  20608541.644 6  -1510539.547 6  -1161878.71949  20608539.35549
  22765056.784 3   -494072.492 3                
  20848819.065 5   -958362.793 5   -740443.25047  20848816.30447
  22314489.058 5  -2956513.480 5  -2273450.65247  22314486.47647
  23373366.183 5  -3436777.137 5  -1964742.43446  23373363.45646
  21335236.659 6  -2595270.539 6  -2010801.12949  21335235.63649
 20  5 16  5 15  4.9990000  0  7G01G07G08G11G22G28G30               -0.000034174
  19816359.058 7  -1824469.594 7  -1401221.04749  19816359.21049
  20608064.956 6  -1513044.754 6  -1163830.83249  20608062.50349
  22764719.378 3   -495846.316 3                
  20848506.480 5   -960003.520 5   -741721.75046  20848504.01946
  22313512.448 5  -2961647.895 5  -2277451.49247  22313509.40547
  23372193.355 5  -3442940.875 5  -1969545.33646  23372190.91346
  21334382.980 6  -2599757.684 6  -2014297.60549  21334381.71849
 20  5 16  5 15  5.9990000  0  7G01G07G08G11G22G28G30               -0.000036484
  19815782.050 7  -1827501.258 7  -1403583.38349  19815782.10849
  20607588.073 6  -1515549.313 6  -1165782.44149  20607585.34749
  22764381.503 3   -497620.133 3                
  20848195.050 5   -961643.996 5   -743000.04747  20848191.53847
  22312535.073 5  -2966781.875 5  -2281451.99247  22312532.62847
  23371020.815 5  -3449104.621 5  -1974348.26646  23371017.65546
  21333528.987 6  -2604244.129 6  -2017793.53949  21333528.02249
 20  5 16  5 15  6.9990000  0  7G01G07G08G11G22G28G30               -0.000038794
  19815205.151 7  -1830532.297 7  -1405945.23449  19815205.43749
  20607111.628 6  -1518053.262 6  -1167733.57049  20607109.24149
  22764044.159 3   -499393.977 3                
  20847882.190 5   -963284.176 5   -744278.12147  20847879.55847
  22311558.550 5  -2971915.508 5  -2285452.21947  22311555.30847
  23369847.573 5  -3455268.484 5  -1979151.27046  23369845.15946
  21332675.409 6  -2608729.984 6  -2021289.00449  21332674.31549
 20  5 16  5 15  7.9990000  0  7G01G07G08G11G22G28G30               -0.000041105
  19814628.769 7  -1833562.785 7  -1408306.65649  19814628.40549
  20606635.448 6  -1520556.711 6  -1169684.31349  20606632.75749
  22763706.440 3   -501167.988 3                
  20847569.808 5   -964924.172 5   -745556.04747  20847567.34347
  22310581.542 5  -2977048.820 5  -2289452.20747  22310578.64447
  23368674.503 5  -3461432.492 5  -1983954.38346  23368672.14746
  21331821.651 6  -2613215.320 6  -2024784.07449  21331820.94049
 20  5 16  5 15  8.9990000  0  7G01G07G08G11G22G28G30               -0.000043415
  19814051.925 7  -1836592.727 7  -1410667.64849  19814052.47649
  20606159.097 6  -1523059.684 6  -1171634.68449  20606156.43749
  22763369.042 2   -502942.246 2                
  20847258.894 5   -966564.039 5   -746833.85547  20847255.30447
  22309604.370 5  -2982181.910 5  -2293452.02047  22309602.13247
  23367501.878 5  -3467596.715 5  -1988757.66446  23367498.89446
  21330968.378 6  -2617700.164 6  -2028278.75049  21330967.62449
 20  5 16  5 15  9.9990000  0  7G01G07G08G11G22G28G30               -0.000045725
  19813475.534 7  -1839621.895 7  -1413028.03949  19813475.73749
  20605683.011 6  -1525561.898 6  -1173584.45749  20605680.07749
  22763030.667 2   -504716.328 2                
  20846946.089 5   -968203.520 5   -748111.36747  20846943.40147
  22308627.706 5  -2987314.496 5  -2297451.43847  22308625.33947
  23366328.886 5  -3473760.875 5  -1993560.89846  23366325.81246
  21330115.230 6  -2622184.250 6  -2031772.84449  21330114.46049
 20  5 16  5 15 10.9990000  0  7G01G07G08G11G22G28G30               -0.000048037
  19812899.198 7  -1842650.348 7  -1415387.87949  19812899.45649
  20605206.534 6  -1528063.445 6  -1175533.71949  20605204.21449
  22762693.269 2   -506490.383 2                
  20846634.581 5   -969842.621 5   -749388.58647  20846631.34347
  22307650.855 5  -2992446.633 5  -2301450.50447  22307648.72247
  23365156.558 6  -3479925.051 6  -1998364.14846  23365152.68746
  21329262.315 6  -2626667.668 6  -2035266.42649  21329261.09749
 20  5 16  5 15 11.9990000  0  7G01G07G08G11G22G28G30               -0.000050346
  19812323.276 7  -1845678.145 7  -1417747.19549  19812323.40149
  20604730.901 6  -1530564.398 6  -1177482.51649  20604728.07349
  22762354.667 2   -508264.473 2                
  20846323.433 5   -971481.477 5   -750665.62547  20846319.45247
  22306674.808 5  -2997578.367 5  -2305449.25047  22306672.15547
  23363983.784 6  -3486089.293 6  -2003167.46946  23363979.72246
  21328408.745 6  -2631150.453 6  -2038759.50449  21328407.83149
 20  5 16  5 15 12.9990000  0  7G01G07G08G11G22G28G30               -0.000052656
  19811746.972 7  -1848705.258 7  -1420105.98049  19811747.33149
  20604255.417 6  -1533064.699 6  -1179430.80149  20604252.37449
  22762015.940 2   -510038.602 2                
  20846010.847 5   -973120.008 5   -751942.41047  20846007.58947
  22305698.136 5  -3002709.711 5  -2309447.70347  22305695.66347
  23362810.519 5  -3492253.590 5  -2007970.81346  23362806.65546
  21327555.753 6  -2635632.563 6  -2042252.05949  21327554.82349
 20  5 16  5 15 13.9990000  0  7G01G07G08G11G22G28G30               -0.000054966
  19811171.206 7  -1851731.652 7  -1422464.21549  19811171.60549
  20603779.800 6  -1535564.316 6  -1181378.55549  20603776.81249
  22761679.815 2   -511812.633 2                
  20845698.769 5   -974758.230 5   -753218.94947  20845695.61647
  22304722.144 5  -3007840.590 5  -2313445.78547  22304719.28047
  23361637.347 5  -3498417.863 5  -2012774.15246  23361634.19446
  21326703.128 6  -2640114.031 6  -2045744.10949  21326702.17549
 20  5 16  5 15 14.9990000  0  7G01G07G08G11G22G28G30               -0.000057278
  19810595.456 7  -1854757.379 7  -1424821.92649  19810595.90949
  20603303.870 6  -1538063.336 6  -1183325.84049  20603301.37449
  22761341.448 1   -513586.734 1                
  20845386.823 5   -976396.137 5   -754495.24647  20845383.96047
  22303745.472 5  -3012971.105 5  -2317443.59447  22303742.46847
  23360464.565 5  -3504582.250 5  -2017577.57446  23360460.66746
  21325850.276 6  -2644594.891 6  -2049235.68849  21325849.68749
 20  5 16  5 15 15.9990000  0  7G01G07G08G11G22G28G30               -0.000059587
  19810019.339 7  -1857782.516 7  -1427179.17649  19810019.71449
  20602828.589 6  -1540561.805 6  -1185272.69949  20602826.16749
  22761003.394 1   -515360.902 1                
  20845075.519 5   -978033.879 5   -755771.40247  20845071.96447
  22302769.440 5  -3018101.285 5  -2321441.12547  22302766.53047
  23359291.230 6  -3510746.762 6  -2022381.08246  23359287.65146
  21324997.722 6  -2649075.152 6  -2052726.80149  21324996.50749
 20  5 16  5 15 16.9990000  0  7G01G07G08G11G22G28G30               -0.000061897
  19809443.792 7  -1860807.164 7  -1429536.04349  19809444.73049
  20602353.034 6  -1543059.832 6  -1187219.21949  20602350.84749
  22760665.511 1   -517135.305 1                
  20844764.261 6   -979671.477 6   -757047.45347  20844760.65547
  22301792.628 5  -3023231.262 5  -2325438.50847  22301790.32747
  23358118.792 6  -3516911.488 6  -2027184.76246  23358114.74546
  21324145.519 6  -2653554.984 6  -2056217.57849  21324144.22649
 20  5 16  5 15 17.9990000  0  7G01G07G08G11G22G28G30               -0.000064207
  19808868.644 7  -1863831.137 7  -1431892.38749  19808868.77249
  20601878.151 6  -1545557.215 6  -1189165.23849  20601875.25749
  22760327.503 1   -518909.703 1                
  20844452.151 5   -981308.789 5   -758323.28147  20844449.02647
  22300816.433 5  -3028360.824 5  -2329435.57447  22300814.25347
  23356945.089 6  -3523076.277 6  -2031988.48846  23356941.60546
  21323293.097 6  -2658034.152 6  -2059707.84449  21323291.92949
 20  5 16  5 15 18.9990000  0  7G01G07G08G11G22G28G30               -0.000066519
  19808293.206 7  -1866854.359 7  -1434248.14849  19808293.75749
  20601402.745 6  -1548053.887 6  -1191110.69149  20601400.22249
  22759990.534 1   -520684.082 1                
  20844140.651 6   -982945.758 6   -759598.84847  20844137.49147
  22299840.964 5  -3033489.918 5  -2333432.25847  22299838.62047
  23355772.097 6  -3529241.059 6  -2036792.21546  23355768.54246
  21322440.706 6  -2662512.598 6  -2063197.53549  21322440.04249
 20  5 16  5 15 19.9990000  0  7G01G07G08G11G22G28G30               -0.000068829
  19807718.026 7  -1869876.941 7  -1436603.41049  19807718.28449
  20600927.620 6  -1550549.973 6  -1193055.69549  20600925.28849
  22759652.550 1   -522458.531 1                
  20843829.183 5   -984582.457 5   -760874.19547  20843826.19047
  22298865.526 5  -3038618.641 5  -2337428.66847  22298862.36647
  23354599.058 6  -3535405.930 6  -2041596.02746  23354594.92946
  21321588.956 6  -2666990.484 6  -2066686.80149  21321588.03849
 20  5 16  5 15 20.9990000  0  7G01G07G08G11G22G28G30               -0.000071138
  19807142.886 7  -1872898.980 7  -1438958.24249  19807143.56549
  20600452.940 6  -1553045.539 6  -1195000.30149  20600450.30049
  22759314.839 1   -524233.086 1                
  20843518.409 6   -986218.965 6   -762149.39847  20843515.15547
  22297888.956 5  -3043747.078 5  -2341424.85247  22297886.34347
  23353425.737 6  -3541570.949 6  -2046399.93446  23353422.40546
  21320736.237 6  -2671467.801 6  -2070175.62149  21320735.56949
